{"type":"FeatureCollection","data_type":"Dataset","url_type":null,"permissions":[{"permissions":{"download":true,"view":true},"group_id":"everyone"}],"classification":null,"title":"salesbyzip","count":713,"stream_id":83916,"contributor":{"url":"http://geocommons.com/users/20567","name":"larrysm"},"data_attributes":null,"calculation_params":null,"icon_link":null,"link":"http://geocommons.com/overlays/83916.json","extent":[-157.922,17.7342,-64.7068,48.719],"geometry_types":["point"],"unique_name":null,"name":"salesbyzip","feature_count":713,"description":"","next_feature":null,"is_raster":false,"short_classification":"Y","stats":{"revenue":{"max":107935.38,"mean":3801.13654978962,"variance":52992891.2172858,"stdev":7279.62163970668,"min":-9.5,"median":1788.2}},"features":[{"properties":{"zip":"94599","geo_score":0.714,"id":"a65jvaq1wch6","geo_precision":"zip","revenue":6144.0},"type":"Feature","geometry":{"type":"Point","coordinates":[-122.361587,38.41611]}},{"properties":{"zip":"00824","geo_score":0.714,"id":"a65jvam8rtou","geo_precision":"zip","revenue":5258.0},"type":"Feature","geometry":{"type":"Point","coordinates":[-64.734694,17.734211]}},{"properties":{"zip":"00830","geo_score":0.714,"id":"a65jvanzh3u3","geo_precision":"zip","revenue":1272.0},"type":"Feature","geometry":{"type":"Point","coordinates":[-64.706803,18.348843]}},{"properties":{"zip":"01095","geo_score":0.714,"id":"a65jval6mlt2","geo_precision":"zip","revenue":1590.0},"type":"Feature","geometry":{"type":"Point","coordinates":[-72.489988,42.125974]}},{"properties":{"zip":"01106","geo_score":0.714,"id":"a65jvah1doeh","geo_precision":"zip","revenue":1216.0},"type":"Feature","geometry":{"type":"Point","coordinates":[-72.567882,42.049194]}},{"properties":{"zip":"01230","geo_score":0.714,"id":"a65jvapkrnz6","geo_precision":"zip","revenue":304.0},"type":"Feature","geometry":{"type":"Point","coordinates":[-73.363444,42.227311]}},{"properties":{"zip":"01240","geo_score":0.714,"id":"a65jvajdpor2","geo_precision":"zip","revenue":1376.0},"type":"Feature","geometry":{"type":"Point","coordinates":[-73.242605,42.39453]}},{"properties":{"zip":"01515","geo_score":0.714,"id":"a65jvah7kn1w","geo_precision":"zip","revenue":38.0},"type":"Feature","geometry":{"type":"Point","coordinates":[-72.049907,42.205311]}},{"properties":{"zip":"01721","geo_score":0.714,"id":"a65jvai3yhoe","geo_precision":"zip","revenue":266.0},"type":"Feature","geometry":{"type":"Point","coordinates":[-71.459405,42.446396]}},{"properties":{"zip":"01746","geo_score":0.714,"id":"a65jvawis1ch","geo_precision":"zip","revenue":76.0},"type":"Feature","geometry":{"type":"Point","coordinates":[-71.445339,42.18343]}},{"properties":{"zip":"01778","geo_score":0.714,"id":"a65jvalc5tmn","geo_precision":"zip","revenue":38.0},"type":"Feature","geometry":{"type":"Point","coordinates":[-71.364226,42.320929]}},{"properties":{"zip":"01810","geo_score":0.714,"id":"a65jvapcfmp9","geo_precision":"zip","revenue":242.0},"type":"Feature","geometry":{"type":"Point","coordinates":[-71.158391,42.661203]}},{"properties":{"zip":"01867","geo_score":0.714,"id":"a65jvawb5iwm","geo_precision":"zip","revenue":1368.0},"type":"Feature","geometry":{"type":"Point","coordinates":[-71.111999,42.525095]}},{"properties":{"zip":"01915","geo_score":0.714,"id":"a65jvaueplpu","geo_precision":"zip","revenue":4811.0},"type":"Feature","geometry":{"type":"Point","coordinates":[-70.886994,42.58065]}},{"properties":{"zip":"01930","geo_score":0.714,"id":"a65jvavxx2w7","geo_precision":"zip","revenue":384.0},"type":"Feature","geometry":{"type":"Point","coordinates":[-70.710601,42.613428]}},{"properties":{"zip":"01944","geo_score":0.714,"id":"a65jvaiv6hj0","geo_precision":"zip","revenue":1256.0},"type":"Feature","geometry":{"type":"Point","coordinates":[-70.782825,42.566762]}},{"properties":{"zip":"01945","geo_score":0.714,"id":"a65jvagomfl6","geo_precision":"zip","revenue":31254.0},"type":"Feature","geometry":{"type":"Point","coordinates":[-70.836991,42.500096]}},{"properties":{"zip":"02025","geo_score":0.714,"id":"a65jvairg8w5","geo_precision":"zip","revenue":4190.0},"type":"Feature","geometry":{"type":"Point","coordinates":[-70.842545,42.258434]}},{"properties":{"zip":"02026","geo_score":0.714,"id":"a65jvawovdhc","geo_precision":"zip","revenue":38.0},"type":"Feature","geometry":{"type":"Point","coordinates":[-71.177276,42.27232]}},{"properties":{"zip":"02053","geo_score":0.714,"id":"a65jvalr15hr","geo_precision":"zip","revenue":968.0},"type":"Feature","geometry":{"type":"Point","coordinates":[-71.424504,42.141764]}},{"properties":{"zip":"02061","geo_score":0.714,"id":"a65jvavxyunc","geo_precision":"zip","revenue":8952.0},"type":"Feature","geometry":{"type":"Point","coordinates":[-70.823035,42.154145]}},{"properties":{"zip":"02066","geo_score":0.714,"id":"a65jvam6dc5l","geo_precision":"zip","revenue":1680.0},"type":"Feature","geometry":{"type":"Point","coordinates":[-70.738375,42.214546]}},{"properties":{"zip":"02110","geo_score":0.714,"id":"a65jvam2yvfc","geo_precision":"zip","revenue":38.0},"type":"Feature","geometry":{"type":"Point","coordinates":[-71.051466,42.352847]}},{"properties":{"zip":"02116","geo_score":0.714,"id":"a65jvahc4bfc","geo_precision":"zip","revenue":8543.6},"type":"Feature","geometry":{"type":"Point","coordinates":[-71.086095,42.347207]}},{"properties":{"zip":"02138","geo_score":0.714,"id":"a65jvahldwsm","geo_precision":"zip","revenue":1632.0},"type":"Feature","geometry":{"type":"Point","coordinates":[-71.132947,42.380442]}},{"properties":{"zip":"02155","geo_score":0.714,"id":"a65jvaiqvfeq","geo_precision":"zip","revenue":114.0},"type":"Feature","geometry":{"type":"Point","coordinates":[-71.08283,42.411208]}},{"properties":{"zip":"02339","geo_score":0.714,"id":"a65jvavwsoyk","geo_precision":"zip","revenue":384.0},"type":"Feature","geometry":{"type":"Point","coordinates":[-70.849486,42.097324]}},{"properties":{"zip":"02421","geo_score":0.714,"id":"a65jvar5ogn3","geo_precision":"zip","revenue":980.2},"type":"Feature","geometry":{"type":"Point","coordinates":[-71.226453,42.442567]}},{"properties":{"zip":"02459","geo_score":0.714,"id":"a65jvasl67da","geo_precision":"zip","revenue":384.0},"type":"Feature","geometry":{"type":"Point","coordinates":[-71.183298,42.334146]}},{"properties":{"zip":"02461","geo_score":0.714,"id":"a65jvakkmrea","geo_precision":"zip","revenue":408.0},"type":"Feature","geometry":{"type":"Point","coordinates":[-71.205349,42.361196]}},{"properties":{"zip":"02474","geo_score":0.714,"id":"a65jvailzpci","geo_precision":"zip","revenue":1606.0},"type":"Feature","geometry":{"type":"Point","coordinates":[-71.159696,42.417595]}},{"properties":{"zip":"02476","geo_score":0.714,"id":"a65jvapi7ta3","geo_precision":"zip","revenue":64.0},"type":"Feature","geometry":{"type":"Point","coordinates":[-71.184299,42.379146]}},{"properties":{"zip":"02478","geo_score":0.714,"id":"a65jvapq1yxk","geo_precision":"zip","revenue":38.0},"type":"Feature","geometry":{"type":"Point","coordinates":[-71.204399,42.412795]}},{"properties":{"zip":"02482","geo_score":0.714,"id":"a65jvas72z66","geo_precision":"zip","revenue":2580.0},"type":"Feature","geometry":{"type":"Point","coordinates":[-71.299201,42.294546]}},{"properties":{"zip":"02492","geo_score":0.714,"id":"a65jvar52e12","geo_precision":"zip","revenue":5948.0},"type":"Feature","geometry":{"type":"Point","coordinates":[-71.25006,42.279797]}},{"properties":{"zip":"02493","geo_score":0.714,"id":"a65jvamd9h08","geo_precision":"zip","revenue":38.0},"type":"Feature","geometry":{"type":"Point","coordinates":[-71.227208,42.375925]}},{"properties":{"zip":"02539","geo_score":0.714,"id":"a65jvatcxou4","geo_precision":"zip","revenue":3904.0},"type":"Feature","geometry":{"type":"Point","coordinates":[-70.551694,41.406504]}},{"properties":{"zip":"02540","geo_score":0.714,"id":"a65jvaj0n2k2","geo_precision":"zip","revenue":2146.0},"type":"Feature","geometry":{"type":"Point","coordinates":[-70.646419,41.565386]}},{"properties":{"zip":"02554","geo_score":0.714,"id":"a65jvahnvf0w","geo_precision":"zip","revenue":6514.0},"type":"Feature","geometry":{"type":"Point","coordinates":[-69.996125,41.329288]}},{"properties":{"zip":"02568","geo_score":0.714,"id":"a65jvakcp9fd","geo_precision":"zip","revenue":6158.0},"type":"Feature","geometry":{"type":"Point","coordinates":[-70.674473,41.405668]}},{"properties":{"zip":"02601","geo_score":0.714,"id":"a65jval8ulil","geo_precision":"zip","revenue":1952.0},"type":"Feature","geometry":{"type":"Point","coordinates":[-70.228631,41.705666]}},{"properties":{"zip":"02633","geo_score":0.714,"id":"a65jvaqcnzj0","geo_precision":"zip","revenue":25936.0},"type":"Feature","geometry":{"type":"Point","coordinates":[-70.0468,41.859559]}},{"properties":{"zip":"02649","geo_score":0.714,"id":"a65jvaptgvey","geo_precision":"zip","revenue":25496.0},"type":"Feature","geometry":{"type":"Point","coordinates":[-70.476972,41.58261]}},{"properties":{"zip":"02664","geo_score":0.714,"id":"a65jvao9xiw4","geo_precision":"zip","revenue":1368.0},"type":"Feature","geometry":{"type":"Point","coordinates":[-70.203631,41.652889]}},{"properties":{"zip":"02748","geo_score":0.714,"id":"a65jvahx5j96","geo_precision":"zip","revenue":7024.0},"type":"Feature","geometry":{"type":"Point","coordinates":[-70.93976,41.557049]}},{"properties":{"zip":"02806","geo_score":0.714,"id":"a65jvau8hgz0","geo_precision":"zip","revenue":2752.0},"type":"Feature","geometry":{"type":"Point","coordinates":[-71.341441,41.743712]}},{"properties":{"zip":"02807","geo_score":0.714,"id":"a65jvam5d7tv","geo_precision":"zip","revenue":1936.0},"type":"Feature","geometry":{"type":"Point","coordinates":[-71.557833,41.172326]}},{"properties":{"zip":"02840","geo_score":0.714,"id":"a65jvau00654","geo_precision":"zip","revenue":31438.0},"type":"Feature","geometry":{"type":"Point","coordinates":[-71.28752,41.515786]}},{"properties":{"zip":"02891","geo_score":0.714,"id":"a65jvara55so","geo_precision":"zip","revenue":1512.0},"type":"Feature","geometry":{"type":"Point","coordinates":[-71.838681,41.400377]}},{"properties":{"zip":"03047","geo_score":0.714,"id":"a65jvah9esl3","geo_precision":"zip","revenue":494.0},"type":"Feature","geometry":{"type":"Point","coordinates":[-71.859087,42.929346]}},{"properties":{"zip":"03055","geo_score":0.714,"id":"a65jvas2vzav","geo_precision":"zip","revenue":352.0},"type":"Feature","geometry":{"type":"Point","coordinates":[-71.66035,42.824531]}},{"properties":{"zip":"03060","geo_score":0.714,"id":"a65jvapv35my","geo_precision":"zip","revenue":1376.0},"type":"Feature","geometry":{"type":"Point","coordinates":[-71.555069,42.80481]}},{"properties":{"zip":"03257","geo_score":0.714,"id":"a65jvax4vfib","geo_precision":"zip","revenue":3012.0},"type":"Feature","geometry":{"type":"Point","coordinates":[-72.031474,43.401186]}},{"properties":{"zip":"03755","geo_score":0.714,"id":"a65jvankv3j9","geo_precision":"zip","revenue":4360.0},"type":"Feature","geometry":{"type":"Point","coordinates":[-72.120314,43.861077]}},{"properties":{"zip":"03801","geo_score":0.714,"id":"a65jvawhjlt4","geo_precision":"zip","revenue":304.0},"type":"Feature","geometry":{"type":"Point","coordinates":[-70.801165,43.064533]}},{"properties":{"zip":"03862","geo_score":0.714,"id":"a65jvapx9nmg","geo_precision":"zip","revenue":384.0},"type":"Feature","geometry":{"type":"Point","coordinates":[-70.847832,42.976478]}},{"properties":{"zip":"03870","geo_score":0.714,"id":"a65jvavfujoc","geo_precision":"zip","revenue":2510.0},"type":"Feature","geometry":{"type":"Point","coordinates":[-70.797831,43.001201]}},{"properties":{"zip":"03902","geo_score":0.714,"id":"a65jvamdgg3l","geo_precision":"zip","revenue":288.0},"type":"Feature","geometry":{"type":"Point","coordinates":[-70.60283,43.191199]}},{"properties":{"zip":"03909","geo_score":0.714,"id":"a65jvat82g0g","geo_precision":"zip","revenue":1280.0},"type":"Feature","geometry":{"type":"Point","coordinates":[-70.641997,43.148699]}},{"properties":{"zip":"04543","geo_score":0.714,"id":"a65jvaqmcivt","geo_precision":"zip","revenue":304.0},"type":"Feature","geometry":{"type":"Point","coordinates":[-69.530646,44.024812]}},{"properties":{"zip":"05401","geo_score":0.714,"id":"a65jvaofoyjy","geo_precision":"zip","revenue":3936.0},"type":"Feature","geometry":{"type":"Point","coordinates":[-73.17096,44.466994]}},{"properties":{"zip":"06001","geo_score":0.714,"id":"a65jvagr53yt","geo_precision":"zip","revenue":5652.0},"type":"Feature","geometry":{"type":"Point","coordinates":[-72.863433,41.789821]}},{"properties":{"zip":"06033","geo_score":0.714,"id":"a65jvao3a6cu","geo_precision":"zip","revenue":6058.0},"type":"Feature","geometry":{"type":"Point","coordinates":[-72.599534,41.727878]}},{"properties":{"zip":"06103","geo_score":0.714,"id":"a65jvarcivdl","geo_precision":"zip","revenue":5291.0},"type":"Feature","geometry":{"type":"Point","coordinates":[-72.674636,41.766349]}},{"properties":{"zip":"06320","geo_score":0.714,"id":"a65jvauvz09e","geo_precision":"zip","revenue":3628.0},"type":"Feature","geometry":{"type":"Point","coordinates":[-72.099243,41.366487]}},{"properties":{"zip":"06355","geo_score":0.714,"id":"a65jvalxts61","geo_precision":"zip","revenue":4924.0},"type":"Feature","geometry":{"type":"Point","coordinates":[-72.000748,41.485188]}},{"properties":{"zip":"06426","geo_score":0.714,"id":"a65jvax34gei","geo_precision":"zip","revenue":38.0},"type":"Feature","geometry":{"type":"Point","coordinates":[-72.391012,41.355442]}},{"properties":{"zip":"06430","geo_score":0.714,"id":"a65jvaj5fcio","geo_precision":"zip","revenue":2376.0},"type":"Feature","geometry":{"type":"Point","coordinates":[-73.24067,41.176208]}},{"properties":{"zip":"06437","geo_score":0.714,"id":"a65jvaj01fqe","geo_precision":"zip","revenue":1256.0},"type":"Feature","geometry":{"type":"Point","coordinates":[-72.703707,41.245931]}},{"properties":{"zip":"06498","geo_score":0.714,"id":"a65jvalyj4up","geo_precision":"zip","revenue":480.0},"type":"Feature","geometry":{"type":"Point","coordinates":[-72.463381,41.307899]}},{"properties":{"zip":"06820","geo_score":0.714,"id":"a65jvaheydxw","geo_precision":"zip","revenue":7004.0},"type":"Feature","geometry":{"type":"Point","coordinates":[-73.466232,41.066764]}},{"properties":{"zip":"06830","geo_score":0.714,"id":"a65jvamoqeje","geo_precision":"zip","revenue":6532.0},"type":"Feature","geometry":{"type":"Point","coordinates":[-73.619294,41.119541]}},{"properties":{"zip":"06840","geo_score":0.714,"id":"a65jvaqmj1o3","geo_precision":"zip","revenue":2210.0},"type":"Feature","geometry":{"type":"Point","coordinates":[-73.510124,41.202318]}},{"properties":{"zip":"06877","geo_score":0.714,"id":"a65jvanqxphv","geo_precision":"zip","revenue":820.0},"type":"Feature","geometry":{"type":"Point","coordinates":[-73.503457,41.292318]}},{"properties":{"zip":"06880","geo_score":0.714,"id":"a65jvaqmquo7","geo_precision":"zip","revenue":792.0},"type":"Feature","geometry":{"type":"Point","coordinates":[-73.370673,41.097319]}},{"properties":{"zip":"07039","geo_score":0.714,"id":"a65jvagvjuok","geo_precision":"zip","revenue":620.0},"type":"Feature","geometry":{"type":"Point","coordinates":[-74.324594,40.774267]}},{"properties":{"zip":"07043","geo_score":0.714,"id":"a65jvaoqyvmx","geo_precision":"zip","revenue":6044.0},"type":"Feature","geometry":{"type":"Point","coordinates":[-74.201257,40.846211]}},{"properties":{"zip":"07059","geo_score":0.714,"id":"a65jvah27y8t","geo_precision":"zip","revenue":312.0},"type":"Feature","geometry":{"type":"Point","coordinates":[-74.532449,40.629101]}},{"properties":{"zip":"07470","geo_score":0.714,"id":"a65jvaqgs8vj","geo_precision":"zip","revenue":570.0},"type":"Feature","geometry":{"type":"Point","coordinates":[-74.262092,40.991764]}},{"properties":{"zip":"07631","geo_score":0.714,"id":"a65jvarbbbi3","geo_precision":"zip","revenue":1480.0},"type":"Feature","geometry":{"type":"Point","coordinates":[-73.971782,40.889498]}},{"properties":{"zip":"07670","geo_score":0.714,"id":"a65jvauwru5d","geo_precision":"zip","revenue":370.0},"type":"Feature","geometry":{"type":"Point","coordinates":[-73.960481,40.919298]}},{"properties":{"zip":"07739","geo_score":0.714,"id":"a65jvanc7786","geo_precision":"zip","revenue":256.0},"type":"Feature","geometry":{"type":"Point","coordinates":[-74.02875,40.335666]}},{"properties":{"zip":"07740","geo_score":0.714,"id":"a65jvavyybqt","geo_precision":"zip","revenue":2294.0},"type":"Feature","geometry":{"type":"Point","coordinates":[-73.984026,40.313166]}},{"properties":{"zip":"07747","geo_score":0.714,"id":"a65jvaprof5b","geo_precision":"zip","revenue":488.0},"type":"Feature","geometry":{"type":"Point","coordinates":[-74.213478,40.395942]}},{"properties":{"zip":"07756","geo_score":0.714,"id":"a65jvaorvw7z","geo_precision":"zip","revenue":630.8},"type":"Feature","geometry":{"type":"Point","coordinates":[-74.123285,40.278922]}},{"properties":{"zip":"07901","geo_score":0.714,"id":"a65jvailqkqg","geo_precision":"zip","revenue":11824.0},"type":"Feature","geometry":{"type":"Point","coordinates":[-74.361594,40.71275]}},{"properties":{"zip":"07930","geo_score":0.714,"id":"a65jvandu280","geo_precision":"zip","revenue":1032.0},"type":"Feature","geometry":{"type":"Point","coordinates":[-74.718218,40.8226]}},{"properties":{"zip":"07960","geo_score":0.714,"id":"a65jvan20lq6","geo_precision":"zip","revenue":152.0},"type":"Feature","geometry":{"type":"Point","coordinates":[-74.527101,40.805656]}},{"properties":{"zip":"07977","geo_score":0.714,"id":"a65jvaskc93g","geo_precision":"zip","revenue":2720.0},"type":"Feature","geometry":{"type":"Point","coordinates":[-74.654131,40.707876]}},{"properties":{"zip":"08003","geo_score":0.714,"id":"a65jvalabics","geo_precision":"zip","revenue":3816.0},"type":"Feature","geometry":{"type":"Point","coordinates":[-74.998501,39.872336]}},{"properties":{"zip":"08003-1237","geo_score":0.714,"id":"a65jvakiymg0","geo_precision":"zip","revenue":928.0},"type":"Feature","geometry":{"type":"Point","coordinates":[-74.998501,39.872336]}},{"properties":{"zip":"08008","geo_score":0.714,"id":"a65jvaqbewt9","geo_precision":"zip","revenue":5124.0},"type":"Feature","geometry":{"type":"Point","coordinates":[-74.229585,39.578452]}},{"properties":{"zip":"08033","geo_score":0.714,"id":"a65jvakkb0fh","geo_precision":"zip","revenue":72.0},"type":"Feature","geometry":{"type":"Point","coordinates":[-75.040727,39.90178]}},{"properties":{"zip":"08036","geo_score":0.714,"id":"a65jvauwtcue","geo_precision":"zip","revenue":-9.5},"type":"Feature","geometry":{"type":"Point","coordinates":[-74.829308,39.987212]}},{"properties":{"zip":"08053","geo_score":0.714,"id":"a65jvan384wf","geo_precision":"zip","revenue":992.0},"type":"Feature","geometry":{"type":"Point","coordinates":[-74.947389,39.902058]}},{"properties":{"zip":"08057","geo_score":0.714,"id":"a65jvave274p","geo_precision":"zip","revenue":1988.0},"type":"Feature","geometry":{"type":"Point","coordinates":[-74.982391,39.962335]}},{"properties":{"zip":"08203","geo_score":0.714,"id":"a65jvauwjst9","geo_precision":"zip","revenue":483.0},"type":"Feature","geometry":{"type":"Point","coordinates":[-74.49401,39.370172]}},{"properties":{"zip":"08204","geo_score":0.714,"id":"a65jvaolhh6m","geo_precision":"zip","revenue":3833.0},"type":"Feature","geometry":{"type":"Point","coordinates":[-74.94184,38.938724]}},{"properties":{"zip":"08221","geo_score":0.714,"id":"a65jvako07mm","geo_precision":"zip","revenue":3692.0},"type":"Feature","geometry":{"type":"Point","coordinates":[-74.594323,39.334283]}},{"properties":{"zip":"08225","geo_score":0.714,"id":"a65jvawig6mj","geo_precision":"zip","revenue":3180.0},"type":"Feature","geometry":{"type":"Point","coordinates":[-74.572227,39.421922]}},{"properties":{"zip":"08226","geo_score":0.714,"id":"a65jvahyo2ty","geo_precision":"zip","revenue":11934.0},"type":"Feature","geometry":{"type":"Point","coordinates":[-74.604409,39.24853]}},{"properties":{"zip":"08243","geo_score":0.714,"id":"a65jvaw3m00x","geo_precision":"zip","revenue":2412.0},"type":"Feature","geometry":{"type":"Point","coordinates":[-74.711273,39.126503]}},{"properties":{"zip":"08247","geo_score":0.714,"id":"a65jvatc085e","geo_precision":"zip","revenue":21088.0},"type":"Feature","geometry":{"type":"Point","coordinates":[-74.77505,39.047882]}},{"properties":{"zip":"08402","geo_score":0.714,"id":"a65jvan1rbpj","geo_precision":"zip","revenue":1584.0},"type":"Feature","geometry":{"type":"Point","coordinates":[-74.666123,39.442068]}},{"properties":{"zip":"08648","geo_score":0.714,"id":"a65jvajcc38a","geo_precision":"zip","revenue":3787.2},"type":"Feature","geometry":{"type":"Point","coordinates":[-74.734605,40.253164]}},{"properties":{"zip":"08736","geo_score":0.714,"id":"a65jvaod0kag","geo_precision":"zip","revenue":2294.0},"type":"Feature","geometry":{"type":"Point","coordinates":[-74.074583,40.100115]}},{"properties":{"zip":"08742","geo_score":0.714,"id":"a65jvak7uopj","geo_precision":"zip","revenue":8208.0},"type":"Feature","geometry":{"type":"Point","coordinates":[-74.060693,40.090671]}},{"properties":{"zip":"08820","geo_score":0.714,"id":"a65jvatb6vzk","geo_precision":"zip","revenue":784.0},"type":"Feature","geometry":{"type":"Point","coordinates":[-74.362616,40.576611]}},{"properties":{"zip":"08846","geo_score":0.714,"id":"a65jvajfe4ds","geo_precision":"zip","revenue":456.0},"type":"Feature","geometry":{"type":"Point","coordinates":[-74.499398,40.575202]}},{"properties":{"zip":"10001","geo_score":0.714,"id":"a65jvasez8bh","geo_precision":"zip","revenue":0.0},"type":"Feature","geometry":{"type":"Point","coordinates":[-73.996328,40.750422]}},{"properties":{"zip":"10025","geo_score":0.714,"id":"a65jvajebykx","geo_precision":"zip","revenue":76.0},"type":"Feature","geometry":{"type":"Point","coordinates":[-73.967778,40.798664]}},{"properties":{"zip":"10028","geo_score":0.714,"id":"a65jvardhy1i","geo_precision":"zip","revenue":10550.0},"type":"Feature","geometry":{"type":"Point","coordinates":[-73.953914,40.776629]}},{"properties":{"zip":"10075","geo_score":0.714,"id":"a65jvaorsvqw","geo_precision":"zip","revenue":76.0},"type":"Feature","geometry":{"type":"Point","coordinates":[-74.005973,40.714269]}},{"properties":{"zip":"10128","geo_score":0.714,"id":"a65jvawghaf0","geo_precision":"zip","revenue":1568.0},"type":"Feature","geometry":{"type":"Point","coordinates":[-73.95158,40.780989]}},{"properties":{"zip":"10463","geo_score":0.714,"id":"a65jvamb67pj","geo_precision":"zip","revenue":384.0},"type":"Feature","geometry":{"type":"Point","coordinates":[-73.917359,40.881211]}},{"properties":{"zip":"10504","geo_score":0.714,"id":"a65jval25w1c","geo_precision":"zip","revenue":1192.0},"type":"Feature","geometry":{"type":"Point","coordinates":[-73.680963,41.147596]}},{"properties":{"zip":"10506","geo_score":0.714,"id":"a65jvas8ud6w","geo_precision":"zip","revenue":2490.0},"type":"Feature","geometry":{"type":"Point","coordinates":[-73.639572,41.141207]}},{"properties":{"zip":"10507","geo_score":0.714,"id":"a65jvaqrdduh","geo_precision":"zip","revenue":5312.0},"type":"Feature","geometry":{"type":"Point","coordinates":[-73.697998,41.229037]}},{"properties":{"zip":"10580-3009","geo_score":0.714,"id":"a65jvaw5plsc","geo_precision":"zip","revenue":3838.0},"type":"Feature","geometry":{"type":"Point","coordinates":[-73.688185,40.962043]}},{"properties":{"zip":"10583","geo_score":0.714,"id":"a65jvaub3ir9","geo_precision":"zip","revenue":1860.0},"type":"Feature","geometry":{"type":"Point","coordinates":[-73.760965,40.994542]}},{"properties":{"zip":"10707","geo_score":0.714,"id":"a65jvar7021r","geo_precision":"zip","revenue":1664.0},"type":"Feature","geometry":{"type":"Point","coordinates":[-73.820411,40.958987]}},{"properties":{"zip":"11021","geo_score":0.714,"id":"a65jvatzbktp","geo_precision":"zip","revenue":2526.0},"type":"Feature","geometry":{"type":"Point","coordinates":[-72.715376,40.775933]}},{"properties":{"zip":"11030","geo_score":0.714,"id":"a65jvave8xjo","geo_precision":"zip","revenue":1304.0},"type":"Feature","geometry":{"type":"Point","coordinates":[-73.697353,40.816212]}},{"properties":{"zip":"11050","geo_score":0.714,"id":"a65jvaovngiw","geo_precision":"zip","revenue":228.0},"type":"Feature","geometry":{"type":"Point","coordinates":[-73.718742,40.851767]}},{"properties":{"zip":"11101","geo_score":0.714,"id":"a65jvaukvnfl","geo_precision":"zip","revenue":30164.0},"type":"Feature","geometry":{"type":"Point","coordinates":[-73.934502,40.744622]}},{"properties":{"zip":"11201","geo_score":0.714,"id":"a65jvah0it6n","geo_precision":"zip","revenue":1024.0},"type":"Feature","geometry":{"type":"Point","coordinates":[-73.989319,40.694481]}},{"properties":{"zip":"11557","geo_score":0.714,"id":"a65jvam9y500","geo_precision":"zip","revenue":7686.0},"type":"Feature","geometry":{"type":"Point","coordinates":[-73.681519,40.636215]}},{"properties":{"zip":"11560","geo_score":0.714,"id":"a65jvapva12w","geo_precision":"zip","revenue":3648.0},"type":"Feature","geometry":{"type":"Point","coordinates":[-73.576514,40.87621]}},{"properties":{"zip":"11797","geo_score":0.714,"id":"a65jvakn610j","geo_precision":"zip","revenue":6032.0},"type":"Feature","geometry":{"type":"Point","coordinates":[-73.601772,40.754757]}},{"properties":{"zip":"11930","geo_score":0.714,"id":"a65jvah6a159","geo_precision":"zip","revenue":2268.0},"type":"Feature","geometry":{"type":"Point","coordinates":[-72.06813,41.009546]}},{"properties":{"zip":"11932","geo_score":0.714,"id":"a65jvatwxfpl","geo_precision":"zip","revenue":3624.0},"type":"Feature","geometry":{"type":"Point","coordinates":[-72.340083,40.935378]}},{"properties":{"zip":"11937","geo_score":0.714,"id":"a65jvauc30w6","geo_precision":"zip","revenue":29930.0},"type":"Feature","geometry":{"type":"Point","coordinates":[-72.159244,41.016211]}},{"properties":{"zip":"11944","geo_score":0.714,"id":"a65jvahl9xur","geo_precision":"zip","revenue":992.0},"type":"Feature","geometry":{"type":"Point","coordinates":[-72.367861,41.113988]}},{"properties":{"zip":"11954","geo_score":0.714,"id":"a65jvathpo5v","geo_precision":"zip","revenue":4844.0},"type":"Feature","geometry":{"type":"Point","coordinates":[-71.967015,41.025935]}},{"properties":{"zip":"11963","geo_score":0.714,"id":"a65jvaq1tkr2","geo_precision":"zip","revenue":2968.0},"type":"Feature","geometry":{"type":"Point","coordinates":[-72.313416,40.997877]}},{"properties":{"zip":"11965","geo_score":0.714,"id":"a65jvakjt1se","geo_precision":"zip","revenue":918.0},"type":"Feature","geometry":{"type":"Point","coordinates":[-72.369806,41.058155]}},{"properties":{"zip":"11968","geo_score":0.714,"id":"a65jvaqqnxuz","geo_precision":"zip","revenue":4680.0},"type":"Feature","geometry":{"type":"Point","coordinates":[-72.410919,40.898989]}},{"properties":{"zip":"11978","geo_score":0.714,"id":"a65jvaple91b","geo_precision":"zip","revenue":2852.0},"type":"Feature","geometry":{"type":"Point","coordinates":[-72.628984,40.819822]}},{"properties":{"zip":"12477","geo_score":0.714,"id":"a65jvahm971m","geo_precision":"zip","revenue":2825.0},"type":"Feature","geometry":{"type":"Point","coordinates":[-74.048193,42.11259]}},{"properties":{"zip":"12545","geo_score":0.714,"id":"a65jvalanjbz","geo_precision":"zip","revenue":2622.0},"type":"Feature","geometry":{"type":"Point","coordinates":[-73.697907,41.774261]}},{"properties":{"zip":"12572","geo_score":0.714,"id":"a65jvanjqnu5","geo_precision":"zip","revenue":1280.0},"type":"Feature","geometry":{"type":"Point","coordinates":[-73.867078,41.895926]}},{"properties":{"zip":"12814","geo_score":0.714,"id":"a65jvaqasn5q","geo_precision":"zip","revenue":912.0},"type":"Feature","geometry":{"type":"Point","coordinates":[-73.677564,43.574329]}},{"properties":{"zip":"12866","geo_score":0.714,"id":"a65jvaur1l19","geo_precision":"zip","revenue":6864.0},"type":"Feature","geometry":{"type":"Point","coordinates":[-73.758175,43.067575]}},{"properties":{"zip":"12946","geo_score":0.714,"id":"a65jvaqvfb1b","geo_precision":"zip","revenue":1600.0},"type":"Feature","geometry":{"type":"Point","coordinates":[-74.00265,44.311158]}},{"properties":{"zip":"13413","geo_score":0.714,"id":"a65jvapzedqf","geo_precision":"zip","revenue":1028.0},"type":"Feature","geometry":{"type":"Point","coordinates":[-75.290911,43.067369]}},{"properties":{"zip":"13905","geo_score":0.714,"id":"a65jvasu9nyy","geo_precision":"zip","revenue":38.0},"type":"Feature","geometry":{"type":"Point","coordinates":[-75.962699,42.200631]}},{"properties":{"zip":"15108","geo_score":0.714,"id":"a65jvas53o24","geo_precision":"zip","revenue":3446.0},"type":"Feature","geometry":{"type":"Point","coordinates":[-80.19117,40.523123]}},{"properties":{"zip":"15139","geo_score":0.714,"id":"a65jvalbgmsu","geo_precision":"zip","revenue":13086.2},"type":"Feature","geometry":{"type":"Point","coordinates":[-80.024817,40.434436]}},{"properties":{"zip":"15143","geo_score":0.714,"id":"a65jvaig7y7i","geo_precision":"zip","revenue":5918.0},"type":"Feature","geometry":{"type":"Point","coordinates":[-80.203671,40.562568]}},{"properties":{"zip":"15215","geo_score":0.714,"id":"a65jvahm5qmt","geo_precision":"zip","revenue":4052.0},"type":"Feature","geometry":{"type":"Point","coordinates":[-79.926441,40.494513]}},{"properties":{"zip":"15217","geo_score":0.714,"id":"a65jvau33f60","geo_precision":"zip","revenue":2852.0},"type":"Feature","geometry":{"type":"Point","coordinates":[-79.919218,40.438125]}},{"properties":{"zip":"15228","geo_score":0.714,"id":"a65jvau1hf8r","geo_precision":"zip","revenue":1044.0},"type":"Feature","geometry":{"type":"Point","coordinates":[-80.049498,40.355347]}},{"properties":{"zip":"15232","geo_score":0.714,"id":"a65jvahjg05h","geo_precision":"zip","revenue":576.0},"type":"Feature","geometry":{"type":"Point","coordinates":[-79.940885,40.451458]}},{"properties":{"zip":"15301","geo_score":0.714,"id":"a65jvavwuh35","geo_precision":"zip","revenue":3010.0},"type":"Feature","geometry":{"type":"Point","coordinates":[-80.287839,40.192849]}},{"properties":{"zip":"15317","geo_score":0.714,"id":"a65jvasuz7h9","geo_precision":"zip","revenue":855.0},"type":"Feature","geometry":{"type":"Point","coordinates":[-80.174502,40.259515]}},{"properties":{"zip":"15522","geo_score":0.714,"id":"a65jvanph85v","geo_precision":"zip","revenue":2746.0},"type":"Feature","geometry":{"type":"Point","coordinates":[-78.52974,40.046469]}},{"properties":{"zip":"16658","geo_score":0.0,"id":"a65jvaqk2fjk","geo_precision":"unmatched","revenue":1880.0},"type":"Feature","geometry":null},{"properties":{"zip":"16801","geo_score":0.714,"id":"a65jvaj8nb1w","geo_precision":"zip","revenue":760.0},"type":"Feature","geometry":{"type":"Point","coordinates":[-77.825555,40.763396]}},{"properties":{"zip":"17011","geo_score":0.714,"id":"a65jvaugvyja","geo_precision":"zip","revenue":2455.2},"type":"Feature","geometry":{"type":"Point","coordinates":[-76.92053,40.230368]}},{"properties":{"zip":"17036","geo_score":0.714,"id":"a65jvaq0ga1q","geo_precision":"zip","revenue":2506.0},"type":"Feature","geometry":{"type":"Point","coordinates":[-76.68247,40.240369]}},{"properties":{"zip":"17083","geo_score":0.714,"id":"a65jvavkzqs6","geo_precision":"zip","revenue":614.0},"type":"Feature","geometry":{"type":"Point","coordinates":[-76.411239,40.27639]}},{"properties":{"zip":"17402","geo_score":0.714,"id":"a65jvaw62zqn","geo_precision":"zip","revenue":4759.2},"type":"Feature","geometry":{"type":"Point","coordinates":[-76.6608,39.96621]}},{"properties":{"zip":"17543","geo_score":0.714,"id":"a65jvavax7an","geo_precision":"zip","revenue":3180.0},"type":"Feature","geometry":{"type":"Point","coordinates":[-76.321902,40.208705]}},{"properties":{"zip":"17552","geo_score":0.714,"id":"a65jvan174qh","geo_precision":"zip","revenue":38.0},"type":"Feature","geometry":{"type":"Point","coordinates":[-76.531634,40.162317]}},{"properties":{"zip":"17603","geo_score":0.714,"id":"a65jvaodxrvl","geo_precision":"zip","revenue":4158.0},"type":"Feature","geometry":{"type":"Point","coordinates":[-76.329682,40.040098]}},{"properties":{"zip":"18034","geo_score":0.714,"id":"a65jvaoii6lk","geo_precision":"zip","revenue":4524.0},"type":"Feature","geometry":{"type":"Point","coordinates":[-75.432682,40.551765]}},{"properties":{"zip":"18360","geo_score":0.714,"id":"a65jvat4hi7z","geo_precision":"zip","revenue":10672.0},"type":"Feature","geometry":{"type":"Point","coordinates":[-75.243515,40.951761]}},{"properties":{"zip":"18704","geo_score":0.714,"id":"a65jvav1v7f6","geo_precision":"zip","revenue":3930.0},"type":"Feature","geometry":{"type":"Point","coordinates":[-75.874641,41.291748]}},{"properties":{"zip":"18912","geo_score":0.714,"id":"a65jvartcu7t","geo_precision":"zip","revenue":4586.0},"type":"Feature","geometry":{"type":"Point","coordinates":[-75.074252,40.309942]}},{"properties":{"zip":"18940","geo_score":0.714,"id":"a65jvarya9d1","geo_precision":"zip","revenue":2388.0},"type":"Feature","geometry":{"type":"Point","coordinates":[-74.958779,40.201498]}},{"properties":{"zip":"19004","geo_score":0.714,"id":"a65jvaiuphzu","geo_precision":"zip","revenue":4594.0},"type":"Feature","geometry":{"type":"Point","coordinates":[-75.215458,40.00539]}},{"properties":{"zip":"19006","geo_score":0.714,"id":"a65jvavgrly0","geo_precision":"zip","revenue":1262.0},"type":"Feature","geometry":{"type":"Point","coordinates":[-75.054616,40.111777]}},{"properties":{"zip":"19010","geo_score":0.714,"id":"a65jvalmswdy","geo_precision":"zip","revenue":1425.0},"type":"Feature","geometry":{"type":"Point","coordinates":[-75.323798,40.025666]}},{"properties":{"zip":"19027","geo_score":0.714,"id":"a65jvarjq6lh","geo_precision":"zip","revenue":4875.0},"type":"Feature","geometry":{"type":"Point","coordinates":[-75.131518,40.07501]}},{"properties":{"zip":"19041","geo_score":0.714,"id":"a65jvaomf3eb","geo_precision":"zip","revenue":3860.0},"type":"Feature","geometry":{"type":"Point","coordinates":[-75.321632,40.002911]}},{"properties":{"zip":"19046","geo_score":0.714,"id":"a65jvaute444","geo_precision":"zip","revenue":816.0},"type":"Feature","geometry":{"type":"Point","coordinates":[-75.089618,40.081222]}},{"properties":{"zip":"19047","geo_score":0.714,"id":"a65jvam3lcl2","geo_precision":"zip","revenue":960.0},"type":"Feature","geometry":{"type":"Point","coordinates":[-74.888777,40.192331]}},{"properties":{"zip":"19073","geo_score":0.714,"id":"a65jvakddm88","geo_precision":"zip","revenue":5441.4},"type":"Feature","geometry":{"type":"Point","coordinates":[-75.418529,40.008165]}},{"properties":{"zip":"19087","geo_score":0.714,"id":"a65jvamoyw1w","geo_precision":"zip","revenue":4912.0},"type":"Feature","geometry":{"type":"Point","coordinates":[-75.404358,40.050942]}},{"properties":{"zip":"19096","geo_score":0.714,"id":"a65jvatm271d","geo_precision":"zip","revenue":842.0},"type":"Feature","geometry":{"type":"Point","coordinates":[-75.275462,39.986223]}},{"properties":{"zip":"19106","geo_score":0.714,"id":"a65jvaqnc7kk","geo_precision":"zip","revenue":1868.0},"type":"Feature","geometry":{"type":"Point","coordinates":[-75.150071,39.950004]}},{"properties":{"zip":"19107","geo_score":0.714,"id":"a65jvajnaxfa","geo_precision":"zip","revenue":2553.6},"type":"Feature","geometry":{"type":"Point","coordinates":[-75.162871,39.962612]}},{"properties":{"zip":"19118","geo_score":0.714,"id":"a65jvasovv2b","geo_precision":"zip","revenue":2202.0},"type":"Feature","geometry":{"type":"Point","coordinates":[-75.189344,40.081222]}},{"properties":{"zip":"19123","geo_score":0.714,"id":"a65jvavhiubx","geo_precision":"zip","revenue":384.0},"type":"Feature","geometry":{"type":"Point","coordinates":[-75.115369,39.98238]}},{"properties":{"zip":"19148","geo_score":0.714,"id":"a65jvavfoxfb","geo_precision":"zip","revenue":288.0},"type":"Feature","geometry":{"type":"Point","coordinates":[-75.155371,39.950362]}},{"properties":{"zip":"19149","geo_score":0.714,"id":"a65jvav8sezs","geo_precision":"zip","revenue":2817.0},"type":"Feature","geometry":{"type":"Point","coordinates":[-75.081668,40.024361]}},{"properties":{"zip":"19301","geo_score":0.714,"id":"a65jvamlibl0","geo_precision":"zip","revenue":1140.0},"type":"Feature","geometry":{"type":"Point","coordinates":[-75.488793,40.040057]}},{"properties":{"zip":"19348","geo_score":0.714,"id":"a65jvak2du9g","geo_precision":"zip","revenue":4384.0},"type":"Feature","geometry":{"type":"Point","coordinates":[-75.717716,39.874276]}},{"properties":{"zip":"19355","geo_score":0.714,"id":"a65jvalng4s1","geo_precision":"zip","revenue":288.0},"type":"Feature","geometry":{"type":"Point","coordinates":[-75.507982,39.999831]}},{"properties":{"zip":"19380","geo_score":0.714,"id":"a65jvavb0uov","geo_precision":"zip","revenue":6139.0},"type":"Feature","geometry":{"type":"Point","coordinates":[-75.574098,39.978998]}},{"properties":{"zip":"19402","geo_score":0.714,"id":"a65jvakw2lio","geo_precision":"zip","revenue":1104.0},"type":"Feature","geometry":{"type":"Point","coordinates":[-75.339905,40.121497]}},{"properties":{"zip":"19474","geo_score":0.714,"id":"a65jvagqexzu","geo_precision":"zip","revenue":450.0},"type":"Feature","geometry":{"type":"Point","coordinates":[-75.403095,40.225109]}},{"properties":{"zip":"19610","geo_score":0.714,"id":"a65jvaq363mz","geo_precision":"zip","revenue":3914.0},"type":"Feature","geometry":{"type":"Point","coordinates":[-75.965212,40.329537]}},{"properties":{"zip":"19803","geo_score":0.714,"id":"a65jvao8z4fl","geo_precision":"zip","revenue":1088.0},"type":"Feature","geometry":{"type":"Point","coordinates":[-75.55798,39.794001]}},{"properties":{"zip":"19807","geo_score":0.714,"id":"a65jvare4z2q","geo_precision":"zip","revenue":18404.0},"type":"Feature","geometry":{"type":"Point","coordinates":[-75.636873,39.766223]}},{"properties":{"zip":"19930","geo_score":0.714,"id":"a65jvatslc0i","geo_precision":"zip","revenue":3412.0},"type":"Feature","geometry":{"type":"Point","coordinates":[-75.052959,38.509556]}},{"properties":{"zip":"19958","geo_score":0.714,"id":"a65jvalr5ame","geo_precision":"zip","revenue":3332.0},"type":"Feature","geometry":{"type":"Point","coordinates":[-75.159351,38.75539]}},{"properties":{"zip":"19971","geo_score":0.714,"id":"a65jvaurxgct","geo_precision":"zip","revenue":5866.0},"type":"Feature","geometry":{"type":"Point","coordinates":[-75.08157,38.695945]}},{"properties":{"zip":"20015","geo_score":0.714,"id":"a65jvaorxirw","geo_precision":"zip","revenue":12164.0},"type":"Feature","geometry":{"type":"Point","coordinates":[-77.070949,38.96926]}},{"properties":{"zip":"20016","geo_score":0.714,"id":"a65jvahi4ct2","geo_precision":"zip","revenue":15302.0},"type":"Feature","geometry":{"type":"Point","coordinates":[-77.091149,38.93826]}},{"properties":{"zip":"20121","geo_score":0.714,"id":"a65jvavxmz2e","geo_precision":"zip","revenue":0.0},"type":"Feature","geometry":{"type":"Point","coordinates":[-77.45576,38.819513]}},{"properties":{"zip":"20147","geo_score":0.714,"id":"a65jvawi9ep6","geo_precision":"zip","revenue":1376.0},"type":"Feature","geometry":{"type":"Point","coordinates":[-77.480542,39.037339]}},{"properties":{"zip":"20814","geo_score":0.714,"id":"a65jvatmepot","geo_precision":"zip","revenue":3485.0},"type":"Feature","geometry":{"type":"Point","coordinates":[-77.122201,39.010665]}},{"properties":{"zip":"20815","geo_score":0.714,"id":"a65jvaji7w9g","geo_precision":"zip","revenue":704.0},"type":"Feature","geometry":{"type":"Point","coordinates":[-77.096089,38.965944]}},{"properties":{"zip":"20832","geo_score":0.714,"id":"a65jvai66if2","geo_precision":"zip","revenue":608.0},"type":"Feature","geometry":{"type":"Point","coordinates":[-77.077651,39.150364]}},{"properties":{"zip":"20854","geo_score":0.714,"id":"a65jvat95pu5","geo_precision":"zip","revenue":536.0},"type":"Feature","geometry":{"type":"Point","coordinates":[-77.15998,39.051498]}},{"properties":{"zip":"20895","geo_score":0.714,"id":"a65jvan0qzar","geo_precision":"zip","revenue":3872.0},"type":"Feature","geometry":{"type":"Point","coordinates":[-77.079978,39.018999]}},{"properties":{"zip":"21023","geo_score":0.714,"id":"a65jvaqu8q31","geo_precision":"zip","revenue":1440.6},"type":"Feature","geometry":{"type":"Point","coordinates":[-76.741919,39.547605]}},{"properties":{"zip":"21093","geo_score":0.714,"id":"a65jvana2zfo","geo_precision":"zip","revenue":6738.0},"type":"Feature","geometry":{"type":"Point","coordinates":[-76.601635,39.436495]}},{"properties":{"zip":"21401","geo_score":0.714,"id":"a65jvarjrota","geo_precision":"zip","revenue":896.0},"type":"Feature","geometry":{"type":"Point","coordinates":[-76.462738,39.020945]}},{"properties":{"zip":"21601","geo_score":0.714,"id":"a65jvaw0a6mc","geo_precision":"zip","revenue":6946.0},"type":"Feature","geometry":{"type":"Point","coordinates":[-76.071886,38.783449]}},{"properties":{"zip":"21620","geo_score":0.714,"id":"a65jvakd9u4e","geo_precision":"zip","revenue":3020.0},"type":"Feature","geometry":{"type":"Point","coordinates":[-76.244677,39.214276]}},{"properties":{"zip":"21663","geo_score":0.714,"id":"a65jvat3uk0q","geo_precision":"zip","revenue":6740.0},"type":"Feature","geometry":{"type":"Point","coordinates":[-76.210502,38.777895]}},{"properties":{"zip":"21801","geo_score":0.714,"id":"a65jvaqa3al6","geo_precision":"zip","revenue":576.0},"type":"Feature","geometry":{"type":"Point","coordinates":[-75.598814,38.387618]}},{"properties":{"zip":"21804","geo_score":0.714,"id":"a65jvarpsjfr","geo_precision":"zip","revenue":456.0},"type":"Feature","geometry":{"type":"Point","coordinates":[-75.533782,38.350793]}},{"properties":{"zip":"21842","geo_score":0.714,"id":"a65jvamjxaw9","geo_precision":"zip","revenue":2458.0},"type":"Feature","geometry":{"type":"Point","coordinates":[-75.106851,38.331504]}},{"properties":{"zip":"22032","geo_score":0.714,"id":"a65jval9j4t9","geo_precision":"zip","revenue":1840.0},"type":"Feature","geometry":{"type":"Point","coordinates":[-77.287105,38.819712]}},{"properties":{"zip":"22101","geo_score":0.714,"id":"a65jvaibwtm1","geo_precision":"zip","revenue":7794.0},"type":"Feature","geometry":{"type":"Point","coordinates":[-77.18672,38.935202]}},{"properties":{"zip":"22202","geo_score":0.714,"id":"a65jvatyneds","geo_precision":"zip","revenue":1408.0},"type":"Feature","geometry":{"type":"Point","coordinates":[-77.059721,38.854462]}},{"properties":{"zip":"22206","geo_score":0.714,"id":"a65jvaoqe7p3","geo_precision":"zip","revenue":23631.6},"type":"Feature","geometry":{"type":"Point","coordinates":[-77.088312,38.841779]}},{"properties":{"zip":"22207","geo_score":0.714,"id":"a65jvat2wkpa","geo_precision":"zip","revenue":2808.0},"type":"Feature","geometry":{"type":"Point","coordinates":[-77.122344,38.907416]}},{"properties":{"zip":"22314","geo_score":0.714,"id":"a65jvaha9x6x","geo_precision":"zip","revenue":25859.6},"type":"Feature","geometry":{"type":"Point","coordinates":[-77.063587,38.811436]}},{"properties":{"zip":"22314-6255","geo_score":0.714,"id":"a65jvakffzrh","geo_precision":"zip","revenue":4176.0},"type":"Feature","geometry":{"type":"Point","coordinates":[-77.063587,38.811436]}},{"properties":{"zip":"22480","geo_score":0.714,"id":"a65jvaowiley","geo_precision":"zip","revenue":768.0},"type":"Feature","geometry":{"type":"Point","coordinates":[-76.404996,37.667319]}},{"properties":{"zip":"22903","geo_score":0.714,"id":"a65jvan5d18q","geo_precision":"zip","revenue":4858.0},"type":"Feature","geometry":{"type":"Point","coordinates":[-78.54418,38.051249]}},{"properties":{"zip":"23185","geo_score":0.714,"id":"a65jvaowmnut","geo_precision":"zip","revenue":1342.0},"type":"Feature","geometry":{"type":"Point","coordinates":[-76.661345,37.262924]}},{"properties":{"zip":"23226","geo_score":0.714,"id":"a65jvai2aqyb","geo_precision":"zip","revenue":5611.0},"type":"Feature","geometry":{"type":"Point","coordinates":[-77.539987,37.589035]}},{"properties":{"zip":"23229","geo_score":0.714,"id":"a65jvaiapes2","geo_precision":"zip","revenue":8686.0},"type":"Feature","geometry":{"type":"Point","coordinates":[-77.460262,37.553758]}},{"properties":{"zip":"23233","geo_score":0.714,"id":"a65jvawl0ork","geo_precision":"zip","revenue":5646.0},"type":"Feature","geometry":{"type":"Point","coordinates":[-77.662213,37.577369]}},{"properties":{"zip":"23235","geo_score":0.714,"id":"a65jvajlme0r","geo_precision":"zip","revenue":2574.0},"type":"Feature","geometry":{"type":"Point","coordinates":[-77.460262,37.553758]}},{"properties":{"zip":"23418","geo_score":0.714,"id":"a65jvahlo2wr","geo_precision":"zip","revenue":3122.0},"type":"Feature","geometry":{"type":"Point","coordinates":[-75.650275,37.796421]}},{"properties":{"zip":"23451","geo_score":0.714,"id":"a65jvas7clv4","geo_precision":"zip","revenue":1936.0},"type":"Feature","geometry":{"type":"Point","coordinates":[-75.996319,36.841538]}},{"properties":{"zip":"23454","geo_score":0.714,"id":"a65jvariw9re","geo_precision":"zip","revenue":1312.0},"type":"Feature","geometry":{"type":"Point","coordinates":[-76.051599,36.869315]}},{"properties":{"zip":"23464","geo_score":0.714,"id":"a65jvah1p8yw","geo_precision":"zip","revenue":532.0},"type":"Feature","geometry":{"type":"Point","coordinates":[-76.174381,36.797093]}},{"properties":{"zip":"25314","geo_score":0.714,"id":"a65jvavw0tki","geo_precision":"zip","revenue":1160.0},"type":"Feature","geometry":{"type":"Point","coordinates":[-81.643735,38.341764]}},{"properties":{"zip":"26330","geo_score":0.714,"id":"a65jvalggwhv","geo_precision":"zip","revenue":76.0},"type":"Feature","geometry":{"type":"Point","coordinates":[-80.271197,39.363977]}},{"properties":{"zip":"26508","geo_score":0.714,"id":"a65jvawrqa71","geo_precision":"zip","revenue":114.0},"type":"Feature","geometry":{"type":"Point","coordinates":[-79.922871,39.595329]}},{"properties":{"zip":"27106","geo_score":0.714,"id":"a65jvak6s23j","geo_precision":"zip","revenue":5436.4},"type":"Feature","geometry":{"type":"Point","coordinates":[-80.285329,36.125415]}},{"properties":{"zip":"27408","geo_score":0.714,"id":"a65jvatsh7du","geo_precision":"zip","revenue":5252.0},"type":"Feature","geometry":{"type":"Point","coordinates":[-79.816254,36.103685]}},{"properties":{"zip":"27510","geo_score":0.714,"id":"a65jvaqbt643","geo_precision":"zip","revenue":3084.0},"type":"Feature","geometry":{"type":"Point","coordinates":[-79.090077,35.905477]}},{"properties":{"zip":"27513","geo_score":0.714,"id":"a65jvan7dj9e","geo_precision":"zip","revenue":512.0},"type":"Feature","geometry":{"type":"Point","coordinates":[-78.816564,35.801341]}},{"properties":{"zip":"27517","geo_score":0.714,"id":"a65jvax26s51","geo_precision":"zip","revenue":5188.0},"type":"Feature","geometry":{"type":"Point","coordinates":[-78.906933,35.981803]}},{"properties":{"zip":"27605","geo_score":0.714,"id":"a65jvas817dd","geo_precision":"zip","revenue":8200.0},"type":"Feature","geometry":{"type":"Point","coordinates":[-78.652475,35.789601]}},{"properties":{"zip":"27609","geo_score":0.714,"id":"a65jvaht91j2","geo_precision":"zip","revenue":4986.0},"type":"Feature","geometry":{"type":"Point","coordinates":[-78.504445,35.925707]}},{"properties":{"zip":"27701","geo_score":0.714,"id":"a65jvarbly3n","geo_precision":"zip","revenue":12435.2},"type":"Feature","geometry":{"type":"Point","coordinates":[-78.875467,36.004307]}},{"properties":{"zip":"27804","geo_score":0.714,"id":"a65jvape2roa","geo_precision":"zip","revenue":2808.0},"type":"Feature","geometry":{"type":"Point","coordinates":[-77.939841,35.941739]}},{"properties":{"zip":"27812","geo_score":0.714,"id":"a65jvaouj6fa","geo_precision":"zip","revenue":2564.0},"type":"Feature","geometry":{"type":"Point","coordinates":[-77.386356,35.860714]}},{"properties":{"zip":"27858","geo_score":0.714,"id":"a65jvas2swt8","geo_precision":"zip","revenue":7923.0},"type":"Feature","geometry":{"type":"Point","coordinates":[-77.402789,35.616949]}},{"properties":{"zip":"27949","geo_score":0.714,"id":"a65jvarwor6v","geo_precision":"zip","revenue":4592.0},"type":"Feature","geometry":{"type":"Point","coordinates":[-75.731572,36.139053]}},{"properties":{"zip":"27959","geo_score":0.714,"id":"a65jvahncrwj","geo_precision":"zip","revenue":1320.0},"type":"Feature","geometry":{"type":"Point","coordinates":[-75.631562,35.951837]}},{"properties":{"zip":"28031","geo_score":0.714,"id":"a65jvagqtudb","geo_precision":"zip","revenue":744.0},"type":"Feature","geometry":{"type":"Point","coordinates":[-80.870629,35.484303]}},{"properties":{"zip":"28036","geo_score":0.714,"id":"a65jvanl2skv","geo_precision":"zip","revenue":9154.0},"type":"Feature","geometry":{"type":"Point","coordinates":[-80.844594,35.283427]}},{"properties":{"zip":"28207","geo_score":0.714,"id":"a65jvatai0zu","geo_precision":"zip","revenue":1552.0},"type":"Feature","geometry":{"type":"Point","coordinates":[-80.826393,35.195393]}},{"properties":{"zip":"28210","geo_score":0.714,"id":"a65jvawif4nk","geo_precision":"zip","revenue":1008.0},"type":"Feature","geometry":{"type":"Point","coordinates":[-80.851319,35.156753]}},{"properties":{"zip":"28211","geo_score":0.714,"id":"a65jvawuf53y","geo_precision":"zip","revenue":896.0},"type":"Feature","geometry":{"type":"Point","coordinates":[-80.79076,35.169586]}},{"properties":{"zip":"28277","geo_score":0.714,"id":"a65jvataxsj3","geo_precision":"zip","revenue":1310.0},"type":"Feature","geometry":{"type":"Point","coordinates":[-80.819488,35.055216]}},{"properties":{"zip":"28387","geo_score":0.714,"id":"a65jvagtve4d","geo_precision":"zip","revenue":4850.0},"type":"Feature","geometry":{"type":"Point","coordinates":[-79.355585,35.20738]}},{"properties":{"zip":"28403","geo_score":0.714,"id":"a65jvauau33f","geo_precision":"zip","revenue":9201.6},"type":"Feature","geometry":{"type":"Point","coordinates":[-77.921098,34.288503]}},{"properties":{"zip":"28480","geo_score":0.714,"id":"a65jvakcp9k3","geo_precision":"zip","revenue":10280.0},"type":"Feature","geometry":{"type":"Point","coordinates":[-77.817205,34.220726]}},{"properties":{"zip":"28560","geo_score":0.714,"id":"a65jvaqxw21z","geo_precision":"zip","revenue":8010.0},"type":"Feature","geometry":{"type":"Point","coordinates":[-77.057448,35.12766]}},{"properties":{"zip":"28605","geo_score":0.714,"id":"a65jvata0oat","geo_precision":"zip","revenue":4891.0},"type":"Feature","geometry":{"type":"Point","coordinates":[-81.686217,36.130407]}},{"properties":{"zip":"28607","geo_score":0.714,"id":"a65jvakp75el","geo_precision":"zip","revenue":560.0},"type":"Feature","geometry":{"type":"Point","coordinates":[-81.74372,36.17374]}},{"properties":{"zip":"28717","geo_score":0.714,"id":"a65jvakk8i4i","geo_precision":"zip","revenue":4138.0},"type":"Feature","geometry":{"type":"Point","coordinates":[-83.093769,35.101156]}},{"properties":{"zip":"28734","geo_score":0.714,"id":"a65jvapng6xn","geo_precision":"zip","revenue":304.0},"type":"Feature","geometry":{"type":"Point","coordinates":[-83.395988,35.117871]}},{"properties":{"zip":"28741","geo_score":0.714,"id":"a65jvavm6aw0","geo_precision":"zip","revenue":12590.0},"type":"Feature","geometry":{"type":"Point","coordinates":[-83.222649,35.146206]}},{"properties":{"zip":"28803","geo_score":0.714,"id":"a65jvan238wb","geo_precision":"zip","revenue":2392.0},"type":"Feature","geometry":{"type":"Point","coordinates":[-82.515679,35.572336]}},{"properties":{"zip":"29020","geo_score":0.714,"id":"a65jvamktuzi","geo_precision":"zip","revenue":1098.0},"type":"Feature","geometry":{"type":"Point","coordinates":[-80.603133,34.325707]}},{"properties":{"zip":"29102","geo_score":0.714,"id":"a65jvarudoo4","geo_precision":"zip","revenue":5898.0},"type":"Feature","geometry":{"type":"Point","coordinates":[-80.357305,33.67794]}},{"properties":{"zip":"29150","geo_score":0.714,"id":"a65jvasbdjw7","geo_precision":"zip","revenue":1520.0},"type":"Feature","geometry":{"type":"Point","coordinates":[-80.534807,33.957655]}},{"properties":{"zip":"29356","geo_score":0.714,"id":"a65jvakslyf1","geo_precision":"zip","revenue":6278.0},"type":"Feature","geometry":{"type":"Point","coordinates":[-82.231781,35.190392]}},{"properties":{"zip":"29401","geo_score":0.714,"id":"a65jvavxpe30","geo_precision":"zip","revenue":3008.0},"type":"Feature","geometry":{"type":"Point","coordinates":[-79.940844,32.780326]}},{"properties":{"zip":"29440","geo_score":0.714,"id":"a65jvavd0ulb","geo_precision":"zip","revenue":2282.0},"type":"Feature","geometry":{"type":"Point","coordinates":[-79.178101,33.419612]}},{"properties":{"zip":"29455","geo_score":0.714,"id":"a65jvao32uh5","geo_precision":"zip","revenue":13856.0},"type":"Feature","geometry":{"type":"Point","coordinates":[-80.170652,32.577128]}},{"properties":{"zip":"29464","geo_score":0.714,"id":"a65jvajs1uyo","geo_precision":"zip","revenue":12025.0},"type":"Feature","geometry":{"type":"Point","coordinates":[-79.748413,32.873507]}},{"properties":{"zip":"29492","geo_score":0.714,"id":"a65jvaih40lf","geo_precision":"zip","revenue":912.0},"type":"Feature","geometry":{"type":"Point","coordinates":[-79.831749,32.933507]}},{"properties":{"zip":"29501","geo_score":0.714,"id":"a65jvan3xiy4","geo_precision":"zip","revenue":7968.0},"type":"Feature","geometry":{"type":"Point","coordinates":[-79.603113,34.20738]}},{"properties":{"zip":"29511","geo_score":0.714,"id":"a65jvaldfqk0","geo_precision":"zip","revenue":1502.0},"type":"Feature","geometry":{"type":"Point","coordinates":[-79.224489,33.952666]}},{"properties":{"zip":"29550","geo_score":0.714,"id":"a65jvaqyl2go","geo_precision":"zip","revenue":912.0},"type":"Feature","geometry":{"type":"Point","coordinates":[-80.131735,34.384043]}},{"properties":{"zip":"29577","geo_score":0.714,"id":"a65jvalu895m","geo_precision":"zip","revenue":740.0},"type":"Feature","geometry":{"type":"Point","coordinates":[-78.920308,33.65656]}},{"properties":{"zip":"29585","geo_score":0.714,"id":"a65jvaps60sc","geo_precision":"zip","revenue":13254.0},"type":"Feature","geometry":{"type":"Point","coordinates":[-79.148099,33.473224]}},{"properties":{"zip":"29601","geo_score":0.714,"id":"a65jvas1130k","geo_precision":"zip","revenue":574.0},"type":"Feature","geometry":{"type":"Point","coordinates":[-82.454845,34.936506]}},{"properties":{"zip":"29910","geo_score":0.714,"id":"a65jvalg2nqq","geo_precision":"zip","revenue":2581.12},"type":"Feature","geometry":{"type":"Point","coordinates":[-80.964277,32.237978]}},{"properties":{"zip":"29928","geo_score":0.714,"id":"a65jvaljr90n","geo_precision":"zip","revenue":7222.0},"type":"Feature","geometry":{"type":"Point","coordinates":[-80.794831,32.133542]}},{"properties":{"zip":"30013","geo_score":0.714,"id":"a65jvakusla9","geo_precision":"zip","revenue":1128.0},"type":"Feature","geometry":{"type":"Point","coordinates":[-83.968359,33.643597]}},{"properties":{"zip":"30030","geo_score":0.714,"id":"a65jvalbmwgy","geo_precision":"zip","revenue":1664.0},"type":"Feature","geometry":{"type":"Point","coordinates":[-84.291723,33.772554]}},{"properties":{"zip":"30097","geo_score":0.714,"id":"a65jvaw4ttdu","geo_precision":"zip","revenue":1068.0},"type":"Feature","geometry":{"type":"Point","coordinates":[-84.144674,34.006019]}},{"properties":{"zip":"30305","geo_score":0.714,"id":"a65jvakz8m3j","geo_precision":"zip","revenue":25496.0},"type":"Feature","geometry":{"type":"Point","coordinates":[-84.386826,33.834989]}},{"properties":{"zip":"30307","geo_score":0.714,"id":"a65jvai1hq7o","geo_precision":"zip","revenue":1668.0},"type":"Feature","geometry":{"type":"Point","coordinates":[-84.357375,33.762855]}},{"properties":{"zip":"30360","geo_score":0.714,"id":"a65jvauvr15n","geo_precision":"zip","revenue":768.0},"type":"Feature","geometry":{"type":"Point","coordinates":[-84.277772,33.931069]}},{"properties":{"zip":"30501","geo_score":0.714,"id":"a65jvau6ojny","geo_precision":"zip","revenue":1458.0},"type":"Feature","geometry":{"type":"Point","coordinates":[-83.766844,34.356212]}},{"properties":{"zip":"30606","geo_score":0.714,"id":"a65jvauge42f","geo_precision":"zip","revenue":3971.0},"type":"Feature","geometry":{"type":"Point","coordinates":[-83.43064,33.951348]}},{"properties":{"zip":"30677","geo_score":0.714,"id":"a65jvav4bsjc","geo_precision":"zip","revenue":38.0},"type":"Feature","geometry":{"type":"Point","coordinates":[-83.347103,33.768177]}},{"properties":{"zip":"30904","geo_score":0.714,"id":"a65jvavodbcv","geo_precision":"zip","revenue":336.0},"type":"Feature","geometry":{"type":"Point","coordinates":[-82.016783,33.513191]}},{"properties":{"zip":"31324","geo_score":0.714,"id":"a65jvahj9ixf","geo_precision":"zip","revenue":1984.0},"type":"Feature","geometry":{"type":"Point","coordinates":[-81.269275,31.906322]}},{"properties":{"zip":"31522","geo_score":0.714,"id":"a65jvassr8o6","geo_precision":"zip","revenue":4584.0},"type":"Feature","geometry":{"type":"Point","coordinates":[-81.396764,31.162176]}},{"properties":{"zip":"31601","geo_score":0.714,"id":"a65jvajut0iz","geo_precision":"zip","revenue":2944.0},"type":"Feature","geometry":{"type":"Point","coordinates":[-83.337376,30.849089]}},{"properties":{"zip":"31768","geo_score":0.714,"id":"a65jvatu6ll6","geo_precision":"zip","revenue":864.0},"type":"Feature","geometry":{"type":"Point","coordinates":[-83.794339,31.103798]}},{"properties":{"zip":"32080","geo_score":0.714,"id":"a65jvao9tc79","geo_precision":"zip","revenue":1008.0},"type":"Feature","geometry":{"type":"Point","coordinates":[-81.468125,29.199146]}},{"properties":{"zip":"32082","geo_score":0.714,"id":"a65jvatwgyl8","geo_precision":"zip","revenue":5292.0},"type":"Feature","geometry":{"type":"Point","coordinates":[-81.323687,30.022467]}},{"properties":{"zip":"32207","geo_score":0.714,"id":"a65jvasnidcq","geo_precision":"zip","revenue":1020.0},"type":"Feature","geometry":{"type":"Point","coordinates":[-81.609537,30.296351]}},{"properties":{"zip":"32233","geo_score":0.714,"id":"a65jvaqz4glj","geo_precision":"zip","revenue":2004.0},"type":"Feature","geometry":{"type":"Point","coordinates":[-81.413141,30.368852]}},{"properties":{"zip":"32250","geo_score":0.714,"id":"a65jvatt3bif","geo_precision":"zip","revenue":3896.0},"type":"Feature","geometry":{"type":"Point","coordinates":[-81.437586,30.295519]}},{"properties":{"zip":"32320","geo_score":0.714,"id":"a65jvak7jmy8","geo_precision":"zip","revenue":6140.0},"type":"Feature","geometry":{"type":"Point","coordinates":[-85.020467,29.7566]}},{"properties":{"zip":"32407","geo_score":0.714,"id":"a65jvatv4uth","geo_precision":"zip","revenue":2622.0},"type":"Feature","geometry":{"type":"Point","coordinates":[-85.859656,30.291867]}},{"properties":{"zip":"32408","geo_score":0.714,"id":"a65jvakua6fk","geo_precision":"zip","revenue":644.0},"type":"Feature","geometry":{"type":"Point","coordinates":[-85.711603,30.165546]}},{"properties":{"zip":"32459","geo_score":0.714,"id":"a65jvam8oev1","geo_precision":"zip","revenue":2918.0},"type":"Feature","geometry":{"type":"Point","coordinates":[-86.32189,30.372422]}},{"properties":{"zip":"32502","geo_score":0.714,"id":"a65jvas6hkm0","geo_precision":"zip","revenue":420.0},"type":"Feature","geometry":{"type":"Point","coordinates":[-87.225691,30.474288]}},{"properties":{"zip":"32550","geo_score":0.714,"id":"a65jvavvna7q","geo_precision":"zip","revenue":1012.0},"type":"Feature","geometry":{"type":"Point","coordinates":[-86.344604,30.385269]}},{"properties":{"zip":"32605","geo_score":0.714,"id":"a65jvapfigrc","geo_precision":"zip","revenue":816.0},"type":"Feature","geometry":{"type":"Point","coordinates":[-82.369273,29.702467]}},{"properties":{"zip":"32669","geo_score":0.714,"id":"a65jvak7zchq","geo_precision":"zip","revenue":898.0},"type":"Feature","geometry":{"type":"Point","coordinates":[-82.5715,29.599133]}},{"properties":{"zip":"32789","geo_score":0.714,"id":"a65jvat9oc0q","geo_precision":"zip","revenue":8628.0},"type":"Feature","geometry":{"type":"Point","coordinates":[-81.35874,28.602327]}},{"properties":{"zip":"32922-7935","geo_score":0.714,"id":"a65jvapij259","geo_precision":"zip","revenue":2656.0},"type":"Feature","geometry":{"type":"Point","coordinates":[-80.762832,28.448336]}},{"properties":{"zip":"32960","geo_score":0.714,"id":"a65jvaoyd3va","geo_precision":"zip","revenue":9034.0},"type":"Feature","geometry":{"type":"Point","coordinates":[-80.527832,27.745307]}},{"properties":{"zip":"32963","geo_score":0.714,"id":"a65jvasr1q01","geo_precision":"zip","revenue":9416.0},"type":"Feature","geometry":{"type":"Point","coordinates":[-80.384217,27.716696]}},{"properties":{"zip":"33036","geo_score":0.714,"id":"a65jvamw1bnl","geo_precision":"zip","revenue":782.0},"type":"Feature","geometry":{"type":"Point","coordinates":[-80.560895,24.984853]}},{"properties":{"zip":"33037","geo_score":0.714,"id":"a65jvanl73d9","geo_precision":"zip","revenue":50278.0},"type":"Feature","geometry":{"type":"Point","coordinates":[-80.431168,25.104014]}},{"properties":{"zip":"33064","geo_score":0.714,"id":"a65jvar2g8ar","geo_precision":"zip","revenue":2552.0},"type":"Feature","geometry":{"type":"Point","coordinates":[-80.106988,26.282858]}},{"properties":{"zip":"33071","geo_score":0.714,"id":"a65jvart1gpx","geo_precision":"zip","revenue":936.0},"type":"Feature","geometry":{"type":"Point","coordinates":[-80.399775,26.100365]}},{"properties":{"zip":"33073","geo_score":0.714,"id":"a65jvalmkzir","geo_precision":"zip","revenue":1585.0},"type":"Feature","geometry":{"type":"Point","coordinates":[-80.180078,26.298352]}},{"properties":{"zip":"33135","geo_score":0.714,"id":"a65jvatijswv","geo_precision":"zip","revenue":256.0},"type":"Feature","geometry":{"type":"Point","coordinates":[-80.235025,25.766564]}},{"properties":{"zip":"33143","geo_score":0.714,"id":"a65jvaql6ssl","geo_precision":"zip","revenue":444.0},"type":"Feature","geometry":{"type":"Point","coordinates":[-80.193659,25.774266]}},{"properties":{"zip":"33186","geo_score":0.714,"id":"a65jvavkoboi","geo_precision":"zip","revenue":4928.0},"type":"Feature","geometry":{"type":"Point","coordinates":[-80.410144,25.656462]}},{"properties":{"zip":"33325","geo_score":0.714,"id":"a65jvalwzt9x","geo_precision":"zip","revenue":1930.0},"type":"Feature","geometry":{"type":"Point","coordinates":[-80.24417,26.070747]}},{"properties":{"zip":"33431","geo_score":0.714,"id":"a65jvahpfd2g","geo_precision":"zip","revenue":10312.0},"type":"Feature","geometry":{"type":"Point","coordinates":[-80.104343,26.378704]}},{"properties":{"zip":"33433-3464","geo_score":0.714,"id":"a65jvauty5y0","geo_precision":"zip","revenue":608.0},"type":"Feature","geometry":{"type":"Point","coordinates":[-80.158367,26.350274]}},{"properties":{"zip":"33441","geo_score":0.714,"id":"a65jvapxv6b0","geo_precision":"zip","revenue":1064.0},"type":"Feature","geometry":{"type":"Point","coordinates":[-80.099488,26.303413]}},{"properties":{"zip":"33444","geo_score":0.714,"id":"a65jvaw7hh8u","geo_precision":"zip","revenue":3260.0},"type":"Feature","geometry":{"type":"Point","coordinates":[-80.06782,26.435352]}},{"properties":{"zip":"33446","geo_score":0.714,"id":"a65jvai59bz7","geo_precision":"zip","revenue":1728.0},"type":"Feature","geometry":{"type":"Point","coordinates":[-80.181862,26.454017]}},{"properties":{"zip":"33455","geo_score":0.714,"id":"a65jvavl3x2h","geo_precision":"zip","revenue":10332.0},"type":"Feature","geometry":{"type":"Point","coordinates":[-80.101431,27.031444]}},{"properties":{"zip":"33462","geo_score":0.714,"id":"a65jvarej2jy","geo_precision":"zip","revenue":1734.0},"type":"Feature","geometry":{"type":"Point","coordinates":[-80.053375,26.566459]}},{"properties":{"zip":"33477","geo_score":0.714,"id":"a65jvapyb591","geo_precision":"zip","revenue":1372.0},"type":"Feature","geometry":{"type":"Point","coordinates":[-80.430269,26.645895]}},{"properties":{"zip":"33480","geo_score":0.714,"id":"a65jvaukat7m","geo_precision":"zip","revenue":27682.0},"type":"Feature","geometry":{"type":"Point","coordinates":[-80.038652,26.588958]}},{"properties":{"zip":"33483","geo_score":0.714,"id":"a65jvaqnio08","geo_precision":"zip","revenue":36694.0},"type":"Feature","geometry":{"type":"Point","coordinates":[-80.064844,26.464145]}},{"properties":{"zip":"33611","geo_score":0.714,"id":"a65jvaoy05wg","geo_precision":"zip","revenue":96.0},"type":"Feature","geometry":{"type":"Point","coordinates":[-82.512017,27.942099]}},{"properties":{"zip":"33629","geo_score":0.714,"id":"a65jvaqm7jyx","geo_precision":"zip","revenue":6216.0},"type":"Feature","geometry":{"type":"Point","coordinates":[-82.495373,27.920856]}},{"properties":{"zip":"33701","geo_score":0.714,"id":"a65jvahcmrit","geo_precision":"zip","revenue":1940.0},"type":"Feature","geometry":{"type":"Point","coordinates":[-82.64092,27.775654]}},{"properties":{"zip":"33706","geo_score":0.714,"id":"a65jvagqivw7","geo_precision":"zip","revenue":6560.0},"type":"Feature","geometry":{"type":"Point","coordinates":[-82.754223,27.749529]}},{"properties":{"zip":"33708","geo_score":0.714,"id":"a65jvasccg1l","geo_precision":"zip","revenue":1664.0},"type":"Feature","geometry":{"type":"Point","coordinates":[-82.778435,27.776971]}},{"properties":{"zip":"33756","geo_score":0.714,"id":"a65jvak97q18","geo_precision":"zip","revenue":76.0},"type":"Feature","geometry":{"type":"Point","coordinates":[-82.794324,27.946998]}},{"properties":{"zip":"33770","geo_score":0.714,"id":"a65jvarmec8h","geo_precision":"zip","revenue":2336.0},"type":"Feature","geometry":{"type":"Point","coordinates":[-82.802668,27.916998]}},{"properties":{"zip":"33921","geo_score":0.714,"id":"a65jvalejekl","geo_precision":"zip","revenue":21252.0},"type":"Feature","geometry":{"type":"Point","coordinates":[-82.261149,26.754493]}},{"properties":{"zip":"33931","geo_score":0.714,"id":"a65jvatq7i40","geo_precision":"zip","revenue":9392.0},"type":"Feature","geometry":{"type":"Point","coordinates":[-82.071178,26.5761]}},{"properties":{"zip":"33957","geo_score":0.714,"id":"a65jvaua389o","geo_precision":"zip","revenue":29836.0},"type":"Feature","geometry":{"type":"Point","coordinates":[-82.100065,26.458308]}},{"properties":{"zip":"34103","geo_score":0.714,"id":"a65jvar5xdm9","geo_precision":"zip","revenue":9339.0},"type":"Feature","geometry":{"type":"Point","coordinates":[-81.803944,26.191666]}},{"properties":{"zip":"34145","geo_score":0.714,"id":"a65jvawgrnj4","geo_precision":"zip","revenue":9462.0},"type":"Feature","geometry":{"type":"Point","coordinates":[-81.696751,25.938768]}},{"properties":{"zip":"34209","geo_score":0.714,"id":"a65jvairkf54","geo_precision":"zip","revenue":836.0},"type":"Feature","geometry":{"type":"Point","coordinates":[-82.616719,27.475853]}},{"properties":{"zip":"34228","geo_score":0.714,"id":"a65jvam7isdy","geo_precision":"zip","revenue":8084.0},"type":"Feature","geometry":{"type":"Point","coordinates":[-82.680377,27.429763]}},{"properties":{"zip":"34236","geo_score":0.714,"id":"a65jvao7bgd4","geo_precision":"zip","revenue":32938.0},"type":"Feature","geometry":{"type":"Point","coordinates":[-82.543319,27.326863]}},{"properties":{"zip":"34242","geo_score":0.714,"id":"a65jvaooqq9u","geo_precision":"zip","revenue":5344.0},"type":"Feature","geometry":{"type":"Point","coordinates":[-82.539819,27.256626]}},{"properties":{"zip":"34285","geo_score":0.714,"id":"a65jvaofbq2u","geo_precision":"zip","revenue":3392.0},"type":"Feature","geometry":{"type":"Point","coordinates":[-82.457597,27.100055]}},{"properties":{"zip":"34471","geo_score":0.714,"id":"a65jvawggddc","geo_precision":"zip","revenue":760.0},"type":"Feature","geometry":{"type":"Point","coordinates":[-81.942516,29.160525]}},{"properties":{"zip":"34474","geo_score":0.714,"id":"a65jvas18u86","geo_precision":"zip","revenue":456.0},"type":"Feature","geometry":{"type":"Point","coordinates":[-82.137774,29.150148]}},{"properties":{"zip":"34477","geo_score":0.714,"id":"a65jvaucfx31","geo_precision":"zip","revenue":950.0},"type":"Feature","geometry":{"type":"Point","coordinates":[-82.087458,29.240728]}},{"properties":{"zip":"34994","geo_score":0.714,"id":"a65jvaste70k","geo_precision":"zip","revenue":7764.0},"type":"Feature","geometry":{"type":"Point","coordinates":[-80.254768,27.189748]}},{"properties":{"zip":"34996","geo_score":0.714,"id":"a65jvawgg4lo","geo_precision":"zip","revenue":18699.6},"type":"Feature","geometry":{"type":"Point","coordinates":[-80.195911,27.205819]}},{"properties":{"zip":"35209","geo_score":0.714,"id":"a65jvaib455m","geo_precision":"zip","revenue":10244.0},"type":"Feature","geometry":{"type":"Point","coordinates":[-86.800823,33.471773]}},{"properties":{"zip":"35213","geo_score":0.714,"id":"a65jvahyflk7","geo_precision":"zip","revenue":3056.0},"type":"Feature","geometry":{"type":"Point","coordinates":[-86.752766,33.506772]}},{"properties":{"zip":"35223","geo_score":0.714,"id":"a65jvan1c0wq","geo_precision":"zip","revenue":3631.0},"type":"Feature","geometry":{"type":"Point","coordinates":[-86.775267,33.503161]}},{"properties":{"zip":"36116","geo_score":0.714,"id":"a65jvan74cba","geo_precision":"zip","revenue":744.0},"type":"Feature","geometry":{"type":"Point","coordinates":[-86.228765,32.285501]}},{"properties":{"zip":"36532","geo_score":0.714,"id":"a65jvah4p3e6","geo_precision":"zip","revenue":1440.0},"type":"Feature","geometry":{"type":"Point","coordinates":[-87.90166,30.533805]}},{"properties":{"zip":"36607","geo_score":0.714,"id":"a65jvakbjc4g","geo_precision":"zip","revenue":480.0},"type":"Feature","geometry":{"type":"Point","coordinates":[-88.106112,30.706301]}},{"properties":{"zip":"37064","geo_score":0.714,"id":"a65jvalbdru9","geo_precision":"zip","revenue":3626.0},"type":"Feature","geometry":{"type":"Point","coordinates":[-86.926391,35.892565]}},{"properties":{"zip":"37069","geo_score":0.714,"id":"a65jvau9jhat","geo_precision":"zip","revenue":1056.0},"type":"Feature","geometry":{"type":"Point","coordinates":[-86.910623,35.979553]}},{"properties":{"zip":"37215","geo_score":0.714,"id":"a65jvak4v0qs","geo_precision":"zip","revenue":989.85},"type":"Feature","geometry":{"type":"Point","coordinates":[-86.973892,36.034506]}},{"properties":{"zip":"37303","geo_score":0.714,"id":"a65jvaon7x44","geo_precision":"zip","revenue":760.0},"type":"Feature","geometry":{"type":"Point","coordinates":[-84.559377,35.362851]}},{"properties":{"zip":"37919","geo_score":0.714,"id":"a65jvaur40r8","geo_precision":"zip","revenue":1568.0},"type":"Feature","geometry":{"type":"Point","coordinates":[-84.03491,35.900081]}},{"properties":{"zip":"38103","geo_score":0.714,"id":"a65jvasurxp0","geo_precision":"zip","revenue":2534.0},"type":"Feature","geometry":{"type":"Point","coordinates":[-90.049631,35.154875]}},{"properties":{"zip":"38117","geo_score":0.714,"id":"a65jvaiowz3i","geo_precision":"zip","revenue":720.0},"type":"Feature","geometry":{"type":"Point","coordinates":[-89.906749,35.113588]}},{"properties":{"zip":"38119","geo_score":0.714,"id":"a65jvai4umjq","geo_precision":"zip","revenue":1436.0},"type":"Feature","geometry":{"type":"Point","coordinates":[-89.907866,35.148701]}},{"properties":{"zip":"38138","geo_score":0.714,"id":"a65jvavy8jjo","geo_precision":"zip","revenue":4008.0},"type":"Feature","geometry":{"type":"Point","coordinates":[-89.759251,35.063147]}},{"properties":{"zip":"38305","geo_score":0.714,"id":"a65jvaq7p7td","geo_precision":"zip","revenue":1698.0},"type":"Feature","geometry":{"type":"Point","coordinates":[-88.835682,35.652446]}},{"properties":{"zip":"38555","geo_score":0.714,"id":"a65jvanr461c","geo_precision":"zip","revenue":1472.0},"type":"Feature","geometry":{"type":"Point","coordinates":[-85.063848,36.066734]}},{"properties":{"zip":"38655","geo_score":0.714,"id":"a65jvat9ak26","geo_precision":"zip","revenue":2052.0},"type":"Feature","geometry":{"type":"Point","coordinates":[-89.4148,34.278163]}},{"properties":{"zip":"38664","geo_score":0.714,"id":"a65jvavlktkn","geo_precision":"zip","revenue":800.0},"type":"Feature","geometry":{"type":"Point","coordinates":[-90.279819,34.865931]}},{"properties":{"zip":"38701","geo_score":0.714,"id":"a65jvalguf9l","geo_precision":"zip","revenue":456.0},"type":"Feature","geometry":{"type":"Point","coordinates":[-91.059829,33.337618]}},{"properties":{"zip":"38804","geo_score":0.714,"id":"a65jvak27hia","geo_precision":"zip","revenue":2310.0},"type":"Feature","geometry":{"type":"Point","coordinates":[-88.684672,34.3371]}},{"properties":{"zip":"39110","geo_score":0.714,"id":"a65jvan61e8t","geo_precision":"zip","revenue":3588.0},"type":"Feature","geometry":{"type":"Point","coordinates":[-90.100919,32.516529]}},{"properties":{"zip":"39211","geo_score":0.714,"id":"a65jvamidqb2","geo_precision":"zip","revenue":714.0},"type":"Feature","geometry":{"type":"Point","coordinates":[-90.123786,32.366844]}},{"properties":{"zip":"39305","geo_score":0.714,"id":"a65jvalr01zn","geo_precision":"zip","revenue":768.0},"type":"Feature","geometry":{"type":"Point","coordinates":[-88.658234,32.403111]}},{"properties":{"zip":"39507","geo_score":0.714,"id":"a65jvakx0lkv","geo_precision":"zip","revenue":532.0},"type":"Feature","geometry":{"type":"Point","coordinates":[-89.031635,30.400079]}},{"properties":{"zip":"40059","geo_score":0.714,"id":"a65jvasfdcot","geo_precision":"zip","revenue":1376.0},"type":"Feature","geometry":{"type":"Point","coordinates":[-85.521627,38.432565]}},{"properties":{"zip":"40207","geo_score":0.714,"id":"a65jvapi8m54","geo_precision":"zip","revenue":1142.0},"type":"Feature","geometry":{"type":"Point","coordinates":[-85.629128,38.26146]}},{"properties":{"zip":"40222","geo_score":0.714,"id":"a65jvaph4s37","geo_precision":"zip","revenue":4280.0},"type":"Feature","geometry":{"type":"Point","coordinates":[-85.561627,38.315625]}},{"properties":{"zip":"40503","geo_score":0.714,"id":"a65jvah36tqr","geo_precision":"zip","revenue":8992.0},"type":"Feature","geometry":{"type":"Point","coordinates":[-84.530773,38.019522]}},{"properties":{"zip":"40505","geo_score":0.714,"id":"a65jvapu5ofj","geo_precision":"zip","revenue":3610.0},"type":"Feature","geometry":{"type":"Point","coordinates":[-84.623555,38.142019]}},{"properties":{"zip":"40508","geo_score":0.714,"id":"a65jvai8gvvi","geo_precision":"zip","revenue":4024.0},"type":"Feature","geometry":{"type":"Point","coordinates":[-84.498954,38.051285]}},{"properties":{"zip":"40741","geo_score":0.714,"id":"a65jvalld9pr","geo_precision":"zip","revenue":6730.0},"type":"Feature","geometry":{"type":"Point","coordinates":[-84.083542,37.094533]}},{"properties":{"zip":"41017","geo_score":0.714,"id":"a65jvajdzzvj","geo_precision":"zip","revenue":3876.0},"type":"Feature","geometry":{"type":"Point","coordinates":[-84.593,39.063393]}},{"properties":{"zip":"42071","geo_score":0.714,"id":"a65jvan9mc2d","geo_precision":"zip","revenue":174.0},"type":"Feature","geometry":{"type":"Point","coordinates":[-88.388097,36.58339]}},{"properties":{"zip":"42104","geo_score":0.714,"id":"a65jvas8jyf3","geo_precision":"zip","revenue":1976.0},"type":"Feature","geometry":{"type":"Point","coordinates":[-86.436936,36.916708]}},{"properties":{"zip":"43017","geo_score":0.714,"id":"a65jvai5lnvf","geo_precision":"zip","revenue":2410.0},"type":"Feature","geometry":{"type":"Point","coordinates":[-82.814456,40.076041]}},{"properties":{"zip":"43221","geo_score":0.714,"id":"a65jvah0pkwq","geo_precision":"zip","revenue":512.0},"type":"Feature","geometry":{"type":"Point","coordinates":[-83.062408,39.994508]}},{"properties":{"zip":"43551","geo_score":0.714,"id":"a65jvaqkw1g9","geo_precision":"zip","revenue":522.0},"type":"Feature","geometry":{"type":"Point","coordinates":[-83.566878,41.535052]}},{"properties":{"zip":"43560","geo_score":0.714,"id":"a65jvaimkzvk","geo_precision":"zip","revenue":1890.0},"type":"Feature","geometry":{"type":"Point","coordinates":[-83.742161,41.68144]}},{"properties":{"zip":"43604","geo_score":0.714,"id":"a65jvapha6ye","geo_precision":"zip","revenue":5761.6},"type":"Feature","geometry":{"type":"Point","coordinates":[-83.536833,41.655798]}},{"properties":{"zip":"43615","geo_score":0.714,"id":"a65jvas6ejq2","geo_precision":"zip","revenue":304.0},"type":"Feature","geometry":{"type":"Point","coordinates":[-83.664659,41.653384]}},{"properties":{"zip":"44122","geo_score":0.714,"id":"a65jvagtv25i","geo_precision":"zip","revenue":1086.0},"type":"Feature","geometry":{"type":"Point","coordinates":[-81.480675,41.462276]}},{"properties":{"zip":"44124","geo_score":0.714,"id":"a65jvauk8jt4","geo_precision":"zip","revenue":3912.0},"type":"Feature","geometry":{"type":"Point","coordinates":[-81.46373,41.478387]}},{"properties":{"zip":"44145","geo_score":0.714,"id":"a65jvaud9o7r","geo_precision":"zip","revenue":4570.0},"type":"Feature","geometry":{"type":"Point","coordinates":[-81.921811,41.445145]}},{"properties":{"zip":"44236","geo_score":0.714,"id":"a65jvajnvxdb","geo_precision":"zip","revenue":13792.0},"type":"Feature","geometry":{"type":"Point","coordinates":[-81.410666,41.264223]}},{"properties":{"zip":"44512","geo_score":0.714,"id":"a65jvau1jsq5","geo_precision":"zip","revenue":608.0},"type":"Feature","geometry":{"type":"Point","coordinates":[-80.662853,41.024226]}},{"properties":{"zip":"45208","geo_score":0.714,"id":"a65jvax65mna","geo_precision":"zip","revenue":2152.0},"type":"Feature","geometry":{"type":"Point","coordinates":[-84.43383,39.142004]}},{"properties":{"zip":"45230","geo_score":0.714,"id":"a65jvaioxtwz","geo_precision":"zip","revenue":228.0},"type":"Feature","geometry":{"type":"Point","coordinates":[-84.364384,39.075617]}},{"properties":{"zip":"45243","geo_score":0.714,"id":"a65jvao3adkv","geo_precision":"zip","revenue":3962.0},"type":"Feature","geometry":{"type":"Point","coordinates":[-84.295771,39.249781]}},{"properties":{"zip":"45419","geo_score":0.714,"id":"a65jvaw4n35q","geo_precision":"zip","revenue":1952.0},"type":"Feature","geometry":{"type":"Point","coordinates":[-84.174106,39.725337]}},{"properties":{"zip":"45503","geo_score":0.714,"id":"a65jvathxkpo","geo_precision":"zip","revenue":76.0},"type":"Feature","geometry":{"type":"Point","coordinates":[-83.758538,39.965338]}},{"properties":{"zip":"46220","geo_score":0.714,"id":"a65jvaumgylz","geo_precision":"zip","revenue":2403.0},"type":"Feature","geometry":{"type":"Point","coordinates":[-86.073319,39.899762]}},{"properties":{"zip":"46240","geo_score":0.714,"id":"a65jvapvwa44","geo_precision":"zip","revenue":96.0},"type":"Feature","geometry":{"type":"Point","coordinates":[-86.150266,39.899762]}},{"properties":{"zip":"46383","geo_score":0.714,"id":"a65jval9zeva","geo_precision":"zip","revenue":2572.0},"type":"Feature","geometry":{"type":"Point","coordinates":[-87.097253,41.464761]}},{"properties":{"zip":"46514","geo_score":0.714,"id":"a65jvax4mz34","geo_precision":"zip","revenue":3310.0},"type":"Feature","geometry":{"type":"Point","coordinates":[-85.975001,41.754216]}},{"properties":{"zip":"46530","geo_score":0.714,"id":"a65jvapwny9e","geo_precision":"zip","revenue":384.0},"type":"Feature","geometry":{"type":"Point","coordinates":[-86.139868,41.734912]}},{"properties":{"zip":"46615","geo_score":0.714,"id":"a65jvalryrkg","geo_precision":"zip","revenue":204.0},"type":"Feature","geometry":{"type":"Point","coordinates":[-86.216105,41.677046]}},{"properties":{"zip":"46804","geo_score":0.714,"id":"a65jvahppvzn","geo_precision":"zip","revenue":456.0},"type":"Feature","geometry":{"type":"Point","coordinates":[-85.210528,41.069215]}},{"properties":{"zip":"47201","geo_score":0.714,"id":"a65jvauml45n","geo_precision":"zip","revenue":570.0},"type":"Feature","geometry":{"type":"Point","coordinates":[-85.891338,39.191447]}},{"properties":{"zip":"47401","geo_score":0.714,"id":"a65jvant7lvp","geo_precision":"zip","revenue":954.0},"type":"Feature","geometry":{"type":"Point","coordinates":[-86.383326,39.150326]}},{"properties":{"zip":"47960","geo_score":0.714,"id":"a65jvamt5yaf","geo_precision":"zip","revenue":1074.0},"type":"Feature","geometry":{"type":"Point","coordinates":[-86.754456,40.698927]}},{"properties":{"zip":"48009","geo_score":0.714,"id":"a65jvanliao6","geo_precision":"zip","revenue":4464.0},"type":"Feature","geometry":{"type":"Point","coordinates":[-83.22416,42.534834]}},{"properties":{"zip":"48034","geo_score":0.714,"id":"a65jvarciwio","geo_precision":"zip","revenue":352.0},"type":"Feature","geometry":{"type":"Point","coordinates":[-83.424938,42.600032]}},{"properties":{"zip":"48116","geo_score":0.714,"id":"a65jvamozo72","geo_precision":"zip","revenue":560.0},"type":"Feature","geometry":{"type":"Point","coordinates":[-83.776055,42.529541]}},{"properties":{"zip":"48307","geo_score":0.714,"id":"a65jvakqlcyh","geo_precision":"zip","revenue":1144.0},"type":"Feature","geometry":{"type":"Point","coordinates":[-83.122482,42.659283]}},{"properties":{"zip":"48322","geo_score":0.714,"id":"a65jvapkz6dp","geo_precision":"zip","revenue":2416.0},"type":"Feature","geometry":{"type":"Point","coordinates":[-83.379535,42.542715]}},{"properties":{"zip":"48326","geo_score":0.714,"id":"a65jvahc1o1w","geo_precision":"zip","revenue":0.0},"type":"Feature","geometry":{"type":"Point","coordinates":[-83.316605,42.698643]}},{"properties":{"zip":"48381","geo_score":0.714,"id":"a65jvanbzr6k","geo_precision":"zip","revenue":2134.0},"type":"Feature","geometry":{"type":"Point","coordinates":[-83.579098,42.554322]}},{"properties":{"zip":"48433","geo_score":0.714,"id":"a65jvalteb62","geo_precision":"zip","revenue":1396.0},"type":"Feature","geometry":{"type":"Point","coordinates":[-83.886631,43.117805]}},{"properties":{"zip":"48439","geo_score":0.714,"id":"a65jvare5kp6","geo_precision":"zip","revenue":4520.0},"type":"Feature","geometry":{"type":"Point","coordinates":[-83.67376,42.9227]}},{"properties":{"zip":"48858","geo_score":0.714,"id":"a65jvavceyzn","geo_precision":"zip","revenue":1272.0},"type":"Feature","geometry":{"type":"Point","coordinates":[-84.951967,43.625029]}},{"properties":{"zip":"49007","geo_score":0.714,"id":"a65jvawdfk9a","geo_precision":"zip","revenue":2920.0},"type":"Feature","geometry":{"type":"Point","coordinates":[-85.58973,42.332817]}},{"properties":{"zip":"49085","geo_score":0.714,"id":"a65jvavypyk7","geo_precision":"zip","revenue":1866.0},"type":"Feature","geometry":{"type":"Point","coordinates":[-86.470299,42.061431]}},{"properties":{"zip":"49117","geo_score":0.714,"id":"a65jvandvh8i","geo_precision":"zip","revenue":1170.0},"type":"Feature","geometry":{"type":"Point","coordinates":[-86.813362,41.764207]}},{"properties":{"zip":"49423","geo_score":0.714,"id":"a65jvav8sb3i","geo_precision":"zip","revenue":7788.0},"type":"Feature","geometry":{"type":"Point","coordinates":[-86.176153,42.772245]}},{"properties":{"zip":"49506","geo_score":0.714,"id":"a65jvajdkrdf","geo_precision":"zip","revenue":4848.0},"type":"Feature","geometry":{"type":"Point","coordinates":[-85.610028,42.941139]}},{"properties":{"zip":"49546","geo_score":0.714,"id":"a65jvaljuuvh","geo_precision":"zip","revenue":7638.0},"type":"Feature","geometry":{"type":"Point","coordinates":[-85.53904,42.930146]}},{"properties":{"zip":"49635","geo_score":0.714,"id":"a65jvagv5mjr","geo_precision":"zip","revenue":696.0},"type":"Feature","geometry":{"type":"Point","coordinates":[-86.24593,44.664998]}},{"properties":{"zip":"49684","geo_score":0.714,"id":"a65jvamypwul","geo_precision":"zip","revenue":3966.0},"type":"Feature","geometry":{"type":"Point","coordinates":[-85.506744,44.895279]}},{"properties":{"zip":"49740","geo_score":0.714,"id":"a65jvai08wck","geo_precision":"zip","revenue":1980.0},"type":"Feature","geometry":{"type":"Point","coordinates":[-84.913106,45.415288]}},{"properties":{"zip":"49757","geo_score":0.714,"id":"a65jvalor2hw","geo_precision":"zip","revenue":32.0},"type":"Feature","geometry":{"type":"Point","coordinates":[-84.618203,45.853721]}},{"properties":{"zip":"49770","geo_score":0.714,"id":"a65jvaqws7s7","geo_precision":"zip","revenue":46862.07},"type":"Feature","geometry":{"type":"Point","coordinates":[-84.801988,45.362789]}},{"properties":{"zip":"50219","geo_score":0.714,"id":"a65jvahhn5ih","geo_precision":"zip","revenue":2403.6},"type":"Feature","geometry":{"type":"Point","coordinates":[-92.801306,41.461943]}},{"properties":{"zip":"50309","geo_score":0.714,"id":"a65jvans3rq5","geo_precision":"zip","revenue":2711.0},"type":"Feature","geometry":{"type":"Point","coordinates":[-93.552438,41.570823]}},{"properties":{"zip":"50322","geo_score":0.714,"id":"a65jvarefsgg","geo_precision":"zip","revenue":832.0},"type":"Feature","geometry":{"type":"Point","coordinates":[-93.686609,41.645822]}},{"properties":{"zip":"52240","geo_score":0.714,"id":"a65jvapwgwf0","geo_precision":"zip","revenue":2658.0},"type":"Feature","geometry":{"type":"Point","coordinates":[-91.66128,41.569183]}},{"properties":{"zip":"52302","geo_score":0.714,"id":"a65jvas6wscj","geo_precision":"zip","revenue":1320.0},"type":"Feature","geometry":{"type":"Point","coordinates":[-91.696844,42.106107]}},{"properties":{"zip":"52722","geo_score":0.714,"id":"a65jvao3pvuf","geo_precision":"zip","revenue":4706.8},"type":"Feature","geometry":{"type":"Point","coordinates":[-90.458188,41.544478]}},{"properties":{"zip":"52806","geo_score":0.714,"id":"a65jvavr7t7t","geo_precision":"zip","revenue":70050.6},"type":"Feature","geometry":{"type":"Point","coordinates":[-90.633688,41.545731]}},{"properties":{"zip":"53044","geo_score":0.714,"id":"a65jvav6ayck","geo_precision":"zip","revenue":1186.0},"type":"Feature","geometry":{"type":"Point","coordinates":[-87.776246,43.748441]}},{"properties":{"zip":"53045","geo_score":0.714,"id":"a65jvan9hh6v","geo_precision":"zip","revenue":570.0},"type":"Feature","geometry":{"type":"Point","coordinates":[-88.15589,43.06081]}},{"properties":{"zip":"53070","geo_score":0.714,"id":"a65jvanpawam","geo_precision":"zip","revenue":1064.0},"type":"Feature","geometry":{"type":"Point","coordinates":[-87.810616,43.620857]}},{"properties":{"zip":"53092","geo_score":0.714,"id":"a65jvapom3pp","geo_precision":"zip","revenue":2580.0},"type":"Feature","geometry":{"type":"Point","coordinates":[-88.04259,43.236118]}},{"properties":{"zip":"53202","geo_score":0.714,"id":"a65jvajaon2p","geo_precision":"zip","revenue":1374.0},"type":"Feature","geometry":{"type":"Point","coordinates":[-87.894734,43.043213]}},{"properties":{"zip":"53211","geo_score":0.714,"id":"a65jvavux8zy","geo_precision":"zip","revenue":342.0},"type":"Feature","geometry":{"type":"Point","coordinates":[-87.887585,43.089179]}},{"properties":{"zip":"53213","geo_score":0.714,"id":"a65jvaoxmt8z","geo_precision":"zip","revenue":2934.0},"type":"Feature","geometry":{"type":"Point","coordinates":[-88.007588,43.049457]}},{"properties":{"zip":"53562","geo_score":0.714,"id":"a65jvamzmmaq","geo_precision":"zip","revenue":942.0},"type":"Feature","geometry":{"type":"Point","coordinates":[-89.484009,43.104162]}},{"properties":{"zip":"54212","geo_score":0.714,"id":"a65jvao1da1l","geo_precision":"zip","revenue":512.0},"type":"Feature","geometry":{"type":"Point","coordinates":[-87.209899,45.11038]}},{"properties":{"zip":"54234","geo_score":0.714,"id":"a65jvalkg2ns","geo_precision":"zip","revenue":800.0},"type":"Feature","geometry":{"type":"Point","coordinates":[-87.101748,45.178293]}},{"properties":{"zip":"54601","geo_score":0.714,"id":"a65jvar2t6bj","geo_precision":"zip","revenue":672.0},"type":"Feature","geometry":{"type":"Point","coordinates":[-91.041799,43.785524]}},{"properties":{"zip":"54901","geo_score":0.714,"id":"a65jvanmn09l","geo_precision":"zip","revenue":1376.0},"type":"Feature","geometry":{"type":"Point","coordinates":[-88.640389,43.909151]}},{"properties":{"zip":"55110","geo_score":0.714,"id":"a65jvaoi0zkc","geo_precision":"zip","revenue":1382.0},"type":"Feature","geometry":{"type":"Point","coordinates":[-92.989106,45.099689]}},{"properties":{"zip":"55345","geo_score":0.714,"id":"a65jvamnrjgv","geo_precision":"zip","revenue":3340.0},"type":"Feature","geometry":{"type":"Point","coordinates":[-93.481749,44.916963]}},{"properties":{"zip":"55378","geo_score":0.714,"id":"a65jvahbhs4i","geo_precision":"zip","revenue":4252.0},"type":"Feature","geometry":{"type":"Point","coordinates":[-93.331058,44.788298]}},{"properties":{"zip":"55391","geo_score":0.714,"id":"a65jvalxqizr","geo_precision":"zip","revenue":7082.0},"type":"Feature","geometry":{"type":"Point","coordinates":[-93.504121,44.946908]}},{"properties":{"zip":"55401","geo_score":0.714,"id":"a65jvaw6vagi","geo_precision":"zip","revenue":1144.0},"type":"Feature","geometry":{"type":"Point","coordinates":[-93.273024,44.979265]}},{"properties":{"zip":"55416","geo_score":0.714,"id":"a65jvantc7r1","geo_precision":"zip","revenue":3878.0},"type":"Feature","geometry":{"type":"Point","coordinates":[-93.337326,44.949714]}},{"properties":{"zip":"55424","geo_score":0.714,"id":"a65jvaklgrsv","geo_precision":"zip","revenue":912.0},"type":"Feature","geometry":{"type":"Point","coordinates":[-93.363838,44.86302]}},{"properties":{"zip":"55435","geo_score":0.714,"id":"a65jvauppnt4","geo_precision":"zip","revenue":2944.0},"type":"Feature","geometry":{"type":"Point","coordinates":[-93.367327,44.932864]}},{"properties":{"zip":"55438","geo_score":0.714,"id":"a65jvajj3bao","geo_precision":"zip","revenue":474.0},"type":"Feature","geometry":{"type":"Point","coordinates":[-93.375027,44.826613]}},{"properties":{"zip":"55901","geo_score":0.714,"id":"a65jvat1bdnj","geo_precision":"zip","revenue":1512.0},"type":"Feature","geometry":{"type":"Point","coordinates":[-92.516916,44.075285]}},{"properties":{"zip":"56001","geo_score":0.714,"id":"a65jvarv52su","geo_precision":"zip","revenue":1808.0},"type":"Feature","geometry":{"type":"Point","coordinates":[-94.030789,44.142188]}},{"properties":{"zip":"56401","geo_score":0.714,"id":"a65jvakeqlkz","geo_precision":"zip","revenue":1142.0},"type":"Feature","geometry":{"type":"Point","coordinates":[-93.914426,46.214406]}},{"properties":{"zip":"59937","geo_score":0.714,"id":"a65jvajqq6qu","geo_precision":"zip","revenue":1170.4},"type":"Feature","geometry":{"type":"Point","coordinates":[-114.365126,48.274564]}},{"properties":{"zip":"60004","geo_score":0.714,"id":"a65jvaojvd0s","geo_precision":"zip","revenue":64.0},"type":"Feature","geometry":{"type":"Point","coordinates":[-87.99822,42.085626]}},{"properties":{"zip":"60010","geo_score":0.714,"id":"a65jvatft1bm","geo_precision":"zip","revenue":1368.0},"type":"Feature","geometry":{"type":"Point","coordinates":[-88.152025,42.231968]}},{"properties":{"zip":"60014","geo_score":0.714,"id":"a65jvapjgrft","geo_precision":"zip","revenue":228.0},"type":"Feature","geometry":{"type":"Point","coordinates":[-88.300642,42.281689]}},{"properties":{"zip":"60015","geo_score":0.714,"id":"a65jvaitloov","geo_precision":"zip","revenue":4252.0},"type":"Feature","geometry":{"type":"Point","coordinates":[-87.897014,42.167525]}},{"properties":{"zip":"60022","geo_score":0.714,"id":"a65jvakf4fc6","geo_precision":"zip","revenue":1208.0},"type":"Feature","geometry":{"type":"Point","coordinates":[-87.815914,42.102927]}},{"properties":{"zip":"60025","geo_score":0.714,"id":"a65jvamk636z","geo_precision":"zip","revenue":868.0},"type":"Feature","geometry":{"type":"Point","coordinates":[-87.875345,42.086694]}},{"properties":{"zip":"60035","geo_score":0.714,"id":"a65jvam687ie","geo_precision":"zip","revenue":7708.0},"type":"Feature","geometry":{"type":"Point","coordinates":[-87.772286,42.152526]}},{"properties":{"zip":"60045","geo_score":0.714,"id":"a65jvapagui7","geo_precision":"zip","revenue":1768.0},"type":"Feature","geometry":{"type":"Point","coordinates":[-87.873126,42.221968]}},{"properties":{"zip":"60047","geo_score":0.714,"id":"a65jvatng9f0","geo_precision":"zip","revenue":574.0},"type":"Feature","geometry":{"type":"Point","coordinates":[-88.047853,42.170581]}},{"properties":{"zip":"60068","geo_score":0.714,"id":"a65jvatjghyx","geo_precision":"zip","revenue":186.0},"type":"Feature","geometry":{"type":"Point","coordinates":[-87.843714,42.037228]}},{"properties":{"zip":"60091","geo_score":0.714,"id":"a65jvajkrii4","geo_precision":"zip","revenue":38.0},"type":"Feature","geometry":{"type":"Point","coordinates":[-87.72836,42.079228]}},{"properties":{"zip":"60093","geo_score":0.714,"id":"a65jvaigcva7","geo_precision":"zip","revenue":6093.17},"type":"Feature","geometry":{"type":"Point","coordinates":[-87.647822,41.501702]}},{"properties":{"zip":"60137","geo_score":0.714,"id":"a65jvapj3oab","geo_precision":"zip","revenue":2458.0},"type":"Feature","geometry":{"type":"Point","coordinates":[-88.067844,41.830308]}},{"properties":{"zip":"60201","geo_score":0.714,"id":"a65jvasaw7r4","geo_precision":"zip","revenue":4790.0},"type":"Feature","geometry":{"type":"Point","coordinates":[-87.702155,42.049148]}},{"properties":{"zip":"60301","geo_score":0.714,"id":"a65jvarpq02e","geo_precision":"zip","revenue":1946.0},"type":"Feature","geometry":{"type":"Point","coordinates":[-87.68732,41.811929]}},{"properties":{"zip":"60521","geo_score":0.714,"id":"a65jvaj8d5fm","geo_precision":"zip","revenue":5648.0},"type":"Feature","geometry":{"type":"Point","coordinates":[-87.935893,41.769753]}},{"properties":{"zip":"60525","geo_score":0.714,"id":"a65jvajv58yr","geo_precision":"zip","revenue":2302.0},"type":"Feature","geometry":{"type":"Point","coordinates":[-87.902281,41.770309]}},{"properties":{"zip":"60543","geo_score":0.714,"id":"a65jvajbnzm9","geo_precision":"zip","revenue":750.0},"type":"Feature","geometry":{"type":"Point","coordinates":[-88.420476,41.631012]}},{"properties":{"zip":"60610","geo_score":0.714,"id":"a65jvapfzucz","geo_precision":"zip","revenue":1180.0},"type":"Feature","geometry":{"type":"Point","coordinates":[-87.68732,41.811929]}},{"properties":{"zip":"60611","geo_score":0.714,"id":"a65jvagr0ozb","geo_precision":"zip","revenue":3076.0},"type":"Feature","geometry":{"type":"Point","coordinates":[-87.68732,41.811929]}},{"properties":{"zip":"60614","geo_score":0.714,"id":"a65jvak08ej4","geo_precision":"zip","revenue":1560.0},"type":"Feature","geometry":{"type":"Point","coordinates":[-87.68732,41.811929]}},{"properties":{"zip":"60657","geo_score":0.714,"id":"a65jvanblw6y","geo_precision":"zip","revenue":38.0},"type":"Feature","geometry":{"type":"Point","coordinates":[-87.68732,41.811929]}},{"properties":{"zip":"61107","geo_score":0.714,"id":"a65jvakc1q22","geo_precision":"zip","revenue":792.0},"type":"Feature","geometry":{"type":"Point","coordinates":[-89.01621,42.284055]}},{"properties":{"zip":"61401","geo_score":0.714,"id":"a65jvauogky0","geo_precision":"zip","revenue":3079.6},"type":"Feature","geometry":{"type":"Point","coordinates":[-90.411519,41.01976]}},{"properties":{"zip":"61614","geo_score":0.714,"id":"a65jvanemyyq","geo_precision":"zip","revenue":4120.0},"type":"Feature","geometry":{"type":"Point","coordinates":[-89.660378,40.718093]}},{"properties":{"zip":"61820","geo_score":0.714,"id":"a65jvat461q4","geo_precision":"zip","revenue":2734.0},"type":"Feature","geometry":{"type":"Point","coordinates":[-88.235605,40.142532]}},{"properties":{"zip":"62025","geo_score":0.714,"id":"a65jvavdpwgj","geo_precision":"zip","revenue":1554.0},"type":"Feature","geometry":{"type":"Point","coordinates":[-90.038716,38.834492]}},{"properties":{"zip":"62220","geo_score":0.714,"id":"a65jvaq8qnby","geo_precision":"zip","revenue":5766.0},"type":"Feature","geometry":{"type":"Point","coordinates":[-89.973877,38.46435]}},{"properties":{"zip":"62704","geo_score":0.714,"id":"a65jvassh4vs","geo_precision":"zip","revenue":80.0},"type":"Feature","geometry":{"type":"Point","coordinates":[-89.679267,39.776995]}},{"properties":{"zip":"62704-7435","geo_score":0.714,"id":"a65jvaml4u89","geo_precision":"zip","revenue":8474.0},"type":"Feature","geometry":{"type":"Point","coordinates":[-89.679267,39.776995]}},{"properties":{"zip":"63011","geo_score":0.714,"id":"a65jvajebuzf","geo_precision":"zip","revenue":3826.0},"type":"Feature","geometry":{"type":"Point","coordinates":[-90.5279,38.590331]}},{"properties":{"zip":"63017","geo_score":0.714,"id":"a65jvankjgby","geo_precision":"zip","revenue":17731.0},"type":"Feature","geometry":{"type":"Point","coordinates":[-90.617902,38.668108]}},{"properties":{"zip":"63026","geo_score":0.714,"id":"a65jvau6vfgi","geo_precision":"zip","revenue":38.0},"type":"Feature","geometry":{"type":"Point","coordinates":[-90.487066,38.490332]}},{"properties":{"zip":"63038","geo_score":0.714,"id":"a65jvawwjwqt","geo_precision":"zip","revenue":598.0},"type":"Feature","geometry":{"type":"Point","coordinates":[-90.656238,38.580331]}},{"properties":{"zip":"63040","geo_score":0.714,"id":"a65jvapiz2fm","geo_precision":"zip","revenue":3628.0},"type":"Feature","geometry":{"type":"Point","coordinates":[-90.630975,38.566718]}},{"properties":{"zip":"63105","geo_score":0.714,"id":"a65jvapkn9ol","geo_precision":"zip","revenue":276.0},"type":"Feature","geometry":{"type":"Point","coordinates":[-90.323726,38.642552]}},{"properties":{"zip":"63119","geo_score":0.714,"id":"a65jvakhbniz","geo_precision":"zip","revenue":3156.0},"type":"Feature","geometry":{"type":"Point","coordinates":[-90.336783,38.59033]}},{"properties":{"zip":"63122","geo_score":0.714,"id":"a65jvaiyx6ji","geo_precision":"zip","revenue":6594.0},"type":"Feature","geometry":{"type":"Point","coordinates":[-90.411785,38.56672]}},{"properties":{"zip":"63124","geo_score":0.714,"id":"a65jvan8el35","geo_precision":"zip","revenue":15914.4},"type":"Feature","geometry":{"type":"Point","coordinates":[-90.380673,38.649774]}},{"properties":{"zip":"63131","geo_score":0.714,"id":"a65jvalp47la","geo_precision":"zip","revenue":4510.0},"type":"Feature","geometry":{"type":"Point","coordinates":[-90.439841,38.643664]}},{"properties":{"zip":"63132","geo_score":0.714,"id":"a65jvavm5d0d","geo_precision":"zip","revenue":2143.2},"type":"Feature","geometry":{"type":"Point","coordinates":[-90.37595,38.66533]}},{"properties":{"zip":"64063","geo_score":0.714,"id":"a65jvajygu18","geo_precision":"zip","revenue":912.0},"type":"Feature","geometry":{"type":"Point","coordinates":[-94.401618,38.951396]}},{"properties":{"zip":"65265","geo_score":0.714,"id":"a65jvav7j5b9","geo_precision":"zip","revenue":21088.0},"type":"Feature","geometry":{"type":"Point","coordinates":[-91.843503,39.163096]}},{"properties":{"zip":"65714","geo_score":0.714,"id":"a65jvanvvrfx","geo_precision":"zip","revenue":60.0},"type":"Feature","geometry":{"type":"Point","coordinates":[-93.246296,37.067552]}},{"properties":{"zip":"65807","geo_score":0.714,"id":"a65jvapm244k","geo_precision":"zip","revenue":20.0},"type":"Feature","geometry":{"type":"Point","coordinates":[-93.348705,37.158811]}},{"properties":{"zip":"66205","geo_score":0.714,"id":"a65jvauapqd4","geo_precision":"zip","revenue":912.0},"type":"Feature","geometry":{"type":"Point","coordinates":[-94.609957,39.038894]}},{"properties":{"zip":"66208","geo_score":0.714,"id":"a65jvaqdmsoz","geo_precision":"zip","revenue":36.0},"type":"Feature","geometry":{"type":"Point","coordinates":[-94.616901,39.017783]}},{"properties":{"zip":"66209","geo_score":0.714,"id":"a65jvaoraz6y","geo_precision":"zip","revenue":2454.0},"type":"Feature","geometry":{"type":"Point","coordinates":[-94.616901,38.966673]}},{"properties":{"zip":"67206","geo_score":0.714,"id":"a65jvaml69j4","geo_precision":"zip","revenue":456.0},"type":"Feature","geometry":{"type":"Point","coordinates":[-97.263655,37.68807]}},{"properties":{"zip":"68130","geo_score":0.714,"id":"a65jvargihco","geo_precision":"zip","revenue":384.0},"type":"Feature","geometry":{"type":"Point","coordinates":[-96.19506,41.234004]}},{"properties":{"zip":"68847","geo_score":0.714,"id":"a65jvajfl0i8","geo_precision":"zip","revenue":1488.0},"type":"Feature","geometry":{"type":"Point","coordinates":[-99.083422,40.749735]}},{"properties":{"zip":"70002","geo_score":0.714,"id":"a65jvamcc0qy","geo_precision":"zip","revenue":1412.0},"type":"Feature","geometry":{"type":"Point","coordinates":[-90.176491,30.008003]}},{"properties":{"zip":"70005","geo_score":0.714,"id":"a65jvaryzqxg","geo_precision":"zip","revenue":3236.0},"type":"Feature","geometry":{"type":"Point","coordinates":[-90.134428,29.998821]}},{"properties":{"zip":"70115","geo_score":0.714,"id":"a65jvarq7i4x","geo_precision":"zip","revenue":5868.0},"type":"Feature","geometry":{"type":"Point","coordinates":[-90.100773,29.938343]}},{"properties":{"zip":"70360","geo_score":0.714,"id":"a65jvajlikzh","geo_precision":"zip","revenue":760.0},"type":"Feature","geometry":{"type":"Point","coordinates":[-90.672589,29.554104]}},{"properties":{"zip":"70471","geo_score":0.714,"id":"a65jvaqcvett","geo_precision":"zip","revenue":778.0},"type":"Feature","geometry":{"type":"Point","coordinates":[-89.975815,30.343159]}},{"properties":{"zip":"70503","geo_score":0.714,"id":"a65jvamf6yvx","geo_precision":"zip","revenue":672.0},"type":"Feature","geometry":{"type":"Point","coordinates":[-92.059521,30.202892]}},{"properties":{"zip":"70508","geo_score":0.714,"id":"a65jvamnpwc2","geo_precision":"zip","revenue":570.0},"type":"Feature","geometry":{"type":"Point","coordinates":[-92.026859,30.181866]}},{"properties":{"zip":"70809","geo_score":0.714,"id":"a65jvawsh5r5","geo_precision":"zip","revenue":5668.0},"type":"Feature","geometry":{"type":"Point","coordinates":[-91.087605,30.413803]}},{"properties":{"zip":"70810","geo_score":0.714,"id":"a65jvalxt1d8","geo_precision":"zip","revenue":1842.0},"type":"Feature","geometry":{"type":"Point","coordinates":[-91.072118,30.355342]}},{"properties":{"zip":"71104","geo_score":0.714,"id":"a65jvapevgw3","geo_precision":"zip","revenue":912.0},"type":"Feature","geometry":{"type":"Point","coordinates":[-93.730764,32.483313]}},{"properties":{"zip":"71105","geo_score":0.714,"id":"a65jvauyjwuh","geo_precision":"zip","revenue":1906.0},"type":"Feature","geometry":{"type":"Point","coordinates":[-93.481008,32.194048]}},{"properties":{"zip":"71106","geo_score":0.714,"id":"a65jvaj99t3t","geo_precision":"zip","revenue":600.0},"type":"Feature","geometry":{"type":"Point","coordinates":[-93.727401,32.392655]}},{"properties":{"zip":"71201","geo_score":0.714,"id":"a65jvamdw9wn","geo_precision":"zip","revenue":1340.0},"type":"Feature","geometry":{"type":"Point","coordinates":[-92.0643,32.557087]}},{"properties":{"zip":"71270","geo_score":0.714,"id":"a65jvatemv6b","geo_precision":"zip","revenue":828.0},"type":"Feature","geometry":{"type":"Point","coordinates":[-92.698484,32.457652]}},{"properties":{"zip":"71291","geo_score":0.714,"id":"a65jvalwndbh","geo_precision":"zip","revenue":456.0},"type":"Feature","geometry":{"type":"Point","coordinates":[-92.141802,32.63264]}},{"properties":{"zip":"71303","geo_score":0.714,"id":"a65jvanwfo63","geo_precision":"zip","revenue":4145.2},"type":"Feature","geometry":{"type":"Point","coordinates":[-92.560697,31.311848]}},{"properties":{"zip":"72032","geo_score":0.714,"id":"a65jvatj7pbu","geo_precision":"zip","revenue":1440.0},"type":"Feature","geometry":{"type":"Point","coordinates":[-92.326542,35.027587]}},{"properties":{"zip":"72207","geo_score":0.714,"id":"a65jvai3i528","geo_precision":"zip","revenue":2864.0},"type":"Feature","geometry":{"type":"Point","coordinates":[-92.398488,34.793702]}},{"properties":{"zip":"72212","geo_score":0.714,"id":"a65jvavdsosn","geo_precision":"zip","revenue":1760.0},"type":"Feature","geometry":{"type":"Point","coordinates":[-92.441752,34.800793]}},{"properties":{"zip":"72401","geo_score":0.714,"id":"a65jvasvv5ff","geo_precision":"zip","revenue":3088.0},"type":"Feature","geometry":{"type":"Point","coordinates":[-90.900952,35.844241]}},{"properties":{"zip":"72701","geo_score":0.714,"id":"a65jvaio73u2","geo_precision":"zip","revenue":3096.0},"type":"Feature","geometry":{"type":"Point","coordinates":[-94.069368,36.075079]}},{"properties":{"zip":"72801","geo_score":0.714,"id":"a65jvam39s6v","geo_precision":"zip","revenue":576.0},"type":"Feature","geometry":{"type":"Point","coordinates":[-93.13573,35.318695]}},{"properties":{"zip":"73034","geo_score":0.714,"id":"a65jvar67sbp","geo_precision":"zip","revenue":5514.0},"type":"Feature","geometry":{"type":"Point","coordinates":[-97.478096,35.72533]}},{"properties":{"zip":"73069","geo_score":0.714,"id":"a65jvakwwuce","geo_precision":"zip","revenue":1968.0},"type":"Feature","geometry":{"type":"Point","coordinates":[-97.212528,35.23257]}},{"properties":{"zip":"73116","geo_score":0.714,"id":"a65jvah380z2","geo_precision":"zip","revenue":1730.0},"type":"Feature","geometry":{"type":"Point","coordinates":[-97.548929,35.55089]}},{"properties":{"zip":"73120","geo_score":0.714,"id":"a65jvahex50c","geo_precision":"zip","revenue":7006.0},"type":"Feature","geometry":{"type":"Point","coordinates":[-97.551429,35.56089]}},{"properties":{"zip":"73401","geo_score":0.714,"id":"a65jvavmmxxa","geo_precision":"zip","revenue":1344.0},"type":"Feature","geometry":{"type":"Point","coordinates":[-97.27474,34.252869]}},{"properties":{"zip":"74105","geo_score":0.714,"id":"a65jvastkjod","geo_precision":"zip","revenue":6491.0},"type":"Feature","geometry":{"type":"Point","coordinates":[-95.91987,36.097094]}},{"properties":{"zip":"74114","geo_score":0.714,"id":"a65jvaucnhoj","geo_precision":"zip","revenue":5300.0},"type":"Feature","geometry":{"type":"Point","coordinates":[-95.947421,36.125893]}},{"properties":{"zip":"75019","geo_score":0.714,"id":"a65jvap7if8o","geo_precision":"zip","revenue":838.0},"type":"Feature","geometry":{"type":"Point","coordinates":[-96.777626,32.767268]}},{"properties":{"zip":"75034","geo_score":0.714,"id":"a65jvakvbmtm","geo_precision":"zip","revenue":3490.0},"type":"Feature","geometry":{"type":"Point","coordinates":[-96.930005,33.220674]}},{"properties":{"zip":"75069","geo_score":0.714,"id":"a65jvaiiksr0","geo_precision":"zip","revenue":1424.0},"type":"Feature","geometry":{"type":"Point","coordinates":[-96.478876,33.09984]}},{"properties":{"zip":"75077","geo_score":0.714,"id":"a65jvav4s96b","geo_precision":"zip","revenue":600.0},"type":"Feature","geometry":{"type":"Point","coordinates":[-96.449707,33.204838]}},{"properties":{"zip":"75206","geo_score":0.714,"id":"a65jvareldj0","geo_precision":"zip","revenue":1788.0},"type":"Feature","geometry":{"type":"Point","coordinates":[-96.771528,32.833881]}},{"properties":{"zip":"75219","geo_score":0.714,"id":"a65jvanktvsv","geo_precision":"zip","revenue":2660.0},"type":"Feature","geometry":{"type":"Point","coordinates":[-96.777626,32.767268]}},{"properties":{"zip":"75247","geo_score":0.714,"id":"a65jvagx4ya9","geo_precision":"zip","revenue":3628.0},"type":"Feature","geometry":{"type":"Point","coordinates":[-96.752254,32.660247]}},{"properties":{"zip":"75503","geo_score":0.714,"id":"a65jvateqy60","geo_precision":"zip","revenue":1988.0},"type":"Feature","geometry":{"type":"Point","coordinates":[-94.116906,33.464376]}},{"properties":{"zip":"75605","geo_score":0.714,"id":"a65jvauf2j49","geo_precision":"zip","revenue":1136.0},"type":"Feature","geometry":{"type":"Point","coordinates":[-94.718839,32.505708]}},{"properties":{"zip":"76051","geo_score":0.714,"id":"a65jvamllzbw","geo_precision":"zip","revenue":1502.0},"type":"Feature","geometry":{"type":"Point","coordinates":[-97.080802,32.932843]}},{"properties":{"zip":"76063","geo_score":0.714,"id":"a65jvas6m2jh","geo_precision":"zip","revenue":2608.0},"type":"Feature","geometry":{"type":"Point","coordinates":[-97.13251,32.614857]}},{"properties":{"zip":"76234","geo_score":0.714,"id":"a65jvaopxemg","geo_precision":"zip","revenue":384.0},"type":"Feature","geometry":{"type":"Point","coordinates":[-97.87837,33.167894]}},{"properties":{"zip":"76301","geo_score":0.714,"id":"a65jvaqj73y4","geo_precision":"zip","revenue":1763.0},"type":"Feature","geometry":{"type":"Point","coordinates":[-98.589502,33.938985]}},{"properties":{"zip":"76426","geo_score":0.714,"id":"a65jvakftiyz","geo_precision":"zip","revenue":384.0},"type":"Feature","geometry":{"type":"Point","coordinates":[-97.697401,33.174802]}},{"properties":{"zip":"76430","geo_score":0.714,"id":"a65jvau9jusp","geo_precision":"zip","revenue":1536.0},"type":"Feature","geometry":{"type":"Point","coordinates":[-99.230077,32.932056]}},{"properties":{"zip":"76904-5553","geo_score":0.714,"id":"a65jvar9yrle","geo_precision":"zip","revenue":1625.0},"type":"Feature","geometry":{"type":"Point","coordinates":[-100.443556,31.342589]}},{"properties":{"zip":"77005","geo_score":0.714,"id":"a65jvat9c9df","geo_precision":"zip","revenue":2380.0},"type":"Feature","geometry":{"type":"Point","coordinates":[-95.433829,29.718008]}},{"properties":{"zip":"77019","geo_score":0.714,"id":"a65jvasqju7f","geo_precision":"zip","revenue":1902.0},"type":"Feature","geometry":{"type":"Point","coordinates":[-95.434241,29.83399]}},{"properties":{"zip":"77024","geo_score":0.714,"id":"a65jvam70egw","geo_precision":"zip","revenue":2292.0},"type":"Feature","geometry":{"type":"Point","coordinates":[-95.503553,29.789672]}},{"properties":{"zip":"77027","geo_score":0.714,"id":"a65jvakk2c25","geo_precision":"zip","revenue":7706.6},"type":"Feature","geometry":{"type":"Point","coordinates":[-95.303129,29.688374]}},{"properties":{"zip":"77056","geo_score":0.714,"id":"a65jvallftao","geo_precision":"zip","revenue":576.0},"type":"Feature","geometry":{"type":"Point","coordinates":[-95.207161,29.698579]}},{"properties":{"zip":"77069","geo_score":0.714,"id":"a65jvalxyx9a","geo_precision":"zip","revenue":760.0},"type":"Feature","geometry":{"type":"Point","coordinates":[-95.335551,29.781938]}},{"properties":{"zip":"77386","geo_score":0.714,"id":"a65jvauw7gpe","geo_precision":"zip","revenue":648.0},"type":"Feature","geometry":{"type":"Point","coordinates":[-95.365053,30.107545]}},{"properties":{"zip":"77401","geo_score":0.714,"id":"a65jvagtoull","geo_precision":"zip","revenue":3594.0},"type":"Feature","geometry":{"type":"Point","coordinates":[-95.434241,29.83399]}},{"properties":{"zip":"77429","geo_score":0.714,"id":"a65jvakmtwt8","geo_precision":"zip","revenue":726.0},"type":"Feature","geometry":{"type":"Point","coordinates":[-95.434241,29.83399]}},{"properties":{"zip":"77479","geo_score":0.714,"id":"a65jvaptq2ig","geo_precision":"zip","revenue":12474.0},"type":"Feature","geometry":{"type":"Point","coordinates":[-95.556611,29.556625]}},{"properties":{"zip":"77494","geo_score":0.714,"id":"a65jvaqqb98n","geo_precision":"zip","revenue":8730.0},"type":"Feature","geometry":{"type":"Point","coordinates":[-95.434241,29.83399]}},{"properties":{"zip":"77550","geo_score":0.714,"id":"a65jvaitnjqz","geo_precision":"zip","revenue":2040.0},"type":"Feature","geometry":{"type":"Point","coordinates":[-94.897699,29.305514]}},{"properties":{"zip":"77901","geo_score":0.714,"id":"a65jvar7fpvz","geo_precision":"zip","revenue":1790.0},"type":"Feature","geometry":{"type":"Point","coordinates":[-97.119711,28.742214]}},{"properties":{"zip":"78006","geo_score":0.714,"id":"a65jvakti8tx","geo_precision":"zip","revenue":552.0},"type":"Feature","geometry":{"type":"Point","coordinates":[-98.655856,29.729667]}},{"properties":{"zip":"78209","geo_score":0.714,"id":"a65jvauiapda","geo_precision":"zip","revenue":3218.0},"type":"Feature","geometry":{"type":"Point","coordinates":[-98.45085,29.474954]}},{"properties":{"zip":"78212","geo_score":0.714,"id":"a65jvanfwxpv","geo_precision":"zip","revenue":4544.0},"type":"Feature","geometry":{"type":"Point","coordinates":[-98.487517,29.478842]}},{"properties":{"zip":"78411","geo_score":0.714,"id":"a65jvalfs9u8","geo_precision":"zip","revenue":992.0},"type":"Feature","geometry":{"type":"Point","coordinates":[-97.385169,27.732089]}},{"properties":{"zip":"78413","geo_score":0.714,"id":"a65jvat16lxf","geo_precision":"zip","revenue":980.0},"type":"Feature","geometry":{"type":"Point","coordinates":[-97.40242,27.675937]}},{"properties":{"zip":"78572","geo_score":0.714,"id":"a65jvauk16oz","geo_precision":"zip","revenue":996.0},"type":"Feature","geometry":{"type":"Point","coordinates":[-98.28807,26.211185]}},{"properties":{"zip":"78597","geo_score":0.714,"id":"a65jvandszj8","geo_precision":"zip","revenue":1792.0},"type":"Feature","geometry":{"type":"Point","coordinates":[-97.494039,26.115896]}},{"properties":{"zip":"78624","geo_score":0.714,"id":"a65jvaspm53t","geo_precision":"zip","revenue":1662.0},"type":"Feature","geometry":{"type":"Point","coordinates":[-98.8936,30.313385]}},{"properties":{"zip":"78705","geo_score":0.714,"id":"a65jvauq3uvf","geo_precision":"zip","revenue":1880.0},"type":"Feature","geometry":{"type":"Point","coordinates":[-97.736932,30.293057]}},{"properties":{"zip":"78731","geo_score":0.714,"id":"a65jvalwxqw8","geo_precision":"zip","revenue":3704.0},"type":"Feature","geometry":{"type":"Point","coordinates":[-97.769769,30.345554]}},{"properties":{"zip":"78734","geo_score":0.714,"id":"a65jvawgf8p2","geo_precision":"zip","revenue":2903.0},"type":"Feature","geometry":{"type":"Point","coordinates":[-97.991679,30.367979]}},{"properties":{"zip":"78746","geo_score":0.714,"id":"a65jvapsi5hq","geo_precision":"zip","revenue":5564.8},"type":"Feature","geometry":{"type":"Point","coordinates":[-97.801952,30.297984]}},{"properties":{"zip":"79109","geo_score":0.714,"id":"a65jvau3eurh","geo_precision":"zip","revenue":1234.0},"type":"Feature","geometry":{"type":"Point","coordinates":[-101.70657,35.196164]}},{"properties":{"zip":"79414","geo_score":0.714,"id":"a65jvakubxqw","geo_precision":"zip","revenue":2322.0},"type":"Feature","geometry":{"type":"Point","coordinates":[-101.923415,33.576284]}},{"properties":{"zip":"79605","geo_score":0.714,"id":"a65jvavewpn4","geo_precision":"zip","revenue":1200.0},"type":"Feature","geometry":{"type":"Point","coordinates":[-99.775367,32.372905]}},{"properties":{"zip":"79705","geo_score":0.714,"id":"a65jvap7xbzr","geo_precision":"zip","revenue":1264.0},"type":"Feature","geometry":{"type":"Point","coordinates":[-101.895688,32.027625]}},{"properties":{"zip":"80108","geo_score":0.714,"id":"a65jvav36op0","geo_precision":"zip","revenue":648.0},"type":"Feature","geometry":{"type":"Point","coordinates":[-104.773313,39.505205]}},{"properties":{"zip":"80113","geo_score":0.714,"id":"a65jvahe8uum","geo_precision":"zip","revenue":254.0},"type":"Feature","geometry":{"type":"Point","coordinates":[-104.98776,39.647765]}},{"properties":{"zip":"80121","geo_score":0.714,"id":"a65jvak4zphl","geo_precision":"zip","revenue":2000.0},"type":"Feature","geometry":{"type":"Point","coordinates":[-104.88773,39.612789]}},{"properties":{"zip":"80202","geo_score":0.714,"id":"a65jvaw2e28l","geo_precision":"zip","revenue":304.0},"type":"Feature","geometry":{"type":"Point","coordinates":[-104.996553,39.760189]}},{"properties":{"zip":"80206","geo_score":0.714,"id":"a65jvaqe16t0","geo_precision":"zip","revenue":5044.0},"type":"Feature","geometry":{"type":"Point","coordinates":[-104.953335,39.730787]}},{"properties":{"zip":"80209","geo_score":0.714,"id":"a65jvakzuase","geo_precision":"zip","revenue":38.0},"type":"Feature","geometry":{"type":"Point","coordinates":[-104.964236,39.707332]}},{"properties":{"zip":"80226","geo_score":0.714,"id":"a65jvat3zrcb","geo_precision":"zip","revenue":1980.0},"type":"Feature","geometry":{"type":"Point","coordinates":[-105.091502,39.710884]}},{"properties":{"zip":"80238","geo_score":0.714,"id":"a65jvawl29cj","geo_precision":"zip","revenue":4814.0},"type":"Feature","geometry":{"type":"Point","coordinates":[-104.408349,39.738752]}},{"properties":{"zip":"80246","geo_score":0.714,"id":"a65jvaoh6mrg","geo_precision":"zip","revenue":2986.0},"type":"Feature","geometry":{"type":"Point","coordinates":[-104.933591,39.704987]}},{"properties":{"zip":"80302","geo_score":0.714,"id":"a65jvasyuxv8","geo_precision":"zip","revenue":4644.0},"type":"Feature","geometry":{"type":"Point","coordinates":[-105.390827,40.038875]}},{"properties":{"zip":"80401","geo_score":0.714,"id":"a65jvarlxy6r","geo_precision":"zip","revenue":2048.0},"type":"Feature","geometry":{"type":"Point","coordinates":[-105.394994,39.925542]}},{"properties":{"zip":"80403","geo_score":0.714,"id":"a65jvaogwyqy","geo_precision":"zip","revenue":736.0},"type":"Feature","geometry":{"type":"Point","coordinates":[-105.34277,39.92832]}},{"properties":{"zip":"80439","geo_score":0.714,"id":"a65jvapoetig","geo_precision":"zip","revenue":2193.8},"type":"Feature","geometry":{"type":"Point","coordinates":[-105.340548,39.660266]}},{"properties":{"zip":"80477","geo_score":0.714,"id":"a65jvarvpay4","geo_precision":"zip","revenue":724.0},"type":"Feature","geometry":{"type":"Point","coordinates":[-106.92691,40.348242]}},{"properties":{"zip":"80906","geo_score":0.714,"id":"a65jvastvnfl","geo_precision":"zip","revenue":2806.0},"type":"Feature","geometry":{"type":"Point","coordinates":[-104.81164,38.803326]}},{"properties":{"zip":"80920","geo_score":0.714,"id":"a65jvav81zaq","geo_precision":"zip","revenue":352.0},"type":"Feature","geometry":{"type":"Point","coordinates":[-104.755956,38.965298]}},{"properties":{"zip":"81224","geo_score":0.714,"id":"a65jvavywb1n","geo_precision":"zip","revenue":2368.0},"type":"Feature","geometry":{"type":"Point","coordinates":[-106.94868,38.880713]}},{"properties":{"zip":"81435","geo_score":0.714,"id":"a65jvat8u1jb","geo_precision":"zip","revenue":798.0},"type":"Feature","geometry":{"type":"Point","coordinates":[-107.785618,37.933327]}},{"properties":{"zip":"81501","geo_score":0.714,"id":"a65jvaif7x2r","geo_precision":"zip","revenue":1634.0},"type":"Feature","geometry":{"type":"Point","coordinates":[-108.472035,39.070259]}},{"properties":{"zip":"81611","geo_score":0.714,"id":"a65jvapp3kmg","geo_precision":"zip","revenue":17752.0},"type":"Feature","geometry":{"type":"Point","coordinates":[-106.776744,39.169324]}},{"properties":{"zip":"81620","geo_score":0.714,"id":"a65jvarkg1rz","geo_precision":"zip","revenue":5731.2},"type":"Feature","geometry":{"type":"Point","coordinates":[-106.510843,39.631349]}},{"properties":{"zip":"81621","geo_score":0.714,"id":"a65jvalf378w","geo_precision":"zip","revenue":9569.2},"type":"Feature","geometry":{"type":"Point","coordinates":[-106.798094,39.366374]}},{"properties":{"zip":"81632","geo_score":0.714,"id":"a65jvauj3bh0","geo_precision":"zip","revenue":10483.0},"type":"Feature","geometry":{"type":"Point","coordinates":[-106.620644,39.638166]}},{"properties":{"zip":"81657","geo_score":0.714,"id":"a65jvaocs6i2","geo_precision":"zip","revenue":4674.0},"type":"Feature","geometry":{"type":"Point","coordinates":[-106.414752,39.630264]}},{"properties":{"zip":"83001","geo_score":0.714,"id":"a65jvaw1gxf2","geo_precision":"zip","revenue":2932.0},"type":"Feature","geometry":{"type":"Point","coordinates":[-110.739266,43.452793]}},{"properties":{"zip":"83340","geo_score":0.714,"id":"a65jvaspc8ek","geo_precision":"zip","revenue":6192.0},"type":"Feature","geometry":{"type":"Point","coordinates":[-114.847298,44.078797]}},{"properties":{"zip":"83814","geo_score":0.714,"id":"a65jvathkacv","geo_precision":"zip","revenue":456.0},"type":"Feature","geometry":{"type":"Point","coordinates":[-116.878518,47.505182]}},{"properties":{"zip":"84060","geo_score":0.714,"id":"a65jvar7aiu7","geo_precision":"zip","revenue":4868.0},"type":"Feature","geometry":{"type":"Point","coordinates":[-111.543811,40.694394]}},{"properties":{"zip":"84109","geo_score":0.714,"id":"a65jvat9er7n","geo_precision":"zip","revenue":512.0},"type":"Feature","geometry":{"type":"Point","coordinates":[-111.875491,40.686891]}},{"properties":{"zip":"84120","geo_score":0.714,"id":"a65jvapdrzfn","geo_precision":"zip","revenue":107935.38},"type":"Feature","geometry":{"type":"Point","coordinates":[-112.00105,40.691613]}},{"properties":{"zip":"85018","geo_score":0.714,"id":"a65jvamal8k4","geo_precision":"zip","revenue":640.0},"type":"Feature","geometry":{"type":"Point","coordinates":[-111.735322,33.482033]}},{"properties":{"zip":"85250","geo_score":0.714,"id":"a65jvanrbjdg","geo_precision":"zip","revenue":912.0},"type":"Feature","geometry":{"type":"Point","coordinates":[-111.874248,33.524143]}},{"properties":{"zip":"85255","geo_score":0.714,"id":"a65jvavp7j9k","geo_precision":"zip","revenue":592.0},"type":"Feature","geometry":{"type":"Point","coordinates":[-111.901812,33.700041]}},{"properties":{"zip":"85715","geo_score":0.714,"id":"a65jvavzkkpv","geo_precision":"zip","revenue":2556.0},"type":"Feature","geometry":{"type":"Point","coordinates":[-110.858699,32.259242]}},{"properties":{"zip":"85718","geo_score":0.714,"id":"a65jvavghmzh","geo_precision":"zip","revenue":2166.0},"type":"Feature","geometry":{"type":"Point","coordinates":[-110.889537,32.320353]}},{"properties":{"zip":"87501","geo_score":0.714,"id":"a65jvaoqxiq4","geo_precision":"zip","revenue":3800.0},"type":"Feature","geometry":{"type":"Point","coordinates":[-105.975578,35.802528]}},{"properties":{"zip":"90016","geo_score":0.714,"id":"a65jvaw3am15","geo_precision":"zip","revenue":5648.0},"type":"Feature","geometry":{"type":"Point","coordinates":[-118.298662,33.786594]}},{"properties":{"zip":"90049","geo_score":0.714,"id":"a65jvak7m8a8","geo_precision":"zip","revenue":1402.0},"type":"Feature","geometry":{"type":"Point","coordinates":[-118.473969,34.051954]}},{"properties":{"zip":"90077","geo_score":0.714,"id":"a65jvamgzd2x","geo_precision":"zip","revenue":672.0},"type":"Feature","geometry":{"type":"Point","coordinates":[-118.298662,33.786594]}},{"properties":{"zip":"90272","geo_score":0.714,"id":"a65jvatzh9jn","geo_precision":"zip","revenue":1598.0},"type":"Feature","geometry":{"type":"Point","coordinates":[-118.561194,34.042509]}},{"properties":{"zip":"90403","geo_score":0.714,"id":"a65jvar4ugnb","geo_precision":"zip","revenue":1220.0},"type":"Feature","geometry":{"type":"Point","coordinates":[-118.298662,33.786594]}},{"properties":{"zip":"90405","geo_score":0.714,"id":"a65jvak72o8z","geo_precision":"zip","revenue":736.0},"type":"Feature","geometry":{"type":"Point","coordinates":[-118.483691,34.002233]}},{"properties":{"zip":"90802","geo_score":0.714,"id":"a65jvagx1au8","geo_precision":"zip","revenue":456.0},"type":"Feature","geometry":{"type":"Point","coordinates":[-118.201101,33.756024]}},{"properties":{"zip":"90908","geo_score":0.0,"id":"a65jvawj2oxm","geo_precision":"unmatched","revenue":592.0},"type":"Feature","geometry":null},{"properties":{"zip":"91030","geo_score":0.714,"id":"a65jvakpgz63","geo_precision":"zip","revenue":876.0},"type":"Feature","geometry":{"type":"Point","coordinates":[-118.298662,33.786594]}},{"properties":{"zip":"91356","geo_score":0.714,"id":"a65jvaveg11n","geo_precision":"zip","revenue":482.0},"type":"Feature","geometry":{"type":"Point","coordinates":[-118.298662,33.786594]}},{"properties":{"zip":"91423","geo_score":0.714,"id":"a65jvakxmvlh","geo_precision":"zip","revenue":114.0},"type":"Feature","geometry":{"type":"Point","coordinates":[-118.298662,33.786594]}},{"properties":{"zip":"91436","geo_score":0.714,"id":"a65jvaszealj","geo_precision":"zip","revenue":680.0},"type":"Feature","geometry":{"type":"Point","coordinates":[-118.298662,33.786594]}},{"properties":{"zip":"92008","geo_score":0.714,"id":"a65jvalp5kvk","geo_precision":"zip","revenue":440.0},"type":"Feature","geometry":{"type":"Point","coordinates":[-116.846046,33.016928]}},{"properties":{"zip":"92009","geo_score":0.714,"id":"a65jvaqzg0z3","geo_precision":"zip","revenue":878.0},"type":"Feature","geometry":{"type":"Point","coordinates":[-117.267169,33.082192]}},{"properties":{"zip":"92024","geo_score":0.714,"id":"a65jvawtc4ku","geo_precision":"zip","revenue":536.0},"type":"Feature","geometry":{"type":"Point","coordinates":[-117.234758,33.046153]}},{"properties":{"zip":"92037","geo_score":0.714,"id":"a65jvamq4ybx","geo_precision":"zip","revenue":41260.0},"type":"Feature","geometry":{"type":"Point","coordinates":[-117.225744,32.898511]}},{"properties":{"zip":"92067","geo_score":0.714,"id":"a65jvauwoksj","geo_precision":"zip","revenue":684.0},"type":"Feature","geometry":{"type":"Point","coordinates":[-117.21569,33.005026]}},{"properties":{"zip":"92075","geo_score":0.714,"id":"a65jvalvuvkw","geo_precision":"zip","revenue":6496.0},"type":"Feature","geometry":{"type":"Point","coordinates":[-117.258092,32.987266]}},{"properties":{"zip":"92118","geo_score":0.714,"id":"a65jvaqnh3fn","geo_precision":"zip","revenue":1120.0},"type":"Feature","geometry":{"type":"Point","coordinates":[-117.160815,32.656176]}},{"properties":{"zip":"92130","geo_score":0.714,"id":"a65jvaqy466f","geo_precision":"zip","revenue":896.0},"type":"Feature","geometry":{"type":"Point","coordinates":[-117.161871,32.952467]}},{"properties":{"zip":"92210","geo_score":0.714,"id":"a65jvarkycn4","geo_precision":"zip","revenue":672.0},"type":"Feature","geometry":{"type":"Point","coordinates":[-116.303759,33.70271]}},{"properties":{"zip":"92260","geo_score":0.714,"id":"a65jvak17cd1","geo_precision":"zip","revenue":2202.0},"type":"Feature","geometry":{"type":"Point","coordinates":[-116.416402,33.688635]}},{"properties":{"zip":"92607","geo_score":0.714,"id":"a65jvaln3fvy","geo_precision":"zip","revenue":3040.0},"type":"Feature","geometry":{"type":"Point","coordinates":[-117.78311,33.542248]}},{"properties":{"zip":"92615","geo_score":0.714,"id":"a65jvajusvzo","geo_precision":"zip","revenue":4180.0},"type":"Feature","geometry":{"type":"Point","coordinates":[-117.769442,33.640302]}},{"properties":{"zip":"92629","geo_score":0.714,"id":"a65jvajlyd74","geo_precision":"zip","revenue":243.0},"type":"Feature","geometry":{"type":"Point","coordinates":[-117.696366,33.485903]}},{"properties":{"zip":"92651","geo_score":0.714,"id":"a65jvau8mkqa","geo_precision":"zip","revenue":14861.8},"type":"Feature","geometry":{"type":"Point","coordinates":[-117.754221,33.548359]}},{"properties":{"zip":"92657","geo_score":0.714,"id":"a65jvahgfygn","geo_precision":"zip","revenue":216.0},"type":"Feature","geometry":{"type":"Point","coordinates":[-117.928947,33.61891]}},{"properties":{"zip":"92660","geo_score":0.714,"id":"a65jvah8d7vh","geo_precision":"zip","revenue":1024.0},"type":"Feature","geometry":{"type":"Point","coordinates":[-117.875189,33.637771]}},{"properties":{"zip":"92662","geo_score":0.714,"id":"a65jvaswq89q","geo_precision":"zip","revenue":2250.0},"type":"Feature","geometry":{"type":"Point","coordinates":[-117.891724,33.594467]}},{"properties":{"zip":"92673","geo_score":0.714,"id":"a65jvaqkifrm","geo_precision":"zip","revenue":1216.0},"type":"Feature","geometry":{"type":"Point","coordinates":[-117.625076,33.459745]}},{"properties":{"zip":"93023","geo_score":0.714,"id":"a65jvatiknve","geo_precision":"zip","revenue":11787.6},"type":"Feature","geometry":{"type":"Point","coordinates":[-119.291503,34.508047]}},{"properties":{"zip":"93067","geo_score":0.714,"id":"a65jvah7q2rk","geo_precision":"zip","revenue":512.0},"type":"Feature","geometry":{"type":"Point","coordinates":[-119.592561,34.422045]}},{"properties":{"zip":"93101","geo_score":0.714,"id":"a65jvaw89id8","geo_precision":"zip","revenue":1696.0},"type":"Feature","geometry":{"type":"Point","coordinates":[-119.990975,34.5861]}},{"properties":{"zip":"93108","geo_score":0.714,"id":"a65jvas8h8ia","geo_precision":"zip","revenue":512.0},"type":"Feature","geometry":{"type":"Point","coordinates":[-119.632075,34.436663]}},{"properties":{"zip":"93130","geo_score":0.714,"id":"a65jvatb0gab","geo_precision":"zip","revenue":2160.0},"type":"Feature","geometry":{"type":"Point","coordinates":[-119.848555,34.262834]}},{"properties":{"zip":"93441","geo_score":0.714,"id":"a65jvambv7mm","geo_precision":"zip","revenue":152.0},"type":"Feature","geometry":{"type":"Point","coordinates":[-120.068487,34.693012]}},{"properties":{"zip":"93460","geo_score":0.714,"id":"a65jvaoqi7is","geo_precision":"zip","revenue":1022.0},"type":"Feature","geometry":{"type":"Point","coordinates":[-120.091629,34.646136]}},{"properties":{"zip":"93921","geo_score":0.714,"id":"a65jvavhil1w","geo_precision":"zip","revenue":19118.0},"type":"Feature","geometry":{"type":"Point","coordinates":[-121.923288,36.555239]}},{"properties":{"zip":"94022","geo_score":0.714,"id":"a65jvambha66","geo_precision":"zip","revenue":722.0},"type":"Feature","geometry":{"type":"Point","coordinates":[-122.100518,37.35133]}},{"properties":{"zip":"94102","geo_score":0.714,"id":"a65jvavieiug","geo_precision":"zip","revenue":608.0},"type":"Feature","geometry":{"type":"Point","coordinates":[-122.416582,37.779278]}},{"properties":{"zip":"94115","geo_score":0.714,"id":"a65jvapywtuw","geo_precision":"zip","revenue":640.0},"type":"Feature","geometry":{"type":"Point","coordinates":[-122.437032,37.786028]}},{"properties":{"zip":"94118","geo_score":0.714,"id":"a65jvahgo7ol","geo_precision":"zip","revenue":576.0},"type":"Feature","geometry":{"type":"Point","coordinates":[-122.459982,37.778779]}},{"properties":{"zip":"94123","geo_score":0.714,"id":"a65jvappq6xa","geo_precision":"zip","revenue":2048.0},"type":"Feature","geometry":{"type":"Point","coordinates":[-122.435732,37.79967]}},{"properties":{"zip":"94301","geo_score":0.714,"id":"a65jvan4x4vb","geo_precision":"zip","revenue":1264.0},"type":"Feature","geometry":{"type":"Point","coordinates":[-121.705327,37.189396]}},{"properties":{"zip":"94306","geo_score":0.714,"id":"a65jvavraf9q","geo_precision":"zip","revenue":3104.0},"type":"Feature","geometry":{"type":"Point","coordinates":[-121.705327,37.189396]}},{"properties":{"zip":"94549","geo_score":0.714,"id":"a65jvapk3gx4","geo_precision":"zip","revenue":912.0},"type":"Feature","geometry":{"type":"Point","coordinates":[-122.120089,37.901223]}},{"properties":{"zip":"94611","geo_score":0.714,"id":"a65jvaubc3fs","geo_precision":"zip","revenue":0.0},"type":"Feature","geometry":{"type":"Point","coordinates":[-122.231635,37.824372]}},{"properties":{"zip":"94618","geo_score":0.714,"id":"a65jvarkzrvd","geo_precision":"zip","revenue":38.0},"type":"Feature","geometry":{"type":"Point","coordinates":[-122.240179,37.843126]}},{"properties":{"zip":"94925","geo_score":0.714,"id":"a65jvajlbohw","geo_precision":"zip","revenue":3520.0},"type":"Feature","geometry":{"type":"Point","coordinates":[-122.509419,37.922981]}},{"properties":{"zip":"94941","geo_score":0.714,"id":"a65jvaqbtab8","geo_precision":"zip","revenue":38.0},"type":"Feature","geometry":{"type":"Point","coordinates":[-122.545809,37.879649]}},{"properties":{"zip":"94960","geo_score":0.714,"id":"a65jvatjsd2k","geo_precision":"zip","revenue":570.0},"type":"Feature","geometry":{"type":"Point","coordinates":[-122.59184,37.986473]}},{"properties":{"zip":"94965","geo_score":0.714,"id":"a65jvat3ift5","geo_precision":"zip","revenue":608.0},"type":"Feature","geometry":{"type":"Point","coordinates":[-122.581367,37.862149]}},{"properties":{"zip":"95003","geo_score":0.714,"id":"a65jvahghjfy","geo_precision":"zip","revenue":608.0},"type":"Feature","geometry":{"type":"Point","coordinates":[-121.900235,36.968284]}},{"properties":{"zip":"95030","geo_score":0.714,"id":"a65jvaop80rc","geo_precision":"zip","revenue":1406.0},"type":"Feature","geometry":{"type":"Point","coordinates":[-121.966348,37.116614]}},{"properties":{"zip":"95125","geo_score":0.714,"id":"a65jvamafb85","geo_precision":"zip","revenue":1272.0},"type":"Feature","geometry":{"type":"Point","coordinates":[-121.705327,37.189396]}},{"properties":{"zip":"95207","geo_score":0.714,"id":"a65jvaw5brc2","geo_precision":"zip","revenue":5738.8},"type":"Feature","geometry":{"type":"Point","coordinates":[-121.328281,38.005201]}},{"properties":{"zip":"95242","geo_score":0.714,"id":"a65jvawb7zo9","geo_precision":"zip","revenue":716.0},"type":"Feature","geometry":{"type":"Point","coordinates":[-121.422011,38.138318]}},{"properties":{"zip":"95401","geo_score":0.714,"id":"a65jvajzzt8b","geo_precision":"zip","revenue":1584.0},"type":"Feature","geometry":{"type":"Point","coordinates":[-122.851937,38.48519]}},{"properties":{"zip":"95460","geo_score":0.714,"id":"a65jvawo80t2","geo_precision":"zip","revenue":304.0},"type":"Feature","geometry":{"type":"Point","coordinates":[-123.734377,39.319949]}},{"properties":{"zip":"95476","geo_score":0.714,"id":"a65jvam27ovs","geo_precision":"zip","revenue":5230.0},"type":"Feature","geometry":{"type":"Point","coordinates":[-122.439702,38.246027]}},{"properties":{"zip":"95667","geo_score":0.714,"id":"a65jvaoxvlzf","geo_precision":"zip","revenue":304.0},"type":"Feature","geometry":{"type":"Point","coordinates":[-120.662985,38.68296]}},{"properties":{"zip":"95819","geo_score":0.714,"id":"a65jvawd5of1","geo_precision":"zip","revenue":7354.87},"type":"Feature","geometry":{"type":"Point","coordinates":[-121.440764,38.568305]}},{"properties":{"zip":"96720","geo_score":0.714,"id":"a65jvajygh6w","geo_precision":"zip","revenue":1788.2},"type":"Feature","geometry":{"type":"Point","coordinates":[-155.095,19.744722]}},{"properties":{"zip":"96734","geo_score":0.714,"id":"a65jvau056ih","geo_precision":"zip","revenue":840.0},"type":"Feature","geometry":{"type":"Point","coordinates":[-157.754167,21.384722]}},{"properties":{"zip":"96753","geo_score":0.714,"id":"a65jvanad32v","geo_precision":"zip","revenue":2254.0},"type":"Feature","geometry":{"type":"Point","coordinates":[-156.4425,20.654444]}},{"properties":{"zip":"96768","geo_score":0.714,"id":"a65jvalprgh9","geo_precision":"zip","revenue":27324.0},"type":"Feature","geometry":{"type":"Point","coordinates":[-156.320242,20.832664]}},{"properties":{"zip":"96817","geo_score":0.714,"id":"a65jvantuu6o","geo_precision":"zip","revenue":2342.0},"type":"Feature","geometry":{"type":"Point","coordinates":[-157.922303,21.65098]}},{"properties":{"zip":"97138","geo_score":0.714,"id":"a65jvamj7t6a","geo_precision":"zip","revenue":2952.0},"type":"Feature","geometry":{"type":"Point","coordinates":[-123.544292,45.888445]}},{"properties":{"zip":"97219","geo_score":0.714,"id":"a65jvamvcntc","geo_precision":"zip","revenue":38.0},"type":"Feature","geometry":{"type":"Point","coordinates":[-122.730097,45.469841]}},{"properties":{"zip":"97333","geo_score":0.714,"id":"a65jvaisb1bt","geo_precision":"zip","revenue":760.0},"type":"Feature","geometry":{"type":"Point","coordinates":[-123.337762,44.467218]}},{"properties":{"zip":"97401","geo_score":0.714,"id":"a65jvar0frvd","geo_precision":"zip","revenue":2258.0},"type":"Feature","geometry":{"type":"Point","coordinates":[-123.16509,44.113457]}},{"properties":{"zip":"98004","geo_score":0.714,"id":"a65jvaw9s4l4","geo_precision":"zip","revenue":988.0},"type":"Feature","geometry":{"type":"Point","coordinates":[-122.217346,47.64621]}},{"properties":{"zip":"98010","geo_score":0.714,"id":"a65jvahexcyd","geo_precision":"zip","revenue":576.0},"type":"Feature","geometry":{"type":"Point","coordinates":[-122.020948,47.312323]}},{"properties":{"zip":"98029","geo_score":0.714,"id":"a65jvapjj22l","geo_precision":"zip","revenue":954.0},"type":"Feature","geometry":{"type":"Point","coordinates":[-122.025754,47.565587]}},{"properties":{"zip":"98225","geo_score":0.714,"id":"a65jvaucq37v","geo_precision":"zip","revenue":384.0},"type":"Feature","geometry":{"type":"Point","coordinates":[-122.489892,48.718997]}},{"properties":{"zip":"98908","geo_score":0.714,"id":"a65jval1k9g1","geo_precision":"zip","revenue":1192.0},"type":"Feature","geometry":{"type":"Point","coordinates":[-120.687412,46.527811]}},{"properties":{"zip":"99203","geo_score":0.714,"id":"a65jvasj4lxx","geo_precision":"zip","revenue":304.0},"type":"Feature","geometry":{"type":"Point","coordinates":[-117.132417,47.507676]}},{"properties":{"zip":"L6J 1J3","geo_score":0.0,"id":"a65jvaq5n19z","geo_precision":"unmatched","revenue":2944.0},"type":"Feature","geometry":null},{"properties":{"zip":"L9L 1K1","geo_score":0.0,"id":"a65jvalkyuuy","geo_precision":"unmatched","revenue":1320.0},"type":"Feature","geometry":null},{"properties":{"zip":"M4P 2J1","geo_score":0.0,"id":"a65jvanqp18q","geo_precision":"unmatched","revenue":4044.0},"type":"Feature","geometry":null},{"properties":{"zip":"M5R1A6","geo_score":0.0,"id":"a65jvamxjuj4","geo_precision":"unmatched","revenue":6544.0},"type":"Feature","geometry":null},{"properties":{"zip":"R3M 3Z4","geo_score":0.0,"id":"a65jvakhjjaz","geo_precision":"unmatched","revenue":2928.0},"type":"Feature","geometry":null},{"properties":{"zip":"T5M3V8","geo_score":0.0,"id":"a65jval0h30j","geo_precision":"unmatched","revenue":2032.0},"type":"Feature","geometry":null}],"is_temporal":false,"author":{"url":"","metadata":"","contact_name":"","contact_address":"","source":"","contact_phone":""},"source":"","pagination":{"sort":null,"start":0,"total":713,"limit":1000000},"state":"complete","tags":"","published":"2014-08-10T16:13:50-04:00","id":83916}