{"type":"FeatureCollection","data_type":"Dataset","url_type":null,"permissions":[{"permissions":{"download":true,"view":true},"group_id":"everyone"}],"classification":null,"title":"Chrysler Plants in the United States ","count":22,"stream_id":8480,"contributor":{"url":"http://geocommons.com/users/2943","name":"Margot"},"data_attributes":null,"calculation_params":null,"icon_link":null,"link":"http://geocommons.com/overlays/8480.json","extent":[-90.4522,38.5179,-75.7618,42.5933],"geometry_types":["point"],"unique_name":null,"name":"Chrysler Plants in the United States ","feature_count":22,"description":"I found this data by doing a search on Wikipedia for Chrysler auto assembly plants in the United States. I took the cities and states for each plants and geocoded them at batchgeocode.com to get latitudes and longitudes and then uploaded as a csv in Finder! I checked each point to make sure the geocoding was correct. ","next_feature":null,"is_raster":false,"short_classification":"Y","stats":{"yearbegan":{"max":1998,"mean":1958.22727272727,"variance":439.231601731602,"stdev":20.9578529847788,"min":1917,"median":1959},"lat":{"max":42.593309,"mean":41.5092377727273,"variance":1.63484352117904,"stdev":1.27860999572936,"min":38.517859,"median":42.256695},"long":{"max":-75.761814,"mean":-84.2887644545454,"variance":10.3360848648976,"stdev":3.21497820597552,"min":-90.452218,"median":-83.047924}},"features":[{"properties":{"city":"Belvidere","yearbegan":1965,"plantname":"Belvidere Assembly","id":"a623474fvjxk","lat":42.256695,"state":"Illinois","long":-88.839074},"type":"Feature","geometry":{"type":"Point","coordinates":[-88.839074,42.256695]}},{"properties":{"city":"Detroit","yearbegan":1966,"plantname":"Conner Avenue Assembly","id":"a62347e1icc1","lat":42.331685,"state":"Michigan","long":-83.047924},"type":"Feature","geometry":{"type":"Point","coordinates":[-83.047924,42.331685]}},{"properties":{"city":"Detroit","yearbegan":1917,"plantname":"Detroit Axle","id":"a623474jfgcd","lat":42.331685,"state":"Michigan","long":-83.047924},"type":"Feature","geometry":{"type":"Point","coordinates":[-83.047924,42.331685]}},{"properties":{"city":"Kokomo","yearbegan":1998,"plantname":"Indiana Transmission","id":"a62347gfwxgg","lat":40.486495,"state":"Indiana","long":-86.126439},"type":"Feature","geometry":{"type":"Point","coordinates":[-86.126439,40.486495]}},{"properties":{"city":"Detroit","yearbegan":1991,"plantname":"Jefferson North Assembly","id":"a62347abnmkh","lat":42.331685,"state":"Michigan","long":-83.047924},"type":"Feature","geometry":{"type":"Point","coordinates":[-83.047924,42.331685]}},{"properties":{"city":"Kenosha","yearbegan":1917,"plantname":"Kenosha Engine","id":"a62347ew2r8q","lat":42.588075,"state":"Wisconsin","long":-87.823654},"type":"Feature","geometry":{"type":"Point","coordinates":[-87.823654,42.588075]}},{"properties":{"city":"Kokomo","yearbegan":1965,"plantname":"Kokomo Casting","id":"a62347erlr6n","lat":40.486495,"state":"Indiana","long":-86.126439},"type":"Feature","geometry":{"type":"Point","coordinates":[-86.126439,40.486495]}},{"properties":{"city":"Kokomo","yearbegan":1956,"plantname":"Kokomo Transmission","id":"a62347dzdzu1","lat":40.486495,"state":"Indiana","long":-86.126439},"type":"Feature","geometry":{"type":"Point","coordinates":[-86.126439,40.486495]}},{"properties":{"city":"Detroit","yearbegan":1953,"plantname":"Mack Avenue Engine Complex","id":"a623476hj3pi","lat":42.331685,"state":"Michigan","long":-83.047924},"type":"Feature","geometry":{"type":"Point","coordinates":[-83.047924,42.331685]}},{"properties":{"city":"Detroit","yearbegan":1938,"plantname":"Mount Elliott Tool and Die","id":"a623474s4cku","lat":42.331685,"state":"Michigan","long":-83.047924},"type":"Feature","geometry":{"type":"Point","coordinates":[-83.047924,42.331685]}},{"properties":{"city":"Newark","yearbegan":1951,"plantname":"Newark Assembly","id":"a623478glp7p","lat":39.678015,"state":"Delaware","long":-75.761814},"type":"Feature","geometry":{"type":"Point","coordinates":[-75.761814,39.678015]}},{"properties":{"city":"Fenton","yearbegan":1966,"plantname":"Saint Louis Assembly North","id":"a623472fzb05","lat":38.517859,"state":"Missouri","long":-90.452218},"type":"Feature","geometry":{"type":"Point","coordinates":[-90.452218,38.517859]}},{"properties":{"city":"Fenton","yearbegan":1959,"plantname":"Saint Louis Assembly South","id":"a623479s7ro4","lat":38.517859,"state":"Missouri","long":-90.452218},"type":"Feature","geometry":{"type":"Point","coordinates":[-90.452218,38.517859]}},{"properties":{"city":"Sterling Heights","yearbegan":1953,"plantname":"Sterling Heights Assembly","id":"a62347ci2m3m","lat":42.593309,"state":"Michigan","long":-83.01337},"type":"Feature","geometry":{"type":"Point","coordinates":[-83.01337,42.593309]}},{"properties":{"city":"Sterling Heights","yearbegan":1965,"plantname":"Sterling Stamping","id":"a62347bo3ajw","lat":42.593309,"state":"Michigan","long":-83.01337},"type":"Feature","geometry":{"type":"Point","coordinates":[-83.01337,42.593309]}},{"properties":{"city":"Perrysburg","yearbegan":1967,"plantname":"Toledo Machining","id":"a62347ae63tn","lat":41.55671,"state":"Ohio","long":-83.628899},"type":"Feature","geometry":{"type":"Point","coordinates":[-83.628899,41.55671]}},{"properties":{"city":"Toledo","yearbegan":1997,"plantname":"Toledo North Assembly","id":"a62347ff8jly","lat":41.65381,"state":"Ohio","long":-83.536259},"type":"Feature","geometry":{"type":"Point","coordinates":[-83.536259,41.65381]}},{"properties":{"city":"Toledo","yearbegan":1942,"plantname":"Toledo South Assembly","id":"a623471k07iq","lat":41.65381,"state":"Ohio","long":-83.536259},"type":"Feature","geometry":{"type":"Point","coordinates":[-83.536259,41.65381]}},{"properties":{"city":"Trenton","yearbegan":1952,"plantname":"Trenton Engine","id":"a623478xmifs","lat":42.14051,"state":"Michigan","long":-83.179459},"type":"Feature","geometry":{"type":"Point","coordinates":[-83.179459,42.14051]}},{"properties":{"city":"Twinsburg","yearbegan":1957,"plantname":"Twinsburg Stamping","id":"a623474qf2r8","lat":41.31313,"state":"Ohio","long":-81.440249},"type":"Feature","geometry":{"type":"Point","coordinates":[-81.440249,41.31313]}},{"properties":{"city":"Warren","yearbegan":1968,"plantname":"Warren Stamping","id":"a62347fy4j78","lat":42.511115,"state":"Michigan","long":-83.028519},"type":"Feature","geometry":{"type":"Point","coordinates":[-83.028519,42.511115]}},{"properties":{"city":"Warren","yearbegan":1938,"plantname":"Warren Truck Assembly","id":"a62347codx0g","lat":42.511115,"state":"Michigan","long":-83.028519},"type":"Feature","geometry":{"type":"Point","coordinates":[-83.028519,42.511115]}}],"is_temporal":false,"author":{"url":"http://en.wikipedia.org/wiki/List_of_Chrysler_factories","metadata":"http://en.wikipedia.org/wiki/List_of_Chrysler_factories","contact_name":"","contact_address":"","source":"Wikipedia.org","contact_phone":""},"source":"http://en.wikipedia.org/wiki/List_of_Chrysler_factories","pagination":{"sort":null,"start":0,"total":22,"limit":1000000},"state":"complete","tags":"automobiles,autoplants,cars,chrysler,makers,manufacturing,plants,states,us","published":"2009-01-05T17:04:03Z","id":8480}