{"type":"FeatureCollection","data_type":"Dataset","url_type":null,"permissions":[{"permissions":{"download":true,"view":true},"group_id":"everyone"}],"classification":null,"title":"General Motors Auto Plants in the United States","count":78,"stream_id":8481,"contributor":{"url":"http://geocommons.com/users/2943","name":"Margot"},"data_attributes":null,"calculation_params":null,"icon_link":null,"link":"http://geocommons.com/overlays/8481.json","extent":[-121.982,32.5146,-71.4165,44.9313],"geometry_types":["point"],"unique_name":null,"name":"General Motors Auto Plants in the United States","feature_count":78,"description":"I found this data by searching for General Motors auto plants in the United States on Wikipedia.org. I then took the city and state names and geocoded them for latitude and longitude using batchgeocode.com. I then uploaded this data as a csv into Finder! and check to make sure the points were accurate when mapped. ","next_feature":null,"is_raster":false,"short_classification":"Y","stats":{"lat":{"max":44.931345,"mean":40.6916608333333,"variance":7.91060856410905,"stdev":2.81258041024769,"min":32.514615,"median":42.21481},"long":{"max":-71.416519,"mean":-85.3685250897436,"variance":70.2304975557745,"stdev":8.38036380807984,"min":-121.982169,"median":-83.884914}},"features":[{"properties":{"city":"Indianapolis","plantname":"AllisonTransmission","id":"a62dypexbj9t","lat":39.76691,"state":"Indiana","long":-86.149964},"type":"Feature","geometry":{"type":"Point","coordinates":[-86.149964,39.76691]}},{"properties":{"city":"Arlington","plantname":"Arlington Assembly","id":"a62dypd4ni9i","lat":32.7356,"state":"Texas","long":-97.107719},"type":"Feature","geometry":{"type":"Point","coordinates":[-97.107719,32.7356]}},{"properties":{"city":"Baltimore","plantname":"BaltimoreAssembly","id":"a62dyptf8zwb","lat":39.290555,"state":"Maryland","long":-76.609604},"type":"Feature","geometry":{"type":"Point","coordinates":[-76.609604,39.290555]}},{"properties":{"city":"Baltimore","plantname":"BaltimoreTransmission","id":"a62dypfg2xqr","lat":39.290555,"state":"Maryland","long":-76.609604},"type":"Feature","geometry":{"type":"Point","coordinates":[-76.609604,39.290555]}},{"properties":{"city":"BayCity","plantname":"BayCity","id":"a62dypioup9f","lat":43.59527,"state":"Michigan","long":-83.884914},"type":"Feature","geometry":{"type":"Point","coordinates":[-83.884914,43.59527]}},{"properties":{"city":"Bedford","plantname":"BedfordFoundry","id":"a62dypm0b9zi","lat":38.86102,"state":"Indiana","long":-86.489399},"type":"Feature","geometry":{"type":"Point","coordinates":[-86.489399,38.86102]}},{"properties":{"city":"Bowling Green","plantname":"Bowling Green Assembly Plant","id":"a62dyppjo5qp","lat":36.994625,"state":"Kentucky","long":-86.445584},"type":"Feature","geometry":{"type":"Point","coordinates":[-86.445584,36.994625]}},{"properties":{"city":"Flint","plantname":"BuickCity","id":"a62dypj42jux","lat":43.010745,"state":"Michigan","long":-83.686019},"type":"Feature","geometry":{"type":"Point","coordinates":[-83.686019,43.010745]}},{"properties":{"city":"Defiance","plantname":"DefianceFoundry","id":"a62dypersa2c","lat":41.286245,"state":"Ohio","long":-84.362384},"type":"Feature","geometry":{"type":"Point","coordinates":[-84.362384,41.286245]}},{"properties":{"city":"Detroit","plantname":"Detroit Assembly","id":"a62dypoc4ybw","lat":42.331685,"state":"Michigan","long":-83.047924},"type":"Feature","geometry":{"type":"Point","coordinates":[-83.047924,42.331685]}},{"properties":{"city":"Detroit","plantname":"DetroitAssembly","id":"a62dypgkxy7t","lat":42.331685,"state":"Michigan","long":-83.047924},"type":"Feature","geometry":{"type":"Point","coordinates":[-83.047924,42.331685]}},{"properties":{"city":"Doraville","plantname":"DoravilleAssembly","id":"a62dypgfn1km","lat":33.900942,"state":"Georgia","long":-84.279003},"type":"Feature","geometry":{"type":"Point","coordinates":[-84.279003,33.900942]}},{"properties":{"city":"Fairfax","plantname":"Fairfax II","id":"a62dypk70a5q","lat":39.14247,"state":"Kansas","long":-94.612729},"type":"Feature","geometry":{"type":"Point","coordinates":[-94.612729,39.14247]}},{"properties":{"city":"Fairfax","plantname":"FairfaxAssembly","id":"a62dypjfp89m","lat":39.14247,"state":"Kansas","long":-94.612729},"type":"Feature","geometry":{"type":"Point","coordinates":[-94.612729,39.14247]}},{"properties":{"city":"Flint","plantname":"FlintEast","id":"a62dypqba517","lat":43.010745,"state":"Michigan","long":-83.686019},"type":"Feature","geometry":{"type":"Point","coordinates":[-83.686019,43.010745]}},{"properties":{"city":"South Flint","plantname":"FlintEngine","id":"a62dypqf8hfk","lat":43.004857,"state":"Michigan","long":-83.707292},"type":"Feature","geometry":{"type":"Point","coordinates":[-83.707292,43.004857]}},{"properties":{"city":"Flint","plantname":"FlintMetalCenter","id":"a62dypfad0fh","lat":43.010745,"state":"Michigan","long":-83.686019},"type":"Feature","geometry":{"type":"Point","coordinates":[-83.686019,43.010745]}},{"properties":{"city":"Flint","plantname":"FlintNorth","id":"a62dypfglvar","lat":43.010745,"state":"Michigan","long":-83.686019},"type":"Feature","geometry":{"type":"Point","coordinates":[-83.686019,43.010745]}},{"properties":{"city":"Flint","plantname":"FlintTool&amp;Die","id":"a62dypgn290p","lat":43.010745,"state":"Michigan","long":-83.686019},"type":"Feature","geometry":{"type":"Point","coordinates":[-83.686019,43.010745]}},{"properties":{"city":"Flint","plantname":"FlintTruckAssembly","id":"a62dypqc5r61","lat":43.010745,"state":"Michigan","long":-83.686019},"type":"Feature","geometry":{"type":"Point","coordinates":[-83.686019,43.010745]}},{"properties":{"city":"Roanoke","plantname":"FortWayneAssembly","id":"a62dypgvqqge","lat":40.960595,"state":"Indiana","long":-85.371454},"type":"Feature","geometry":{"type":"Point","coordinates":[-85.371454,40.960595]}},{"properties":{"city":"Framingham","plantname":"FraminghamAssembly","id":"a62dypk1qkss","lat":42.279519,"state":"Massachusetts","long":-71.416519},"type":"Feature","geometry":{"type":"Point","coordinates":[-71.416519,42.279519]}},{"properties":{"city":"Fremont","plantname":"FremontAssembly","id":"a62dypi7q8c6","lat":37.55091,"state":"California","long":-121.982169},"type":"Feature","geometry":{"type":"Point","coordinates":[-121.982169,37.55091]}},{"properties":{"city":"Fredericksburg","plantname":"GMPTFredericksburg","id":"a62dypmxybky","lat":38.30089,"state":"Virginia","long":-77.459144},"type":"Feature","geometry":{"type":"Point","coordinates":[-77.459144,38.30089]}},{"properties":{"city":"Grand Blanc","plantname":"GrandBlancMetalCenter","id":"a62dypftxcdc","lat":42.92749,"state":"Michigan","long":-83.630169},"type":"Feature","geometry":{"type":"Point","coordinates":[-83.630169,42.92749]}},{"properties":{"city":"Grand Rapids","plantname":"GrandRapidsMetalCenter","id":"a62dypind7z4","lat":42.96641,"state":"Michigan","long":-85.671179},"type":"Feature","geometry":{"type":"Point","coordinates":[-85.671179,42.96641]}},{"properties":{"city":"Hamtramck","plantname":"Hamtramck Assembly","id":"a62dypna1wcz","lat":42.39941,"state":"Michigan","long":-83.051734},"type":"Feature","geometry":{"type":"Point","coordinates":[-83.051734,42.39941]}},{"properties":{"city":"Indianapolis","plantname":"IndianapolisMetalCenter","id":"a62dype642rh","lat":39.76691,"state":"Indiana","long":-86.149964},"type":"Feature","geometry":{"type":"Point","coordinates":[-86.149964,39.76691]}},{"properties":{"city":"Vandalia","plantname":"InlandFisherGuidePlant","id":"a62dypl6dfqr","lat":39.89118,"state":"Ohio","long":-84.194279},"type":"Feature","geometry":{"type":"Point","coordinates":[-84.194279,39.89118]}},{"properties":{"city":"EwingTownship","plantname":"InlandFisherGuidePlant","id":"a62dypl0sdas","lat":40.14278,"state":"New Jersey","long":-74.726723},"type":"Feature","geometry":{"type":"Point","coordinates":[-74.726723,40.14278]}},{"properties":{"city":"Columbus","plantname":"InlandFisherGuidePlant","id":"a62dypp267e6","lat":39.962,"state":"Ohio","long":-83.003014},"type":"Feature","geometry":{"type":"Point","coordinates":[-83.003014,39.962]}},{"properties":{"city":"Vandalia","plantname":"InlandPlant","id":"a62dypn4mw7y","lat":39.89118,"state":"Ohio","long":-84.194279},"type":"Feature","geometry":{"type":"Point","coordinates":[-84.194279,39.89118]}},{"properties":{"city":"Dayton","plantname":"InlandPlant","id":"a62dypmyc1n7","lat":39.759055,"state":"Ohio","long":-84.194439},"type":"Feature","geometry":{"type":"Point","coordinates":[-84.194439,39.759055]}},{"properties":{"city":"Janesville","plantname":"JanesvilleAssembly","id":"a62dypd5yljb","lat":42.687892,"state":"Wisconsin","long":-89.018214},"type":"Feature","geometry":{"type":"Point","coordinates":[-89.018214,42.687892]}},{"properties":{"city":"Lakewood","plantname":"LakewoodAssembly","id":"a62dypm34rnd","lat":33.693089,"state":"GA","long":-84.3741},"type":"Feature","geometry":{"type":"Point","coordinates":[-84.3741,33.693089]}},{"properties":{"city":"Lansing","plantname":"LansingCarAssemblyBody","id":"a62dypkn90gj","lat":42.73202,"state":"Michigan","long":-84.552279},"type":"Feature","geometry":{"type":"Point","coordinates":[-84.552279,42.73202]}},{"properties":{"city":"Lansing","plantname":"LansingCarAssemblyChassis","id":"a62dypr75cnk","lat":42.73202,"state":"Michigan","long":-84.552279},"type":"Feature","geometry":{"type":"Point","coordinates":[-84.552279,42.73202]}},{"properties":{"city":"Lansing","plantname":"LansingCraftCentre","id":"a62dypmjwmnr","lat":42.73202,"state":"Michigan","long":-84.552279},"type":"Feature","geometry":{"type":"Point","coordinates":[-84.552279,42.73202]}},{"properties":{"city":"Delta Township","plantname":"LansingDeltaTownshipAssembly","id":"a62dyptg71qo","lat":42.74108,"state":"Michigan","long":-84.662889},"type":"Feature","geometry":{"type":"Point","coordinates":[-84.662889,42.74108]}},{"properties":{"city":"Delta Township","plantname":"LansingEngine","id":"a62dypfoeojr","lat":42.74108,"state":"Michigan","long":-84.662889},"type":"Feature","geometry":{"type":"Point","coordinates":[-84.662889,42.74108]}},{"properties":{"city":"Lansing","plantname":"LansingGrandRiverAssembly","id":"a62dypk4oku6","lat":42.73202,"state":"Michigan","long":-84.552279},"type":"Feature","geometry":{"type":"Point","coordinates":[-84.552279,42.73202]}},{"properties":{"city":"Lansing","plantname":"LansingMetalCenter","id":"a62dypqy9ca7","lat":42.73202,"state":"Michigan","long":-84.552279},"type":"Feature","geometry":{"type":"Point","coordinates":[-84.552279,42.73202]}},{"properties":{"city":"Delta Township","plantname":"LansingRegionalStamping","id":"a62dypj1wgvb","lat":42.74108,"state":"Michigan","long":-84.662889},"type":"Feature","geometry":{"type":"Point","coordinates":[-84.662889,42.74108]}},{"properties":{"city":"Delta Township","plantname":"LansingServicePartsOperation","id":"a62dyph8stxs","lat":42.74108,"state":"Michigan","long":-84.662889},"type":"Feature","geometry":{"type":"Point","coordinates":[-84.662889,42.74108]}},{"properties":{"city":"Leeds","plantname":"LeedsAssembly","id":"a62dypi34nkg","lat":39.05578,"state":"Missouri","long":-94.507979},"type":"Feature","geometry":{"type":"Point","coordinates":[-94.507979,39.05578]}},{"properties":{"city":"Linden","plantname":"LindenAssembly","id":"a62dypki6f9b","lat":40.631995,"state":"New Jersey","long":-74.255204},"type":"Feature","geometry":{"type":"Point","coordinates":[-74.255204,40.631995]}},{"properties":{"city":"Livonia","plantname":"LivoniaEngine","id":"a62dyphpxibe","lat":42.39658,"state":"Michigan","long":-83.369574},"type":"Feature","geometry":{"type":"Point","coordinates":[-83.369574,42.39658]}},{"properties":{"city":"Lordstown","plantname":"LordstownAssembly","id":"a62dyptjp3c3","lat":41.16584,"state":"Ohio","long":-80.860884},"type":"Feature","geometry":{"type":"Point","coordinates":[-80.860884,41.16584]}},{"properties":{"city":"Mansfield","plantname":"MansfieldMetalCenter","id":"a62dype1s3vt","lat":40.758515,"state":"Ohio","long":-82.514804},"type":"Feature","geometry":{"type":"Point","coordinates":[-82.514804,40.758515]}},{"properties":{"city":"Marion","plantname":"MarionMetalCenter","id":"a62dypsy6gu3","lat":40.558805,"state":"Indiana","long":-85.660384},"type":"Feature","geometry":{"type":"Point","coordinates":[-85.660384,40.558805]}},{"properties":{"city":"Massena","plantname":"MassenaCastingsPlant","id":"a62dypolpz9z","lat":44.931345,"state":"New York","long":-74.892844},"type":"Feature","geometry":{"type":"Point","coordinates":[-74.892844,44.931345]}},{"properties":{"city":"Moraine","plantname":"MoraineAssembly","id":"a62dyplr90mw","lat":39.686335,"state":"Ohio","long":-84.226129},"type":"Feature","geometry":{"type":"Point","coordinates":[-84.226129,39.686335]}},{"properties":{"city":"Norwood","plantname":"NorwoodAssembly","id":"a62dypgo6lhf","lat":39.161176,"state":"Ohio","long":-84.455886},"type":"Feature","geometry":{"type":"Point","coordinates":[-84.455886,39.161176]}},{"properties":{"city":"Oklahoma City","plantname":"OklahomaCityAssembly","id":"a62dypjfyty4","lat":35.472005,"state":"Oklahoma","long":-97.520334},"type":"Feature","geometry":{"type":"Point","coordinates":[-97.520334,35.472005]}},{"properties":{"city":"Orion Township","plantname":"OrionAssembly","id":"a62dypq4hlfe","lat":42.743264,"state":"Michigan","long":-83.282772},"type":"Feature","geometry":{"type":"Point","coordinates":[-83.282772,42.743264]}},{"properties":{"city":"Parma","plantname":"ParmaMetalCenter","id":"a62dypmz52rt","lat":41.383715,"state":"Ohio","long":-81.734649},"type":"Feature","geometry":{"type":"Point","coordinates":[-81.734649,41.383715]}},{"properties":{"city":"Wixom","plantname":"PerformanceBuildCenter","id":"a62dypgvyjrx","lat":42.524515,"state":"Michigan","long":-83.530374},"type":"Feature","geometry":{"type":"Point","coordinates":[-83.530374,42.524515]}},{"properties":{"city":"Pittsburgh","plantname":"PittsburghMetal","id":"a62dypeyogwb","lat":40.43831,"state":"Pennsylvania","long":-79.997459},"type":"Feature","geometry":{"type":"Point","coordinates":[-79.997459,40.43831]}},{"properties":{"city":"Pontiac","plantname":"PontiacAssembly","id":"a62dypkh2i09","lat":42.636876,"state":"Michigan","long":-83.288425},"type":"Feature","geometry":{"type":"Point","coordinates":[-83.288425,42.636876]}},{"properties":{"city":"Pontiac","plantname":"PontiacAssemblyCenter","id":"a62dypptphug","lat":42.636876,"state":"Michigan","long":-83.288425},"type":"Feature","geometry":{"type":"Point","coordinates":[-83.288425,42.636876]}},{"properties":{"city":"Pontiac","plantname":"PontiacMetalCenter","id":"a62dypr5b3g4","lat":42.636876,"state":"Michigan","long":-83.288425},"type":"Feature","geometry":{"type":"Point","coordinates":[-83.288425,42.636876]}},{"properties":{"city":"Romulus","plantname":"RomulusEngine","id":"a62dypfpzijv","lat":42.22183,"state":"Michigan","long":-83.385339},"type":"Feature","geometry":{"type":"Point","coordinates":[-83.385339,42.22183]}},{"properties":{"city":"Romulus","plantname":"RomulusEngine","id":"a62dypi79b1o","lat":42.22183,"state":"Michigan","long":-83.385339},"type":"Feature","geometry":{"type":"Point","coordinates":[-83.385339,42.22183]}},{"properties":{"city":"Saginaw","plantname":"SaginawMalleableIron","id":"a62dypsjxwpq","lat":43.419181,"state":"Michigan","long":-83.946673},"type":"Feature","geometry":{"type":"Point","coordinates":[-83.946673,43.419181]}},{"properties":{"city":"Saginaw","plantname":"SaginawMetalCastingOperations","id":"a62dyptajedh","lat":43.419181,"state":"Michigan","long":-83.946673},"type":"Feature","geometry":{"type":"Point","coordinates":[-83.946673,43.419181]}},{"properties":{"city":"Shreveport","plantname":"ShreveportOperations","id":"a62dyphcek0j","lat":32.514615,"state":"Louisiana","long":-93.747274},"type":"Feature","geometry":{"type":"Point","coordinates":[-93.747274,32.514615]}},{"properties":{"city":"South Gate","plantname":"SouthGate","id":"a62dypqgli36","lat":33.956305,"state":"California","long":-118.205774},"type":"Feature","geometry":{"type":"Point","coordinates":[-118.205774,33.956305]}},{"properties":{"city":"Spring Hill","plantname":"SpringHillManufacturing","id":"a62dypfjm5q8","lat":35.751499,"state":"Tennessee","long":-86.929823},"type":"Feature","geometry":{"type":"Point","coordinates":[-86.929823,35.751499]}},{"properties":{"city":"St. Louis","plantname":"St.LouisTruckAssembly","id":"a62dypemt9ec","lat":38.62774,"state":"Missouri","long":-90.199514},"type":"Feature","geometry":{"type":"Point","coordinates":[-90.199514,38.62774]}},{"properties":{"city":"Tarrytown","plantname":"TarrytownTruckAssembly","id":"a62dypmqwu4g","lat":41.080075,"state":"New York","long":-73.858649},"type":"Feature","geometry":{"type":"Point","coordinates":[-73.858649,41.080075]}},{"properties":{"city":"Toledo","plantname":"ToledoTransmission","id":"a62dypqpuhvk","lat":41.65381,"state":"Ohio","long":-83.536259},"type":"Feature","geometry":{"type":"Point","coordinates":[-83.536259,41.65381]}},{"properties":{"city":"Tonawanda","plantname":"TonawandaEngine","id":"a62dyphkzd7x","lat":43.018837,"state":"New York","long":-78.886368},"type":"Feature","geometry":{"type":"Point","coordinates":[-78.886368,43.018837]}},{"properties":{"city":"Van Nuys","plantname":"VanNuysAssembly","id":"a62dypnm23uj","lat":34.18416,"state":"California","long":-118.446517},"type":"Feature","geometry":{"type":"Point","coordinates":[-118.446517,34.18416]}},{"properties":{"city":"Warren","plantname":"WarrenTransmission","id":"a62dypeg4cc2","lat":42.511115,"state":"Michigan","long":-83.028519},"type":"Feature","geometry":{"type":"Point","coordinates":[-83.028519,42.511115]}},{"properties":{"city":"Wentzville","plantname":"WentzvilleAssembly","id":"a62dypghtc2v","lat":38.811545,"state":"Missouri","long":-90.853949},"type":"Feature","geometry":{"type":"Point","coordinates":[-90.853949,38.811545]}},{"properties":{"city":"Ypsilanti Township","plantname":"WillowRunAssembly","id":"a62dypj0g4nu","lat":42.21481,"state":"Michigan","long":-83.616585},"type":"Feature","geometry":{"type":"Point","coordinates":[-83.616585,42.21481]}},{"properties":{"city":"Ypsilanti","plantname":"WillowRunTransmission","id":"a62dypj10uk5","lat":42.24088,"state":"Michigan","long":-83.613089},"type":"Feature","geometry":{"type":"Point","coordinates":[-83.613089,42.24088]}},{"properties":{"city":"Wilmington","plantname":"WilmingtonAssembly","id":"a62dypq975rx","lat":39.740235,"state":"Delaware","long":-75.550844},"type":"Feature","geometry":{"type":"Point","coordinates":[-75.550844,39.740235]}}],"is_temporal":false,"author":{"url":"http://en.wikipedia.org/wiki/List_of_GM_factories","metadata":"http://en.wikipedia.org/wiki/List_of_GM_factories","contact_name":"","contact_address":"","source":"Wikipedia.org","contact_phone":""},"source":"http://en.wikipedia.org/wiki/List_of_GM_factories","pagination":{"sort":null,"start":0,"total":78,"limit":1000000},"state":"complete","tags":"assembly,auto,automobiles,autoplants,cars,gm,makers,manufacturing,plants,states,us","published":"2009-01-05T12:00:00Z","id":8481}