{"type":"FeatureCollection","data_type":"Dataset","url_type":null,"permissions":[{"permissions":{"download":true,"view":true},"group_id":"everyone"}],"classification":null,"title":"Foreign Auto Manufacturing Plants in the US","count":64,"stream_id":8501,"contributor":{"url":"http://geocommons.com/users/2943","name":"Margot"},"data_attributes":null,"calculation_params":null,"icon_link":null,"link":"http://geocommons.com/overlays/8501.json","extent":[-122.676,29.4245,-74.0621,45.5118],"geometry_types":["point"],"unique_name":null,"name":"Foreign Auto Manufacturing Plants in the US","feature_count":64,"description":"I located information for each foreign automobile manufacturer on each company's corporate webpage. I then took the city and states in which each plant was located and geocoded them for latitude and longitude at batchgeocode.com. I uploaded this information as a csv into Finder! and then checked for accuracy in the final map in Maker! These are all foreign automakers that each have their own websites. In order to find specific information please go to the individual company's website. These can be found through google.com. ","next_feature":null,"is_raster":false,"short_classification":"Y","stats":{"lat":{"max":45.511795,"mean":37.420640359375,"variance":13.4247156519907,"stdev":3.66397538910821,"min":29.42449,"median":37.271832},"long":{"max":-74.062064,"mean":-91.0630999375,"variance":218.10109676371,"stdev":14.7682462318215,"min":-122.675629,"median":-84.559344}},"features":[{"properties":{"city":"Spartanburg","manuf":"BMW","plantname":"BMW Manufacturing Co. LLC","id":"a62evagzkmc8","lat":34.948265,"state":"SC","long":-81.934829},"type":"Feature","geometry":{"type":"Point","coordinates":[-81.934829,34.948265]}},{"properties":{"city":"Mojave Desert","manuf":"Honda","plantname":"R &amp; D Test Track","id":"a62evalf5381","lat":33.7738,"state":"CA","long":-116.338324},"type":"Feature","geometry":{"type":"Point","coordinates":[-116.338324,33.7738]}},{"properties":{"city":"Ann Arbor","manuf":"Honda","plantname":"Emissions Lab","id":"a62evaghcah9","lat":42.281875,"state":"MI","long":-83.748479},"type":"Feature","geometry":{"type":"Point","coordinates":[-83.748479,42.281875]}},{"properties":{"city":"Cantil","manuf":"Honda","plantname":"Testing","id":"a62evafrc8jr","lat":35.301903,"state":"CA","long":-117.979385},"type":"Feature","geometry":{"type":"Point","coordinates":[-117.979385,35.301903]}},{"properties":{"city":"Colton","manuf":"Honda","plantname":"Honda Rider Education Center","id":"a62evah1rxiw","lat":34.071735,"state":"CA","long":-117.323309},"type":"Feature","geometry":{"type":"Point","coordinates":[-117.323309,34.071735]}},{"properties":{"city":"Denver","manuf":"Honda","plantname":"Emissions Testing Lab","id":"a62evalm0rpt","lat":39.74001,"state":"CO","long":-104.992259},"type":"Feature","geometry":{"type":"Point","coordinates":[-104.992259,39.74001]}},{"properties":{"city":"East Liberty","manuf":"Honda","plantname":"Automobile Plant","id":"a62evalq0mky","lat":40.329893,"state":"OH","long":-83.580801},"type":"Feature","geometry":{"type":"Point","coordinates":[-83.580801,40.329893]}},{"properties":{"city":"East Liberty","manuf":"Honda","plantname":"Transportation Research Center (Test Track)","id":"a62evakfttd8","lat":40.329893,"state":"OH","long":-83.580801},"type":"Feature","geometry":{"type":"Point","coordinates":[-83.580801,40.329893]}},{"properties":{"city":"Greensboro","manuf":"Honda","plantname":"R &amp; D Center","id":"a62evan4jzyy","lat":36.068994,"state":"NC","long":-79.794704},"type":"Feature","geometry":{"type":"Point","coordinates":[-79.794704,36.068994]}},{"properties":{"city":"Lincoln","manuf":"Honda","plantname":"Automobile and Engine Plant","id":"a62evamme76z","lat":33.603865,"state":"AL","long":-86.119529},"type":"Feature","geometry":{"type":"Point","coordinates":[-86.119529,33.603865]}},{"properties":{"city":"Marysville","manuf":"Honda","plantname":"Motorcycle Plant","id":"a62evaigjrwo","lat":40.235295,"state":"OH","long":-83.366404},"type":"Feature","geometry":{"type":"Point","coordinates":[-83.366404,40.235295]}},{"properties":{"city":"Marysville","manuf":"Honda","plantname":"Automobile Plant","id":"a62eva9b8390","lat":40.235295,"state":"OH","long":-83.366404},"type":"Feature","geometry":{"type":"Point","coordinates":[-83.366404,40.235295]}},{"properties":{"city":"Anna","manuf":"Honda","plantname":"Engine Plant","id":"a62evahdu2b6","lat":40.39512,"state":"OH","long":-84.171904},"type":"Feature","geometry":{"type":"Point","coordinates":[-84.171904,40.39512]}},{"properties":{"city":"Raymond","manuf":"Honda","plantname":"R &amp; D Center","id":"a62evaa0egf0","lat":40.33331,"state":"OH","long":-83.464719},"type":"Feature","geometry":{"type":"Point","coordinates":[-83.464719,40.33331]}},{"properties":{"city":"Russells Point","manuf":"Honda","plantname":"Transmission Plant","id":"a62evacrcnuh","lat":40.470255,"state":"OH","long":-83.891319},"type":"Feature","geometry":{"type":"Point","coordinates":[-83.891319,40.470255]}},{"properties":{"city":"Santa Clarita","manuf":"Honda","plantname":"Honda Performance Development (Auto Racing)","id":"a62evaflkyol","lat":34.413448,"state":"CA","long":-118.551875},"type":"Feature","geometry":{"type":"Point","coordinates":[-118.551875,34.413448]}},{"properties":{"city":"Swepsonville","manuf":"Honda","plantname":"Power Equipment Plant","id":"a62evahb0obc","lat":36.02201,"state":"NC","long":-79.360799},"type":"Feature","geometry":{"type":"Point","coordinates":[-79.360799,36.02201]}},{"properties":{"city":"Swepsonville","manuf":"Honda","plantname":"R &amp; D Center","id":"a62eva99r4sg","lat":36.02201,"state":"NC","long":-79.360799},"type":"Feature","geometry":{"type":"Point","coordinates":[-79.360799,36.02201]}},{"properties":{"city":"Irving","manuf":"Honda","plantname":"Honda Rider Education Center","id":"a62evaehiedd","lat":32.813516,"state":"TX","long":-96.955506},"type":"Feature","geometry":{"type":"Point","coordinates":[-96.955506,32.813516]}},{"properties":{"city":"Troy","manuf":"Honda","plantname":"Honda Rider Education Center","id":"a62evamk6mcs","lat":40.039895,"state":"OH","long":-84.203904},"type":"Feature","geometry":{"type":"Point","coordinates":[-84.203904,40.039895]}},{"properties":{"city":"Timmonville","manuf":"Honda","plantname":"All-Terrain Vehicle Plant","id":"a62evagx0qiu","lat":33.624981,"state":"SC","long":-80.947441},"type":"Feature","geometry":{"type":"Point","coordinates":[-80.947441,33.624981]}},{"properties":{"city":"Timmonville","manuf":"Honda","plantname":"Personal Watercraft Plant","id":"a62evagxo2c1","lat":33.624981,"state":"SC","long":-80.947441},"type":"Feature","geometry":{"type":"Point","coordinates":[-80.947441,33.624981]}},{"properties":{"city":"Torrance","manuf":"Honda","plantname":"U.S. Sales &amp; Marketing Headquarters","id":"a62eval98hqf","lat":33.836662,"state":"CA","long":-118.341662},"type":"Feature","geometry":{"type":"Point","coordinates":[-118.341662,33.836662]}},{"properties":{"city":"Alpharetta","manuf":"Honda","plantname":"Power Equipment Headquarters, Auto Zone, Finance, Parts Center, Honda Rider Education Center","id":"a62evaa6anpx","lat":34.07537,"state":"GA","long":-84.294554},"type":"Feature","geometry":{"type":"Point","coordinates":[-84.294554,34.07537]}},{"properties":{"city":"Torrance","manuf":"Honda","plantname":"R &amp; D Center","id":"a62evaar5bvg","lat":33.836662,"state":"CA","long":-118.341662},"type":"Feature","geometry":{"type":"Point","coordinates":[-118.341662,33.836662]}},{"properties":{"city":"","manuf":"Hyundai","plantname":"Michigan Engineering Facility","id":"a62evalh5y7t","lat":43.742691,"state":"MI","long":-84.62162},"type":"Feature","geometry":{"type":"Point","coordinates":[-84.62162,43.742691]}},{"properties":{"city":"Montgomery","manuf":"Hyundai","plantname":"Hyundai Motor Manufacturing Alabama, LLC","id":"a62evach9h6a","lat":32.38012,"state":"AL","long":-86.300629},"type":"Feature","geometry":{"type":"Point","coordinates":[-86.300629,32.38012]}},{"properties":{"city":"","manuf":"Hyundai","plantname":"California Design and Research Center","id":"a62evaat7f1e","lat":37.271832,"state":"CA","long":-119.270203},"type":"Feature","geometry":{"type":"Point","coordinates":[-119.270203,37.271832]}},{"properties":{"city":"","manuf":"Hyundai","plantname":"California Proving Grounds","id":"a62evaijna71","lat":37.271832,"state":"CA","long":-119.270203},"type":"Feature","geometry":{"type":"Point","coordinates":[-119.270203,37.271832]}},{"properties":{"city":"West Point","manuf":"KIA","plantname":"Kia Motors Manufacturing Georgia, Inc. (KMMG)","id":"a62evaat1ie4","lat":32.8772,"state":"GA","long":-85.174019},"type":"Feature","geometry":{"type":"Point","coordinates":[-85.174019,32.8772]}},{"properties":{"city":"Gastonia","manuf":"Mercedes-Benz","plantname":"Gastonia Parts Manufacturing Plant","id":"a62evajnc0v6","lat":35.26217,"state":"NC","long":-81.186384},"type":"Feature","geometry":{"type":"Point","coordinates":[-81.186384,35.26217]}},{"properties":{"city":"Ladson","manuf":"Mercedes-Benz","plantname":"Daimler Vans Manufacturing, LLC","id":"a62evakeqeem","lat":33.007766,"state":"SC","long":-80.128038},"type":"Feature","geometry":{"type":"Point","coordinates":[-80.128038,33.007766]}},{"properties":{"city":"High Point","manuf":"Mercedes-Benz","plantname":"High Point, Thomas Built Buses Manufacturing Plant","id":"a62evabxddpv","lat":35.954689,"state":"NC","long":-80.005085},"type":"Feature","geometry":{"type":"Point","coordinates":[-80.005085,35.954689]}},{"properties":{"city":"Greensboro","manuf":"Mercedes-Benz","plantname":"DaimlerChrysler Commercial Buses North Carolina LLC","id":"a62evagma2st","lat":36.068994,"state":"NC","long":-79.794704},"type":"Feature","geometry":{"type":"Point","coordinates":[-79.794704,36.068994]}},{"properties":{"city":"Montvale","manuf":"Mercedes-Benz","plantname":"Mercedes-Benz USA, LLC","id":"a62evakiwrg6","lat":41.04886,"state":"NJ","long":-74.062064},"type":"Feature","geometry":{"type":"Point","coordinates":[-74.062064,41.04886]}},{"properties":{"city":"Gaffney","manuf":"Mercedes-Benz","plantname":"Freightliner Custom Chassis Corporation Manufacturing Plant","id":"a62evam0e86y","lat":35.073624,"state":"SC","long":-81.648667},"type":"Feature","geometry":{"type":"Point","coordinates":[-81.648667,35.073624]}},{"properties":{"city":"Mount Holly","manuf":"Mercedes-Benz","plantname":"Daimler Trucks North America LLC, Mount Holly Truck Manufacturing Plant","id":"a62evagbifbu","lat":35.29662,"state":"NC","long":-81.016244},"type":"Feature","geometry":{"type":"Point","coordinates":[-81.016244,35.29662]}},{"properties":{"city":"Cleveland","manuf":"Mercedes-Benz","plantname":"Daimler Trucks North America LLC, Cleveland Truck Manufacturing Plant","id":"a62eva8ca4au","lat":35.733626,"state":"NC","long":-80.677704},"type":"Feature","geometry":{"type":"Point","coordinates":[-80.677704,35.733626]}},{"properties":{"city":"Oriskany","manuf":"Mercedes-Benz","plantname":"Daimler Buses North America, Inc Oriskany Plant","id":"a62evah4zcmd","lat":43.15979,"state":"NY","long":-75.337124},"type":"Feature","geometry":{"type":"Point","coordinates":[-75.337124,43.15979]}},{"properties":{"city":"Vance","manuf":"Mercedes-Benz","plantname":"Tuscaloosa Plant, Mercedes-Benz U.S. International Inc.","id":"a62evam8l5c9","lat":33.175445,"state":"AL","long":-87.233684},"type":"Feature","geometry":{"type":"Point","coordinates":[-87.233684,33.175445]}},{"properties":{"city":"Portland","manuf":"Mercedes-Benz","plantname":"Daimler Trucks North America LLC, Headquarters","id":"a62eva8yvc2a","lat":45.511795,"state":"OR","long":-122.675629},"type":"Feature","geometry":{"type":"Point","coordinates":[-122.675629,45.511795]}},{"properties":{"city":"Portland","manuf":"Mercedes-Benz","plantname":"Daimler Trucks North America LLC, Portland Truck Manufacturing Plant","id":"a62evaeijtem","lat":45.511795,"state":"OR","long":-122.675629},"type":"Feature","geometry":{"type":"Point","coordinates":[-122.675629,45.511795]}},{"properties":{"city":"Redford","manuf":"Mercedes-Benz","plantname":"Sterling Truck Corporation","id":"a62evajbewnh","lat":42.398495,"state":"MI","long":-83.295844},"type":"Feature","geometry":{"type":"Point","coordinates":[-83.295844,42.398495]}},{"properties":{"city":"Detroit","manuf":"Mercedes-Benz","plantname":"Detroit Deisel Corporation","id":"a62evaklhthf","lat":42.331685,"state":"MI","long":-83.047924},"type":"Feature","geometry":{"type":"Point","coordinates":[-83.047924,42.331685]}},{"properties":{"city":"Decherd","manuf":"Nissan","plantname":"Nissan North America - Decherd","id":"a62evakzxdfy","lat":35.210285,"state":"TN","long":-86.076809},"type":"Feature","geometry":{"type":"Point","coordinates":[-86.076809,35.210285]}},{"properties":{"city":"Smyrna","manuf":"Nissan","plantname":"Nissan North America - Smyrna","id":"a62evah8fg6d","lat":35.974664,"state":"TN","long":-86.512133},"type":"Feature","geometry":{"type":"Point","coordinates":[-86.512133,35.974664]}},{"properties":{"city":"Canton","manuf":"Nissan","plantname":"Nissan North America - Canton","id":"a62evadoszuz","lat":32.612599,"state":"MS","long":-90.034781},"type":"Feature","geometry":{"type":"Point","coordinates":[-90.034781,32.612599]}},{"properties":{"city":"Irving","manuf":"Nissan","plantname":"Nissan Diesel of America, Inc.","id":"a62evacop5xo","lat":32.813516,"state":"TX","long":-96.955506},"type":"Feature","geometry":{"type":"Point","coordinates":[-96.955506,32.813516]}},{"properties":{"city":"Hudson","manuf":"Subaru","plantname":"Robin Manufacturing U.S.A., Inc.","id":"a62evai1tjgc","lat":44.981915,"state":"WI","long":-92.757194},"type":"Feature","geometry":{"type":"Point","coordinates":[-92.757194,44.981915]}},{"properties":{"city":"Dale","manuf":"Subaru","plantname":"Robin America, Inc.","id":"a62evaj1zqrb","lat":37.997597,"state":"IL","long":-88.492209},"type":"Feature","geometry":{"type":"Point","coordinates":[-88.492209,37.997597]}},{"properties":{"city":"Lafayette","manuf":"Subaru","plantname":"Subaru of Indiana Automotive, Inc. (SIA)","id":"a62evanf4k0h","lat":40.41737,"state":"IN","long":-86.876554},"type":"Feature","geometry":{"type":"Point","coordinates":[-86.876554,40.41737]}},{"properties":{"city":"Ann Arbor","manuf":"Subaru","plantname":"Subaru Research and Development, Inc.","id":"a62evaafeofi","lat":42.281875,"state":"MI","long":-83.748479},"type":"Feature","geometry":{"type":"Point","coordinates":[-83.748479,42.281875]}},{"properties":{"city":"Cherry Hill","manuf":"Subaru","plantname":"Fuji Heavy Industries U.S.A., Inc.","id":"a62eva98i41m","lat":39.9275,"state":"NJ","long":-75.030549},"type":"Feature","geometry":{"type":"Point","coordinates":[-75.030549,39.9275]}},{"properties":{"city":"Cherry Hill","manuf":"Subaru","plantname":"Subaru of America, Inc.","id":"a62evan1dako","lat":39.9275,"state":"NJ","long":-75.030549},"type":"Feature","geometry":{"type":"Point","coordinates":[-75.030549,39.9275]}},{"properties":{"city":"Princeton","manuf":"Toyota","plantname":"Toyota Motor Manufacturing, Indiana, Inc. (Sequouia)","id":"a62evab68vxf","lat":38.355216,"state":"IN","long":-87.565669},"type":"Feature","geometry":{"type":"Point","coordinates":[-87.565669,38.355216]}},{"properties":{"city":"Georgetown","manuf":"Toyota","plantname":"Toyota Motor Manufacturing, Kentucky, Inc. (Camry Solara)","id":"a62evacpypv2","lat":38.2099,"state":"KY","long":-84.559344},"type":"Feature","geometry":{"type":"Point","coordinates":[-84.559344,38.2099]}},{"properties":{"city":"Georgetown","manuf":"Toyota","plantname":"Toyota Motor Manufacturing, Kentucky, Inc. (Camry)","id":"a62evaaaatgb","lat":38.2099,"state":"KY","long":-84.559344},"type":"Feature","geometry":{"type":"Point","coordinates":[-84.559344,38.2099]}},{"properties":{"city":"San Antonio","manuf":"Toyota","plantname":"Toyota Motor Manufacturing, Texas, Inc. (Tundra)","id":"a62evab5269f","lat":29.42449,"state":"TX","long":-98.494624},"type":"Feature","geometry":{"type":"Point","coordinates":[-98.494624,29.42449]}},{"properties":{"city":"Princeton","manuf":"Toyota","plantname":"Toyota Motor Manufacturing, Indiana, Inc. (Tundra)","id":"a62eva9d1nbr","lat":38.355216,"state":"IN","long":-87.565669},"type":"Feature","geometry":{"type":"Point","coordinates":[-87.565669,38.355216]}},{"properties":{"city":"Fremont","manuf":"Toyota","plantname":"New United Motor Manufacturing, Inc. (Tacoma)","id":"a62eval0fah7","lat":37.55091,"state":"CA","long":-121.982169},"type":"Feature","geometry":{"type":"Point","coordinates":[-121.982169,37.55091]}},{"properties":{"city":"Georgetown","manuf":"Toyota","plantname":"Toyota Motor Manufacturing, Kentucky, Inc. (Avalon)","id":"a62evac8xnw7","lat":38.2099,"state":"KY","long":-84.559344},"type":"Feature","geometry":{"type":"Point","coordinates":[-84.559344,38.2099]}},{"properties":{"city":"Fremont","manuf":"Toyota","plantname":"New United Motor Manufacturing, Inc. (Corolla)","id":"a62evafkqqgb","lat":37.55091,"state":"CA","long":-121.982169},"type":"Feature","geometry":{"type":"Point","coordinates":[-121.982169,37.55091]}},{"properties":{"city":"Princeton","manuf":"Toyota","plantname":"Toyota Motor Manufacturing, Indiana, Inc. (Sienna)","id":"a62eva9obmab","lat":38.355216,"state":"IN","long":-87.565669},"type":"Feature","geometry":{"type":"Point","coordinates":[-87.565669,38.355216]}},{"properties":{"city":"Chattanooga","manuf":"Volkswagen","plantname":"Volkswagen Group of America (2011 Open)","id":"a62evaibspui","lat":35.046432,"state":"TN","long":-85.309421},"type":"Feature","geometry":{"type":"Point","coordinates":[-85.309421,35.046432]}}],"is_temporal":false,"author":{"url":"http://google.com","metadata":"http://google.com","contact_name":"","contact_address":"","source":"Subaru, Honda, Toyota, BMW, Kia, Hyundai, Nissan, Mercedes-Benz, Volkswagen","contact_phone":""},"source":"http://google.com","pagination":{"sort":null,"start":0,"total":64,"limit":1000000},"state":"complete","tags":"assembly,automobiles,autoplants,bmw,cars,honda,hyundai,kia,makers,manufacturing,mercedesbenz,nissan,plants,states,subaru,toyota,us,volkswagen","published":"2009-01-06T12:00:00Z","id":8501}