{"type":"FeatureCollection","data_type":"Dataset","url_type":null,"permissions":[{"permissions":{"download":true,"view":true},"group_id":"everyone"}],"classification":null,"title":"January 16 Premiere Bligh followers","count":26,"stream_id":85228,"contributor":{"url":"http://geocommons.com/users/12003","name":"LauraHale"},"data_attributes":null,"calculation_params":null,"icon_link":null,"link":"http://geocommons.com/overlays/85228.json","extent":[145.774,-28.0879,153.45,-16.9265],"geometry_types":["point"],"unique_name":null,"name":"January 16 Premiere Bligh followers","feature_count":26,"description":"","next_feature":null,"is_raster":false,"short_classification":"Y","stats":{"latitude":{"max":-16.92646,"mean":-25.7067543461539,"variance":9.75203987293376,"stdev":3.12282562320309,"min":-28.08791,"median":-27.240919},"longitude":{"max":153.449753,"mean":151.614996115385,"variance":6.31451163050667,"stdev":2.51286920282506,"min":145.774063,"median":152.992584},"count":{"max":668,"mean":33.5384615384615,"variance":17166.9784615385,"stdev":131.022816568484,"min":1,"median":1}},"features":[{"properties":{"city":"Bowen Hills","latitude":-27.447639,"country":"Australia","longitude":153.037079,"count":1,"id":"a6b0ys95s9h0","state":"Queensland"},"type":"Feature","geometry":{"type":"Point","coordinates":[153.037079,-27.447639]}},{"properties":{"city":"Brighton","latitude":-27.29291,"country":"Australia","longitude":153.062195,"count":1,"id":"a6b0ys2b83tz","state":"Queensland"},"type":"Feature","geometry":{"type":"Point","coordinates":[153.062195,-27.29291]}},{"properties":{"city":"Brisbane","latitude":-27.46888,"country":"Australia","longitude":153.022827,"count":668,"id":"a6b0ysg8b3d7","state":"Queensland"},"type":"Feature","geometry":{"type":"Point","coordinates":[153.022827,-27.46888]}},{"properties":{"city":"Broadbeach","latitude":-28.026369,"country":"Australia","longitude":153.429398,"count":1,"id":"a6b0yscna6fy","state":"Queensland"},"type":"Feature","geometry":{"type":"Point","coordinates":[153.429398,-28.026369]}},{"properties":{"city":"Broadbeach Gold Coast","latitude":-28.026369,"country":"Australia","longitude":153.429398,"count":1,"id":"a6b0ys2915r0","state":"Queensland"},"type":"Feature","geometry":{"type":"Point","coordinates":[153.429398,-28.026369]}},{"properties":{"city":"Bundaberg","latitude":-24.86705,"country":"Australia","longitude":152.346695,"count":2,"id":"a6b0ysbump0w","state":"Queensland"},"type":"Feature","geometry":{"type":"Point","coordinates":[152.346695,-24.86705]}},{"properties":{"city":"Burleigh Heads","latitude":-28.08791,"country":"Australia","longitude":153.449753,"count":1,"id":"a6b0ys9zq1ug","state":"Queensland"},"type":"Feature","geometry":{"type":"Point","coordinates":[153.449753,-28.08791]}},{"properties":{"city":"Cairns","latitude":-16.92646,"country":"Australia","longitude":145.77597,"count":10,"id":"a6b0ysalopg2","state":"Queensland"},"type":"Feature","geometry":{"type":"Point","coordinates":[145.77597,-16.92646]}},{"properties":{"city":"Caloundra","latitude":-26.793619,"country":"Australia","longitude":153.124756,"count":2,"id":"a6b0ysaxth98","state":"Queensland"},"type":"Feature","geometry":{"type":"Point","coordinates":[153.124756,-26.793619]}},{"properties":{"city":"Cedar Creek","latitude":-27.32493,"country":"Australia","longitude":152.796753,"count":1,"id":"a6b0ysdpuiie","state":"Queensland"},"type":"Feature","geometry":{"type":"Point","coordinates":[152.796753,-27.32493]}},{"properties":{"city":"Emerald","latitude":-23.52487,"country":"Australia","longitude":148.158157,"count":1,"id":"a6b0yse9emwp","state":"Queensland"},"type":"Feature","geometry":{"type":"Point","coordinates":[148.158157,-23.52487]}},{"properties":{"city":"Forititude Valley","latitude":-19.93272,"country":"Australia","longitude":145.774063,"count":1,"id":"a6b0ys93il9p","state":"Queensland"},"type":"Feature","geometry":{"type":"Point","coordinates":[145.774063,-19.93272]}},{"properties":{"city":"Gold Coast","latitude":-28.04583,"country":"Australia","longitude":153.397751,"count":103,"id":"a6b0ysd588wj","state":"Queensland"},"type":"Feature","geometry":{"type":"Point","coordinates":[153.397751,-28.04583]}},{"properties":{"city":"Hervey Bay","latitude":-25.287661,"country":"Australia","longitude":152.838257,"count":1,"id":"a6b0ysd5ku8y","state":"Queensland"},"type":"Feature","geometry":{"type":"Point","coordinates":[152.838257,-25.287661]}},{"properties":{"city":"Ipswich","latitude":-27.616489,"country":"Australia","longitude":152.765274,"count":5,"id":"a6b0ys5gzpi3","state":"Queensland"},"type":"Feature","geometry":{"type":"Point","coordinates":[152.765274,-27.616489]}},{"properties":{"city":"Kallangur","latitude":-27.240919,"country":"Australia","longitude":152.992584,"count":1,"id":"a6b0ys6qk8hh","state":"Queensland"},"type":"Feature","geometry":{"type":"Point","coordinates":[152.992584,-27.240919]}},{"properties":{"city":"Laidley","latitude":-27.64517,"country":"Australia","longitude":152.38942,"count":1,"id":"a6b0ys3wbwvv","state":"Queensland"},"type":"Feature","geometry":{"type":"Point","coordinates":[152.38942,-27.64517]}},{"properties":{"city":"Mackay","latitude":-21.142309,"country":"Australia","longitude":149.178711,"count":1,"id":"a6b0ys503umo","state":"Queensland"},"type":"Feature","geometry":{"type":"Point","coordinates":[149.178711,-21.142309]}},{"properties":{"city":"Noosa","latitude":-26.399019,"country":"Australia","longitude":153.086105,"count":5,"id":"a6b0ys97io48","state":"Queensland"},"type":"Feature","geometry":{"type":"Point","coordinates":[153.086105,-26.399019]}},{"properties":{"city":"Rockhampton","latitude":-23.374241,"country":"Australia","longitude":150.503662,"count":1,"id":"a6b0ysf83w7l","state":"Queensland"},"type":"Feature","geometry":{"type":"Point","coordinates":[150.503662,-23.374241]}},{"properties":{"city":"Roma","latitude":-26.573429,"country":"Australia","longitude":148.787323,"count":1,"id":"a6b0yseqm5lg","state":"Queensland"},"type":"Feature","geometry":{"type":"Point","coordinates":[148.787323,-26.573429]}},{"properties":{"city":"Southport","latitude":-27.96553,"country":"Australia","longitude":153.415558,"count":1,"id":"a6b0ys383wz6","state":"Queensland"},"type":"Feature","geometry":{"type":"Point","coordinates":[153.415558,-27.96553]}},{"properties":{"city":"Sunshine Coast","latitude":-26.544279,"country":"Australia","longitude":153.025314,"count":31,"id":"a6b0ys4niy6o","state":"Queensland"},"type":"Feature","geometry":{"type":"Point","coordinates":[153.025314,-26.544279]}},{"properties":{"city":"Surfers Paradise","latitude":-28.002331,"country":"Australia","longitude":153.428543,"count":1,"id":"a6b0ysh2kuhj","state":"Queensland"},"type":"Feature","geometry":{"type":"Point","coordinates":[153.428543,-28.002331]}},{"properties":{"city":"Toowoomba","latitude":-27.561449,"country":"Australia","longitude":151.953293,"count":14,"id":"a6b0yseg87fu","state":"Queensland"},"type":"Feature","geometry":{"type":"Point","coordinates":[151.953293,-27.561449]}},{"properties":{"city":"Townsville","latitude":-19.257231,"country":"Australia","longitude":146.82106,"count":16,"id":"a6b0yscrokzr","state":"Queensland"},"type":"Feature","geometry":{"type":"Point","coordinates":[146.82106,-19.257231]}}],"is_temporal":false,"author":{"url":"","metadata":"","contact_name":"","contact_address":"","source":"","contact_phone":""},"source":"","pagination":{"sort":null,"start":0,"total":26,"limit":1000000},"state":"complete","tags":"queensland","published":"2014-08-10T17:58:29-04:00","id":85228}