{"type":"FeatureCollection","data_type":"Dataset","url_type":null,"permissions":[{"permissions":{"download":true,"view":true},"group_id":"everyone"}],"classification":null,"title":"Cities by Population and Area, Israel, 2006","count":76,"stream_id":8526,"contributor":{"url":"http://geocommons.com/users/695","name":"Bill"},"data_attributes":null,"calculation_params":null,"icon_link":null,"link":"http://geocommons.com/overlays/8526.json","extent":[34.5955,31.0594,35.5286,32.9172],"geometry_types":["point"],"unique_name":null,"name":"Cities by Population and Area, Israel, 2006","feature_count":76,"description":"Israel has 14 cities with populations over 100,000, including Jerusalem at over a 500,000, and Tel Aviv, which is considered to be approaching global city status. In all, there are 76 Israeli municipalities granted &quot;city&quot; status by the Ministry of the Interior, the most recent addition being the Arab Israeli settlement of Kafr Qasim.\n\nThe list includes four cities in the West Bank, an area to which Israel has not applied its sovereignty. Under international law, the West Bank is considered to be, de jure, a territory not part of any state. The United Nations Security Council, the United Nations General Assembly, the International Court of Justice, and the International Committee of the Red Cross refer to it as occupied by Israel. The area and population of Jerusalem includes that of East Jerusalem which is incorporated within its municipal borders, and is considered to have de jure annexation under the Jerusalem Law and is not recognized by the international community.","next_feature":null,"is_raster":false,"short_classification":"Y","stats":{"latitude":{"max":32.917198,"mean":31.8871897763158,"variance":0.315507759999562,"stdev":0.561700774433828,"min":31.05942,"median":31.8167},"population 2006":{"max":null,"min":null,"median":null},"area in square km":{"max":125.156,"mean":22.0838421052632,"variance":489.368062694737,"stdev":22.1216650072895,"min":2.756,"median":14.878},"longitude":{"max":35.528599,"mean":35.1562175,"variance":0.062202626986147,"stdev":0.249404544838596,"min":34.595459,"median":35.311298}},"features":[{"properties":{"city":"Acrea","latitude":32.901089,"district":"North","country":"israel","population 2006":"46,000","area in square km":13.533,"longitude":35.095409,"id":"a672lcpp0mq5"},"type":"Feature","geometry":{"type":"Point","coordinates":[35.095409,32.901089]}},{"properties":{"city":"Afula","latitude":32.62949,"district":"North","country":"israel","population 2006":"39,300","area in square km":26.909,"longitude":35.33313,"id":"a672lcluf2gq"},"type":"Feature","geometry":{"type":"Point","coordinates":[35.33313,32.62949]}},{"properties":{"city":"Arad","latitude":31.253309,"district":"South","country":"israel","population 2006":"23,400","area in square km":93.14,"longitude":35.21851,"id":"a672lcvrknq4"},"type":"Feature","geometry":{"type":"Point","coordinates":[35.21851,31.253309]}},{"properties":{"city":"Arielb","latitude":31.389299,"district":"Judea &amp; Samariac","country":"israel","population 2006":"16,500","area in square km":14.677,"longitude":35.36124,"id":"a672lcwtffsk"},"type":"Feature","geometry":{"type":"Point","coordinates":[35.36124,31.389299]}},{"properties":{"city":"Ashdod","latitude":31.798809,"district":"South","country":"israel","population 2006":"204,400","area in square km":47.242,"longitude":34.648899,"id":"a672ld0sp3ii"},"type":"Feature","geometry":{"type":"Point","coordinates":[34.648899,31.798809]}},{"properties":{"city":"Ashkelond","latitude":31.389299,"district":"South","country":"israel","population 2006":"107,900","area in square km":47.788,"longitude":35.36124,"id":"a672lcu6289j"},"type":"Feature","geometry":{"type":"Point","coordinates":[35.36124,31.389299]}},{"properties":{"city":"Baqa-Jatt","latitude":32.3983,"district":"Haifa","country":"israel","population 2006":"31,600","area in square km":16.392,"longitude":35.0397,"id":"a672lcrxnlvr"},"type":"Feature","geometry":{"type":"Point","coordinates":[35.0397,32.3983]}},{"properties":{"city":"Bat Yam","latitude":32.004211,"district":"Tel Aviv","country":"israel","population 2006":"129,900","area in square km":8.167,"longitude":34.738998,"id":"a672lcxb3035"},"type":"Feature","geometry":{"type":"Point","coordinates":[34.738998,32.004211]}},{"properties":{"city":"Beershebae","latitude":31.246309,"district":"South","country":"israel","population 2006":"185,800","area in square km":52.903,"longitude":34.796001,"id":"a672lcpaiijj"},"type":"Feature","geometry":{"type":"Point","coordinates":[34.796001,31.246309]}},{"properties":{"city":"Beit She'anf","latitude":31.389299,"district":"North","country":"israel","population 2006":"16,400","area in square km":7.33,"longitude":35.36124,"id":"a672lcsmw0nl"},"type":"Feature","geometry":{"type":"Point","coordinates":[35.36124,31.389299]}},{"properties":{"city":"Beit Shemeshg","latitude":31.389299,"district":"Jerusalem","country":"israel","population 2006":"69,300","area in square km":34.259,"longitude":35.36124,"id":"a672lcqzf3fl"},"type":"Feature","geometry":{"type":"Point","coordinates":[35.36124,31.389299]}},{"properties":{"city":"Betar Illit","latitude":31.389299,"district":"Judea &amp; Samariac","country":"israel","population 2006":"29,000","area in square km":6.801,"longitude":35.36124,"id":"a672lckub37p"},"type":"Feature","geometry":{"type":"Point","coordinates":[35.36124,31.389299]}},{"properties":{"city":"Bnei Brakh","latitude":32.543098,"district":"Tel Aviv","country":"israel","population 2006":"147,800","area in square km":7.088,"longitude":35.266701,"id":"a672lcx6cxbz"},"type":"Feature","geometry":{"type":"Point","coordinates":[35.266701,32.543098]}},{"properties":{"city":"Carmel Cityi","latitude":32.799999,"district":"Haifa","country":"israel","population 2006":"24,400","area in square km":15.561,"longitude":34.983299,"id":"a672lcr1jnsy"},"type":"Feature","geometry":{"type":"Point","coordinates":[34.983299,32.799999]}},{"properties":{"city":"Dimona","latitude":31.05942,"district":"South","country":"israel","population 2006":"33,400","area in square km":29.877,"longitude":35.034821,"id":"a672lclagzl5"},"type":"Feature","geometry":{"type":"Point","coordinates":[35.034821,31.05942]}},{"properties":{"city":"Eilatj","latitude":31.389299,"district":"South","country":"israel","population 2006":"46,500","area in square km":84.789,"longitude":35.36124,"id":"a672lcsr0oqm"},"type":"Feature","geometry":{"type":"Point","coordinates":[35.36124,31.389299]}},{"properties":{"city":"El'ad","latitude":31.389299,"district":"Center","country":"israel","population 2006":"28,600","area in square km":2.756,"longitude":35.36124,"id":"a672lcpquze5"},"type":"Feature","geometry":{"type":"Point","coordinates":[35.36124,31.389299]}},{"properties":{"city":"Giv'atayim","latitude":32.266701,"district":"Tel Aviv","country":"israel","population 2006":"49,400","area in square km":3.246,"longitude":34.833302,"id":"a672lcvt6yyw"},"type":"Feature","geometry":{"type":"Point","coordinates":[34.833302,32.266701]}},{"properties":{"city":"Hadera","latitude":32.444988,"district":"Haifa","country":"israel","population 2006":"76,400","area in square km":49.359,"longitude":34.91502,"id":"a672lcu3v1os"},"type":"Feature","geometry":{"type":"Point","coordinates":[34.91502,32.444988]}},{"properties":{"city":"Haifa","latitude":32.81171,"district":"Haifa","country":"israel","population 2006":"267,000","area in square km":63.666,"longitude":34.998711,"id":"a672lcteeh8c"},"type":"Feature","geometry":{"type":"Point","coordinates":[34.998711,32.81171]}},{"properties":{"city":"Herzliyak","latitude":31.389299,"district":"Tel Aviv","country":"israel","population 2006":"84,200","area in square km":21.585,"longitude":35.36124,"id":"a672lclbhmev"},"type":"Feature","geometry":{"type":"Point","coordinates":[35.36124,31.389299]}},{"properties":{"city":"Hod HaSharon","latitude":32.150799,"district":"Center","country":"israel","population 2006":"44,500","area in square km":21.585,"longitude":34.888302,"id":"a672ld0rehzw"},"type":"Feature","geometry":{"type":"Point","coordinates":[34.888302,32.150799]}},{"properties":{"city":"Holon","latitude":32.002548,"district":"Tel Aviv","country":"israel","population 2006":"167,300","area in square km":18.927,"longitude":34.755638,"id":"a672lcm5eisp"},"type":"Feature","geometry":{"type":"Point","coordinates":[34.755638,32.002548]}},{"properties":{"city":"Jerusalem","latitude":31.7736,"district":"Jerusalem","country":"israel","population 2006":"732,100","area in square km":125.156,"longitude":35.224998,"id":"a672lcz9jy3i"},"type":"Feature","geometry":{"type":"Point","coordinates":[35.224998,31.7736]}},{"properties":{"city":"Kafr Qasimm","latitude":32.114201,"district":"Center","country":"israel","population 2006":"17,200","area in square km":9.2,"longitude":34.9739,"id":"a672ld10stk9"},"type":"Feature","geometry":{"type":"Point","coordinates":[34.9739,32.114201]}},{"properties":{"city":"Karmiell","latitude":32.917198,"district":"North","country":"israel","population 2006":"44,200","area in square km":19.188,"longitude":35.304199,"id":"a672lcxsvlku"},"type":"Feature","geometry":{"type":"Point","coordinates":[35.304199,32.917198]}},{"properties":{"city":"Kfar Sabao","latitude":31.389299,"district":"Center","country":"israel","population 2006":"81,400","area in square km":14.169,"longitude":35.36124,"id":"a672lcllfpg9"},"type":"Feature","geometry":{"type":"Point","coordinates":[35.36124,31.389299]}},{"properties":{"city":"Kiryat Attap","latitude":31.389299,"district":"Haifa","country":"israel","population 2006":"49,500","area in square km":16.706,"longitude":35.36124,"id":"a672lcp0uecr"},"type":"Feature","geometry":{"type":"Point","coordinates":[35.36124,31.389299]}},{"properties":{"city":"Kiryat Bialikq","latitude":31.389299,"district":"Haifa","country":"israel","population 2006":"36,600","area in square km":8.178,"longitude":35.36124,"id":"a672lcw0hpn6"},"type":"Feature","geometry":{"type":"Point","coordinates":[35.36124,31.389299]}},{"properties":{"city":"Kiryat Gatr","latitude":32.680161,"district":"South","country":"israel","population 2006":"47,800","area in square km":16.302,"longitude":35.408371,"id":"a672lcw40rxg"},"type":"Feature","geometry":{"type":"Point","coordinates":[35.408371,32.680161]}},{"properties":{"city":"Kiryat Malakhis","latitude":31.389299,"district":"South","country":"israel","population 2006":"19,500","area in square km":4.632,"longitude":35.36124,"id":"a672lctemc13"},"type":"Feature","geometry":{"type":"Point","coordinates":[35.36124,31.389299]}},{"properties":{"city":"Kiryat Motzkint","latitude":31.389299,"district":"Haifa","country":"israel","population 2006":"39,800","area in square km":3.778,"longitude":35.36124,"id":"a672lclihqjn"},"type":"Feature","geometry":{"type":"Point","coordinates":[35.36124,31.389299]}},{"properties":{"city":"Kiryat Onou","latitude":31.389299,"district":"Tel Aviv","country":"israel","population 2006":"26,200","area in square km":4.112,"longitude":35.36124,"id":"a672lcxh51ao"},"type":"Feature","geometry":{"type":"Point","coordinates":[35.36124,31.389299]}},{"properties":{"city":"Kiryat Shmonav","latitude":31.389299,"district":"North","country":"israel","population 2006":"22,100","area in square km":14.228,"longitude":35.36124,"id":"a672lcr41rq4"},"type":"Feature","geometry":{"type":"Point","coordinates":[35.36124,31.389299]}},{"properties":{"city":"Kiryat Yamw","latitude":32.366901,"district":"Haifa","country":"israel","population 2006":"37,300","area in square km":4.339,"longitude":35.030602,"id":"a672lcnamlkl"},"type":"Feature","geometry":{"type":"Point","coordinates":[35.030602,32.366901]}},{"properties":{"city":"Lod","latitude":31.95875,"district":"Center","country":"israel","population 2006":"66,900","area in square km":12.226,"longitude":34.886429,"id":"a672lcrr0ivl"},"type":"Feature","geometry":{"type":"Point","coordinates":[34.886429,31.95875]}},{"properties":{"city":"Ma'ale Adumim","latitude":31.389299,"district":"Judea &amp; Samariac","country":"israel","population 2006":"31,700","area in square km":49.177,"longitude":35.36124,"id":"a672lcvigkk3"},"type":"Feature","geometry":{"type":"Point","coordinates":[35.36124,31.389299]}},{"properties":{"city":"Ma'alot-Tarshiha","latitude":31.389299,"district":"North","country":"israel","population 2006":"21,200","area in square km":6.832,"longitude":35.36124,"id":"a672lcmjgl9m"},"type":"Feature","geometry":{"type":"Point","coordinates":[35.36124,31.389299]}},{"properties":{"city":"Migdal HaEmekx","latitude":32.833302,"district":"North","country":"israel","population 2006":"24,700","area in square km":7.637,"longitude":35.5,"id":"a672lcnjohac"},"type":"Feature","geometry":{"type":"Point","coordinates":[35.5,32.833302]}},{"properties":{"city":"Modi'in Illit","latitude":31.389299,"district":"Judea &amp; Samariac","country":"israel","population 2006":"34,500","area in square km":4.746,"longitude":35.36124,"id":"a672ld0asljd"},"type":"Feature","geometry":{"type":"Point","coordinates":[35.36124,31.389299]}},{"properties":{"city":"Modi'in-Maccabim-Re'uty","latitude":31.894779,"district":"Center","country":"israel","population 2006":"62,200","area in square km":50.176,"longitude":35.01828,"id":"a672lczsbp08"},"type":"Feature","geometry":{"type":"Point","coordinates":[35.01828,31.894779]}},{"properties":{"city":"Nahariyaz","latitude":31.389299,"district":"North","country":"israel","population 2006":"50,500","area in square km":10.233,"longitude":35.36124,"id":"a672lco2plk0"},"type":"Feature","geometry":{"type":"Point","coordinates":[35.36124,31.389299]}},{"properties":{"city":"Nazareth","latitude":32.6936,"district":"North","country":"israel","population 2006":"64,800","area in square km":14.123,"longitude":35.311298,"id":"a672lcy450fm"},"type":"Feature","geometry":{"type":"Point","coordinates":[35.311298,32.6936]}},{"properties":{"city":"Nazareth Illitaa","latitude":32.6936,"district":"North","country":"israel","population 2006":"43,700","area in square km":32.521,"longitude":35.311298,"id":"a672lcwvcxzu"},"type":"Feature","geometry":{"type":"Point","coordinates":[35.311298,32.6936]}},{"properties":{"city":"Nesher","latitude":31.389299,"district":"Haifa","country":"israel","population 2006":"21,300","area in square km":12.79,"longitude":35.36124,"id":"a672lcz2v1ur"},"type":"Feature","geometry":{"type":"Point","coordinates":[35.36124,31.389299]}},{"properties":{"city":"Ness Zionaab","latitude":31.389299,"district":"Center","country":"israel","population 2006":"30,900","area in square km":15.579,"longitude":35.36124,"id":"a672lcr70tjw"},"type":"Feature","geometry":{"type":"Point","coordinates":[35.36124,31.389299]}},{"properties":{"city":"Netanya","latitude":32.343948,"district":"Center","country":"israel","population 2006":"174,000","area in square km":28.954,"longitude":34.871971,"id":"a672ld11j1ur"},"type":"Feature","geometry":{"type":"Point","coordinates":[34.871971,32.343948]}},{"properties":{"city":"Netivot","latitude":31.8167,"district":"South","country":"israel","population 2006":"24,900","area in square km":5.626,"longitude":34.700001,"id":"a672lcrtwdqg"},"type":"Feature","geometry":{"type":"Point","coordinates":[34.700001,31.8167]}},{"properties":{"city":"Ofakimac","latitude":31.389299,"district":"South","country":"israel","population 2006":"24,500","area in square km":10.273,"longitude":35.36124,"id":"a672lcvsmisx"},"type":"Feature","geometry":{"type":"Point","coordinates":[35.36124,31.389299]}},{"properties":{"city":"Or Akivaad","latitude":32.5075,"district":"Haifa","country":"israel","population 2006":"15,800","area in square km":3.539,"longitude":34.925011,"id":"a672lcquqsf9"},"type":"Feature","geometry":{"type":"Point","coordinates":[34.925011,32.5075]}},{"properties":{"city":"Or Yehuda","latitude":32.02726,"district":"Tel Aviv","country":"israel","population 2006":"31,200","area in square km":5.141,"longitude":34.845661,"id":"a672lcoq1ol2"},"type":"Feature","geometry":{"type":"Point","coordinates":[34.845661,32.02726]}},{"properties":{"city":"Petah Tikvaae","latitude":31.389299,"district":"Center","country":"israel","population 2006":"184,200","area in square km":35.868,"longitude":35.36124,"id":"a672lcrjojh7"},"type":"Feature","geometry":{"type":"Point","coordinates":[35.36124,31.389299]}},{"properties":{"city":"Qalansawe","latitude":32.284698,"district":"Center","country":"israel","population 2006":"17,300","area in square km":8.417,"longitude":34.979698,"id":"a672lcttltpf"},"type":"Feature","geometry":{"type":"Point","coordinates":[34.979698,32.284698]}},{"properties":{"city":"Ra'anana","latitude":31.389299,"district":"Center","country":"israel","population 2006":"72,800","area in square km":14.878,"longitude":35.36124,"id":"a672lcy7rx9k"},"type":"Feature","geometry":{"type":"Point","coordinates":[35.36124,31.389299]}},{"properties":{"city":"Rahat","latitude":31.399111,"district":"South","country":"israel","population 2006":"40,400","area in square km":19.586,"longitude":34.769211,"id":"a672lcumceh3"},"type":"Feature","geometry":{"type":"Point","coordinates":[34.769211,31.399111]}},{"properties":{"city":"Ramat Gan","latitude":32.084389,"district":"Tel Aviv","country":"israel","population 2006":"129,800","area in square km":13.229,"longitude":34.812969,"id":"a672lcme52tq"},"type":"Feature","geometry":{"type":"Point","coordinates":[34.812969,32.084389]}},{"properties":{"city":"Ramat HaSharon","latitude":32.147202,"district":"Tel Aviv","country":"israel","population 2006":"36,800","area in square km":16.792,"longitude":34.841702,"id":"a672lcrqfy9o"},"type":"Feature","geometry":{"type":"Point","coordinates":[34.841702,32.147202]}},{"properties":{"city":"Ramla","latitude":31.923309,"district":"Center","country":"israel","population 2006":"64,200","area in square km":11.854,"longitude":34.8647,"id":"a672lcly43vp"},"type":"Feature","geometry":{"type":"Point","coordinates":[34.8647,31.923309]}},{"properties":{"city":"Rehovot","latitude":31.899309,"district":"Center","country":"israel","population 2006":"104,600","area in square km":23.041,"longitude":34.807999,"id":"a672lcr8cqtd"},"type":"Feature","geometry":{"type":"Point","coordinates":[34.807999,31.899309]}},{"properties":{"city":"Rishon LeZionaf","latitude":31.389299,"district":"Center","country":"israel","population 2006":"222,300","area in square km":58.704,"longitude":35.36124,"id":"a672lcu253nm"},"type":"Feature","geometry":{"type":"Point","coordinates":[35.36124,31.389299]}},{"properties":{"city":"Rosh HaAyin","latitude":32.0942,"district":"Center","country":"israel","population 2006":"37,400","area in square km":24.39,"longitude":34.945801,"id":"a672ld11su5k"},"type":"Feature","geometry":{"type":"Point","coordinates":[34.945801,32.0942]}},{"properties":{"city":"Safedag","latitude":31.389299,"district":"North","country":"israel","population 2006":"28,100","area in square km":29.248,"longitude":35.36124,"id":"a672lcrj81y9"},"type":"Feature","geometry":{"type":"Point","coordinates":[35.36124,31.389299]}},{"properties":{"city":"Sakhnin","latitude":32.862202,"district":"North","country":"israel","population 2006":"25,000","area in square km":9.816,"longitude":35.293301,"id":"a672lcmcy9jq"},"type":"Feature","geometry":{"type":"Point","coordinates":[35.293301,32.862202]}},{"properties":{"city":"Sderotah","latitude":31.27903,"district":"South","country":"israel","population 2006":"19,900","area in square km":4.472,"longitude":34.595459,"id":"a672lcyajn5k"},"type":"Feature","geometry":{"type":"Point","coordinates":[34.595459,31.27903]}},{"properties":{"city":"Shaghur (Shagor)","latitude":31.389299,"district":"North","country":"israel","population 2006":"29,200","area in square km":17.737,"longitude":35.36124,"id":"a672lcwthktc"},"type":"Feature","geometry":{"type":"Point","coordinates":[35.36124,31.389299]}},{"properties":{"city":"Shefa-'Amr (Shfar'am)ai","latitude":31.389299,"district":"North","country":"israel","population 2006":"33,500","area in square km":19.766,"longitude":35.36124,"id":"a672lctmxew9"},"type":"Feature","geometry":{"type":"Point","coordinates":[35.36124,31.389299]}},{"properties":{"city":"Tamra","latitude":32.637501,"district":"North","country":"israel","population 2006":"26,500","area in square km":29.259,"longitude":35.404202,"id":"a672lcv9ivtw"},"type":"Feature","geometry":{"type":"Point","coordinates":[35.404202,32.637501]}},{"properties":{"city":"Tayibe","latitude":32.264221,"district":"Center","country":"israel","population 2006":"33,800","area in square km":18.662,"longitude":34.997478,"id":"a672lcrhmkxq"},"type":"Feature","geometry":{"type":"Point","coordinates":[34.997478,32.264221]}},{"properties":{"city":"Tel Avivaj","latitude":31.389299,"district":"Tel Aviv","country":"israel","population 2006":"384,600","area in square km":51.788,"longitude":35.36124,"id":"a672lcnh3xd5"},"type":"Feature","geometry":{"type":"Point","coordinates":[35.36124,31.389299]}},{"properties":{"city":"Tiberias","latitude":32.795601,"district":"North","country":"israel","population 2006":"40,100","area in square km":10.872,"longitude":35.528599,"id":"a672lcvuc4bh"},"type":"Feature","geometry":{"type":"Point","coordinates":[35.528599,32.795601]}},{"properties":{"city":"Tira","latitude":32.7617,"district":"Center","country":"israel","population 2006":"21,100","area in square km":11.894,"longitude":34.971901,"id":"a672lcugcfcm"},"type":"Feature","geometry":{"type":"Point","coordinates":[34.971901,32.7617]}},{"properties":{"city":"Tirat Carmelak","latitude":31.389299,"district":"Haifa","country":"israel","population 2006":"18,800","area in square km":5.601,"longitude":35.36124,"id":"a672ld03stto"},"type":"Feature","geometry":{"type":"Point","coordinates":[35.36124,31.389299]}},{"properties":{"city":"Umm al-Fahm","latitude":32.522499,"district":"Haifa","country":"israel","population 2006":"42,100","area in square km":22.253,"longitude":35.172009,"id":"a672lcw508zt"},"type":"Feature","geometry":{"type":"Point","coordinates":[35.172009,32.522499]}},{"properties":{"city":"Yavne","latitude":31.8167,"district":"Center","country":"israel","population 2006":"31,900","area in square km":10.7,"longitude":34.716702,"id":"a672lcyl88zk"},"type":"Feature","geometry":{"type":"Point","coordinates":[34.716702,31.8167]}},{"properties":{"city":"Yehud-Monosson","latitude":31.389299,"district":"Center","country":"israel","population 2006":"25,500","area in square km":5.014,"longitude":35.36124,"id":"a672lcpk7hkv"},"type":"Feature","geometry":{"type":"Point","coordinates":[35.36124,31.389299]}},{"properties":{"city":"Yokneam","latitude":32.654202,"district":"North","country":"israel","population 2006":"18,500","area in square km":7.39,"longitude":35.113899,"id":"a672lcyyrsx2"},"type":"Feature","geometry":{"type":"Point","coordinates":[35.113899,32.654202]}}],"is_temporal":false,"author":{"url":"http://en.wikipedia.org/wiki/List_of_cities_in_Israel","metadata":"","contact_name":"","contact_address":"","source":"Wikipedia","contact_phone":""},"source":"http://en.wikipedia.org/wiki/List_of_cities_in_Israel","pagination":{"sort":null,"start":0,"total":76,"limit":1000000},"state":"complete","tags":"area,demographics,israel,population","published":"2006-01-01T12:00:00Z","id":8526}