{"type":"FeatureCollection","data_type":"Dataset","url_type":null,"permissions":[{"permissions":{"download":true,"view":true},"group_id":"everyone"}],"classification":null,"title":"Charter Schools, Washington DC, 2002","count":93,"stream_id":8544,"contributor":{"url":"http://geocommons.com/users/955","name":"williambenjaminiv"},"data_attributes":null,"calculation_params":null,"icon_link":null,"link":"http://geocommons.com/overlays/8544.json","extent":[-77.076,38.829,-76.9206,38.9662],"geometry_types":["point"],"unique_name":null,"name":"Charter Schools, Washington DC, 2002","feature_count":93,"description":"Charter Schools - 2007/08 school year. This layer contains points representing locations for charter schools, created as part of the DC Geographic Information System (DC GIS) for the D.C. Office of the Chief Technology Officer (OCTO) and participating D.C. government agencies. School locations were identified from public records and heads-up digitized from the 2005 orthophotographs.\n\nAll DC GIS data is stored and exported in Maryland State Plane coordinates NAD 83 meters.\n\nMETADATA CONTENT IS IN PROCESS OF VALIDATION AND SUBJECT TO CHANGE.","next_feature":null,"is_raster":false,"short_classification":"Y","stats":{"ENROLLMENT":{"max":4200.0,"mean":578.569892473118,"variance":872867.42169238,"stdev":934.27374023483,"min":0.0,"median":269.0},"ADDRESS_ID":{"max":307112.0,"mean":237723.010752688,"variance":8916737886.72814,"stdev":94428.4802733166,"min":0.0,"median":285311.0}},"features":[{"properties":{"NAME":"Academia Bilingue de la Comunidad (ABC) PCS","DIRECTOR":"Charles Jackson","AUTHORIZER":"PCSB","GIS_ID":"chrt_36","PHONE":"822-6301","ENROLLMENT":150.0,"ADDRESS_ID":307112.0,"WEB_URL":"http://www.abcpcs.org","id":"a62gfrjdnw35","ADDRESS":"209 Upshur Street NW","GRADES":"6-8"},"type":"Feature","geometry":{"type":"Point","coordinates":[-77.0141234967371,38.9423994119686]}},{"properties":{"NAME":"Academy for Learning Through the Arts PCS","DIRECTOR":"Patricia Mitchell","AUTHORIZER":"PCSB","GIS_ID":"chrt_40","PHONE":"232-4041","ENROLLMENT":169.0,"ADDRESS_ID":286330.0,"WEB_URL":"http://www.alta-pcs.com","id":"a62gfrt8s9dg","ADDRESS":"1600 TAYLOR STREET NE","GRADES":"PK-8"},"type":"Feature","geometry":{"type":"Point","coordinates":[-76.9822018828046,38.9409817352192]}},{"properties":{"NAME":"Achievement Preparatory Academy PCS","DIRECTOR":"Shantelle Wright","AUTHORIZER":"PCSB","GIS_ID":"chrt_72","PHONE":"202-441-7000","ENROLLMENT":120.0,"ADDRESS_ID":294502.0,"WEB_URL":"http://www.aprepacademy.org/","id":"a62gfrigzs6o","ADDRESS":"908 Wahler Place, SE","GRADES":"4th-8th"},"type":"Feature","geometry":{"type":"Point","coordinates":[-76.9922688122316,38.8343278859471]}},{"properties":{"NAME":"Apple Tree Early Learning","DIRECTOR":"Anna Busbee","AUTHORIZER":"PCSB","GIS_ID":"chrt_73","PHONE":"202-646-0094","ENROLLMENT":252.0,"ADDRESS_ID":294482.0,"WEB_URL":"http://www.appletreeinstitute.org/","id":"a62gfrtoj6xf","ADDRESS":"401 I Street, SW","GRADES":"PS-K"},"type":"Feature","geometry":{"type":"Point","coordinates":[-77.0181252935422,38.8795150681843]}},{"properties":{"NAME":"AppleTree Early Learning PCS","DIRECTOR":"Anna Busbee","AUTHORIZER":"PCSB","GIS_ID":"chrt_8","PHONE":"646-0500","ENROLLMENT":252.0,"ADDRESS_ID":276717.0,"WEB_URL":"http://www.appletreeinstitute.org","id":"a62gfrkyetny","ADDRESS":"680 I STREET SW","GRADES":"PK-K"},"type":"Feature","geometry":{"type":"Point","coordinates":[-77.0219192001883,38.8788631110437]}},{"properties":{"NAME":"AppleTree Early Learning PCS - NW Campus","DIRECTOR":"Anne Zummo","AUTHORIZER":"","GIS_ID":"chrt_61","PHONE":"667-9490","ENROLLMENT":252.0,"ADDRESS_ID":297626.0,"WEB_URL":"http://www.appletreeinstitute.org/projects/aelpcs/","id":"a62gfrwzsui0","ADDRESS":"2750 14TH ST NW","GRADES":"PS-PK"},"type":"Feature","geometry":{"type":"Point","coordinates":[-77.0327438222701,38.9252436993432]}},{"properties":{"NAME":"Arts and Technology Academy PCS","DIRECTOR":"Errick L. Greene","AUTHORIZER":"PCSB","GIS_ID":"chrt_2","PHONE":"398-6811","ENROLLMENT":615.0,"ADDRESS_ID":304054.0,"WEB_URL":"http://www.artsandtechnologyacademy.org","id":"a62gfri3mbos","ADDRESS":"5300 BLAINE STREET NE","GRADES":"PK-6"},"type":"Feature","geometry":{"type":"Point","coordinates":[-76.924644867318,38.8919482194497]}},{"properties":{"NAME":"Barbara Jordan PCS","DIRECTOR":"Barbara Tobelmann","AUTHORIZER":"BOE","GIS_ID":"chrt_18","PHONE":"545-0922","ENROLLMENT":115.0,"ADDRESS_ID":277545.0,"WEB_URL":"http://www.barbarajordanpcs.org \r\nhttp://www.barbarajordanpcs.org","id":"a62gfrhhjc0p","ADDRESS":"100 PEABODY STREET NW","GRADES":"5-8"},"type":"Feature","geometry":{"type":"Point","coordinates":[-77.0128643793432,38.962165594317]}},{"properties":{"NAME":"Booker T. Washington PCS for Technical Arts","DIRECTOR":"Richard A. Jackson","AUTHORIZER":"BOE","GIS_ID":"chrt_30","PHONE":"232-6090","ENROLLMENT":345.0,"ADDRESS_ID":240288.0,"WEB_URL":"http://www.btwschool.org","id":"a62gfrpewfx9","ADDRESS":"1346 FLORIDA AVENUE NW","GRADES":"9-12 &amp; Adults"},"type":"Feature","geometry":{"type":"Point","coordinates":[-77.0311851003804,38.9199247116247]}},{"properties":{"NAME":"Bridges PCS","DIRECTOR":"Olivia Smith","AUTHORIZER":"PCSB","GIS_ID":"chrt_25","PHONE":"545-0515","ENROLLMENT":72.0,"ADDRESS_ID":224852.0,"WEB_URL":"http://www.bridgespcs.org","id":"a62gfrj9dz29","ADDRESS":"1250 TAYLOR STREET NW","GRADES":"PS-PK"},"type":"Feature","geometry":{"type":"Point","coordinates":[-77.028623802088,38.9404997139317]}},{"properties":{"NAME":"Capital City PCS Lower School","DIRECTOR":"Karen Dresden","AUTHORIZER":"PCSB","GIS_ID":"chrt_44","PHONE":"387-0309","ENROLLMENT":319.0,"ADDRESS_ID":243343.0,"WEB_URL":"http://www.ccpcs.org","id":"a62gfrm2m0sw","ADDRESS":"3047 15TH STREET NW","GRADES":"PK-8"},"type":"Feature","geometry":{"type":"Point","coordinates":[-77.0358412927633,38.9285123582925]}},{"properties":{"NAME":"Capital City PCS Upper School","DIRECTOR":"Karen Dresden","AUTHORIZER":"PCSB","GIS_ID":"chrt_74","PHONE":"202-387-0309","ENROLLMENT":319.0,"ADDRESS_ID":0.0,"WEB_URL":"http://www.ccpcs.org/","id":"a62gfrq92xdm","ADDRESS":"3029 14TH Street NW","GRADES":"6th-9th"},"type":"Feature","geometry":{"type":"Point","coordinates":[-77.032228472068,38.9283912576965]}},{"properties":{"NAME":"Carlos Rosario International PCS","DIRECTOR":"Sonia Gutierrez","AUTHORIZER":"PCSB","GIS_ID":"chrt_24","PHONE":"797-4700","ENROLLMENT":1180.0,"ADDRESS_ID":300733.0,"WEB_URL":"http://www.carlosrosario.org","id":"a62gfrhrtlhw","ADDRESS":"1100 HARVARD STREET NW","GRADES":"Ages 16 - Adult"},"type":"Feature","geometry":{"type":"Point","coordinates":[-77.027559475616,38.9264641954123]}},{"properties":{"NAME":"Center City Brentwood Campus","DIRECTOR":"Robin Toogood","AUTHORIZER":"PCSB","GIS_ID":"chrt_75","PHONE":"202-529-5394","ENROLLMENT":0.0,"ADDRESS_ID":301923.0,"WEB_URL":"http://www.centercitypcs.org/content/index.php","id":"a62gfrsx5ol8","ADDRESS":"2019 Rhode Island Avenue NE","GRADES":"Pre-K-5th"},"type":"Feature","geometry":{"type":"Point","coordinates":[-76.9749790477295,38.9287114668189]}},{"properties":{"NAME":"Center City Brightwood Campus","DIRECTOR":"Nicole Peltier-Lewis","AUTHORIZER":"PCSB","GIS_ID":"chrt_76","PHONE":"202-723-3352","ENROLLMENT":0.0,"ADDRESS_ID":253198.0,"WEB_URL":"http://www.centercitypcs.org/content/index.php","id":"a62gfrlot4ut","ADDRESS":"6008 Georgia Avenue NW","GRADES":"Pre-K-8th"},"type":"Feature","geometry":{"type":"Point","coordinates":[-77.0283285322439,38.9631916217711]}},{"properties":{"NAME":"Center City Capitol Hill","DIRECTOR":"Christian White","AUTHORIZER":"PCSB","GIS_ID":"chrt_77","PHONE":"202-547-7566","ENROLLMENT":0.0,"ADDRESS_ID":295125.0,"WEB_URL":"http://www.centercitypcs.org/content/index.php","id":"a62gfrhcrrxv","ADDRESS":"1503 East Capitol Street SE","GRADES":"Pre-K-8th"},"type":"Feature","geometry":{"type":"Point","coordinates":[-76.9833045500044,38.889525486887]}},{"properties":{"NAME":"Center City PCS Congress Heights","DIRECTOR":"Wallace Henry","AUTHORIZER":"PCSB","GIS_ID":"chrt_78","PHONE":"202-562-7070","ENROLLMENT":0.0,"ADDRESS_ID":303702.0,"WEB_URL":"http://www.centercitypcs.org/content/index.php","id":"a62gfrmlt9v7","ADDRESS":"220 Highview Place SE","GRADES":"Pre-K-8th"},"type":"Feature","geometry":{"type":"Point","coordinates":[-77.0044446347039,38.8415863483563]}},{"properties":{"NAME":"Center City PCS Shaw Campus","DIRECTOR":"Jason Lody","AUTHORIZER":"PCSB","GIS_ID":"chrt_80","PHONE":"202-234-1093","ENROLLMENT":0.0,"ADDRESS_ID":290191.0,"WEB_URL":"http://www.centercitypcs.org/content/index.php","id":"a62gfrsphbla","ADDRESS":"711 N Street NW","GRADES":"Pre-K-8th"},"type":"Feature","geometry":{"type":"Point","coordinates":[-77.0226655187661,38.9074441832465]}},{"properties":{"NAME":"Center City PCS Trinidad Campus","DIRECTOR":"Monica Evans","AUTHORIZER":"PCSB","GIS_ID":"chrt_81","PHONE":"202-398-4832","ENROLLMENT":0.0,"ADDRESS_ID":285938.0,"WEB_URL":"http://www.centercitypcs.org/content/index.php","id":"a62gfrieaf8c","ADDRESS":"1217 West Virginia Ave NE","GRADES":"Pre-K-8th"},"type":"Feature","geometry":{"type":"Point","coordinates":[-76.991202176755,38.9052988206234]}},{"properties":{"NAME":"Center City Petworth Campus","DIRECTOR":"Sr. Maria Farina","AUTHORIZER":"PCSB","GIS_ID":"chrt_79","PHONE":"202-726-9212","ENROLLMENT":0.0,"ADDRESS_ID":303332.0,"WEB_URL":"http://www.centercitypcs.org/content/index.php","id":"a62gfrkkyg3t","ADDRESS":"510 Webster Street NW","GRADES":"Pre-K-8th"},"type":"Feature","geometry":{"type":"Point","coordinates":[-77.0209066640503,38.9438708090448]}},{"properties":{"NAME":"Cesar Chavez PCHS for Public Policy - Capitol Hill Campus","DIRECTOR":"Irasema Salcido","AUTHORIZER":"PCSB","GIS_ID":"chrt_12","PHONE":"547-3424","ENROLLMENT":1349.0,"ADDRESS_ID":76726.0,"WEB_URL":"http://www.chavezschools.org","id":"a62gfrsbt28u","ADDRESS":"709 12TH STREET SE","GRADES":"9-12"},"type":"Feature","geometry":{"type":"Point","coordinates":[-76.9906403665678,38.8806943970446]}},{"properties":{"NAME":"Cesar Chavez PCS for Public Policy - Parkside Campus","DIRECTOR":"Irasema Salcido","AUTHORIZER":"PCSB","GIS_ID":"chrt_17","PHONE":"398-2230","ENROLLMENT":1349.0,"ADDRESS_ID":304053.0,"WEB_URL":"http://www.chavezschools.org","id":"a62gfrjfwlme","ADDRESS":"3701 HAYES STREET NE","GRADES":"6-12"},"type":"Feature","geometry":{"type":"Point","coordinates":[-76.9490643768167,38.9014381662399]}},{"properties":{"NAME":"Cesar Chavez Prep","DIRECTOR":"Andrew Touchette","AUTHORIZER":"PCSB","GIS_ID":"chrt_70","PHONE":"723-3975","ENROLLMENT":0.0,"ADDRESS_ID":301528.0,"WEB_URL":"http://www.cesarchavezhs.org/","id":"a62gfrroz8g5","ADDRESS":"3220 16th Street NW","GRADES":"6-8th"},"type":"Feature","geometry":{"type":"Point","coordinates":[-77.0368099832728,38.9313131010262]}},{"properties":{"NAME":"Children's Studio School PCS","DIRECTOR":"Marcia McDonnell","AUTHORIZER":"PCSB","GIS_ID":"chrt_27","PHONE":"387-6148","ENROLLMENT":100.0,"ADDRESS_ID":240335.0,"WEB_URL":"http://www.studioschool.org","id":"a62gfrvxwsjy","ADDRESS":"1301 V STREET NW","GRADES":"PS-6"},"type":"Feature","geometry":{"type":"Point","coordinates":[-77.029981282768,38.9185362759023]}},{"properties":{"NAME":"City Collegiate PCS","DIRECTOR":"Phyllis Hedlund","AUTHORIZER":"PCSB","GIS_ID":"chrt_56","PHONE":"339.9494","ENROLLMENT":145.0,"ADDRESS_ID":273636.0,"WEB_URL":"http://www.citycollegiatepcs.org","id":"a62gfrwrl825","ADDRESS":"3265 S STREET NW","GRADES":"6th-8th"},"type":"Feature","geometry":{"type":"Point","coordinates":[-77.0668590091134,38.915717088504]}},{"properties":{"NAME":"City Lights PCS","DIRECTOR":"Iris Lewis","AUTHORIZER":"PCSB","GIS_ID":"chrt_6","PHONE":"832-4366","ENROLLMENT":70.0,"ADDRESS_ID":299982.0,"WEB_URL":"http://www.citylightspcs.org","id":"a62gfrmmmzgo","ADDRESS":"62 T STREET NE","GRADES":"9-12"},"type":"Feature","geometry":{"type":"Point","coordinates":[-77.0066563676205,38.9160054387495]}},{"properties":{"NAME":"Community Academy PCS Amos III","DIRECTOR":"","AUTHORIZER":"PCSB","GIS_ID":"chrt_82","PHONE":"202-234-5437","ENROLLMENT":0.0,"ADDRESS_ID":278969.0,"WEB_URL":"NA","id":"a62gfrjdrwcn","ADDRESS":"1225 R Street, NW","GRADES":"Pre-5th"},"type":"Feature","geometry":{"type":"Point","coordinates":[-77.0290070584299,38.9128939991426]}},{"properties":{"NAME":"Community Academy PCS-Amos 2 Campus","DIRECTOR":"Toosdhi Tucker","AUTHORIZER":"PCSB","GIS_ID":"chrt_31","PHONE":"723-5136","ENROLLMENT":1152.0,"ADDRESS_ID":257768.0,"WEB_URL":"http://www.capcs.org","id":"a62gfrvxqg4w","ADDRESS":"1351 NICHOLSON STREET NW","GRADES":"PS-PK"},"type":"Feature","geometry":{"type":"Point","coordinates":[-77.0315937450176,38.9605172434385]}},{"properties":{"NAME":"Community Academy PCS-Amos Elementary Campus","DIRECTOR":"Kyle Williams","AUTHORIZER":"PCSB","GIS_ID":"chrt_26","PHONE":"723-4100","ENROLLMENT":1152.0,"ADDRESS_ID":255251.0,"WEB_URL":"http://www.capcs.org","id":"a62gfrkungw2","ADDRESS":"1300 ALLISON STREET NW","GRADES":"Pre-5"},"type":"Feature","geometry":{"type":"Point","coordinates":[-77.0305406109046,38.944700153742]}},{"properties":{"NAME":"Community Academy PCS-Butler Bilingual Campus","DIRECTOR":"Ibis Villegas","AUTHORIZER":"PCSB","GIS_ID":"chrt_1","PHONE":"332-6565","ENROLLMENT":1152.0,"ADDRESS_ID":243014.0,"WEB_URL":"http://www.capcs.org","id":"a62gfrjg237a","ADDRESS":"5 THOMAS CIRCLE NW","GRADES":"PS-5"},"type":"Feature","geometry":{"type":"Point","coordinates":[-77.0326005314702,38.9064710939558]}},{"properties":{"NAME":"Community Academy PCS-Rand Campus","DIRECTOR":"Kent Amos","AUTHORIZER":"PCSB","GIS_ID":"chrt_46","PHONE":"723-4011","ENROLLMENT":1152.0,"ADDRESS_ID":155991.0,"WEB_URL":"http://www.capcs.org","id":"a62gfrh97hjg","ADDRESS":"33 RIGGS ROAD NE","GRADES":"PS-8"},"type":"Feature","geometry":{"type":"Point","coordinates":[-77.0066378506625,38.9549223110183]}},{"properties":{"NAME":"D.C. Preparatory Academy PCES - Elementary Campus","DIRECTOR":"Emiliy Lawson","AUTHORIZER":"PCSB","GIS_ID":"chrt_68","PHONE":"635-4411","ENROLLMENT":278.0,"ADDRESS_ID":289577.0,"WEB_URL":"http://www.dcprep.org","id":"a62gfrn9nyu0","ADDRESS":"707 EDGEWOOD STREET NE","GRADES":"1-3"},"type":"Feature","geometry":{"type":"Point","coordinates":[-76.9957486095311,38.9242834543577]}},{"properties":{"NAME":"D.C. Preparatory Academy PCES - Middle Campus","DIRECTOR":"Natalie Butler","AUTHORIZER":"PCSB","GIS_ID":"chrt_9","PHONE":"832-5700","ENROLLMENT":249.0,"ADDRESS_ID":289579.0,"WEB_URL":"http://www.dcprep.org","id":"a62gfrvg9drq","ADDRESS":"701 EDGEWOOD STREET NE","GRADES":"4-7"},"type":"Feature","geometry":{"type":"Point","coordinates":[-76.9960090484825,38.9247387079055]}},{"properties":{"NAME":"DC Preparatory Benning Academy Campus","DIRECTOR":"Alicia Robinson","AUTHORIZER":"PCSB","GIS_ID":"chrt_83","PHONE":"202-635-4590","ENROLLMENT":127.0,"ADDRESS_ID":294468.0,"WEB_URL":"http://www.dcprep.org/","id":"a62gfriv0kpf","ADDRESS":"100 41st Street, NE","GRADES":"Pre-S-Kindergarten"},"type":"Feature","geometry":{"type":"Point","coordinates":[-76.9448214767979,38.8910214690078]}},{"properties":{"NAME":"District of Columbia Bilingual PCS","DIRECTOR":"Allison Auerbach","AUTHORIZER":"PCSB","GIS_ID":"chrt_34","PHONE":"332-4200","ENROLLMENT":282.0,"ADDRESS_ID":234355.0,"WEB_URL":"http://www.centronia.org","id":"a62gfrvs3zow","ADDRESS":"1420 COLUMBIA ROAD NW","GRADES":"PS-3"},"type":"Feature","geometry":{"type":"Point","coordinates":[-77.0333074972966,38.9271952817564]}},{"properties":{"NAME":"E.L. Haynes PCS","DIRECTOR":"Jennifer Niles","AUTHORIZER":"PCSB","GIS_ID":"chrt_69","PHONE":"667-9082","ENROLLMENT":191.0,"ADDRESS_ID":284556.0,"WEB_URL":"http://www.elhaynes.org","id":"a62gfrrub72i","ADDRESS":"3600 Georgia Avenue NW","GRADES":"PK-6th"},"type":"Feature","geometry":{"type":"Point","coordinates":[-77.0242433437078,38.934321283374]}},{"properties":{"NAME":"Eagle Academy PCS","DIRECTOR":"Cassandra Pinkney","AUTHORIZER":"PCSB","GIS_ID":"chrt_15","PHONE":"544-2646","ENROLLMENT":331.0,"ADDRESS_ID":288946.0,"WEB_URL":"http://www.eagleacademypcs.org","id":"a62gfrr4wqr1","ADDRESS":"770 M STREET SE","GRADES":"PS-K"},"type":"Feature","geometry":{"type":"Point","coordinates":[-76.995576669607,38.8769973739949]}},{"properties":{"NAME":"Early Childhood Academy PCS","DIRECTOR":"Wendy Edwards","AUTHORIZER":"PCSB","GIS_ID":"chrt_51","PHONE":"373-0035","ENROLLMENT":188.0,"ADDRESS_ID":278471.0,"WEB_URL":"http://ec.rrc.dc.gov/ec/site/default.asp","id":"a62gfrsc4l0x","ADDRESS":"4025 9TH STREET SE","GRADES":"PS-1"},"type":"Feature","geometry":{"type":"Point","coordinates":[-76.9905293302873,38.8317486625764]}},{"properties":{"NAME":"Education Strengthens Families PCS","DIRECTOR":"Christie McKay","AUTHORIZER":"PCSB","GIS_ID":"chrt_52","PHONE":"797-7337","ENROLLMENT":190.0,"ADDRESS_ID":285647.0,"WEB_URL":"http://ec.rrc.dc.gov/ec/site/default.asp","id":"a62gfrq379t8","ADDRESS":"2355 ONTARIO ROAD NW","GRADES":"Adults, children aged 0-3"},"type":"Feature","geometry":{"type":"Point","coordinates":[-77.0398373056081,38.9214735591878]}},{"properties":{"NAME":"Elsie Whitlow Stokes Community Freedom PCS","DIRECTOR":"Linda Moore","AUTHORIZER":"PCSB","GIS_ID":"chrt_45","PHONE":"265-7237 ext 104","ENROLLMENT":350.0,"ADDRESS_ID":289754.0,"WEB_URL":"http://www.ewstokes.org","id":"a62gfri8oiyk","ADDRESS":"3700 Oakview Terrace NE","GRADES":"K-6"},"type":"Feature","geometry":{"type":"Point","coordinates":[-76.9900873535366,38.9349895501612]}},{"properties":{"NAME":"Excel Academy PCS","DIRECTOR":"Caroline John","AUTHORIZER":"PCSB","GIS_ID":"chrt_84","PHONE":"202-373-0477","ENROLLMENT":104.0,"ADDRESS_ID":301907.0,"WEB_URL":"http://www.excelpubliccharterschool.org/","id":"a62gfrl0udm7","ADDRESS":"3845 South Capitol Street SW","GRADES":"Pre-S-Pre-K"},"type":"Feature","geometry":{"type":"Point","coordinates":[-77.0086612982713,38.8340103625438]}},{"properties":{"NAME":"Friendship PCS-Blow Pierce Junior Academy Campus","DIRECTOR":"Kimberly Campbell","AUTHORIZER":"PCSB","GIS_ID":"chrt_13","PHONE":"572-1070","ENROLLMENT":4200.0,"ADDRESS_ID":288919.0,"WEB_URL":"http://www.friendshipschools.org/juniorAcademy/index.asp","id":"a62gfrs1zuid","ADDRESS":"725 19TH STREET NE","GRADES":"6-8"},"type":"Feature","geometry":{"type":"Point","coordinates":[-76.9764812394924,38.8978201192487]}},{"properties":{"NAME":"Friendship PCS-Chamberlain Campus","DIRECTOR":"Kimberly Campbell","AUTHORIZER":"PCSB","GIS_ID":"chrt_29","PHONE":"547-5800","ENROLLMENT":4200.0,"ADDRESS_ID":66334.0,"WEB_URL":"http://www.friendshipschools.org/chamberlain/index.asp","id":"a62gfruzpiwq","ADDRESS":"1345 POTOMAC AVENUE SE","GRADES":"K-5"},"type":"Feature","geometry":{"type":"Point","coordinates":[-76.9868022982224,38.879384656882]}},{"properties":{"NAME":"Friendship PCS-Southeast Elementary Academy","DIRECTOR":"Kimberly Campbell","AUTHORIZER":"PCSB","GIS_ID":"chrt_7","PHONE":"562-1980","ENROLLMENT":4200.0,"ADDRESS_ID":1655.0,"WEB_URL":"http://www.friendshipschools.org","id":"a62gfrtgcv5f","ADDRESS":"645 MILWAUKEE PLACE SE","GRADES":"K-6"},"type":"Feature","geometry":{"type":"Point","coordinates":[-76.9970077361332,38.8477911402556]}},{"properties":{"NAME":"Friendship PCS-Woodridge Campus","DIRECTOR":"Kimberly Campbell","AUTHORIZER":"PCSB","GIS_ID":"chrt_43","PHONE":"635-6500","ENROLLMENT":4200.0,"ADDRESS_ID":42808.0,"WEB_URL":"http://www.friendshipschools.org/woodridge/index.asp","id":"a62gfrjqd0an","ADDRESS":"2959 CARLTON AVENUE NE","GRADES":"K-8"},"type":"Feature","geometry":{"type":"Point","coordinates":[-76.9665145925324,38.9295463103155]}},{"properties":{"NAME":"Friendship PCS-Woodson Campus","DIRECTOR":"Kimberly Campbell","AUTHORIZER":"PCSB","GIS_ID":"chrt_48","PHONE":"396-5500","ENROLLMENT":4200.0,"ADDRESS_ID":288100.0,"WEB_URL":"http://www.friendshipschools.org/collegiateAcademy/index.asp","id":"a62gfrnoj2s3","ADDRESS":"4095 MINNESOTA AVENUE NE","GRADES":"9-12"},"type":"Feature","geometry":{"type":"Point","coordinates":[-76.9463466274872,38.8975494636525]}},{"properties":{"NAME":"Hope Community PCS - Lamond Campus","DIRECTOR":"Niyeka Wilson","AUTHORIZER":"PCSB","GIS_ID":"chrt_67","PHONE":"723-0909","ENROLLMENT":600.0,"ADDRESS_ID":304055.0,"WEB_URL":"http://www.hopecommunitycs.org","id":"a62gfrrgbrci","ADDRESS":"6200 KANSAS AVE NE","GRADES":"PK-5"},"type":"Feature","geometry":{"type":"Point","coordinates":[-77.0084669550466,38.9659384881866]}},{"properties":{"NAME":"Hope Community PCS - Tolson Campus","DIRECTOR":"George Sanker","AUTHORIZER":"PCSB","GIS_ID":"chrt_60","PHONE":"832-7370","ENROLLMENT":600.0,"ADDRESS_ID":43392.0,"WEB_URL":"http://www.hopecommunitycs.org","id":"a62gfrkv9ys0","ADDRESS":"2917 8TH STREET NE","GRADES":"PK-8"},"type":"Feature","geometry":{"type":"Point","coordinates":[-76.9946162539684,38.9269504638359]}},{"properties":{"NAME":"Hospitality High School PCS","DIRECTOR":"Debra Knight","AUTHORIZER":"PCSB","GIS_ID":"chrt_62","PHONE":"737-4150","ENROLLMENT":225.0,"ADDRESS_ID":252605.0,"WEB_URL":"http://www.hospitalityhigh.org/","id":"a62gfrpf8jg8","ADDRESS":"4301 13TH STREET NW","GRADES":"9-12"},"type":"Feature","geometry":{"type":"Point","coordinates":[-77.0288876248359,38.9431759486369]}},{"properties":{"NAME":"Howard Road Academy PCS","DIRECTOR":"Allen Blessing","AUTHORIZER":"PCSB","GIS_ID":"chrt_85","PHONE":"202-582-3322","ENROLLMENT":850.0,"ADDRESS_ID":42549.0,"WEB_URL":"http://www.howardroadacademy.org/","id":"a62gfrs0g2n7","ADDRESS":"3000 Pennsylvania Avenue SE","GRADES":"Pre-Kindergarten-8th"},"type":"Feature","geometry":{"type":"Point","coordinates":[-76.9638130008157,38.8711292746498]}},{"properties":{"NAME":"Howard Road Academy PCS","DIRECTOR":"Freddie Tomoney","AUTHORIZER":"PCSB","GIS_ID":"chrt_86","PHONE":"202-583-2828","ENROLLMENT":850.0,"ADDRESS_ID":18817.0,"WEB_URL":"http://www.howardroadacademy.org/","id":"a62gfrhvwxje","ADDRESS":"4625 G Street SE","GRADES":"Pre-School-6th"},"type":"Feature","geometry":{"type":"Point","coordinates":[-76.9347469741377,38.8805751087659]}},{"properties":{"NAME":"Howard Road Academy PCS","DIRECTOR":"LaTonya Henderson","AUTHORIZER":"PCSB","GIS_ID":"chrt_10","PHONE":"610-4193","ENROLLMENT":850.0,"ADDRESS_ID":300872.0,"WEB_URL":"http://www.howardroadacademy.org","id":"a62gfrp96cxf","ADDRESS":"701 HOWARD ROAD SE","GRADES":"K-7"},"type":"Feature","geometry":{"type":"Point","coordinates":[-76.9991861089211,38.8641887646155]}},{"properties":{"NAME":"Howard University Middle School for Math and Science PCS","DIRECTOR":"Sue White (Principal)","AUTHORIZER":"PCSB","GIS_ID":"chrt_47","PHONE":"806-7725","ENROLLMENT":300.0,"ADDRESS_ID":291490.0,"WEB_URL":"http://www.howard.edu/ms2","id":"a62gfrhfikxo","ADDRESS":"405 HOWARD PLACE NW","GRADES":"6-8"},"type":"Feature","geometry":{"type":"Point","coordinates":[-77.0191298831593,38.9228475351637]}},{"properties":{"NAME":"Hyde Leadership PCS","DIRECTOR":"Dr. Jo Ann Casson","AUTHORIZER":"PCSB","GIS_ID":"chrt_21","PHONE":"529-4400","ENROLLMENT":780.0,"ADDRESS_ID":285757.0,"WEB_URL":"http://www.hydedc.org","id":"a62gfrvd2s2q","ADDRESS":"101 T STREET NE","GRADES":"PreK-12"},"type":"Feature","geometry":{"type":"Point","coordinates":[-77.0058926506799,38.9151827937486]}},{"properties":{"NAME":"Ideal Academy PCS","DIRECTOR":"","AUTHORIZER":"PCSB","GIS_ID":"chrt_87","PHONE":"202-729-6660","ENROLLMENT":0.0,"ADDRESS_ID":285311.0,"WEB_URL":"http://www.iapcs.com/","id":"a62gfrnwzd8m","ADDRESS":"6130 North Capital Street NW","GRADES":"PS-8th"},"type":"Feature","geometry":{"type":"Point","coordinates":[-77.0099333096867,38.9649195310638]}},{"properties":{"NAME":"Ideal Academy PCS","DIRECTOR":"George Rutherford","AUTHORIZER":"PCSB","GIS_ID":"chrt_19","PHONE":"723-6798","ENROLLMENT":450.0,"ADDRESS_ID":277545.0,"WEB_URL":"http://ec.rrc.dc.gov/ec/site/default.asp","id":"a62gfrhbv5dw","ADDRESS":"100 PEABODY STREET NW 2nd Floor","GRADES":"9-11th"},"type":"Feature","geometry":{"type":"Point","coordinates":[-77.0128643793432,38.962165594317]}},{"properties":{"NAME":"Imagine Southeast PCS","DIRECTOR":"Stacey Scott","AUTHORIZER":"PCSB","GIS_ID":"chrt_88","PHONE":"202-210-1208","ENROLLMENT":206.0,"ADDRESS_ID":25545.0,"WEB_URL":"http://www.imaginesoutheastpcs.org/","id":"a62gfrkepcy5","ADDRESS":"421 ALABAMA AVENUE SE","GRADES":"P-3"},"type":"Feature","geometry":{"type":"Point","coordinates":[-76.9997501479319,38.8428414895602]}},{"properties":{"NAME":"Integrated Design and Electronics Academy (IDEA) PCS","DIRECTOR":"Charlotte Blount-Lewis","AUTHORIZER":"PCSB","GIS_ID":"chrt_22","PHONE":"399-4750","ENROLLMENT":435.0,"ADDRESS_ID":75296.0,"WEB_URL":"http://www.ideapcs.org","id":"a62gfrjma1bc","ADDRESS":"1027 45TH STREET NE","GRADES":"7-12"},"type":"Feature","geometry":{"type":"Point","coordinates":[-76.93710357686,38.9045485816075]}},{"properties":{"NAME":"KIPP DC: AIM Academy PCS","DIRECTOR":"Khala Johnson","AUTHORIZER":"PCSB","GIS_ID":"chrt_49","PHONE":"373-0505","ENROLLMENT":1095.0,"ADDRESS_ID":155368.0,"WEB_URL":"http://www.aimacademydc.org","id":"a62gfrqgcgwg","ADDRESS":"2600 DOUGLAS ROAD SE","GRADES":"5-8"},"type":"Feature","geometry":{"type":"Point","coordinates":[-76.9880497818185,38.8566190199793]}},{"properties":{"NAME":"KIPP DC: KEY Academy PCS","DIRECTOR":"Sarah Hayes","AUTHORIZER":"PCSB","GIS_ID":"chrt_14","PHONE":"582-5477","ENROLLMENT":1095.0,"ADDRESS_ID":17421.0,"WEB_URL":"http://www.keyacademy.org","id":"a62gfrwxd0d4","ADDRESS":"4801 BENNING ROAD SE","GRADES":"5-8"},"type":"Feature","geometry":{"type":"Point","coordinates":[-76.9343946104632,38.8826271126923]}},{"properties":{"NAME":"KIPP DC: WILL Academy PCS","DIRECTOR":"Susan Schaeffler","AUTHORIZER":"PCSB","GIS_ID":"chrt_63","PHONE":"328-9455","ENROLLMENT":1095.0,"ADDRESS_ID":294487.0,"WEB_URL":"http://www.kippdc.org","id":"a62gfrq6ptka","ADDRESS":"421 P STREET NW","GRADES":"5-7"},"type":"Feature","geometry":{"type":"Point","coordinates":[-77.0181173407198,38.9098789326489]}},{"properties":{"NAME":"Kamit Institute for Magnificent Achievers","DIRECTOR":"Djenaba Mason","AUTHORIZER":"PCSB","GIS_ID":"chrt_20","PHONE":"723-7886","ENROLLMENT":225.0,"ADDRESS_ID":277545.0,"WEB_URL":"http://www.kimapcs.org","id":"a62gfrjfzgot","ADDRESS":"100 PEABODY STREET NW 1st Floor","GRADES":"7-12"},"type":"Feature","geometry":{"type":"Point","coordinates":[-77.0128643793432,38.962165594317]}},{"properties":{"NAME":"Latin American Montessori Bilingual PCS","DIRECTOR":"Diane Cottman","AUTHORIZER":"PCSB","GIS_ID":"chrt_57","PHONE":"726-6200","ENROLLMENT":138.0,"ADDRESS_ID":284010.0,"WEB_URL":"http://www.lambpcs.org","id":"a62gfrh3d075","ADDRESS":"1375 MISSOURI AVENUE NW","GRADES":"PreS-PreK"},"type":"Feature","geometry":{"type":"Point","coordinates":[-77.0323990470463,38.9621605611574]}},{"properties":{"NAME":"MEI Futures Academy PCS","DIRECTOR":"Michelle Ireland-Banks","AUTHORIZER":"PCSB","GIS_ID":"chrt_65","PHONE":"349-4054","ENROLLMENT":160.0,"ADDRESS_ID":288756.0,"WEB_URL":"http://www.mei-futures-dc.org","id":"a62gfrqlkbwk","ADDRESS":"6000 NEW HAMPSHIRE AVENUE NE","GRADES":"PS-9-11"},"type":"Feature","geometry":{"type":"Point","coordinates":[-77.0056320650456,38.9637475378684]}},{"properties":{"NAME":"Mary McLeod Bethune PCS","DIRECTOR":"Linda McKay","AUTHORIZER":"PCSB","GIS_ID":"chrt_3","PHONE":"723-5800","ENROLLMENT":269.0,"ADDRESS_ID":255870.0,"WEB_URL":"http://www.mmbethunepcs.org","id":"a62gfrweyith","ADDRESS":"5413 16TH STREET NW","GRADES":"PK-4"},"type":"Feature","geometry":{"type":"Point","coordinates":[-77.0359219998835,38.9559160876887]}},{"properties":{"NAME":"Mary McLeod Bethune PCS - Slowe Elementary Campus","DIRECTOR":"Linda McKay","AUTHORIZER":"PCSB","GIS_ID":"chrt_71","PHONE":"397-3044","ENROLLMENT":269.0,"ADDRESS_ID":294522.0,"WEB_URL":"http://www.mmbethunepcs.org","id":"a62gfrtsjf2b","ADDRESS":"1404 JACKSON STREET NE","GRADES":"4-8"},"type":"Feature","geometry":{"type":"Point","coordinates":[-76.9868646214159,38.9296127156548]}},{"properties":{"NAME":"Maya Angelou PCS - Evans Campus","DIRECTOR":"Nataki Reynolds","AUTHORIZER":"PCSB","GIS_ID":"chrt_4","PHONE":"388-8960","ENROLLMENT":545.0,"ADDRESS_ID":289793.0,"WEB_URL":"http://www.seeforever.org","id":"a62gfrs5x5ia","ADDRESS":"5600 EAST CAPITOL STREET NE","GRADES":"9-12"},"type":"Feature","geometry":{"type":"Point","coordinates":[-76.9206352587755,38.8902911036758]}},{"properties":{"NAME":"Maya Angelou PCS - Middle School Campus","DIRECTOR":"Rashida Waters","AUTHORIZER":"PCSB","GIS_ID":"chrt_64","PHONE":"232-2885","ENROLLMENT":200.0,"ADDRESS_ID":289793.0,"WEB_URL":"http://www.seeforever.org","id":"a62gfrvlrsos","ADDRESS":"5600 EAST CAPITOL STREET NE","GRADES":"6-8"},"type":"Feature","geometry":{"type":"Point","coordinates":[-76.9206352357122,38.8902911126685]}},{"properties":{"NAME":"Maya Angelou PCS - Shaw Campus","DIRECTOR":"Eugene Pinkard","AUTHORIZER":"PCSB","GIS_ID":"chrt_39","PHONE":"939-9080","ENROLLMENT":545.0,"ADDRESS_ID":239901.0,"WEB_URL":"http://www.seeforever.org","id":"a62gfrhwlbkc","ADDRESS":"1851 9TH STREET NW","GRADES":"9-12"},"type":"Feature","geometry":{"type":"Point","coordinates":[-77.0236441077773,38.9153648426615]}},{"properties":{"NAME":"Meridian PCS","DIRECTOR":"Robinette Breedlove","AUTHORIZER":"PCSB","GIS_ID":"chrt_28","PHONE":"387-9830","ENROLLMENT":550.0,"ADDRESS_ID":240295.0,"WEB_URL":"http://www.meridian-dc.net","id":"a62gfrssi0ts","ADDRESS":"1328 FLORIDA AVENUE NW","GRADES":"PK-8"},"type":"Feature","geometry":{"type":"Point","coordinates":[-77.0307981755233,38.9200854326963]}},{"properties":{"NAME":"Next Step/El Proximo Paso PCS","DIRECTOR":"Linda Ohmans","AUTHORIZER":"PCSB","GIS_ID":"chrt_33","PHONE":"319-2249","ENROLLMENT":84.0,"ADDRESS_ID":234363.0,"WEB_URL":"http://www.layc-dc.org","id":"a62gfrnjftd7","ADDRESS":"1419 COLUMBIA ROAD NW","GRADES":"9-Adult"},"type":"Feature","geometry":{"type":"Point","coordinates":[-77.0333578159076,38.9277663944928]}},{"properties":{"NAME":"Nia Community PCS","DIRECTOR":"Monique Murdock","AUTHORIZER":"PCSB","GIS_ID":"chrt_53","PHONE":"562-5440","ENROLLMENT":118.0,"ADDRESS_ID":294468.0,"WEB_URL":"http://www.niacpcs.org","id":"a62gfrklmnhs","ADDRESS":"100 41ST STREET NE","GRADES":"PK-8"},"type":"Feature","geometry":{"type":"Point","coordinates":[-76.9448242078271,38.8910225152693]}},{"properties":{"NAME":"Options PCS","DIRECTOR":"Dr. Donna Montgomery","AUTHORIZER":"PCSB","GIS_ID":"chrt_32","PHONE":"547-1028","ENROLLMENT":320.0,"ADDRESS_ID":286107.0,"WEB_URL":"http://www.optionsschool.org","id":"a62gfruga98o","ADDRESS":"1375 E STREET NE","GRADES":"5-9"},"type":"Feature","geometry":{"type":"Point","coordinates":[-76.9862134234649,38.8958499225472]}},{"properties":{"NAME":"Paul PCS","DIRECTOR":"Barbara Nophlin","AUTHORIZER":"PCSB","GIS_ID":"chrt_16","PHONE":"291-7499","ENROLLMENT":600.0,"ADDRESS_ID":294613.0,"WEB_URL":"http://www.paulcharter.org","id":"a62gfrnvtiuy","ADDRESS":"5800 8TH STREET NW","GRADES":"6-9"},"type":"Feature","geometry":{"type":"Point","coordinates":[-77.0247230671385,38.9613651155674]}},{"properties":{"NAME":"Potomac Lighthouse PCS","DIRECTOR":"Rosalyn Rice-Harris","AUTHORIZER":"PCSB","GIS_ID":"chrt_37","PHONE":"526-6003","ENROLLMENT":259.0,"ADDRESS_ID":286330.0,"WEB_URL":"http://www.lighthouse-academies.org","id":"a62gfrirl0u5","ADDRESS":"1600 TAYLOR STREET NE","GRADES":"PK-3"},"type":"Feature","geometry":{"type":"Point","coordinates":[-76.9822018828046,38.9409817352192]}},{"properties":{"NAME":"Roots PCS","DIRECTOR":"Bernida L Thompson","AUTHORIZER":"PCSB","GIS_ID":"chrt_89","PHONE":"202-882-5155","ENROLLMENT":105.0,"ADDRESS_ID":277484.0,"WEB_URL":"http://www.rootspcs.org/","id":"a62gfrk3kj7h","ADDRESS":"6222 North Capitol Street NW","GRADES":"Pre-Kindergarten-K"},"type":"Feature","geometry":{"type":"Point","coordinates":[-77.0094387043907,38.9662326140887]}},{"properties":{"NAME":"Roots PCS","DIRECTOR":"Dr. Bernida Thompson","AUTHORIZER":"PCSB","GIS_ID":"chrt_35","PHONE":"882-8073","ENROLLMENT":105.0,"ADDRESS_ID":259404.0,"WEB_URL":"http://www.rootspcs.org","id":"a62gfrs0opzg","ADDRESS":"15 KENNEDY STREET NW","GRADES":"1-8"},"type":"Feature","geometry":{"type":"Point","coordinates":[-77.0103095749906,38.9568634158872]}},{"properties":{"NAME":"School for Arts In Learning (SAIL) PCS (Lower)","DIRECTOR":"L. Lawrence Riccio","AUTHORIZER":"PCSB","GIS_ID":"chrt_23","PHONE":"296-9100","ENROLLMENT":150.0,"ADDRESS_ID":243076.0,"WEB_URL":"http://www.wvsarts.org","id":"a62gfrkdp4tm","ADDRESS":"1100 16TH STREET NW","GRADES":"K-6"},"type":"Feature","geometry":{"type":"Point","coordinates":[-77.0369437761443,38.9039251223977]}},{"properties":{"NAME":"School of Educational Evolution and Development (SEED) PCS","DIRECTOR":"Charles Adams","AUTHORIZER":"PCSB","GIS_ID":"chrt_50","PHONE":"248-7773","ENROLLMENT":327.0,"ADDRESS_ID":288154.0,"WEB_URL":"http://www.seedfoundation.com","id":"a62gfrjzj4rk","ADDRESS":"4300 C STREET SE","GRADES":"7-12"},"type":"Feature","geometry":{"type":"Point","coordinates":[-76.9463030565136,38.8871299098258]}},{"properties":{"NAME":"Septima Clark PCS","DIRECTOR":"Jenny DuFresne","AUTHORIZER":"PCSB","GIS_ID":"chrt_54","PHONE":"563-6556","ENROLLMENT":106.0,"ADDRESS_ID":24445.0,"WEB_URL":"http://www.septimaclarkpcs.org","id":"a62gfrkbvjvx","ADDRESS":"425 CHESAPEAKE STREET SE","GRADES":"PS-K"},"type":"Feature","geometry":{"type":"Point","coordinates":[-76.9991848978257,38.8289856075215]}},{"properties":{"NAME":"St. Coletta of Greater Washington PCS","DIRECTOR":"Janice Corazza","AUTHORIZER":"PCSB","GIS_ID":"chrt_66","PHONE":"350-8380","ENROLLMENT":225.0,"ADDRESS_ID":302511.0,"WEB_URL":"http://www.stcoletta.org","id":"a62gfrmehmjt","ADDRESS":"1901 INDEPENDENCE AVE SE","GRADES":"Ages 3-22"},"type":"Feature","geometry":{"type":"Point","coordinates":[-76.9766749159427,38.8872164949669]}},{"properties":{"NAME":"Thea Bowman Preparatory Academy PCS","DIRECTOR":"Mark Cosenza","AUTHORIZER":"PCSB","GIS_ID":"chrt_90","PHONE":"202-543-8432","ENROLLMENT":100.0,"ADDRESS_ID":0.0,"WEB_URL":"http://www.theabowmanprep.org/","id":"a62gfrsd8vmg","ADDRESS":"330 21ST STREET NE","GRADES":"5th-6th"},"type":"Feature","geometry":{"type":"Point","coordinates":[-76.9750742645019,38.89406470845]}},{"properties":{"NAME":"Thurgood Marshall Academy PCS","DIRECTOR":"Joshua Kern","AUTHORIZER":"PCSB","GIS_ID":"chrt_42","PHONE":"563-6862","ENROLLMENT":370.0,"ADDRESS_ID":278159.0,"WEB_URL":"http://www.thurgoodmarshallacademy.org","id":"a62gfrj89w3g","ADDRESS":"2427 MARTIN LUTHER KING JR AVENUE SE","GRADES":"9-12"},"type":"Feature","geometry":{"type":"Point","coordinates":[-76.9936857683613,38.8622767406089]}},{"properties":{"NAME":"Tree of Life Community PCS","DIRECTOR":"Patricia L. Ngozi Williams","AUTHORIZER":"PCSB","GIS_ID":"chrt_41","PHONE":"832-1108","ENROLLMENT":316.0,"ADDRESS_ID":48796.0,"WEB_URL":"http://www.treeoflifepcs.org","id":"a62gfrrhkqzg","ADDRESS":"2315 18TH ST NE","GRADES":"PK-8"},"type":"Feature","geometry":{"type":"Point","coordinates":[-76.977839741555,38.9207792113598]}},{"properties":{"NAME":"Two Rivers PCS","DIRECTOR":"Jessica Wodatch","AUTHORIZER":"PCSB","GIS_ID":"chrt_38","PHONE":"546-4477","ENROLLMENT":261.0,"ADDRESS_ID":306605.0,"WEB_URL":"http://www.tworiverspcs.org","id":"a62gfrlrg3w2","ADDRESS":"1227 4TH STREET NE","GRADES":"PS-5"},"type":"Feature","geometry":{"type":"Point","coordinates":[-77.0002996288056,38.9067532791351]}},{"properties":{"NAME":"Washington Latin PCS","DIRECTOR":"Martha C Cutts","AUTHORIZER":"PCSB","GIS_ID":"chrt_55","PHONE":"223-1111","ENROLLMENT":377.0,"ADDRESS_ID":222182.0,"WEB_URL":"http://www.washingtonlatin.org","id":"a62gfrt4zpiz","ADDRESS":"3855 MASSACHUSETTS AVENUE NW","GRADES":"5-8"},"type":"Feature","geometry":{"type":"Point","coordinates":[-77.0759895664433,38.9313665311952]}},{"properties":{"NAME":"Washington Latin PCS-16th Street Campus","DIRECTOR":"Martha C. Cutts","AUTHORIZER":"PCSB","GIS_ID":"chrt_91","PHONE":"202-223-1111","ENROLLMENT":377.0,"ADDRESS_ID":255699.0,"WEB_URL":"http://www.latinpcs.org/","id":"a62gfrsaeq3z","ADDRESS":"4715 16th Street NW","GRADES":"8th-9th"},"type":"Feature","geometry":{"type":"Point","coordinates":[-77.03583011381,38.9480367608966]}},{"properties":{"NAME":"Washington Mathematics, Science, and Technology PCS","DIRECTOR":"Floyd Gilmore","AUTHORIZER":"PCSB","GIS_ID":"chrt_59","PHONE":"636-8011","ENROLLMENT":400.0,"ADDRESS_ID":286539.0,"WEB_URL":"http://www.wmstpchs.org","id":"a62gfrj3rmf4","ADDRESS":"1920 BLADENSBURG ROAD NE","GRADES":"9-12"},"type":"Feature","geometry":{"type":"Point","coordinates":[-76.9737895720887,38.9164180899698]}},{"properties":{"NAME":"Washington Yu Ying PCS","DIRECTOR":"Mary Shaffner","AUTHORIZER":"PCSB","GIS_ID":"chrt_92","PHONE":"202-536-2503","ENROLLMENT":150.0,"ADDRESS_ID":22543.0,"WEB_URL":"http://www.washingtonyuying.org/","id":"a62gfrhls3cc","ADDRESS":"4401 8th Street NE","GRADES":"Pre-Kindergarten-1st"},"type":"Feature","geometry":{"type":"Point","coordinates":[-76.9945319911645,38.9429703708817]}},{"properties":{"NAME":"William E Doar JR PCS","DIRECTOR":"Julie S Doar-Sinkfield","AUTHORIZER":"PCSB","GIS_ID":"chrt_93","PHONE":"202-269-4646","ENROLLMENT":637.0,"ADDRESS_ID":291848.0,"WEB_URL":"http://www.wedjschool.us/","id":"a62gfrwwfdsk","ADDRESS":"3700 North Capitol Street NW","GRADES":"Pre-K-5th"},"type":"Feature","geometry":{"type":"Point","coordinates":[-77.006954019844,38.9365478300245]}},{"properties":{"NAME":"William E. Doar Jr. PCS for the Performing Arts","DIRECTOR":"Nadia Casseus","AUTHORIZER":"PCSB","GIS_ID":"chrt_11","PHONE":"269-4646","ENROLLMENT":637.0,"ADDRESS_ID":289576.0,"WEB_URL":"http://www.wedjschool.us","id":"a62gfrsss52i","ADDRESS":"705 EDGEWOOD STREET NE","GRADES":"PK-11"},"type":"Feature","geometry":{"type":"Point","coordinates":[-76.9958534275169,38.9236444620224]}},{"properties":{"NAME":"Young America Works PCS","DIRECTOR":"Nadine Evans","AUTHORIZER":"BOE","GIS_ID":"chrt_5","PHONE":"722-9295","ENROLLMENT":300.0,"ADDRESS_ID":288763.0,"WEB_URL":"http://www.youngamericaworks.com","id":"a62gfrj9tt2v","ADDRESS":"6015 CHILLUM PLACE NE","GRADES":"9-11"},"type":"Feature","geometry":{"type":"Point","coordinates":[-77.0073646884175,38.9638744939351]}},{"properties":{"NAME":"YouthBuild LAYC PCS","DIRECTOR":"Andrea Hinson","AUTHORIZER":"PCSB","GIS_ID":"chrt_58","PHONE":"319-2236","ENROLLMENT":80.0,"ADDRESS_ID":302258.0,"WEB_URL":"http://www.layc-dc.org","id":"a62gfrtqzfsa","ADDRESS":"3014 14th Street NW","GRADES":"ADULT"},"type":"Feature","geometry":{"type":"Point","coordinates":[-77.0327533428671,38.9277434321141]}}],"is_temporal":false,"author":{"url":"http://data.octo.dc.gov","metadata":"http://data.octo.dc.gov/Metadata.aspx?id=45","contact_name":"","contact_address":"","source":"D.C. Office of the Chief Technology Officer (OCTO)","contact_phone":""},"source":"http://data.octo.dc.gov","pagination":{"sort":null,"start":0,"total":93,"limit":1000000},"state":"complete","tags":"charter,education,infrastrucutre,schools,society","published":"2002-06-10T12:00:00Z","id":8544}