{"type":"FeatureCollection","data_type":"Dataset","url_type":null,"permissions":[{"permissions":{"download":true,"view":true},"group_id":"everyone"}],"classification":null,"title":"Active accounts 2","count":186,"stream_id":85840,"contributor":{"url":"http://geocommons.com/users/20999","name":"Kimg"},"data_attributes":null,"calculation_params":null,"icon_link":null,"link":"http://geocommons.com/overlays/85840.json","extent":[0.0,0.0,0.0,0.0],"geometry_types":null,"unique_name":null,"name":"Active accounts 2","feature_count":186,"description":"","next_feature":null,"is_raster":false,"short_classification":"Y","stats":{},"features":[{"properties":{"city":"London","name":"Academy","postcode":"W11 4NP","geo_score":0.0,"street":"57 Princedale Road, Holland Park","column_1":"Kim Galloway","id":"a63zwf5olaep","geo_precision":"unmatched"},"type":"Feature","geometry":null},{"properties":{"city":"London","name":"Aglio","postcode":"SW10 9PN","geo_score":0.0,"street":"194 Fulham Road,","column_1":"Kim Galloway","id":"a63zwf665oba","geo_precision":"unmatched"},"type":"Feature","geometry":null},{"properties":{"city":"London","name":"Amuse Bouche","postcode":"SW6 4JA","geo_score":0.0,"street":"51 Parsons Green Lane","column_1":"Kim Galloway","id":"a63zwfabuu8s","geo_precision":"unmatched"},"type":"Feature","geometry":null},{"properties":{"city":"London","name":"Angel &amp; Askew (Hells Pizza)","postcode":"W12 9DS","geo_score":0.0,"street":"269 Uxbridge Road","column_1":"Kim Galloway","id":"a63zwf8jcj30","geo_precision":"unmatched"},"type":"Feature","geometry":null},{"properties":{"city":"London","name":"Anglesea Arms","postcode":"W6 0UR","geo_score":0.0,"street":"35 Wingate Rd, Shepherds Bush","column_1":"Kim Galloway","id":"a63zwfauxtgx","geo_precision":"unmatched"},"type":"Feature","geometry":null},{"properties":{"city":"London","name":"Aragon House","postcode":"SW6 4XG","geo_score":0.0,"street":"247 New Kings Road, Parsons Green","column_1":"Kim Galloway","id":"a63zwf8btnft","geo_precision":"unmatched"},"type":"Feature","geometry":null},{"properties":{"city":"Kensington","name":"Arch Angel","postcode":"W8 5NP","geo_score":0.0,"street":"11-13 Kensington High Street","column_1":"Kim Galloway","id":"a63zwezpw65e","geo_precision":"unmatched"},"type":"Feature","geometry":null},{"properties":{"city":"London","name":"As Greek As it Gets","postcode":"Sw5","geo_score":0.0,"street":"2033 Earls Court Road","column_1":"Kim Galloway","id":"a63zwf1uz6f6","geo_precision":"unmatched"},"type":"Feature","geometry":null},{"properties":{"city":"Fulham","name":"Aziz Restaurant","postcode":"SW6 1AX","geo_score":0.0,"street":"30 Vanston Place","column_1":"Kim Galloway","id":"a63zwfa5ajrq","geo_precision":"unmatched"},"type":"Feature","geometry":null},{"properties":{"city":"London","name":"Azteca Latin Lounge","postcode":"SW3 5UZ","geo_score":0.0,"street":"329 Kings Road, Chelsea","column_1":"Kim Galloway","id":"a63zwfe1ueh4","geo_precision":"unmatched"},"type":"Feature","geometry":null},{"properties":{"city":"London","name":"B@1 Hammersmith","postcode":"W6 7AF","geo_score":0.0,"street":"14a The Broadway","column_1":"Kim Galloway","id":"a63zweynh8qv","geo_precision":"unmatched"},"type":"Feature","geometry":null},{"properties":{"city":"Earls Court","name":"Balans","postcode":"SW5 9HP","geo_score":0.0,"street":"239 Old Brompton Road","column_1":"Kim Galloway","id":"a63zwf122j78","geo_precision":"unmatched"},"type":"Feature","geometry":null},{"properties":{"city":"London","name":"Balans Westfield","postcode":"W12 7GA","geo_score":0.0,"street":"Unit 1034, Westfield,  Ariel Way","column_1":"Kim Galloway","id":"a63zwf2akbmj","geo_precision":"unmatched"},"type":"Feature","geometry":null},{"properties":{"city":"London","name":"Baroque","postcode":"W13 8RA","geo_score":0.0,"street":"94 Uxbridge Road, Ealing","column_1":"Kim Galloway","id":"a63zwf7qnhw2","geo_precision":"unmatched"},"type":"Feature","geometry":null},{"properties":{"city":"Notting Hill","name":"Beach Blanket Babylon","postcode":"W11 2AA","geo_score":0.0,"street":"45 Ledbury Road","column_1":"Kim Galloway","id":"a63zwf5rqobk","geo_precision":"unmatched"},"type":"Feature","geometry":null},{"properties":{"city":"Holland Park","name":"Belvedere Restaurant","postcode":"W8 6LU","geo_score":0.0,"street":"Off Abbotsbury Road","column_1":"Kim Galloway","id":"a63zwfe2rvt3","geo_precision":"unmatched"},"type":"Feature","geometry":null},{"properties":{"city":"London","name":"Black and Blue Gloucester Road","postcode":"SW7 4SS","geo_score":0.0,"street":"105 Gloucester Road","column_1":"Kim Galloway","id":"a63zwf2jurex","geo_precision":"unmatched"},"type":"Feature","geometry":null},{"properties":{"city":"London","name":"Black and Blue Notting Hill","postcode":"W8 7LX","geo_score":0.0,"street":"215-219 Kensington Church Street","column_1":"Kim Galloway","id":"a63zwf7e568s","geo_precision":"unmatched"},"type":"Feature","geometry":null},{"properties":{"city":"Fulham","name":"B'lo","postcode":"SW10 9PN","geo_score":0.0,"street":"196 Fulham Road","column_1":"Kim Galloway","id":"a63zwfdcrib5","geo_precision":"unmatched"},"type":"Feature","geometry":null},{"properties":{"city":"London","name":"Blue Anchor","postcode":"W6 9DJ","geo_score":0.0,"street":"13 Lower Mall, Hammersmith","column_1":"Kim Galloway","id":"a63zwfapfd4a","geo_precision":"unmatched"},"type":"Feature","geometry":null},{"properties":{"city":"London","name":"Brasa Restaurant","postcode":"SW6 1BY","geo_score":0.0,"street":"474 The Broadway","column_1":"Kim Galloway","id":"a63zwf61xdux","geo_precision":"unmatched"},"type":"Feature","geometry":null},{"properties":{"city":"London","name":"Broadway Bar &amp; Grill","postcode":"SW6  1BY","geo_score":0.0,"street":"474 The Broadway","column_1":"Kim Galloway","id":"a63zwfbna6yj","geo_precision":"unmatched"},"type":"Feature","geometry":null},{"properties":{"city":"London","name":"Brompton Bar &amp; Grill","postcode":"SW3 2EP","geo_score":0.0,"street":"243 Brompton Road","column_1":"Kim Galloway","id":"a63zwfb3r7le","geo_precision":"unmatched"},"type":"Feature","geometry":null},{"properties":{"city":"London","name":"Brompton Quarter Brasserie","postcode":"SW3 2EJ","geo_score":0.0,"street":"223 - 225 Brompton Road","column_1":"Kim Galloway","id":"a63zwf2ushbc","geo_precision":"unmatched"},"type":"Feature","geometry":null},{"properties":{"city":"LONDON","name":"Builders Arms","postcode":"W8 5BJ","geo_score":0.0,"street":"1 Kensington Court Place","column_1":"Kim Galloway","id":"a63zwf90est9","geo_precision":"unmatched"},"type":"Feature","geometry":null},{"properties":{"city":"Chiswick","name":"Carvosso @ 210 High Road","postcode":"W4 1PD","geo_score":0.0,"street":"210 High Road","column_1":"Kim Galloway","id":"a63zwf840dxl","geo_precision":"unmatched"},"type":"Feature","geometry":null},{"properties":{"city":"London","name":"Charlotte's Bistro","postcode":"W4 1QP","geo_score":0.0,"street":"6 Turnham Green Terrace","column_1":"Kim Galloway","id":"a63zwf4091k1","geo_precision":"unmatched"},"type":"Feature","geometry":null},{"properties":{"city":"London","name":"Charm Restaurant and Lounge Bar","postcode":"W6 0SP","geo_score":0.0,"street":"270 - 272 King Street","column_1":"Kim Galloway","id":"a63zwf55flz3","geo_precision":"unmatched"},"type":"Feature","geometry":null},{"properties":{"city":"London","name":"Chateau 6","postcode":"SW6 1ES","geo_score":0.0,"street":"563 Fulham Road, Fulham","column_1":"Kim Galloway","id":"a63zwfe1qoen","geo_precision":"unmatched"},"type":"Feature","geometry":null},{"properties":{"city":"London","name":"Chella","postcode":"W4 1PU","geo_score":0.0,"street":"142 Chiswick High Road","column_1":"Kim Galloway","id":"a63zwfcc92jl","geo_precision":"unmatched"},"type":"Feature","geometry":null},{"properties":{"city":"London","name":"Cherry Jam","postcode":"W2 6ET","geo_score":0.0,"street":"58 Porchester Rd","column_1":"Kim Galloway","id":"a63zwf8s65zr","geo_precision":"unmatched"},"type":"Feature","geometry":null},{"properties":{"city":"London","name":"Chiswick Moran","postcode":"W4 5RY","geo_score":0.0,"street":"626 Chiswick High Road","column_1":"Kim Galloway","id":"a63zwf9knq79","geo_precision":"unmatched"},"type":"Feature","geometry":null},{"properties":{"city":"London","name":"Ciao Baby","postcode":"W12","geo_score":0.0,"street":"Unit 1028 Westfield Shopping Centre","column_1":"Kim Galloway","id":"a63zwf6g6a9e","geo_precision":"unmatched"},"type":"Feature","geometry":null},{"properties":{"city":"Fulham","name":"Club 333","postcode":"SW10 9QL","geo_score":0.0,"street":"333 Fulham Road","column_1":"Kim Galloway","id":"a63zwez15rkf","geo_precision":"unmatched"},"type":"Feature","geometry":null},{"properties":{"city":"London","name":"Coalition","postcode":"SW6 5RX","geo_score":0.0,"street":"660 Fulham Road,","column_1":"Kim Galloway","id":"a63zwfcmsdhq","geo_precision":"unmatched"},"type":"Feature","geometry":null},{"properties":{"city":"London","name":"Crabtree","postcode":"W6 9HA","geo_score":0.0,"street":"Rainville Road, Fulham","column_1":"Kim Galloway","id":"a63zwf1ez27u","geo_precision":"unmatched"},"type":"Feature","geometry":null},{"properties":{"city":"London","name":"Crazy Homies","postcode":"W2 5QL","geo_score":0.0,"street":"125 Westbourne Park Road","column_1":"Kim Galloway","id":"a63zwf5bpfiu","geo_precision":"unmatched"},"type":"Feature","geometry":null},{"properties":{"city":"Chiswick","name":"Crown &amp; Anchor","postcode":"W4 5TA","geo_score":0.0,"street":"374 Chiswick High Rd","column_1":"Kim Galloway","id":"a63zwfd3o20j","geo_precision":"unmatched"},"type":"Feature","geometry":null},{"properties":{"city":"London","name":"Curtains Up","postcode":"W14 9HR","geo_score":0.0,"street":"28A Comeragh Rd, Barons Court","column_1":"Kim Galloway","id":"a63zwf39xuqt","geo_precision":"unmatched"},"type":"Feature","geometry":null},{"properties":{"city":"London","name":"Dartmouth Castle","postcode":"W6 0LS","geo_score":0.0,"street":"26 Glenthorne Road, Hammersmith","column_1":"Kim Galloway","id":"a63zwf645crz","geo_precision":"unmatched"},"type":"Feature","geometry":null},{"properties":{"city":"London","name":"Defectors Weld","postcode":"W12 8AA","geo_score":0.0,"street":"170 Uxbridge Road, Shepherds Bush","column_1":"Kim Galloway","id":"a63zwfe9qmsn","geo_precision":"unmatched"},"type":"Feature","geometry":null},{"properties":{"city":"London","name":"Del'Aziz","postcode":"W12 7GB","geo_score":0.0,"street":"Upper Southern Terrace, Shep Bush","column_1":"Kim Galloway","id":"a63zwf6jvcxl","geo_precision":"unmatched"},"type":"Feature","geometry":null},{"properties":{"city":"London","name":"Duke of Kendal","postcode":"W2 2AF","geo_score":0.0,"street":"38 Connaught Street","column_1":"Kim Galloway","id":"a63zwf650tpv","geo_precision":"unmatched"},"type":"Feature","geometry":null},{"properties":{"city":"London","name":"E &amp; O","postcode":"W11 1NN","geo_score":0.0,"street":"14 Blenheim Gardens, Notting Hill","column_1":"Kim Galloway","id":"a63zwf8hwoxj","geo_precision":"unmatched"},"type":"Feature","geometry":null},{"properties":{"city":"London","name":"Eastside Bar","postcode":"SW7 7NA","geo_score":0.0,"street":"Imperial College, Princes Gardens","column_1":"Kim Galloway","id":"a63zwf5vat6c","geo_precision":"unmatched"},"type":"Feature","geometry":null},{"properties":{"city":"London","name":"Eighty-Six","postcode":"SW3 6HR","geo_score":0.0,"street":"86 Fulham Road","column_1":"Kim Galloway","id":"a63zwfdjgzfe","geo_precision":"unmatched"},"type":"Feature","geometry":null},{"properties":{"city":"Lodon","name":"El Camino","postcode":"W10 5TY","geo_score":0.0,"street":"272 Portobello Road","column_1":"Kim Galloway","id":"a63zwez86em0","geo_precision":"unmatched"},"type":"Feature","geometry":null},{"properties":{"city":"London","name":"Elephant &amp; Castle","postcode":"W9 3QP","geo_score":0.0,"street":"12 Elgin Avenue, Maida Vale","column_1":"Kim Galloway","id":"a63zwfdzk886","geo_precision":"unmatched"},"type":"Feature","geometry":null},{"properties":{"city":"London","name":"Elk Bar","postcode":"SW6 5UA","geo_score":0.0,"street":"586 - 587 Fulham Broadway","column_1":"Kim Galloway","id":"a63zwf3wtmya","geo_precision":"unmatched"},"type":"Feature","geometry":null},{"properties":{"city":"London","name":"Elpirata Detapas","postcode":"W2 4UP","geo_score":0.0,"street":"115 Westbourne Grove","column_1":"Kim Galloway","id":"a63zwf22qeox","geo_precision":"unmatched"},"type":"Feature","geometry":null},{"properties":{"city":"Westfield","name":"Fire &amp; Stone","postcode":"W12 7GB","geo_score":0.0,"street":"Southern Terrace","column_1":"Kim Galloway","id":"a63zwfawjrn3","geo_precision":"unmatched"},"type":"Feature","geometry":null},{"properties":{"city":"Ealing","name":"Flynn's Bar &amp; Diner","postcode":"W13 0SY","geo_score":0.0,"street":"128 The Broadway","column_1":"Kim Galloway","id":"a63zwfd4ibep","geo_precision":"unmatched"},"type":"Feature","geometry":null},{"properties":{"city":"Chiswick","name":"Frankie's Braganza","postcode":"W4 5LR","geo_score":0.0,"street":"66-68 Chiswick High Rd","column_1":"Kim Galloway","id":"a63zwf6pngeq","geo_precision":"unmatched"},"type":"Feature","geometry":null},{"properties":{"city":"Knightsbridge","name":"Frankie's Criterion","postcode":"SW3 2AL","geo_score":0.0,"street":"3 Yeomans Row","column_1":"Kim Galloway","id":"a63zwf4ar5b1","geo_precision":"unmatched"},"type":"Feature","geometry":null},{"properties":{"city":"Fulham Road","name":"Frankie's Stamford Bridge","postcode":"SW6 1HS","geo_score":0.0,"street":"Stamford Bridge","column_1":"Kim Galloway","id":"a63zwfeq2rj9","geo_precision":"unmatched"},"type":"Feature","geometry":null},{"properties":{"city":"Paddington","name":"Frontline Club &amp; Restaurant","postcode":"W2 1QJ","geo_score":0.0,"street":"13 Norfolk Place","column_1":"Kim Galloway","id":"a63zwf02mt8r","geo_precision":"unmatched"},"type":"Feature","geometry":null},{"properties":{"city":"Fulham","name":"Fulham Mitre","postcode":"SW6 7DU","geo_score":0.0,"street":"81 Dawes Road","column_1":"Kim Galloway","id":"a63zwfa6zsmz","geo_precision":"unmatched"},"type":"Feature","geometry":null},{"properties":{"city":"London","name":"Garden Bar &amp; Grill","postcode":"W10 6SZ","geo_score":0.0,"street":"41 Bramley Road","column_1":"Kim Galloway","id":"a63zwfcemhft","geo_precision":"unmatched"},"type":"Feature","geometry":null},{"properties":{"city":"Chelsea","name":"Ghillies","postcode":"SW6 4RD","geo_score":0.0,"street":"271 New Kings Road","column_1":"Kim Galloway","id":"a63zwf4bp23j","geo_precision":"unmatched"},"type":"Feature","geometry":null},{"properties":{"city":"Fulham","name":"Goat in Boots","postcode":"SW10 9QL","geo_score":0.0,"street":"333 Fulham Road","column_1":"Kim Galloway","id":"a63zwez1pt9v","geo_precision":"unmatched"},"type":"Feature","geometry":null},{"properties":{"city":"LONDON","name":"Goldhawk","postcode":"W12 8HH","geo_score":0.0,"street":"122-124 Goldhawk Road","column_1":"Kim Galloway","id":"a63zwf8t126k","geo_precision":"unmatched"},"type":"Feature","geometry":null},{"properties":{"city":"London","name":"Grand Union","postcode":"W9 2BA","geo_score":0.0,"street":"45 Woodfield Road","column_1":"Kim Galloway","id":"a63zwff057uv","geo_precision":"unmatched"},"type":"Feature","geometry":null},{"properties":{"city":"Shepherds Bush","name":"Grand Union - Ravenscourt Park","postcode":"W12 8EU","geo_score":0.0,"street":"243 Goldhawk Rd","column_1":"Kim Galloway","id":"a63zwfacpgui","geo_precision":"unmatched"},"type":"Feature","geometry":null},{"properties":{"city":"London","name":"Ground Floor Bar","postcode":"W11 1LA","geo_score":0.0,"street":"186 Portobello Road, Notting Hill","column_1":"Kim Galloway","id":"a63zwf1vt4cl","geo_precision":"unmatched"},"type":"Feature","geometry":null},{"properties":{"city":"London","name":"Hilton Hyde Park","postcode":"W2 4RJ","geo_score":0.0,"street":"129 Bayswater Road","column_1":"Kim Galloway","id":"a63zwf9vky00","geo_precision":"unmatched"},"type":"Feature","geometry":null},{"properties":{"city":"London","name":"Hilton Kensington","postcode":"W11 4UL","geo_score":0.0,"street":"179-199 Holland Park Avenue","column_1":"Kim Galloway","id":"a63zwfa56bhx","geo_precision":"unmatched"},"type":"Feature","geometry":null},{"properties":{"city":"London","name":"Hilton Metropole","postcode":"W2 1JU","geo_score":0.0,"street":"225 Edgware Road","column_1":"Kim Galloway","id":"a63zwfckbmh6","geo_precision":"unmatched"},"type":"Feature","geometry":null},{"properties":{"city":"London","name":"Hilton Olympia","postcode":"W14 8NL","geo_score":0.0,"street":"380 Kensington High Street","column_1":"Kim Galloway","id":"a63zwf2nmfjj","geo_precision":"unmatched"},"type":"Feature","geometry":null},{"properties":{"city":"London","name":"Hilton Paddington","postcode":"W2 1BA","geo_score":0.0,"street":"Praed Street","column_1":"Kim Galloway","id":"a63zwfch5m9y","geo_precision":"unmatched"},"type":"Feature","geometry":null},{"properties":{"city":"Bayswater","name":"Hyde Park Towers Hotel","postcode":"W2 3JN","geo_score":0.0,"street":"41-51 Inverness Terrace","column_1":"Kim Galloway","id":"a63zwf249xz1","geo_precision":"unmatched"},"type":"Feature","geometry":null},{"properties":{"city":"London","name":"Idlewild","postcode":"W9 2JD","geo_score":0.0,"street":"55 Shirland Road, Maida Vale","column_1":"Kim Galloway","id":"a63zwf693ubm","geo_precision":"unmatched"},"type":"Feature","geometry":null},{"properties":{"city":"London","name":"Imperial College Union Bar","postcode":"SW7 2QU","geo_score":0.0,"street":"Beit Quadrangle (Prince Consort Rd)","column_1":"Kim Galloway","id":"a63zwf1q6xsj","geo_precision":"unmatched"},"type":"Feature","geometry":null},{"properties":{"city":"London","name":"Julies Wine Bar","postcode":"W11 4LW","geo_score":0.0,"street":"137 Portland Road","column_1":"Kim Galloway","id":"a63zwf3romxm","geo_precision":"unmatched"},"type":"Feature","geometry":null},{"properties":{"city":"London","name":"K+K Hotel","postcode":"SW5 9NB","geo_score":0.0,"street":"1 - 15 Templeton Place","column_1":"Kim Galloway","id":"a63zwf1m4ph3","geo_precision":"unmatched"},"type":"Feature","geometry":null},{"properties":{"city":"Ealing","name":"Karma","postcode":"W5 5DB","geo_score":0.0,"street":"10 High Street","column_1":"Kim Galloway","id":"a63zwf5kl9ix","geo_precision":"unmatched"},"type":"Feature","geometry":null},{"properties":{"city":"London","name":"Kosmopol","postcode":"SW10 9PY","geo_score":0.0,"street":"138 Fulham Road","column_1":"Kim Galloway","id":"a63zwf5yw1vp","geo_precision":"unmatched"},"type":"Feature","geometry":null},{"properties":{"city":"London","name":"La Brasserie","postcode":"SW3 2AW","geo_score":0.0,"street":"272 Brompton Road","column_1":"Kim Galloway","id":"a63zwfdv9azv","geo_precision":"unmatched"},"type":"Feature","geometry":null},{"properties":{"city":"Knightsbridge","name":"Laya Lina","postcode":"SW3 1NG","geo_score":0.0,"street":"2/3 Beauchamp Place","column_1":"Kim Galloway","id":"a63zwf76crex","geo_precision":"unmatched"},"type":"Feature","geometry":null},{"properties":{"city":"London","name":"Le Palais du Jardin","postcode":"W12 7GF","geo_score":0.0,"street":"Aerial Way, Shepherds Bush","column_1":"Kim Galloway","id":"a63zwezp10ty","geo_precision":"unmatched"},"type":"Feature","geometry":null},{"properties":{"city":"London","name":"L'Etranger Restaurant","postcode":"SW7 4QT","geo_score":0.0,"street":"36 Gloucester Rd","column_1":"Kim Galloway","id":"a63zwf7toeab","geo_precision":"unmatched"},"type":"Feature","geometry":null},{"properties":{"city":"London","name":"Loco Mexicano","postcode":"W2 4UW","geo_score":0.0,"street":"107 Westbourne Grove","column_1":"Kim Galloway","id":"a63zwfdudssd","geo_precision":"unmatched"},"type":"Feature","geometry":null},{"properties":{"city":"Chelsea","name":"Lots Road","postcode":"SW10 0RJ","geo_score":0.0,"street":"114 Lots Road","column_1":"Kim Galloway","id":"a63zwfd8u7sp","geo_precision":"unmatched"},"type":"Feature","geometry":null},{"properties":{"city":"London","name":"Mandaloun Fulham","postcode":"SW6 5NH","geo_score":0.0,"street":"496 Fulham Road","column_1":"Kim Galloway","id":"a63zwfes8agl","geo_precision":"unmatched"},"type":"Feature","geometry":null},{"properties":{"city":"Earls Court","name":"Mango Lounge","postcode":"SW5 9BA","geo_score":0.0,"street":"306 Earls Court Road","column_1":"Kim Galloway","id":"a63zwf5nwmi5","geo_precision":"unmatched"},"type":"Feature","geometry":null},{"properties":{"city":"London","name":"Manson","postcode":"SW6 5SA","geo_score":0.0,"street":"676 Fulham Road, Fulham","column_1":"Kim Galloway","id":"a63zwf75u397","geo_precision":"unmatched"},"type":"Feature","geometry":null},{"properties":{"city":"Fulham","name":"Mao Tai","postcode":"SW6 4LS","geo_score":0.0,"street":"58 New Kings Road","column_1":"Kim Galloway","id":"a63zwf6th4ps","geo_precision":"unmatched"},"type":"Feature","geometry":null},{"properties":{"city":"Chelsea","name":"Mare Moto","postcode":"SW6 2DZ","geo_score":0.0,"street":"562 Kings Road","column_1":"Kim Galloway","id":"a63zweyq5m8o","geo_precision":"unmatched"},"type":"Feature","geometry":null},{"properties":{"city":"London","name":"Marvel","postcode":"SW10 9PN","geo_score":0.0,"street":"196 Fulham Road, Chelsea","column_1":"Kim Galloway","id":"a63zwfdvqbh4","geo_precision":"unmatched"},"type":"Feature","geometry":null},{"properties":{"city":"London","name":"Mau Mau","postcode":"W11 1LR","geo_score":0.0,"street":"265 Portobello Road","column_1":"Kim Galloway","id":"a63zwf5od5x2","geo_precision":"unmatched"},"type":"Feature","geometry":null},{"properties":{"city":"Ariel Way","name":"Meat &amp; Wine Co (Puza Bar)","postcode":"W12 7GA","geo_score":0.0,"street":"Unit 1026 Westfield Shopping Centre","column_1":"Kim Galloway","id":"a63zwfay3sxo","geo_precision":"unmatched"},"type":"Feature","geometry":null},{"properties":{"city":"Paddington","name":"Melur","postcode":"W2 1ET","geo_score":0.0,"street":"175A Edgware Road","column_1":"Kim Galloway","id":"a63zwfadntb3","geo_precision":"unmatched"},"type":"Feature","geometry":null},{"properties":{"city":"London","name":"Metrogolf","postcode":"W2 6EP","geo_score":0.0,"street":"19 Sheldon Square, Paddington Ctl","column_1":"Kim Galloway","id":"a63zwf22x0d7","geo_precision":"unmatched"},"type":"Feature","geometry":null},{"properties":{"city":"London","name":"Missq's","postcode":"SW5 9QG","geo_score":0.0,"street":"180 - 184 Earls Court Road","column_1":"Kim Galloway","id":"a63zwf6khwan","geo_precision":"unmatched"},"type":"Feature","geometry":null},{"properties":{"city":"Fulham","name":"My Dining Room","postcode":"SW6 1PP","geo_score":0.0,"street":"18 Farm Lane","column_1":"Kim Galloway","id":"a63zwf97rqdd","geo_precision":"unmatched"},"type":"Feature","geometry":null},{"properties":{"city":"London","name":"My Hotel Chelsea","postcode":"SW3 3QX","geo_score":0.0,"street":"35 Ixworth Place, Chelsea","column_1":"Kim Galloway","id":"a63zwfbavlj2","geo_precision":"unmatched"},"type":"Feature","geometry":null},{"properties":{"city":"London","name":"Paradise By Way Of Kensal","postcode":"W10 4AE","geo_score":0.0,"street":"19 Kilburn Lane, Kensal Rise","column_1":"Kim Galloway","id":"a63zwfbr5iqi","geo_precision":"unmatched"},"type":"Feature","geometry":null},{"properties":{"city":"London","name":"Piano Bar &amp; Restaurant","postcode":"W8 6SG","geo_score":0.0,"street":"106 Kensington High St","column_1":"Kim Galloway","id":"a63zwf2pd0et","geo_precision":"unmatched"},"type":"Feature","geometry":null},{"properties":{"city":"London","name":"Portobello Star","postcode":"W11 2DY","geo_score":0.0,"street":"171 Portobello Road, Notting Hill","column_1":"Kim Galloway","id":"a63zwf20nwfv","geo_precision":"unmatched"},"type":"Feature","geometry":null},{"properties":{"city":"Paddington","name":"Pride of Paddington","postcode":"W2 3BP","geo_score":0.0,"street":"1 Craven Rd","column_1":"Kim Galloway","id":"a63zwfcl0w84","geo_precision":"unmatched"},"type":"Feature","geometry":null},{"properties":{"city":"London","name":"Princess Victoria","postcode":"W12 9DH","geo_score":0.0,"street":"217 Uxbridge Road, Shepherds Bush","column_1":"Kim Galloway","id":"a63zwf36jvyp","geo_precision":"unmatched"},"type":"Feature","geometry":null},{"properties":{"city":"London","name":"Riverside Studios","postcode":"W6 9RL","geo_score":0.0,"street":"Crisp Rd","column_1":"Kim Galloway","id":"a63zwf5uj85y","geo_precision":"unmatched"},"type":"Feature","geometry":null},{"properties":{"city":"London","name":"Rodizio Rico","postcode":"W2 4UW","geo_score":0.0,"street":"111 Westbourne Grove","column_1":"Kim Galloway","id":"a63zwf8gqua3","geo_precision":"unmatched"},"type":"Feature","geometry":null},{"properties":{"city":"London","name":"Ruby &amp; Sequoia","postcode":"W11 1HH","geo_score":0.0,"street":"6-8 All Saints Rd, Notting Hill","column_1":"Kim Galloway","id":"a63zwf430h1k","geo_precision":"unmatched"},"type":"Feature","geometry":null},{"properties":{"city":"London","name":"Ruby Grand","postcode":"W6 9JT","geo_score":0.0,"street":"227 Kings Road, Hammersmith","column_1":"Kim Galloway","id":"a63zwezytbgw","geo_precision":"unmatched"},"type":"Feature","geometry":null},{"properties":{"city":"London","name":"Rumi","postcode":"SW10 OTZ","geo_score":0.0,"street":"531 Kings Rd, Chelsea","column_1":"Kim Galloway","id":"a63zwf7n2ilm","geo_precision":"unmatched"},"type":"Feature","geometry":null},{"properties":{"city":"London","name":"Rydges Kensington Plaza Hotel","postcode":"SW7 4PE","geo_score":0.0,"street":"61 Gloucester Road","column_1":"Kim Galloway","id":"a63zwf8fwe35","geo_precision":"unmatched"},"type":"Feature","geometry":null},{"properties":{"city":"London","name":"Salt","postcode":"W2 2JB","geo_score":0.0,"street":"82 Seymour Street, Paddington","column_1":"Kim Galloway","id":"a63zwf1xisw5","geo_precision":"unmatched"},"type":"Feature","geometry":null},{"properties":{"city":"London","name":"Sams' Brasserie &amp; Bar","postcode":"W4 4PH","geo_score":0.0,"street":"11 Barley Mow Passage","column_1":"Kim Galloway","id":"a63zwfc3xqbt","geo_precision":"unmatched"},"type":"Feature","geometry":null},{"properties":{"city":"London","name":"Seventeen Oriental","postcode":"W11 3JQ","geo_score":0.0,"street":"17 Notting Hill Gate","column_1":"Kim Galloway","id":"a63zwfat1j55","geo_precision":"unmatched"},"type":"Feature","geometry":null},{"properties":{"city":"Shepherds Bush","name":"Shepherds Bar","postcode":"W14 0DA","geo_score":0.0,"street":"Charecroft Way","column_1":"Kim Galloway","id":"a63zwf1jk56h","geo_precision":"unmatched"},"type":"Feature","geometry":null},{"properties":{"city":"London","name":"Sir Alexander Fleming","postcode":"W2 1RB","geo_score":0.0,"street":"16 Bouverie Place, Paddington","column_1":"Kim Galloway","id":"a63zwfcm7v9a","geo_precision":"unmatched"},"type":"Feature","geometry":null},{"properties":{"city":"London","name":"Smith's Bar &amp; Grill","postcode":"W2 6EY","geo_score":0.0,"street":"25 Sheldon Sq, Paddington Central","column_1":"Kim Galloway","id":"a63zwf8dryot","geo_precision":"unmatched"},"type":"Feature","geometry":null},{"properties":{"city":"London","name":"Sofa So Bar","postcode":"SW6 1HD","geo_score":0.0,"street":"515 Fulham Road, Fulham","column_1":"Kim Galloway","id":"a63zwfbuqr5g","geo_precision":"unmatched"},"type":"Feature","geometry":null},{"properties":{"city":"London","name":"Sophie's Steakhouse Fulham Road","postcode":"SW10 9QH","geo_score":0.0,"street":"311 - 313 Fulham Rd, Chelsea","column_1":"Kim Galloway","id":"a63zwf018i9t","geo_precision":"unmatched"},"type":"Feature","geometry":null},{"properties":{"city":"London","name":"Soprano's","postcode":"W8 6SH","geo_score":0.0,"street":"183 Kensington High Street","column_1":"Kim Galloway","id":"a63zwf66ua9c","geo_precision":"unmatched"},"type":"Feature","geometry":null},{"properties":{"city":"London","name":"Sticky Fingers","postcode":"W8 7EG","geo_score":0.0,"street":"1A Phillimore Gardens, Kensington","column_1":"Kim Galloway","id":"a63zwff3k7ak","geo_precision":"unmatched"},"type":"Feature","geometry":null},{"properties":{"city":"London","name":"The Atlas","postcode":"SW6 1RX","geo_score":0.0,"street":"16 Seagrave Road","column_1":"Kim Galloway","id":"a63zwf0ynhpw","geo_precision":"unmatched"},"type":"Feature","geometry":null},{"properties":{"city":"London","name":"The Beauchamp","postcode":"SW3 1NX","geo_score":0.0,"street":"43-44 Beauchamp Place, Knightsbridg","column_1":"Kim Galloway","id":"a63zwf0v2ndz","geo_precision":"unmatched"},"type":"Feature","geometry":null},{"properties":{"city":"London","name":"The Big Easy","postcode":"SW3 5UR","geo_score":0.0,"street":"332/334 Kings Rd, Chelsea","column_1":"Kim Galloway","id":"a63zwf2tgtuh","geo_precision":"unmatched"},"type":"Feature","geometry":null},{"properties":{"city":"London","name":"The Bird in Hand","postcode":"W14 0LR","geo_score":0.0,"street":"88 Masbro Road, West Kensington","column_1":"Kim Galloway","id":"a63zwf6ifofv","geo_precision":"unmatched"},"type":"Feature","geometry":null},{"properties":{"city":"Stamford Brook","name":"The Brook","postcode":"W6 0XF","geo_score":0.0,"street":"320 Goldhawk Rd","column_1":"Kim Galloway","id":"a63zweylybt5","geo_precision":"unmatched"},"type":"Feature","geometry":null},{"properties":{"city":"Chelsea","name":"The Builders Arms","postcode":"SW3 3TY","geo_score":0.0,"street":"13 Britten Street","column_1":"Kim Galloway","id":"a63zwf22xrtt","geo_precision":"unmatched"},"type":"Feature","geometry":null},{"properties":{"city":"London","name":"The Bull","postcode":"W12 7GB","geo_score":0.0,"street":"Unit 1033, Aerial Way","column_1":"Kim Galloway","id":"a63zwf2mnky1","geo_precision":"unmatched"},"type":"Feature","geometry":null},{"properties":{"city":"London","name":"The Butcher's Hook","postcode":"SW6 1HL","geo_score":0.0,"street":"477 Fulham Road","column_1":"Kim Galloway","id":"a63zwfdl5cbp","geo_precision":"unmatched"},"type":"Feature","geometry":null},{"properties":{"city":"Chelsea","name":"The Cadogan Arms","postcode":"SW3 5UG","geo_score":0.0,"street":"298 Kings Rd","column_1":"Kim Galloway","id":"a63zwf5nbvtj","geo_precision":"unmatched"},"type":"Feature","geometry":null},{"properties":{"city":"Chiswick","name":"The Carpenters Arms","postcode":"W6 9BG","geo_score":0.0,"street":"91 Black Lion Lane","column_1":"Kim Galloway","id":"a63zwf7mz9je","geo_precision":"unmatched"},"type":"Feature","geometry":null},{"properties":{"city":"London","name":"The Castlebar","postcode":"W13 8RA","geo_score":0.0,"street":"84 Uxbridge Rd, West Ealing","column_1":"Kim Galloway","id":"a63zwezcrbld","geo_precision":"unmatched"},"type":"Feature","geometry":null},{"properties":{"city":"Fulham","name":"The Chancery Bar &amp; Kitchen","postcode":"SW6 2RP","geo_score":0.0,"street":"316 Lillie Road","column_1":"Kim Galloway","id":"a63zwf68thx7","geo_precision":"unmatched"},"type":"Feature","geometry":null},{"properties":{"city":"Acton","name":"The Chatsworth","postcode":"W3 9BJ","geo_score":0.0,"street":"290 The High Street","column_1":"Kim Galloway","id":"a63zwfao5dqy","geo_precision":"unmatched"},"type":"Feature","geometry":null},{"properties":{"city":"London","name":"The Clarendon","postcode":"W11 4JG","geo_score":0.0,"street":"123a Clarendon Road, Holland Park","column_1":"Kim Galloway","id":"a63zwf60urh2","geo_precision":"unmatched"},"type":"Feature","geometry":null},{"properties":{"city":"London","name":"The Common Room Kitchen Bar","postcode":"W5 3NN","geo_score":0.0,"street":"3-4 Grosvenor Parade","column_1":"Kim Galloway","id":"a63zwfc3xrdo","geo_precision":"unmatched"},"type":"Feature","geometry":null},{"properties":{"city":"London","name":"The Cow","postcode":"W2 5QH","geo_score":0.0,"street":"89 Westbourne Park Rd","column_1":"Kim Galloway","id":"a63zwf23amsw","geo_precision":"unmatched"},"type":"Feature","geometry":null},{"properties":{"city":"London","name":"The Cumberland Arms","postcode":"W14 8SZ","geo_score":0.0,"street":"29 North End Road","column_1":"Kim Galloway","id":"a63zwf93ums0","geo_precision":"unmatched"},"type":"Feature","geometry":null},{"properties":{"city":"London","name":"The Distillers","postcode":"W6 9PH","geo_score":0.0,"street":"64 Fulham Palace Rd, Hammersmith","column_1":"Kim Galloway","id":"a63zwf4btgix","geo_precision":"unmatched"},"type":"Feature","geometry":null},{"properties":{"city":"South Kensington","name":"The Duke of Clarence","postcode":"SW5 0BE","geo_score":0.0,"street":"148 Old Brompton Road","column_1":"Kim Galloway","id":"a63zwf1w56v8","geo_precision":"unmatched"},"type":"Feature","geometry":null},{"properties":{"city":"London","name":"The Durell Arms","postcode":"SW6 5SB","geo_score":0.0,"street":"704 Fulham Road, Fulham","column_1":"Kim Galloway","id":"a63zwfarht9n","geo_precision":"unmatched"},"type":"Feature","geometry":null},{"properties":{"city":"Shepherd's Bush","name":"The Eagle","postcode":"W12 9AZ","geo_score":0.0,"street":"215 Askew Road","column_1":"Kim Galloway","id":"a63zwf9d8v0j","geo_precision":"unmatched"},"type":"Feature","geometry":null},{"properties":{"city":"London","name":"The Elgin","postcode":"W9 1NJ","geo_score":0.0,"street":"255 Elgin Avenue, Maida Vale","column_1":"Kim Galloway","id":"a63zwf8w9cfc","geo_precision":"unmatched"},"type":"Feature","geometry":null},{"properties":{"city":"London","name":"The Finborough","postcode":"SW10 9ED","geo_score":0.0,"street":"118 Finborough Rd","column_1":"Kim Galloway","id":"a63zwf1q6xeg","geo_precision":"unmatched"},"type":"Feature","geometry":null},{"properties":{"city":"London","name":"The George &amp; Dragon","postcode":"W3 9DJ","geo_score":0.0,"street":"183 High Street, Acton","column_1":"Kim Galloway","id":"a63zwf112ju6","geo_precision":"unmatched"},"type":"Feature","geometry":null},{"properties":{"city":"Shepherd's Bush","name":"The Green Room","postcode":"W12 8QP","geo_score":0.0,"street":"45a Goldhawk Road","column_1":"Kim Galloway","id":"a63zwfdvo58r","geo_precision":"unmatched"},"type":"Feature","geometry":null},{"properties":{"city":"London","name":"The Grove Bar &amp; Restaurant","postcode":"W6 0NQ","geo_score":0.0,"street":"83 Hammersmith Grove, Hammersmith","column_1":"Kim Galloway","id":"a63zwfex3irk","geo_precision":"unmatched"},"type":"Feature","geometry":null},{"properties":{"city":"Chiswick","name":"The Gunnersbury","postcode":"W4 5RP","geo_score":0.0,"street":"590 Chiswick High Road","column_1":"Kim Galloway","id":"a63zwf6taqdn","geo_precision":"unmatched"},"type":"Feature","geometry":null},{"properties":{"city":"London","name":"The Hand &amp; Flower","postcode":"SW6 2ES","geo_score":0.0,"street":"617 Kings Road","column_1":"Kim Galloway","id":"a63zwf6u8sr7","geo_precision":"unmatched"},"type":"Feature","geometry":null},{"properties":{"city":"London","name":"The Harwood Arms","postcode":"SW6 1QR","geo_score":0.0,"street":"27 Walham Grove, Fulham","column_1":"Kim Galloway","id":"a63zwf0nubxk","geo_precision":"unmatched"},"type":"Feature","geometry":null},{"properties":{"city":"London","name":"The Holland Club","postcode":"SW7 2AZ","geo_score":0.0,"street":"Sherfield Building, South Kensington Cam","column_1":"Kim Galloway","id":"a63zwfa3npyh","geo_precision":"unmatched"},"type":"Feature","geometry":null},{"properties":{"city":"Fulham","name":"The Imperial Arms","postcode":"SW6 2EH","geo_score":0.0,"street":"8 Lillie Road","column_1":"Kim Galloway","id":"a63zwfd5mnb2","geo_precision":"unmatched"},"type":"Feature","geometry":null},{"properties":{"city":"London","name":"The Jam Tree","postcode":"W14 0LB","geo_score":0.0,"street":"58 Milson Road","column_1":"Kim Galloway","id":"a63zwf0zqbe9","geo_precision":"unmatched"},"type":"Feature","geometry":null},{"properties":{"city":"London","name":"The Kings Arms","postcode":"SW6 4RN","geo_score":0.0,"street":"425 New Kings Road, Fulham","column_1":"Kim Galloway","id":"a63zwf2mbq7o","geo_precision":"unmatched"},"type":"Feature","geometry":null},{"properties":{"city":"Hammersmith","name":"The Laurie Arms","postcode":"W6 7NL","geo_score":0.0,"street":"238 Shepherds Bush Rd","column_1":"Kim Galloway","id":"a63zwf2w7ksn","geo_precision":"unmatched"},"type":"Feature","geometry":null},{"properties":{"city":"London","name":"The Lodge Tavern","postcode":"W5 3TA","geo_score":0.0,"street":"53 The Mall, Ealing Broadway","column_1":"Kim Galloway","id":"a63zwfavdc6n","geo_precision":"unmatched"},"type":"Feature","geometry":null},{"properties":{"city":"Notting Hill","name":"The Mall Tavern","postcode":"W8 4RU","geo_score":0.0,"street":"71 Palace Gardens Terrace,","column_1":"Kim Galloway","id":"a63zwf1qcs6g","geo_precision":"unmatched"},"type":"Feature","geometry":null},{"properties":{"city":"London","name":"The Malt House","postcode":"SW6 1AY","geo_score":0.0,"street":"17 Vanston Place, Fulham","column_1":"Kim Galloway","id":"a63zwfdwuf97","geo_precision":"unmatched"},"type":"Feature","geometry":null},{"properties":{"city":"Westbourne Park","name":"The Metropolitan","postcode":"W11 1AB","geo_score":0.0,"street":"60 Great Western Road","column_1":"Kim Galloway","id":"a63zwf6uzu4p","geo_precision":"unmatched"},"type":"Feature","geometry":null},{"properties":{"city":"London","name":"The Mitre","postcode":"W11 3QY","geo_score":0.0,"street":"40 Holland Park Avenue","column_1":"Kim Galloway","id":"a63zwfe52kqb","geo_precision":"unmatched"},"type":"Feature","geometry":null},{"properties":{"city":"London","name":"The Old Firestation Hammersmith","postcode":"W6 7PB","geo_score":0.0,"street":"244 Shepherds Bush Rd, Hammersmith","column_1":"Kim Galloway","id":"a63zwf3s04ty","geo_precision":"unmatched"},"type":"Feature","geometry":null},{"properties":{"city":"Chiswick","name":"The Old Station House","postcode":"W4 3SG","geo_score":0.0,"street":"2 Grove Park Road","column_1":"Kim Galloway","id":"a63zwf7v5br5","geo_precision":"unmatched"},"type":"Feature","geometry":null},{"properties":{"city":"West Brompton","name":"The Pembroke","postcode":"SW5 9JA","geo_score":0.0,"street":"261 Old Brompton Road","column_1":"Kim Galloway","id":"a63zwf5b05i9","geo_precision":"unmatched"},"type":"Feature","geometry":null},{"properties":{"city":"London","name":"The Penny Black Restaurant","postcode":"SW10 9PJ","geo_score":0.0,"street":"212 Fulham Road","column_1":"Kim Galloway","id":"a63zweyro322","geo_precision":"unmatched"},"type":"Feature","geometry":null},{"properties":{"city":"Chelsea","name":"The Phoenix","postcode":"SW3 4EE","geo_score":0.0,"street":"23 Smith Street","column_1":"Kim Galloway","id":"a63zwfa1qgnk","geo_precision":"unmatched"},"type":"Feature","geometry":null},{"properties":{"city":"Chelsea","name":"The Pigs Ear","postcode":"SW3 5BS","geo_score":0.0,"street":"35 Old Church Street","column_1":"Kim Galloway","id":"a63zwf8ihxo2","geo_precision":"unmatched"},"type":"Feature","geometry":null},{"properties":{"city":"London","name":"The Prince Regent","postcode":"SW7 4PL","geo_score":0.0,"street":"25 Gloucester Road","column_1":"Kim Galloway","id":"a63zwfax50ri","geo_precision":"unmatched"},"type":"Feature","geometry":null},{"properties":{"city":"London","name":"The Queen Adelaide","postcode":"W12 0NR","geo_score":0.0,"street":"412 Uxbridge Road, Shepherd's Bush","column_1":"Kim Galloway","id":"a63zwfag26jg","geo_precision":"unmatched"},"type":"Feature","geometry":null},{"properties":{"city":"London","name":"The Regent","postcode":"NW10 5LG","geo_score":0.0,"street":"5 Regent Street","column_1":"Kim Galloway","id":"a63zwf29ahq8","geo_precision":"unmatched"},"type":"Feature","geometry":null},{"properties":{"city":"London","name":"The River Cafe","postcode":"W6 9HA","geo_score":0.0,"street":"Rainville Rd, Hammersmith","column_1":"Kim Galloway","id":"a63zwfck1exb","geo_precision":"unmatched"},"type":"Feature","geometry":null},{"properties":{"city":"Acton","name":"The Rocket Pub &amp; Restaurant","postcode":"W3 6BD","geo_score":0.0,"street":"11-13 Churchfield Rd","column_1":"Kim Galloway","id":"a63zwfcejfgm","geo_precision":"unmatched"},"type":"Feature","geometry":null},{"properties":{"city":"Chiswick","name":"The Roebuck","postcode":"W4 1PU","geo_score":0.0,"street":"122 High Road","column_1":"Kim Galloway","id":"a63zwfaicc9m","geo_precision":"unmatched"},"type":"Feature","geometry":null},{"properties":{"city":"Fulham","name":"The Sands End","postcode":"SW6 2PR","geo_score":0.0,"street":"135-137 Stephendale Road","column_1":"Kim Galloway","id":"a63zwfb97exf","geo_precision":"unmatched"},"type":"Feature","geometry":null},{"properties":{"city":"Fulham","name":"The Southern Belle","postcode":"W6 8QT","geo_score":0.0,"street":"176 Fulham Palace Road","column_1":"Kim Galloway","id":"a63zwezscy3x","geo_precision":"unmatched"},"type":"Feature","geometry":null},{"properties":{"city":"London","name":"The Spinning Wheel","postcode":"W13 9QU","geo_score":0.0,"street":"227 - 229 Northfields Avenue,Ealing","column_1":"Kim Galloway","id":"a63zwfdy9e70","geo_precision":"unmatched"},"type":"Feature","geometry":null},{"properties":{"city":"Chelsea","name":"The Sporting Page","postcode":"SW10 0BH","geo_score":0.0,"street":"6 Camera Place","column_1":"Kim Galloway","id":"a63zwfac2tc3","geo_precision":"unmatched"},"type":"Feature","geometry":null},{"properties":{"city":"London","name":"The Stationhouse","postcode":"W3 6BH","geo_score":0.0,"street":"Churchfield Road, Acton","column_1":"Kim Galloway","id":"a63zweyzi4x4","geo_precision":"unmatched"},"type":"Feature","geometry":null},{"properties":{"city":"Shepherds Bush","name":"The Stinging Nettle","postcode":"W12 8QP","geo_score":0.0,"street":"55 Goldhawk Road","column_1":"Kim Galloway","id":"a63zwff27isg","geo_precision":"unmatched"},"type":"Feature","geometry":null},{"properties":{"city":"Chiswick","name":"The Swan","postcode":"W4 5HH","geo_score":0.0,"street":"119 Acton Lane","column_1":"Kim Galloway","id":"a63zwf5hd5re","geo_precision":"unmatched"},"type":"Feature","geometry":null},{"properties":{"city":"London","name":"The Sydney Arms","postcode":"SW3 6NJ","geo_score":0.0,"street":"70 Sydney Street, Chelsea","column_1":"Kim Galloway","id":"a63zwf4v3lab","geo_precision":"unmatched"},"type":"Feature","geometry":null},{"properties":{"city":"Notting Hill","name":"The Tabernacle","postcode":"W11 2AY","geo_score":0.0,"street":"Powis Square","column_1":"Kim Galloway","id":"a63zwf96oaj9","geo_precision":"unmatched"},"type":"Feature","geometry":null},{"properties":{"city":"Putney Bridge (Fulham side)","name":"The Temperance","postcode":"SW6 3LF","geo_score":0.0,"street":"90 - 90a Fulham High Street","column_1":"Kim Galloway","id":"a63zwfamcuyb","geo_precision":"unmatched"},"type":"Feature","geometry":null},{"properties":{"city":"London","name":"The Union Bar Chiswick","postcode":"W4 5YA","geo_score":0.0,"street":"566 Chiswick High Road, Chiswick","column_1":"Kim Galloway","id":"a63zwf7lr7th","geo_precision":"unmatched"},"type":"Feature","geometry":null},{"properties":{"city":"London","name":"The Union Paddington Central","postcode":"W2 6EZ","geo_score":0.0,"street":"4 Sheldon Square","column_1":"Kim Galloway","id":"a63zwf4yjxof","geo_precision":"unmatched"},"type":"Feature","geometry":null},{"properties":{"city":"London","name":"The Valmont Club","postcode":"SW10 9EL","geo_score":0.0,"street":"266 - 266a Fulham Road","column_1":"Kim Galloway","id":"a63zwf7j7wd9","geo_precision":"unmatched"},"type":"Feature","geometry":null},{"properties":{"city":"Notting Hill","name":"The Westbourne","postcode":"W2 5ED","geo_score":0.0,"street":"101 Westbourne Park Villas","column_1":"Kim Galloway","id":"a63zwf97yaov","geo_precision":"unmatched"},"type":"Feature","geometry":null},{"properties":{"city":"London","name":"The Wheatsheaf","postcode":"SW6 5NT","geo_score":0.0,"street":"582 Fulham Road","column_1":"Kim Galloway","id":"a63zwfdwipit","geo_precision":"unmatched"},"type":"Feature","geometry":null},{"properties":{"city":"Acton","name":"The Windmill","postcode":"W3 6LG","geo_score":0.0,"street":"50 High Street","column_1":"Kim Galloway","id":"a63zwf4eh7wt","geo_precision":"unmatched"},"type":"Feature","geometry":null},{"properties":{"city":"London","name":"Troubadour","postcode":"SW5 9JA","geo_score":0.0,"street":"263 Old Brompton Road","column_1":"Kim Galloway","id":"a63zwf8kzvfg","geo_precision":"unmatched"},"type":"Feature","geometry":null},{"properties":{"city":"Bayswater","name":"Umi Hotel","postcode":"W2 4PR","geo_score":0.0,"street":"16 Leinster Square","column_1":"Kim Galloway","id":"a63zwfbbkhra","geo_precision":"unmatched"},"type":"Feature","geometry":null},{"properties":{"city":"Kensington","name":"Wodka's Polish Restaurant","postcode":"W8 5PN","geo_score":0.0,"street":"12 St Albans Grove","column_1":"Kim Galloway","id":"a63zwf1a42zc","geo_precision":"unmatched"},"type":"Feature","geometry":null}],"is_temporal":false,"author":{"url":"","metadata":"","contact_name":"","contact_address":"","source":"","contact_phone":""},"source":"","pagination":{"sort":null,"start":0,"total":186,"limit":1000000},"state":"complete","tags":"","published":"2014-08-10T18:54:08-04:00","id":85840}