{"type":"FeatureCollection","data_type":"Dataset","url_type":null,"permissions":[{"permissions":{"download":true,"view":true},"group_id":"everyone"}],"classification":null,"title":"Gas Stations, Washington DC, 2006","count":123,"stream_id":8603,"contributor":{"url":"http://geocommons.com/users/955","name":"williambenjaminiv"},"data_attributes":null,"calculation_params":null,"icon_link":null,"link":"http://geocommons.com/overlays/8603.json","extent":[-77.0964,38.8218,-76.9254,38.9822],"geometry_types":["point"],"unique_name":null,"name":"Gas Stations, Washington DC, 2006","feature_count":123,"description":"Gas Station locations. The dataset contains locations and attributes of Gas Stations, created as part of the DC Geographic Information System (DC GIS) for the D.C. Office of the Chief Technology Officer (OCTO) and participating D.C. government agencies.\n\nA database provided by the DC Energy Office identified gas station locations.","next_feature":null,"is_raster":false,"short_classification":"Y","stats":{"PHONE":{"max":null,"min":null,"median":null},"ZIP_CODE":{"max":null,"min":null,"median":null},"AddrID":{"max":300859,"mean":206822.81300813,"variance":11648266960.268,"stdev":107927.137274497,"min":0,"median":259632},"FULL_SERVI":{"max":1,"mean":0.154471544715447,"variance":0.131680661068906,"stdev":0.362878300631087,"min":0,"median":0}},"features":[{"properties":{"NAME":"Soldier's Home","GIS_ID":"Gas_114","PHONE":"","ZIP_CODE":"","AddrID":0,"FULL_SERVI":0,"id":"a67xkpzfyxtx","ADDRESS":""},"type":"Feature","geometry":{"type":"Point","coordinates":[-77.0077151568453,38.935349516953]}},{"properties":{"NAME":"Fort McNair Shoppette","GIS_ID":"Gas_117","PHONE":"","ZIP_CODE":"","AddrID":0,"FULL_SERVI":0,"id":"a67xkqaq6vbx","ADDRESS":""},"type":"Feature","geometry":{"type":"Point","coordinates":[-77.0154855753892,38.8710959709846]}},{"properties":{"NAME":"Exxon of Florida Avenue","GIS_ID":"Gas_1","PHONE":"2026351659","ZIP_CODE":"20002","AddrID":76011,"FULL_SERVI":0,"id":"a67xkqbhxku7","ADDRESS":"1 FLORIDA AVENUE NE"},"type":"Feature","geometry":{"type":"Point","coordinates":[-77.0085966421884,38.9103291228812]}},{"properties":{"NAME":"6th District Police Station","GIS_ID":"Gas_118","PHONE":"","ZIP_CODE":"","AddrID":294469,"FULL_SERVI":0,"id":"a67xkqbeo6xl","ADDRESS":"100 42ND STREET NE"},"type":"Feature","geometry":{"type":"Point","coordinates":[-76.9428541852501,38.8922080993431]}},{"properties":{"NAME":"Southwest Exxon","GIS_ID":"Gas_2","PHONE":"2025543675","ZIP_CODE":"20003","AddrID":76197,"FULL_SERVI":0,"id":"a67xkq2u3znu","ADDRESS":"1001 SOUTH CAPITOL STREET SW"},"type":"Feature","geometry":{"type":"Point","coordinates":[-77.0095194794418,38.8780077484727]}},{"properties":{"NAME":"Sunoco A Plus","GIS_ID":"Gas_3","PHONE":"2024905996","ZIP_CODE":"20002","AddrID":300822,"FULL_SERVI":0,"id":"a67xkpw02jmp","ADDRESS":"101 NEW YORK AVENUE NE"},"type":"Feature","geometry":{"type":"Point","coordinates":[-77.0038091986223,38.90886883468]}},{"properties":{"NAME":"Brookland Exxon","GIS_ID":"Gas_4","PHONE":"2025269430","ZIP_CODE":"20017","AddrID":75356,"FULL_SERVI":0,"id":"a67xkq4ei8mt","ADDRESS":"1020 MICHIGAN AVENUE NE"},"type":"Feature","geometry":{"type":"Point","coordinates":[-76.9928989555052,38.9359039351756]}},{"properties":{"NAME":"Navy Yard Exxon","GIS_ID":"Gas_5","PHONE":"2025434211","ZIP_CODE":"20003","AddrID":285779,"FULL_SERVI":0,"id":"a67xkq12oe7q","ADDRESS":"1022 M STREET SE"},"type":"Feature","geometry":{"type":"Point","coordinates":[-76.9920428054415,38.8769060097896]}},{"properties":{"NAME":"Bladensburg Amoco","GIS_ID":"Gas_6","PHONE":"2023960545","ZIP_CODE":"20002","AddrID":285912,"FULL_SERVI":0,"id":"a67xkq83mddv","ADDRESS":"1201 BLADENSBURG ROAD NE"},"type":"Feature","geometry":{"type":"Point","coordinates":[-76.9792639099535,38.9059316616834]}},{"properties":{"NAME":"P &amp; A Exxon Service Center","GIS_ID":"Gas_7","PHONE":"2025466146","ZIP_CODE":"20003","AddrID":72104,"FULL_SERVI":0,"id":"a67xkpztr6wo","ADDRESS":"1201 PENNSYLVANIA AVENUE SE"},"type":"Feature","geometry":{"type":"Point","coordinates":[-76.9900014314689,38.8817802782078]}},{"properties":{"NAME":"New York Avenue Amoco","GIS_ID":"Gas_8","PHONE":"2028321777","ZIP_CODE":"20002","AddrID":70390,"FULL_SERVI":0,"id":"a67xkq8qzcqr","ADDRESS":"1231 NEW YORK AVENUE NE"},"type":"Feature","geometry":{"type":"Point","coordinates":[-76.9886880589833,38.9140658208196]}},{"properties":{"NAME":"Good Hope Amoco","GIS_ID":"Gas_9","PHONE":"2026105302","ZIP_CODE":"20020","AddrID":285966,"FULL_SERVI":0,"id":"a67xkq30k5g3","ADDRESS":"1234 GOOD HOPE ROAD SE"},"type":"Feature","geometry":{"type":"Point","coordinates":[-76.9874158422098,38.8674012580704]}},{"properties":{"NAME":"Wahla Brothers Amoco","GIS_ID":"Gas_10","PHONE":"2025546919","ZIP_CODE":"20003","AddrID":277927,"FULL_SERVI":0,"id":"a67xkpvubwvy","ADDRESS":"1244 SOUTH CAPITOL STREET SE"},"type":"Feature","geometry":{"type":"Point","coordinates":[-77.0086778995361,38.8748434168349]}},{"properties":{"NAME":"G &amp; K Sunoco","GIS_ID":"Gas_11","PHONE":"2025473124","ZIP_CODE":"20003","AddrID":69747,"FULL_SERVI":0,"id":"a67xkq2yic8u","ADDRESS":"1248 PENNSYLVANIA AVENUE SE"},"type":"Feature","geometry":{"type":"Point","coordinates":[-76.9886306713793,38.8818801369785]}},{"properties":{"NAME":"Logan Circle Amoco","GIS_ID":"Gas_12","PHONE":"2022653005","ZIP_CODE":"20005","AddrID":240902,"FULL_SERVI":0,"id":"a67xkpwatsd4","ADDRESS":"1301 13TH STREET NW"},"type":"Feature","geometry":{"type":"Point","coordinates":[-77.0293760035509,38.9075032247171]}},{"properties":{"NAME":"Lowest Price","GIS_ID":"Gas_120","PHONE":"2023962070","ZIP_CODE":"20002","AddrID":300661,"FULL_SERVI":0,"id":"a67xkq9jvaac","ADDRESS":"1301 BLADENSBURG ROAD NE"},"type":"Feature","geometry":{"type":"Point","coordinates":[-76.9781368431176,38.9075648167445]}},{"properties":{"NAME":"Amazing Inc. Amoco","GIS_ID":"Gas_13","PHONE":"2029861300","ZIP_CODE":"20001","AddrID":239903,"FULL_SERVI":0,"id":"a67xkq2lft5z","ADDRESS":"1317 9TH STREET NW"},"type":"Feature","geometry":{"type":"Point","coordinates":[-77.0236549731366,38.9078134643893]}},{"properties":{"NAME":"Kenilworth Citgo","GIS_ID":"Gas_14","PHONE":"2023881067","ZIP_CODE":"20019","AddrID":300562,"FULL_SERVI":0,"id":"a67xkq5l6yhn","ADDRESS":"1329 KENILWORTH AVENUE NE"},"type":"Feature","geometry":{"type":"Point","coordinates":[-76.9370549402106,38.9081890044761]}},{"properties":{"NAME":"Casey's Amoco","GIS_ID":"Gas_15","PHONE":"2023963690","ZIP_CODE":"20002","AddrID":286118,"FULL_SERVI":0,"id":"a67xkpz9sgo5","ADDRESS":"1396 FLORIDA AVENUE NE"},"type":"Feature","geometry":{"type":"Point","coordinates":[-76.9853281148251,38.9010665476835]}},{"properties":{"NAME":"Lowest Price","GIS_ID":"Gas_16","PHONE":"2023283990","ZIP_CODE":"20009","AddrID":242884,"FULL_SERVI":0,"id":"a67xkq8bsm7t","ADDRESS":"1400 W STREET NW"},"type":"Feature","geometry":{"type":"Point","coordinates":[-77.0324739295949,38.9190347026949]}},{"properties":{"NAME":"White House Mobil","GIS_ID":"Gas_17","PHONE":"2022652444","ZIP_CODE":"20009","AddrID":279190,"FULL_SERVI":0,"id":"a67xkpwfb062","ADDRESS":"1442 U STREET NW"},"type":"Feature","geometry":{"type":"Point","coordinates":[-77.0341114908717,38.9167423414901]}},{"properties":{"NAME":"Kenilworth Amoco","GIS_ID":"Gas_18","PHONE":"","ZIP_CODE":"20019","AddrID":60958,"FULL_SERVI":0,"id":"a67xkpvy9g3z","ADDRESS":"1535 KENILWORTH AVENUE NE"},"type":"Feature","geometry":{"type":"Point","coordinates":[-76.9350675810597,38.9104168933702]}},{"properties":{"NAME":"Lowest Price","GIS_ID":"Gas_19","PHONE":"2023338245","ZIP_CODE":"20007","AddrID":272739,"FULL_SERVI":0,"id":"a67xkqb4ggjn","ADDRESS":"1576 WISCONSIN AVENUE NW"},"type":"Feature","geometry":{"type":"Point","coordinates":[-77.0651593177465,38.9105831781155]}},{"properties":{"NAME":"Georgetown Exxon","GIS_ID":"Gas_20","PHONE":"2023330538","ZIP_CODE":"20007","AddrID":272965,"FULL_SERVI":1,"id":"a67xkpzreb7z","ADDRESS":"1601 WISCONSIN AVENUE NW"},"type":"Feature","geometry":{"type":"Point","coordinates":[-77.0648703189405,38.9106067606181]}},{"properties":{"NAME":"Yellow Cab Company of DC","GIS_ID":"Gas_21","PHONE":"2025467900","ZIP_CODE":"20002","AddrID":58756,"FULL_SERVI":0,"id":"a67xkq3izqsk","ADDRESS":"1636 BLADENSBURG ROAD NE"},"type":"Feature","geometry":{"type":"Point","coordinates":[-76.9769856929727,38.9125388463189]}},{"properties":{"NAME":"New Jersy Avenue Hess","GIS_ID":"Gas_22","PHONE":"2026676165","ZIP_CODE":"20001","AddrID":237208,"FULL_SERVI":0,"id":"a67xkq0p2d5r","ADDRESS":"1739 NEW JERSEY AVENUE NW"},"type":"Feature","geometry":{"type":"Point","coordinates":[-77.0173467551373,38.9136800734073]}},{"properties":{"NAME":"Parkway Texaco","GIS_ID":"Gas_23","PHONE":"2022693048","ZIP_CODE":"20002","AddrID":286472,"FULL_SERVI":0,"id":"a67xkq6thvk5","ADDRESS":"1765 NEW YORK AVENUE NE"},"type":"Feature","geometry":{"type":"Point","coordinates":[-76.97914372569,38.9168683855494]}},{"properties":{"NAME":"Yu's Service Inc.","GIS_ID":"Gas_121","PHONE":"","ZIP_CODE":"20009","AddrID":241151,"FULL_SERVI":0,"id":"a67xkpzerbya","ADDRESS":"1800 18TH STREET NW"},"type":"Feature","geometry":{"type":"Point","coordinates":[-77.0419001929143,38.9143516252595]}},{"properties":{"NAME":"New York Avenue Hess","GIS_ID":"Gas_24","PHONE":"2028320698","ZIP_CODE":"20002","AddrID":289241,"FULL_SERVI":0,"id":"a67xkq1mpm3b","ADDRESS":"1801 NEW YORK AVENUE NE"},"type":"Feature","geometry":{"type":"Point","coordinates":[-76.9773158401079,38.9169543825736]}},{"properties":{"NAME":"Lowest Price","GIS_ID":"Gas_123","PHONE":"","ZIP_CODE":"20002","AddrID":0,"FULL_SERVI":0,"id":"a67xkpwj9v8b","ADDRESS":"1801 WEST VIRGINIA AVENUE NE"},"type":"Feature","geometry":{"type":"Point","coordinates":[-76.9852640824699,38.9106465966381]}},{"properties":{"NAME":"Rock Creek Exxon","GIS_ID":"Gas_25","PHONE":"2022340422","ZIP_CODE":"20009","AddrID":300759,"FULL_SERVI":1,"id":"a67xkq14ouno","ADDRESS":"1827 ADAMS MILL ROAD NW"},"type":"Feature","geometry":{"type":"Point","coordinates":[-77.0429656757301,38.9234200501601]}},{"properties":{"NAME":"Rhode Island Shell","GIS_ID":"Gas_26","PHONE":"2025266314","ZIP_CODE":"20018","AddrID":286501,"FULL_SERVI":0,"id":"a67xkpx6jnbr","ADDRESS":"1830 RHODE ISLAND AVENUE NE"},"type":"Feature","geometry":{"type":"Point","coordinates":[-76.9772556292251,38.928824685567]}},{"properties":{"NAME":"Department of Public Works","GIS_ID":"Gas_116","PHONE":"","ZIP_CODE":"20002","AddrID":0,"FULL_SERVI":0,"id":"a67xkq7ek7c8","ADDRESS":"1835 WEST VIRGINIA AVENUE NE"},"type":"Feature","geometry":{"type":"Point","coordinates":[-76.9833621714756,38.9121333790749]}},{"properties":{"NAME":"Freedom Citgo","GIS_ID":"Gas_27","PHONE":"2028328930","ZIP_CODE":"20018","AddrID":54411,"FULL_SERVI":0,"id":"a67xkq34us85","ADDRESS":"1905 9TH STREET NE"},"type":"Feature","geometry":{"type":"Point","coordinates":[-76.9932494258301,38.9166747705177]}},{"properties":{"NAME":"Bladensburg Exxon","GIS_ID":"Gas_28","PHONE":"2025266986","ZIP_CODE":"20002","AddrID":286540,"FULL_SERVI":0,"id":"a67xkq1cp0ka","ADDRESS":"1925 BLADENSBURG ROAD NE"},"type":"Feature","geometry":{"type":"Point","coordinates":[-76.9722480420414,38.9169806917974]}},{"properties":{"NAME":"Benning Road Amoco","GIS_ID":"Gas_29","PHONE":"2023998880","ZIP_CODE":"20002","AddrID":290018,"FULL_SERVI":0,"id":"a67xkq7vv93f","ADDRESS":"1950 BENNING ROAD NE"},"type":"Feature","geometry":{"type":"Point","coordinates":[-76.9744174472423,38.8988251806969]}},{"properties":{"NAME":"Congressional Exxon of Capitol Hill","GIS_ID":"Gas_30","PHONE":"2025439456","ZIP_CODE":"20001","AddrID":286572,"FULL_SERVI":1,"id":"a67xkq7x7d8h","ADDRESS":"200 MASSACHUSETTS AVENUE NE"},"type":"Feature","geometry":{"type":"Point","coordinates":[-77.003252658998,38.8953971654298]}},{"properties":{"NAME":"KM Exxon #5","GIS_ID":"Gas_31","PHONE":"2022939389","ZIP_CODE":"20037","AddrID":279561,"FULL_SERVI":0,"id":"a67xkq6bpv0v","ADDRESS":"2150 M STREET NW"},"type":"Feature","geometry":{"type":"Point","coordinates":[-77.0484632226977,38.9049721900745]}},{"properties":{"NAME":"Lowest Price","GIS_ID":"Gas_32","PHONE":"2023322511","ZIP_CODE":"20001","AddrID":0,"FULL_SERVI":0,"id":"a67xkq1wi57t","ADDRESS":"22 FLORIDA AVENUE NW"},"type":"Feature","geometry":{"type":"Point","coordinates":[-77.0106792889283,38.9112962232031]}},{"properties":{"NAME":"Embassy Mobile","GIS_ID":"Gas_33","PHONE":"2026598560","ZIP_CODE":"20037","AddrID":225947,"FULL_SERVI":1,"id":"a67xkpwh8q18","ADDRESS":"2200 P STREET NW"},"type":"Feature","geometry":{"type":"Point","coordinates":[-77.0491566378137,38.9093440537217]}},{"properties":{"NAME":"Bison Texaco","GIS_ID":"Gas_34","PHONE":"2022348666","ZIP_CODE":"20001","AddrID":218648,"FULL_SERVI":0,"id":"a67xkq6l2bam","ADDRESS":"2201 GEORGIA AVENUE NW"},"type":"Feature","geometry":{"type":"Point","coordinates":[-77.0215555826045,38.9192861134875]}},{"properties":{"NAME":"Northeast Amoco","GIS_ID":"Gas_35","PHONE":"2026351373","ZIP_CODE":"20018","AddrID":50359,"FULL_SERVI":0,"id":"a67xkpx99i2h","ADDRESS":"2210 BLADENSBURG ROAD NE"},"type":"Feature","geometry":{"type":"Point","coordinates":[-76.9707981548806,38.9199344306045]}},{"properties":{"NAME":"New York Avenue Exxon","GIS_ID":"Gas_36","PHONE":"3015264534","ZIP_CODE":"20002","AddrID":286747,"FULL_SERVI":0,"id":"a67xkq1eicwa","ADDRESS":"2230 NEW YORK AVENUE NE"},"type":"Feature","geometry":{"type":"Point","coordinates":[-76.9728836104428,38.9176617987342]}},{"properties":{"NAME":"Capitol Hill Citgo","GIS_ID":"Gas_37","PHONE":"2025817080","ZIP_CODE":"20020","AddrID":48967,"FULL_SERVI":0,"id":"a67xkq9uth81","ADDRESS":"2300 PENNSYLVANIA AVENUE SE"},"type":"Feature","geometry":{"type":"Point","coordinates":[-76.972014728572,38.8745094535684]}},{"properties":{"NAME":"South Dakota Shell","GIS_ID":"Gas_38","PHONE":"2028328913","ZIP_CODE":"20018","AddrID":286779,"FULL_SERVI":0,"id":"a67xkpy7fe0d","ADDRESS":"2300 SOUTH DAKOTA AVENUE NE"},"type":"Feature","geometry":{"type":"Point","coordinates":[-76.9596064052062,38.9208959527485]}},{"properties":{"NAME":"Signature Pennsylvania Avenue Mobil","GIS_ID":"Gas_39","PHONE":"2025824710","ZIP_CODE":"20020","AddrID":300688,"FULL_SERVI":0,"id":"a67xkpvnw5wq","ADDRESS":"2305 PENNSYLVANIA AVENUE SE"},"type":"Feature","geometry":{"type":"Point","coordinates":[-76.973132381827,38.874257379261]}},{"properties":{"NAME":"South Dakota Amoco","GIS_ID":"Gas_40","PHONE":"7035363388","ZIP_CODE":"20018","AddrID":48031,"FULL_SERVI":0,"id":"a67xkqacwy6b","ADDRESS":"2350 SOUTH DAKOTA AVENUE NE"},"type":"Feature","geometry":{"type":"Point","coordinates":[-76.9605547704246,38.9216099882401]}},{"properties":{"NAME":"New York Avenue Citgo","GIS_ID":"Gas_41","PHONE":"2025263677","ZIP_CODE":"20002","AddrID":287042,"FULL_SERVI":0,"id":"a67xkq85geys","ADDRESS":"2420 NEW YORK AVENUE NE"},"type":"Feature","geometry":{"type":"Point","coordinates":[-76.9712388615548,38.9177602784227]}},{"properties":{"NAME":"Georgetown Chevron","GIS_ID":"Gas_115","PHONE":"","ZIP_CODE":"20007","AddrID":295037,"FULL_SERVI":0,"id":"a67xkq0qxvs8","ADDRESS":"2450 WISCONSIN AVENUE NW"},"type":"Feature","geometry":{"type":"Point","coordinates":[-77.0730015774516,38.9223499126854]}},{"properties":{"NAME":"Pennsylvania Avenue Amoco","GIS_ID":"Gas_42","PHONE":"2025845456","ZIP_CODE":"","AddrID":46707,"FULL_SERVI":0,"id":"a67xkq1fxn33","ADDRESS":"2500 PENNSYLVANIA AVENUE SE"},"type":"Feature","geometry":{"type":"Point","coordinates":[-76.9700060431102,38.8735882696576]}},{"properties":{"NAME":"Shell Food Mart","GIS_ID":"Gas_43","PHONE":"2025822825","ZIP_CODE":"20020","AddrID":46734,"FULL_SERVI":0,"id":"a67xkq9juce3","ADDRESS":"2501 PENNSYLVANIA AVENUE SE"},"type":"Feature","geometry":{"type":"Point","coordinates":[-76.9706125137564,38.8730820254525]}},{"properties":{"NAME":"14th Street Amoco","GIS_ID":"Gas_44","PHONE":"2022324976","ZIP_CODE":"20009","AddrID":234256,"FULL_SERVI":0,"id":"a67xkq0ixywe","ADDRESS":"2600 14TH STREET NW"},"type":"Feature","geometry":{"type":"Point","coordinates":[-77.0324251926368,38.9238260320871]}},{"properties":{"NAME":"Miller Brothers Exxon","GIS_ID":"Gas_45","PHONE":"2022912914","ZIP_CODE":"20011","AddrID":243503,"FULL_SERVI":1,"id":"a67xkq9perr5","ADDRESS":"264 MISSOURI AVENUE NW"},"type":"Feature","geometry":{"type":"Point","coordinates":[-77.0157487343557,38.9567115701814]}},{"properties":{"NAME":"Watergate Chevron","GIS_ID":"Gas_46","PHONE":"2029656277","ZIP_CODE":"20037","AddrID":279605,"FULL_SERVI":0,"id":"a67xkq3gd86m","ADDRESS":"2643 VIRGINIA AVENUE NW"},"type":"Feature","geometry":{"type":"Point","coordinates":[-77.0558635560422,38.9005180670076]}},{"properties":{"NAME":"Stadium Exxon II Inc.","GIS_ID":"Gas_47","PHONE":"2023966125","ZIP_CODE":"20002","AddrID":300608,"FULL_SERVI":0,"id":"a67xkpxepnco","ADDRESS":"2651 BENNING ROAD NE"},"type":"Feature","geometry":{"type":"Point","coordinates":[-76.9700305468546,38.8975398002504]}},{"properties":{"NAME":"Watergate Exxon","GIS_ID":"Gas_48","PHONE":"2023387739","ZIP_CODE":"20037","AddrID":279611,"FULL_SERVI":0,"id":"a67xkq2iepho","ADDRESS":"2708 VIRGINIA AVENUE NW"},"type":"Feature","geometry":{"type":"Point","coordinates":[-77.0566764320104,38.9004124608204]}},{"properties":{"NAME":"Good Hope Auto Center","GIS_ID":"Gas_49","PHONE":"2025813753","ZIP_CODE":"20020","AddrID":287193,"FULL_SERVI":0,"id":"a67xkpynvwtg","ADDRESS":"2713 GOOD HOPE ROAD SE"},"type":"Feature","geometry":{"type":"Point","coordinates":[-76.9684968924549,38.8600927500166]}},{"properties":{"NAME":"Georgetown Getty","GIS_ID":"Gas_50","PHONE":"2023380400","ZIP_CODE":"20007","AddrID":273871,"FULL_SERVI":1,"id":"a67xkqc2843d","ADDRESS":"2715 PENNSYLVANIA AVENUE NW"},"type":"Feature","geometry":{"type":"Point","coordinates":[-77.0567106177707,38.9050585038702]}},{"properties":{"NAME":"Lowest Price","GIS_ID":"Gas_122","PHONE":"2022690925","ZIP_CODE":"20017","AddrID":44895,"FULL_SERVI":0,"id":"a67xkq3fzfm6","ADDRESS":"2800 12TH STREET NE"},"type":"Feature","geometry":{"type":"Point","coordinates":[-76.9908252536442,38.9258766119676]}},{"properties":{"NAME":"Hillcrest Amoco","GIS_ID":"Gas_51","PHONE":"2025831100","ZIP_CODE":"20020","AddrID":278264,"FULL_SERVI":0,"id":"a67xkq5ve1vc","ADDRESS":"2801 ALABAMA AVENUE SE"},"type":"Feature","geometry":{"type":"Point","coordinates":[-76.9678219929077,38.8597643622196]}},{"properties":{"NAME":"Sherman Apex Pertroleum","GIS_ID":"Gas_52","PHONE":"2024626972","ZIP_CODE":"20001","AddrID":284520,"FULL_SERVI":0,"id":"a67xkq3p44ay","ADDRESS":"2830 SHERMAN AVENUE NW"},"type":"Feature","geometry":{"type":"Point","coordinates":[-77.026348078716,38.9265968158585]}},{"properties":{"NAME":"Martin Luther King Chevron","GIS_ID":"Gas_53","PHONE":"2025263600","ZIP_CODE":"20032","AddrID":0,"FULL_SERVI":0,"id":"a67xkpyu6um8","ADDRESS":"3011 MARTIN LUTHER KING JR AVENUE SE"},"type":"Feature","geometry":{"type":"Point","coordinates":[-76.9982372707732,38.8444634018964]}},{"properties":{"NAME":"Rhode Island Avenue Amoco","GIS_ID":"Gas_54","PHONE":"2022342973","ZIP_CODE":"20001","AddrID":230006,"FULL_SERVI":0,"id":"a67xkq1w6l0l","ADDRESS":"306 RHODE ISLAND AVENUE NW"},"type":"Feature","geometry":{"type":"Point","coordinates":[-77.0160660991376,38.914063225095]}},{"properties":{"NAME":"Shell Rhode Island Ave","GIS_ID":"Gas_111","PHONE":"","ZIP_CODE":"20018","AddrID":287515,"FULL_SERVI":0,"id":"a67xkq2uf4tq","ADDRESS":"3101 RHODE ISLAND AVENUE NE"},"type":"Feature","geometry":{"type":"Point","coordinates":[-76.9642434126482,38.934406998548]}},{"properties":{"NAME":"Hillcrest Exxon","GIS_ID":"Gas_55","PHONE":"2025814550","ZIP_CODE":"20020","AddrID":38863,"FULL_SERVI":0,"id":"a67xkq6ln1t4","ADDRESS":"3201 PENNSYLVANIA AVENUE SE"},"type":"Feature","geometry":{"type":"Point","coordinates":[-76.9599230001103,38.8687226786869]}},{"properties":{"NAME":"Benning Road Texaco","GIS_ID":"Gas_56","PHONE":"2023985920","ZIP_CODE":"20019","AddrID":287842,"FULL_SERVI":0,"id":"a67xkq6mz3ab","ADDRESS":"3355 BENNING ROAD NE"},"type":"Feature","geometry":{"type":"Point","coordinates":[-76.9588118087483,38.896312108548]}},{"properties":{"NAME":"Capitol Hill Exxon","GIS_ID":"Gas_57","PHONE":"2025474054","ZIP_CODE":"20003","AddrID":278384,"FULL_SERVI":1,"id":"a67xkq7agv6o","ADDRESS":"339 PENNSYLVANIA AVENUE SE"},"type":"Feature","geometry":{"type":"Point","coordinates":[-77.0008853784256,38.8861995134901]}},{"properties":{"NAME":"K &amp; J Auto Care Inc.","GIS_ID":"Gas_58","PHONE":"2022692495","ZIP_CODE":"20018","AddrID":34566,"FULL_SERVI":0,"id":"a67xkq6rwyak","ADDRESS":"3426 18TH STREET NE"},"type":"Feature","geometry":{"type":"Point","coordinates":[-76.979970007577,38.932842314583]}},{"properties":{"NAME":"J &amp; K Amoco","GIS_ID":"Gas_59","PHONE":"2028290962","ZIP_CODE":"20010","AddrID":242835,"FULL_SERVI":0,"id":"a67xkq63mpwl","ADDRESS":"3426 GEORGIA AVENUE NW"},"type":"Feature","geometry":{"type":"Point","coordinates":[-77.0241782222922,38.9327714327757]}},{"properties":{"NAME":"KM Exxon #14","GIS_ID":"Gas_60","PHONE":"2023649958","ZIP_CODE":"20008","AddrID":219266,"FULL_SERVI":0,"id":"a67xkpxi5y5z","ADDRESS":"3535 CONNECTICUT AVENUE NW"},"type":"Feature","geometry":{"type":"Point","coordinates":[-77.0585659788147,38.9365643259073]}},{"properties":{"NAME":"Columbia Heights Exxon","GIS_ID":"Gas_61","PHONE":"2022340026","ZIP_CODE":"20010","AddrID":234782,"FULL_SERVI":0,"id":"a67xkpvup7og","ADDRESS":"3540 14TH STREET NW"},"type":"Feature","geometry":{"type":"Point","coordinates":[-77.0330855603097,38.9353270177046]}},{"properties":{"NAME":"Key Bridge Exxon","GIS_ID":"Gas_62","PHONE":"2029653760","ZIP_CODE":"20007","AddrID":274933,"FULL_SERVI":0,"id":"a67xkpyn4xkl","ADDRESS":"3607 M STREET NW"},"type":"Feature","geometry":{"type":"Point","coordinates":[-77.0709029390728,38.9052709511539]}},{"properties":{"NAME":"Patti's Amoco","GIS_ID":"Gas_63","PHONE":"2022694488","ZIP_CODE":"20017","AddrID":300854,"FULL_SERVI":0,"id":"a67xkq0wal5d","ADDRESS":"3701 12TH STREET NE"},"type":"Feature","geometry":{"type":"Point","coordinates":[-76.9908721767614,38.9347926704849]}},{"properties":{"NAME":"Minnesota Avenue Citgo","GIS_ID":"Gas_64","PHONE":"2023885722","ZIP_CODE":"20019","AddrID":30064,"FULL_SERVI":0,"id":"a67xkq63tr5c","ADDRESS":"3820 MINNESOTA AVENUE NE"},"type":"Feature","geometry":{"type":"Point","coordinates":[-76.9514356549759,38.8926976484387]}},{"properties":{"NAME":"Fort Davis Exxon","GIS_ID":"Gas_65","PHONE":"2025815700","ZIP_CODE":"20020","AddrID":300855,"FULL_SERVI":0,"id":"a67xkpz0v97j","ADDRESS":"3825 ALABAMA AVENUE SE"},"type":"Feature","geometry":{"type":"Point","coordinates":[-76.9503916426972,38.8655765424197]}},{"properties":{"NAME":"Minnesota Avenue Amoco","GIS_ID":"Gas_66","PHONE":"2023963600","ZIP_CODE":"20019","AddrID":0,"FULL_SERVI":0,"id":"a67xkq1wiqdw","ADDRESS":"3830 MINNESOTA AVENUE NE"},"type":"Feature","geometry":{"type":"Point","coordinates":[-76.9511845932084,38.892945952058]}},{"properties":{"NAME":"South Capitol Street Exxon","GIS_ID":"Gas_67","PHONE":"2025749413","ZIP_CODE":"20032","AddrID":300857,"FULL_SERVI":0,"id":"a67xkq2ja627","ADDRESS":"3900 MARTIN LUTHER KING JR AVENUE SW"},"type":"Feature","geometry":{"type":"Point","coordinates":[-77.0087605484499,38.8324157551056]}},{"properties":{"NAME":"Florida Avenue Market Chevron","GIS_ID":"Gas_68","PHONE":"2025438459","ZIP_CODE":"20002","AddrID":28323,"FULL_SERVI":1,"id":"a67xkq6l982m","ADDRESS":"400 FLORIDA AVENUE NE"},"type":"Feature","geometry":{"type":"Point","coordinates":[-77.0000355566168,38.9072628007312]}},{"properties":{"NAME":"Rhode Island Amoco","GIS_ID":"Gas_69","PHONE":"2026354545","ZIP_CODE":"20002","AddrID":288064,"FULL_SERVI":1,"id":"a67xkpvx7bpy","ADDRESS":"400 RHODE ISLAND AVENUE NE"},"type":"Feature","geometry":{"type":"Point","coordinates":[-77.0002696053082,38.9201377034703]}},{"properties":{"NAME":"Georgia Avenue Texaco","GIS_ID":"Gas_70","PHONE":"2027234000","ZIP_CODE":"20011","AddrID":223657,"FULL_SERVI":0,"id":"a67xkpydj0l2","ADDRESS":"4000 GEORGIA AVENUE NW"},"type":"Feature","geometry":{"type":"Point","coordinates":[-77.0254355436916,38.9401653877598]}},{"properties":{"NAME":"Minnesota Avenue Exxon","GIS_ID":"Gas_71","PHONE":"2023983125","ZIP_CODE":"20019","AddrID":288109,"FULL_SERVI":0,"id":"a67xkq7qb42q","ADDRESS":"4100 HUNT PLACE NE"},"type":"Feature","geometry":{"type":"Point","coordinates":[-76.9437489680401,38.9007103568098]}},{"properties":{"NAME":"Fort Dupont Amoco","GIS_ID":"Gas_72","PHONE":"2025843200","ZIP_CODE":"20019","AddrID":278474,"FULL_SERVI":0,"id":"a67xkq5u8abw","ADDRESS":"4101 ALABAMA AVENUE SE"},"type":"Feature","geometry":{"type":"Point","coordinates":[-76.94448937963,38.8703047240429]}},{"properties":{"NAME":"Georgia Avenue Shell","GIS_ID":"Gas_73","PHONE":"2027227391","ZIP_CODE":"20011","AddrID":284837,"FULL_SERVI":0,"id":"a67xkq2z72ia","ADDRESS":"4140 GEORGIA AVENUE NW"},"type":"Feature","geometry":{"type":"Point","coordinates":[-77.0256968419184,38.9415518269687]}},{"properties":{"NAME":"Lowest Price","GIS_ID":"Gas_74","PHONE":"2022324097","ZIP_CODE":"20001","AddrID":300859,"FULL_SERVI":0,"id":"a67xkqbtges5","ADDRESS":"420 RHODE ISLAND AVENUE NW"},"type":"Feature","geometry":{"type":"Point","coordinates":[-77.0181713365412,38.9133120082936]}},{"properties":{"NAME":"Northeast Chevron","GIS_ID":"Gas_112","PHONE":"2023991191","ZIP_CODE":"20019","AddrID":288132,"FULL_SERVI":0,"id":"a67xkqbdanah","ADDRESS":"4200 NANNIE HELEN BURROUGHS AVENUE NE"},"type":"Feature","geometry":{"type":"Point","coordinates":[-76.9419259329524,38.9020230815301]}},{"properties":{"NAME":"Lowest Price","GIS_ID":"Gas_75","PHONE":"2029665995","ZIP_CODE":"20008","AddrID":221312,"FULL_SERVI":0,"id":"a67xkqa8kywz","ADDRESS":"4225 CONNECTICUT AVENUE NW"},"type":"Feature","geometry":{"type":"Point","coordinates":[-77.0629938478709,38.9440512573396]}},{"properties":{"NAME":"KM Exxon #12","GIS_ID":"Gas_76","PHONE":"2023646370","ZIP_CODE":"20016","AddrID":222978,"FULL_SERVI":1,"id":"a67xkpyv0uuj","ADDRESS":"4244 WISCONSIN AVENUE NW"},"type":"Feature","geometry":{"type":"Point","coordinates":[-77.0779369903224,38.9442523860279]}},{"properties":{"NAME":"Compass Shell","GIS_ID":"Gas_77","PHONE":"2023987750","ZIP_CODE":"20019","AddrID":288163,"FULL_SERVI":0,"id":"a67xkpyau6fw","ADDRESS":"4321 NANNIE HELEN BURROUGHS AVENUE NE"},"type":"Feature","geometry":{"type":"Point","coordinates":[-76.9401677064939,38.9006622592829]}},{"properties":{"NAME":"Benning Citgo","GIS_ID":"Gas_119","PHONE":"2023975992","ZIP_CODE":"20019","AddrID":288186,"FULL_SERVI":0,"id":"a67xkq61kcqb","ADDRESS":"4400 BENNING ROAD NE"},"type":"Feature","geometry":{"type":"Point","coordinates":[-76.9386548080476,38.8916351496409]}},{"properties":{"NAME":"Amoco","GIS_ID":"Gas_78","PHONE":"","ZIP_CODE":"20002","AddrID":288234,"FULL_SERVI":0,"id":"a67xkpwrwz94","ADDRESS":"45 FLORIDA AVENUE NE"},"type":"Feature","geometry":{"type":"Point","coordinates":[-77.0073156467813,38.9098324901258]}},{"properties":{"NAME":"Davis Exxon","GIS_ID":"Gas_79","PHONE":"2022919485","ZIP_CODE":"20011","AddrID":255205,"FULL_SERVI":0,"id":"a67xkq89xh5i","ADDRESS":"4501 14TH STREET NW"},"type":"Feature","geometry":{"type":"Point","coordinates":[-77.0324212900556,38.9452740694037]}},{"properties":{"NAME":"East Capitol Exxon","GIS_ID":"Gas_80","PHONE":"2023975340","ZIP_CODE":"20019","AddrID":20633,"FULL_SERVI":0,"id":"a67xkq3bxyw2","ADDRESS":"4501 BENNING ROAD NE"},"type":"Feature","geometry":{"type":"Point","coordinates":[-76.9381291673751,38.8901604644258]}},{"properties":{"NAME":"Daniel's Texaco","GIS_ID":"Gas_81","PHONE":"2025831216","ZIP_CODE":"20019","AddrID":278509,"FULL_SERVI":0,"id":"a67xkq60le5b","ADDRESS":"4519 BENNING ROAD SE"},"type":"Feature","geometry":{"type":"Point","coordinates":[-76.9376931277459,38.8892892938247]}},{"properties":{"NAME":"Eastover Exxon","GIS_ID":"Gas_82","PHONE":"2025620493","ZIP_CODE":"20032","AddrID":18486,"FULL_SERVI":0,"id":"a67xkq57286p","ADDRESS":"4650 SOUTH CAPITOL STREET SE"},"type":"Feature","geometry":{"type":"Point","coordinates":[-77.0022372720233,38.8223039340529]}},{"properties":{"NAME":"South Capitol Mini Mart","GIS_ID":"Gas_83","PHONE":"","ZIP_CODE":"20032","AddrID":276660,"FULL_SERVI":0,"id":"a67xkq49om5o","ADDRESS":"4700 SOUTH CAPITOL STREET SE"},"type":"Feature","geometry":{"type":"Point","coordinates":[-77.0012368642177,38.8217955644715]}},{"properties":{"NAME":"Parker's Exxon","GIS_ID":"Gas_84","PHONE":"2023373144","ZIP_CODE":"20007","AddrID":284961,"FULL_SERVI":1,"id":"a67xkpyve6dt","ADDRESS":"4812 MACARTHUR BOULEVARD NW"},"type":"Feature","geometry":{"type":"Point","coordinates":[-77.0960454595314,38.9163522532273]}},{"properties":{"NAME":"Spring Valley Exxon","GIS_ID":"Gas_85","PHONE":"2023622639","ZIP_CODE":"20016","AddrID":269571,"FULL_SERVI":1,"id":"a67xkpyv42n3","ADDRESS":"4861 MASSACHUSETTS AVENUE NW"},"type":"Feature","geometry":{"type":"Point","coordinates":[-77.0964086735519,38.9459624551505]}},{"properties":{"NAME":"Department of Public Works","GIS_ID":"Gas_113","PHONE":"","ZIP_CODE":"20011","AddrID":0,"FULL_SERVI":0,"id":"a67xkq0ft136","ADDRESS":"4900 BATES ROAD NE"},"type":"Feature","geometry":{"type":"Point","coordinates":[-77.0010298668456,38.9476106420881]}},{"properties":{"NAME":"Capital Amoco","GIS_ID":"Gas_86","PHONE":"2022449548","ZIP_CODE":"20016","AddrID":266055,"FULL_SERVI":0,"id":"a67xkqacpn03","ADDRESS":"4900 WISCONSIN AVENUE NW"},"type":"Feature","geometry":{"type":"Point","coordinates":[-77.0822863729304,38.9534971882378]}},{"properties":{"NAME":"Dakota Amoco","GIS_ID":"Gas_87","PHONE":"2028328050","ZIP_CODE":"20017","AddrID":0,"FULL_SERVI":0,"id":"a67xkq4z6pm7","ADDRESS":"4925 SOUTH DAKOTA AVENUE NE"},"type":"Feature","geometry":{"type":"Point","coordinates":[-76.9923673609097,38.9499517390104]}},{"properties":{"NAME":"Precision Automotive","GIS_ID":"Gas_88","PHONE":"2029660408","ZIP_CODE":"20007","AddrID":222125,"FULL_SERVI":0,"id":"a67xkpxey3bk","ADDRESS":"4940 CONNECTICUT AVENUE NW"},"type":"Feature","geometry":{"type":"Point","coordinates":[-77.0698998221944,38.9544608023866]}},{"properties":{"NAME":"Daves Sunoco","GIS_ID":"Gas_89","PHONE":"2028631065","ZIP_CODE":"20003","AddrID":278548,"FULL_SERVI":1,"id":"a67xkq3kwusv","ADDRESS":"50 M STREET SE"},"type":"Feature","geometry":{"type":"Point","coordinates":[-77.0070802636348,38.8767054432015]}},{"properties":{"NAME":"Connecticut Avenue Amoco","GIS_ID":"Gas_90","PHONE":"2022446975","ZIP_CODE":"20008","AddrID":262740,"FULL_SERVI":1,"id":"a67xkq1ehy3n","ADDRESS":"5001 CONNECTICUT AVENUE NW"},"type":"Feature","geometry":{"type":"Point","coordinates":[-77.0694724248702,38.9549957879626]}},{"properties":{"NAME":"Lowest Price","GIS_ID":"Gas_91","PHONE":"2025459570","ZIP_CODE":"20011","AddrID":251856,"FULL_SERVI":0,"id":"a67xkq7yw59k","ADDRESS":"5001 GEORGIA AVENUE NW"},"type":"Feature","geometry":{"type":"Point","coordinates":[-77.0269749854044,38.9510468765663]}},{"properties":{"NAME":"KM Exxon #3","GIS_ID":"Gas_92","PHONE":"2023645145","ZIP_CODE":"20008","AddrID":0,"FULL_SERVI":0,"id":"a67xkpzczpmo","ADDRESS":"5030 CONNECTICUT AVENUE NW"},"type":"Feature","geometry":{"type":"Point","coordinates":[-77.0705139058956,38.9554634483506]}},{"properties":{"NAME":"Florida Avenue Hess","GIS_ID":"Gas_93","PHONE":"2025476441","ZIP_CODE":"20002","AddrID":277678,"FULL_SERVI":0,"id":"a67xkq8mggmi","ADDRESS":"520 FLORIDA AVENUE NE"},"type":"Feature","geometry":{"type":"Point","coordinates":[-76.9986568679471,38.9066287606554]}},{"properties":{"NAME":"Sonny's Amoco Inc.","GIS_ID":"Gas_94","PHONE":"2023992122","ZIP_CODE":"20019","AddrID":288552,"FULL_SERVI":0,"id":"a67xkq1r5co3","ADDRESS":"5207 NANNIE HELEN BURROUGHS AVENUE NE"},"type":"Feature","geometry":{"type":"Point","coordinates":[-76.9253752777411,38.8980699452022]}},{"properties":{"NAME":"Lowest Price","GIS_ID":"Gas_95","PHONE":"2027228863","ZIP_CODE":"20011","AddrID":245909,"FULL_SERVI":0,"id":"a67xkq6c23z9","ADDRESS":"5420 NEW HAMPSHIRE AVENUE NW"},"type":"Feature","geometry":{"type":"Point","coordinates":[-77.0098379080067,38.956435807414]}},{"properties":{"NAME":"Brown &amp; Vaz's Exxon","GIS_ID":"Gas_96","PHONE":"2028326220","ZIP_CODE":"20011","AddrID":155992,"FULL_SERVI":1,"id":"a67xkpzi91dq","ADDRESS":"5501 SOUTH DAKOTA AVENUE NE"},"type":"Feature","geometry":{"type":"Point","coordinates":[-77.0002697526908,38.9558183694525]}},{"properties":{"NAME":"Circle Exxon","GIS_ID":"Gas_97","PHONE":"2023646364","ZIP_CODE":"20015","AddrID":264023,"FULL_SERVI":1,"id":"a67xkqat1x19","ADDRESS":"5521 CONNECTICUT AVENUE NW"},"type":"Feature","geometry":{"type":"Point","coordinates":[-77.0743247222683,38.9637965501381]}},{"properties":{"NAME":"Missouri Exxon","GIS_ID":"Gas_98","PHONE":"3015892978","ZIP_CODE":"20011","AddrID":285276,"FULL_SERVI":1,"id":"a67xkpzp1csj","ADDRESS":"5831 GEORGIA AVENUE NW"},"type":"Feature","geometry":{"type":"Point","coordinates":[-77.0277233400843,38.9606631163186]}},{"properties":{"NAME":"Eastern Avenue Texaco","GIS_ID":"Gas_99","PHONE":"2025295466","ZIP_CODE":"20011","AddrID":3716,"FULL_SERVI":0,"id":"a67xkqbnniby","ADDRESS":"6201 NEW HAMPSHIRE AVENUE NE"},"type":"Feature","geometry":{"type":"Point","coordinates":[-77.0024124843848,38.9652592666986]}},{"properties":{"NAME":"Georgia Avenue Amoco","GIS_ID":"Gas_100","PHONE":"2027265300","ZIP_CODE":"20011","AddrID":253249,"FULL_SERVI":1,"id":"a67xkq60td1h","ADDRESS":"6300 GEORGIA AVENUE NW"},"type":"Feature","geometry":{"type":"Point","coordinates":[-77.0279933939585,38.9666009910637]}},{"properties":{"NAME":"Putnams Exxon In","GIS_ID":"Gas_101","PHONE":"2027239379","ZIP_CODE":"20011","AddrID":259632,"FULL_SERVI":0,"id":"a67xkq7n9l4m","ADDRESS":"6350 GEORGIA AVENUE NW"},"type":"Feature","geometry":{"type":"Point","coordinates":[-77.0278240480199,38.9669592765582]}},{"properties":{"NAME":"Pattie's Amoco #2","GIS_ID":"Gas_102","PHONE":"2027236825","ZIP_CODE":"20008","AddrID":254025,"FULL_SERVI":0,"id":"a67xkqac0b2y","ADDRESS":"6401 GEORGIA AVENUE NW"},"type":"Feature","geometry":{"type":"Point","coordinates":[-77.0268269639259,38.9675455807331]}},{"properties":{"NAME":"J &amp; K Shell","GIS_ID":"Gas_103","PHONE":"2027290762","ZIP_CODE":"20011","AddrID":254024,"FULL_SERVI":1,"id":"a67xkqc2sn9i","ADDRESS":"6419 GEORGIA AVENUE NW"},"type":"Feature","geometry":{"type":"Point","coordinates":[-77.0270832584657,38.9681202657252]}},{"properties":{"NAME":"Takoma Metro Amoco","GIS_ID":"Gas_104","PHONE":"2028827850","ZIP_CODE":"20012","AddrID":249127,"FULL_SERVI":0,"id":"a67xkq1jel5o","ADDRESS":"7000 BLAIR ROAD NW"},"type":"Feature","geometry":{"type":"Point","coordinates":[-77.0190043020042,38.975015977943]}},{"properties":{"NAME":"Walter Reed Exxon","GIS_ID":"Gas_105","PHONE":"2027267327","ZIP_CODE":"20012","AddrID":253740,"FULL_SERVI":0,"id":"a67xkq4iec1g","ADDRESS":"7401 GEORGIA AVENUE NW"},"type":"Feature","geometry":{"type":"Point","coordinates":[-77.0260891664252,38.9796872329663]}},{"properties":{"NAME":"Georgia Avenue Amoco","GIS_ID":"Gas_106","PHONE":"2027237588","ZIP_CODE":"20002","AddrID":253716,"FULL_SERVI":0,"id":"a67xkpw3aikc","ADDRESS":"7605 GEORGIA AVENUE NW"},"type":"Feature","geometry":{"type":"Point","coordinates":[-77.0261287958586,38.9822295416206]}},{"properties":{"NAME":"Bladensburg Amoco","GIS_ID":"Gas_107","PHONE":"2023988011","ZIP_CODE":"20002","AddrID":288979,"FULL_SERVI":0,"id":"a67xkq6pim25","ADDRESS":"814 BLADENSBURG ROAD NE"},"type":"Feature","geometry":{"type":"Point","coordinates":[-76.9831562220511,38.9011900295539]}},{"properties":{"NAME":"Distads Amoco","GIS_ID":"Gas_108","PHONE":"2025430200","ZIP_CODE":"20003","AddrID":280153,"FULL_SERVI":0,"id":"a67xkpx9fyqq","ADDRESS":"823 PENNSYLVANIA AVENUE SE"},"type":"Feature","geometry":{"type":"Point","coordinates":[-76.9939647254167,38.8833836826592]}},{"properties":{"NAME":"Florida Avenue Liberty","GIS_ID":"Gas_109","PHONE":"","ZIP_CODE":"20001","AddrID":239467,"FULL_SERVI":0,"id":"a67xkqb7lv5z","ADDRESS":"908 FLORIDA AVENUE NW"},"type":"Feature","geometry":{"type":"Point","coordinates":[-77.0243295884944,38.9178978268023]}},{"properties":{"NAME":"Capitol Exxon","GIS_ID":"Gas_110","PHONE":"","ZIP_CODE":"20003","AddrID":82885,"FULL_SERVI":0,"id":"a67xkq2k3urc","ADDRESS":"950 SOUTH CAPITOL STREET SE"},"type":"Feature","geometry":{"type":"Point","coordinates":[-77.0085671189073,38.8788826363084]}}],"is_temporal":false,"author":{"url":"http://data.octo.dc.gov/","metadata":"http://data.octo.dc.gov/Metadata.aspx?id=316","contact_name":"","contact_address":"","source":"DC Energy Office","contact_phone":""},"source":"http://data.octo.dc.gov/","pagination":{"sort":null,"start":0,"total":123,"limit":1000000},"state":"complete","tags":"","published":"2006-05-01T12:00:00Z","id":8603}