{"type":"FeatureCollection","data_type":"Dataset","url_type":null,"permissions":[{"permissions":{"download":true,"view":true},"group_id":"everyone"}],"classification":null,"title":"Giants Followers","count":171,"stream_id":86666,"contributor":{"url":"http://geocommons.com/users/12003","name":"LauraHale"},"data_attributes":null,"calculation_params":null,"icon_link":null,"link":"http://geocommons.com/overlays/86666.json","extent":[0.0,-42.9756,153.613,0.0],"geometry_types":["point"],"unique_name":null,"name":"Giants Followers","feature_count":171,"description":"Location of GWS Giants followers on Twitter.","next_feature":null,"is_raster":false,"short_classification":"Y","stats":{"latitude":{"max":0.0,"mean":-34.226271877193,"variance":38.0628480581377,"stdev":6.16950954761703,"min":-42.975609,"median":-36.081032},"followers":{"max":405,"mean":6.1812865497076,"variance":1168.90223598212,"stdev":34.1892122749577,"min":1,"median":1},"longitude":{"max":153.612823,"mean":142.731654678363,"variance":320.324511501913,"stdev":17.8976118938229,"min":0.0,"median":145.102142}},"features":[{"properties":{"city":"Melbourne","latitude":-37.817532,"followers":405,"country":"Australia","longitude":144.967148,"id":"a622lvyrqm49","state":"Victoria"},"type":"Feature","geometry":{"type":"Point","coordinates":[144.967148,-37.817532]}},{"properties":{"city":"Sydney","latitude":-33.869629,"followers":174,"country":"Australia","longitude":151.206955,"id":"a622lw16dxlj","state":"New South Wales"},"type":"Feature","geometry":{"type":"Point","coordinates":[151.206955,-33.869629]}},{"properties":{"city":"Adelaide","latitude":-34.926102,"followers":58,"country":"Australia","longitude":138.599884,"id":"a622lw7amhoc","state":"South Australia"},"type":"Feature","geometry":{"type":"Point","coordinates":[138.599884,-34.926102]}},{"properties":{"city":"Brisbane","latitude":-27.46888,"followers":45,"country":"Australia","longitude":153.022827,"id":"a622lw83b2qq","state":"Queensland"},"type":"Feature","geometry":{"type":"Point","coordinates":[153.022827,-27.46888]}},{"properties":{"city":"Perth","latitude":-31.95302,"followers":42,"country":"Australia","longitude":115.857239,"id":"a622lvv0w0ii","state":"Western Australia"},"type":"Feature","geometry":{"type":"Point","coordinates":[115.857239,-31.95302]}},{"properties":{"city":"Canberra","latitude":-35.306541,"followers":41,"country":"Australia","longitude":149.126556,"id":"a622lw4dn321","state":"Australian Capital Territory"},"type":"Feature","geometry":{"type":"Point","coordinates":[149.126556,-35.306541]}},{"properties":{"city":"Geelong","latitude":-38.148769,"followers":34,"country":"Australia","longitude":144.360046,"id":"a622lw34pbtj","state":"Victoria"},"type":"Feature","geometry":{"type":"Point","coordinates":[144.360046,-38.148769]}},{"properties":{"city":"Perth","latitude":-41.579151,"followers":14,"country":"Australia","longitude":147.177811,"id":"a622lvy4s125","state":"Tasmania"},"type":"Feature","geometry":{"type":"Point","coordinates":[147.177811,-41.579151]}},{"properties":{"city":"Ballarat","latitude":-37.562351,"followers":12,"country":"Australia","longitude":143.847137,"id":"a622lw3uhkkn","state":"Victoria"},"type":"Feature","geometry":{"type":"Point","coordinates":[143.847137,-37.562351]}},{"properties":{"city":"Gold Coast","latitude":-28.04583,"followers":11,"country":"Australia","longitude":153.397751,"id":"a622lw61lwdi","state":"Queensland"},"type":"Feature","geometry":{"type":"Point","coordinates":[153.397751,-28.04583]}},{"properties":{"city":"Newcastle","latitude":-32.928089,"followers":10,"country":"Australia","longitude":151.772324,"id":"a622lw6lu9kd","state":"New South Wales"},"type":"Feature","geometry":{"type":"Point","coordinates":[151.772324,-32.928089]}},{"properties":{"city":"Hobart","latitude":-42.88163,"followers":7,"country":"Australia","longitude":147.331589,"id":"a622lw2f4irg","state":"Tasmania"},"type":"Feature","geometry":{"type":"Point","coordinates":[147.331589,-42.88163]}},{"properties":{"city":"Penrith","latitude":-33.753819,"followers":6,"country":"Australia","longitude":150.698563,"id":"a622lvsqjjs0","state":"New South Wales"},"type":"Feature","geometry":{"type":"Point","coordinates":[150.698563,-33.753819]}},{"properties":{"city":"Bathurst","latitude":-33.41074,"followers":4,"country":"Australia","longitude":149.578293,"id":"a622lvy7tmw8","state":"New South Wales"},"type":"Feature","geometry":{"type":"Point","coordinates":[149.578293,-33.41074]}},{"properties":{"city":"Gosford","latitude":-33.42321,"followers":4,"country":"Australia","longitude":151.342606,"id":"a622lw5lagks","state":"New South Wales"},"type":"Feature","geometry":{"type":"Point","coordinates":[151.342606,-33.42321]}},{"properties":{"city":"St Kilda","latitude":-37.85812,"followers":4,"country":"Australia","longitude":144.980133,"id":"a622lvy9g2ly","state":"Victoria"},"type":"Feature","geometry":{"type":"Point","coordinates":[144.980133,-37.85812]}},{"properties":{"city":"Bendigo","latitude":-36.7575,"followers":3,"country":"Australia","longitude":144.281403,"id":"a622lw7ii9e5","state":"Victoria"},"type":"Feature","geometry":{"type":"Point","coordinates":[144.281403,-36.7575]}},{"properties":{"city":"Darwin","latitude":-12.4675,"followers":3,"country":"Australia","longitude":130.843155,"id":"a622lvxaipds","state":"Northern Territory"},"type":"Feature","geometry":{"type":"Point","coordinates":[130.843155,-12.4675]}},{"properties":{"city":"Launceston","latitude":-41.436008,"followers":3,"country":"Australia","longitude":147.137802,"id":"a622lvs01pnl","state":"Tasmania"},"type":"Feature","geometry":{"type":"Point","coordinates":[147.137802,-41.436008]}},{"properties":{"city":"Richmond","latitude":-37.81702,"followers":3,"country":"Australia","longitude":144.999451,"id":"a622lw6d5r17","state":"Victoria"},"type":"Feature","geometry":{"type":"Point","coordinates":[144.999451,-37.81702]}},{"properties":{"city":"South Melbourne","latitude":-37.834549,"followers":3,"country":"Australia","longitude":144.960175,"id":"a622lvyabu6e","state":"Victoria"},"type":"Feature","geometry":{"type":"Point","coordinates":[144.960175,-37.834549]}},{"properties":{"city":"Warrnambool","latitude":-38.384258,"followers":3,"country":"Australia","longitude":142.483231,"id":"a622lvsgsser","state":"Victoria"},"type":"Feature","geometry":{"type":"Point","coordinates":[142.483231,-38.384258]}},{"properties":{"city":"Wollongong","latitude":-34.424881,"followers":3,"country":"Australia","longitude":150.893036,"id":"a622lw0metup","state":"New South Wales"},"type":"Feature","geometry":{"type":"Point","coordinates":[150.893036,-34.424881]}},{"properties":{"city":"Albury","latitude":-36.081032,"followers":2,"country":"Australia","longitude":146.918488,"id":"a622lvu3pt8p","state":"New South Wales"},"type":"Feature","geometry":{"type":"Point","coordinates":[146.918488,-36.081032]}},{"properties":{"city":"Castle Hill","latitude":-33.73177,"followers":2,"country":"Australia","longitude":151.003815,"id":"a622lvthnnv7","state":"New South Wales"},"type":"Feature","geometry":{"type":"Point","coordinates":[151.003815,-33.73177]}},{"properties":{"city":"Coburg","latitude":-37.74139,"followers":2,"country":"Australia","longitude":144.96727,"id":"a622lvv73t05","state":"Victoria"},"type":"Feature","geometry":{"type":"Point","coordinates":[144.96727,-37.74139]}},{"properties":{"city":"Frankston","latitude":-38.141571,"followers":2,"country":"Australia","longitude":145.121826,"id":"a622lvues6ax","state":"Victoria"},"type":"Feature","geometry":{"type":"Point","coordinates":[145.121826,-38.141571]}},{"properties":{"city":"Gippsland","latitude":-36.419399,"followers":2,"country":"Australia","longitude":148.613495,"id":"a622lvy7zh1f","state":"Victoria"},"type":"Feature","geometry":{"type":"Point","coordinates":[148.613495,-36.419399]}},{"properties":{"city":"Ipswich","latitude":-27.616489,"followers":2,"country":"Australia","longitude":152.765274,"id":"a622lvt06ntn","state":"Queensland"},"type":"Feature","geometry":{"type":"Point","coordinates":[152.765274,-27.616489]}},{"properties":{"city":"Kalgoorlie","latitude":-30.748171,"followers":2,"country":"Australia","longitude":121.471718,"id":"a622lvv46hch","state":"Western Australia"},"type":"Feature","geometry":{"type":"Point","coordinates":[121.471718,-30.748171]}},{"properties":{"city":"Mandurah","latitude":-32.534771,"followers":2,"country":"Australia","longitude":115.720444,"id":"a622lw2m5zib","state":"Western Australia"},"type":"Feature","geometry":{"type":"Point","coordinates":[115.720444,-32.534771]}},{"properties":{"city":"Moorabbin","latitude":-37.942501,"followers":2,"country":"Australia","longitude":145.060043,"id":"a622lvwbem9a","state":"Victoria"},"type":"Feature","geometry":{"type":"Point","coordinates":[145.060043,-37.942501]}},{"properties":{"city":"North Melbourne","latitude":-37.800659,"followers":2,"country":"Australia","longitude":144.947205,"id":"a622lvvcggo5","state":"Victoria"},"type":"Feature","geometry":{"type":"Point","coordinates":[144.947205,-37.800659]}},{"properties":{"city":"Paddington","latitude":-33.88213,"followers":2,"country":"Australia","longitude":151.228653,"id":"a622lvuubz8a","state":"New South Wales"},"type":"Feature","geometry":{"type":"Point","coordinates":[151.228653,-33.88213]}},{"properties":{"city":"Port Melbourne","latitude":-37.83382,"followers":2,"country":"Australia","longitude":144.924606,"id":"a622lw4fgu6n","state":"Victoria"},"type":"Feature","geometry":{"type":"Point","coordinates":[144.924606,-37.83382]}},{"properties":{"city":"Reservoir","latitude":-37.708099,"followers":2,"country":"Australia","longitude":145.000687,"id":"a622lvzc5umg","state":"Victoria"},"type":"Feature","geometry":{"type":"Point","coordinates":[145.000687,-37.708099]}},{"properties":{"city":"Subiaco","latitude":-31.946831,"followers":2,"country":"Australia","longitude":115.82399,"id":"a622lvxxs9gx","state":"Western Australia"},"type":"Feature","geometry":{"type":"Point","coordinates":[115.82399,-31.946831]}},{"properties":{"city":"Terang","latitude":-38.198601,"followers":2,"country":"Australia","longitude":142.860458,"id":"a622lw7luogr","state":"Victoria"},"type":"Feature","geometry":{"type":"Point","coordinates":[142.860458,-38.198601]}},{"properties":{"city":"Toongabbie","latitude":-38.060181,"followers":2,"country":"Australia","longitude":146.624695,"id":"a622lvtdw83l","state":"Victoria"},"type":"Feature","geometry":{"type":"Point","coordinates":[146.624695,-38.060181]}},{"properties":{"city":"Wodonga","latitude":-36.115929,"followers":2,"country":"Australia","longitude":146.891235,"id":"a622lvxi4gvp","state":"Victoria"},"type":"Feature","geometry":{"type":"Point","coordinates":[146.891235,-36.115929]}},{"properties":{"city":"Aberdeen","latitude":-30.012501,"followers":1,"country":"Australia","longitude":151.104675,"id":"a622lvwp3ivw","state":"New South Wales"},"type":"Feature","geometry":{"type":"Point","coordinates":[151.104675,-30.012501]}},{"properties":{"city":"Albert Park","latitude":-37.844269,"followers":1,"country":"Australia","longitude":144.951111,"id":"a622lvy5ax4n","state":"Victoria"},"type":"Feature","geometry":{"type":"Point","coordinates":[144.951111,-37.844269]}},{"properties":{"city":"Alberton","latitude":-34.861118,"followers":1,"country":"Australia","longitude":138.513992,"id":"a622lvygu7w3","state":"South Australia"},"type":"Feature","geometry":{"type":"Point","coordinates":[138.513992,-34.861118]}},{"properties":{"city":"Albury","latitude":-36.081032,"followers":1,"country":"Australia","longitude":146.918488,"id":"a622lvuz7ve2","state":"New South Wales"},"type":"Feature","geometry":{"type":"Point","coordinates":[146.918488,-36.081032]}},{"properties":{"city":"Alice Springs","latitude":-23.703329,"followers":1,"country":"Australia","longitude":133.880936,"id":"a622lw18jm5z","state":"Northern Territory"},"type":"Feature","geometry":{"type":"Point","coordinates":[133.880936,-23.703329]}},{"properties":{"city":"Ascot","latitude":-31.93074,"followers":1,"country":"Australia","longitude":115.943932,"id":"a622lvyuwx57","state":"Western Australia"},"type":"Feature","geometry":{"type":"Point","coordinates":[115.943932,-31.93074]}},{"properties":{"city":"Ashwood","latitude":-37.866989,"followers":1,"country":"Australia","longitude":145.103577,"id":"a622lw62hv3p","state":"Victoria"},"type":"Feature","geometry":{"type":"Point","coordinates":[145.103577,-37.866989]}},{"properties":{"city":"Bairnsdale","latitude":-37.831421,"followers":1,"country":"Australia","longitude":147.611298,"id":"a622lvxdwo75","state":"Victoria"},"type":"Feature","geometry":{"type":"Point","coordinates":[147.611298,-37.831421]}},{"properties":{"city":"Ballarat Central","latitude":-37.562351,"followers":1,"country":"Australia","longitude":143.847137,"id":"a622lw6hn3d4","state":"Victoria"},"type":"Feature","geometry":{"type":"Point","coordinates":[143.847137,-37.562351]}},{"properties":{"city":"Balmain","latitude":-33.856022,"followers":1,"country":"Australia","longitude":151.175995,"id":"a622lw60v3we","state":"New South Wales"},"type":"Feature","geometry":{"type":"Point","coordinates":[151.175995,-33.856022]}},{"properties":{"city":"Bayside","latitude":-37.944351,"followers":1,"country":"Australia","longitude":145.013687,"id":"a622lvyvhvja","state":"Victoria"},"type":"Feature","geometry":{"type":"Point","coordinates":[145.013687,-37.944351]}},{"properties":{"city":"Bentleigh","latitude":-37.91193,"followers":1,"country":"Australia","longitude":145.026962,"id":"a622lvxgjq61","state":"Victoria"},"type":"Feature","geometry":{"type":"Point","coordinates":[145.026962,-37.91193]}},{"properties":{"city":"Bentleigh East","latitude":-37.922588,"followers":1,"country":"Australia","longitude":145.070419,"id":"a622lvwoo64q","state":"Victoria"},"type":"Feature","geometry":{"type":"Point","coordinates":[145.070419,-37.922588]}},{"properties":{"city":"Blakehurst","latitude":-33.98785,"followers":1,"country":"Australia","longitude":151.111664,"id":"a622lw4jspaz","state":"New South Wales"},"type":"Feature","geometry":{"type":"Point","coordinates":[151.111664,-33.98785]}},{"properties":{"city":"Bondi","latitude":-33.893799,"followers":1,"country":"Australia","longitude":151.263,"id":"a622lvryv5b9","state":"New South Wales"},"type":"Feature","geometry":{"type":"Point","coordinates":[151.263,-33.893799]}},{"properties":{"city":"Bonogin","latitude":-28.114401,"followers":1,"country":"Australia","longitude":153.36348,"id":"a622lvt6mk2h","state":"Queensland"},"type":"Feature","geometry":{"type":"Point","coordinates":[153.36348,-28.114401]}},{"properties":{"city":"Bowral","latitude":-34.455059,"followers":1,"country":"Australia","longitude":150.385895,"id":"a622lw6dz9jm","state":"New South Wales"},"type":"Feature","geometry":{"type":"Point","coordinates":[150.385895,-34.455059]}},{"properties":{"city":"Breakfast Point","latitude":-33.842239,"followers":1,"country":"Australia","longitude":151.108856,"id":"a622lvx9gr22","state":"New South Wales"},"type":"Feature","geometry":{"type":"Point","coordinates":[151.108856,-33.842239]}},{"properties":{"city":"Broadford","latitude":-37.20668,"followers":1,"country":"Australia","longitude":145.061981,"id":"a622lw46y16p","state":"Victoria"},"type":"Feature","geometry":{"type":"Point","coordinates":[145.061981,-37.20668]}},{"properties":{"city":"Brogo","latitude":-36.501991,"followers":1,"country":"Australia","longitude":149.839539,"id":"a622lw3xkt4y","state":"New South Wales"},"type":"Feature","geometry":{"type":"Point","coordinates":[149.839539,-36.501991]}},{"properties":{"city":"Broken Hill","latitude":-31.95833,"followers":1,"country":"Australia","longitude":141.465485,"id":"a622lvw0gu6y","state":"New South Wales"},"type":"Feature","geometry":{"type":"Point","coordinates":[141.465485,-31.95833]}},{"properties":{"city":"Bruce","latitude":-35.245762,"followers":1,"country":"Australia","longitude":149.092667,"id":"a622lvzokrjb","state":"Australian Capital Territory"},"type":"Feature","geometry":{"type":"Point","coordinates":[149.092667,-35.245762]}},{"properties":{"city":"Brunswick","latitude":-37.763828,"followers":1,"country":"Australia","longitude":144.962631,"id":"a622lw6b207p","state":"Victoria"},"type":"Feature","geometry":{"type":"Point","coordinates":[144.962631,-37.763828]}},{"properties":{"city":"Bunbury","latitude":-33.321659,"followers":1,"country":"Australia","longitude":115.636909,"id":"a622lw7p8eet","state":"Western Australia"},"type":"Feature","geometry":{"type":"Point","coordinates":[115.636909,-33.321659]}},{"properties":{"city":"Bundoora","latitude":-37.701069,"followers":1,"country":"Australia","longitude":145.069702,"id":"a622lvwmz943","state":"Victoria"},"type":"Feature","geometry":{"type":"Point","coordinates":[145.069702,-37.701069]}},{"properties":{"city":"Burliegh Heads","latitude":-19.93272,"followers":1,"country":"Australia","longitude":145.774063,"id":"a622lvzb5xoy","state":"Queensland"},"type":"Feature","geometry":{"type":"Point","coordinates":[145.774063,-19.93272]}},{"properties":{"city":"Burnie","latitude":-41.05265,"followers":1,"country":"Australia","longitude":145.906357,"id":"a622lw0n0p6w","state":"Tasmania"},"type":"Feature","geometry":{"type":"Point","coordinates":[145.906357,-41.05265]}},{"properties":{"city":"Burpengary","latitude":-27.15473,"followers":1,"country":"Australia","longitude":152.970016,"id":"a622lvtpa9hs","state":"Queensland"},"type":"Feature","geometry":{"type":"Point","coordinates":[152.970016,-27.15473]}},{"properties":{"city":"Busselton","latitude":-33.652142,"followers":1,"country":"Australia","longitude":115.344818,"id":"a622lw1uvi0x","state":"Western Australia"},"type":"Feature","geometry":{"type":"Point","coordinates":[115.344818,-33.652142]}},{"properties":{"city":"Byron Bay","latitude":-28.646891,"followers":1,"country":"Australia","longitude":153.612823,"id":"a622lw56io2s","state":"New South Wales"},"type":"Feature","geometry":{"type":"Point","coordinates":[153.612823,-28.646891]}},{"properties":{"city":"Caloundra","latitude":-26.793619,"followers":1,"country":"Australia","longitude":153.124756,"id":"a622lvsjh2ea","state":"Queensland"},"type":"Feature","geometry":{"type":"Point","coordinates":[153.124756,-26.793619]}},{"properties":{"city":"Camden","latitude":-34.056381,"followers":1,"country":"Australia","longitude":150.693954,"id":"a622lw82271e","state":"New South Wales"},"type":"Feature","geometry":{"type":"Point","coordinates":[150.693954,-34.056381]}},{"properties":{"city":"Caroline Springs","latitude":-37.744991,"followers":1,"country":"Australia","longitude":144.735199,"id":"a622lvtk4erx","state":"Victoria"},"type":"Feature","geometry":{"type":"Point","coordinates":[144.735199,-37.744991]}},{"properties":{"city":"Casterton","latitude":-37.585251,"followers":1,"country":"Australia","longitude":141.403915,"id":"a622lvy9cgga","state":"Victoria"},"type":"Feature","geometry":{"type":"Point","coordinates":[141.403915,-37.585251]}},{"properties":{"city":"Chelsea","latitude":-38.048111,"followers":1,"country":"Australia","longitude":145.113953,"id":"a622lvsxxczi","state":"Victoria"},"type":"Feature","geometry":{"type":"Point","coordinates":[145.113953,-38.048111]}},{"properties":{"city":"Clare","latitude":-33.83239,"followers":1,"country":"Australia","longitude":138.610779,"id":"a622lvwv4g4k","state":"South Australia"},"type":"Feature","geometry":{"type":"Point","coordinates":[138.610779,-33.83239]}},{"properties":{"city":"Clifton Springs","latitude":-38.15757,"followers":1,"country":"Australia","longitude":144.573822,"id":"a622lw5i3ilp","state":"Victoria"},"type":"Feature","geometry":{"type":"Point","coordinates":[144.573822,-38.15757]}},{"properties":{"city":"Concord West","latitude":-33.846489,"followers":1,"country":"Australia","longitude":151.089447,"id":"a622lw87h97w","state":"New South Wales"},"type":"Feature","geometry":{"type":"Point","coordinates":[151.089447,-33.846489]}},{"properties":{"city":"Cooktown","latitude":-15.47743,"followers":1,"country":"Australia","longitude":145.249237,"id":"a622lw5gxfkp","state":"Queensland"},"type":"Feature","geometry":{"type":"Point","coordinates":[145.249237,-15.47743]}},{"properties":{"city":"Cranbourne","latitude":-38.080952,"followers":1,"country":"Australia","longitude":145.266373,"id":"a622lw23dixh","state":"Victoria"},"type":"Feature","geometry":{"type":"Point","coordinates":[145.266373,-38.080952]}},{"properties":{"city":"Cranbourne East","latitude":-38.11311,"followers":1,"country":"Australia","longitude":145.30658,"id":"a622lvzxysge","state":"Victoria"},"type":"Feature","geometry":{"type":"Point","coordinates":[145.30658,-38.11311]}},{"properties":{"city":"Cremorne","latitude":-33.829849,"followers":1,"country":"Australia","longitude":151.227356,"id":"a622lw7a62w6","state":"New South Wales"},"type":"Feature","geometry":{"type":"Point","coordinates":[151.227356,-33.829849]}},{"properties":{"city":"Cronulla","latitude":-34.055229,"followers":1,"country":"Australia","longitude":151.153366,"id":"a622lvvl92e8","state":"New South Wales"},"type":"Feature","geometry":{"type":"Point","coordinates":[151.153366,-34.055229]}},{"properties":{"city":"Croydon","latitude":-37.798908,"followers":1,"country":"Australia","longitude":145.279739,"id":"a622lvyui3mx","state":"Victoria"},"type":"Feature","geometry":{"type":"Point","coordinates":[145.279739,-37.798908]}},{"properties":{"city":"Devonport","latitude":-41.179859,"followers":1,"country":"Australia","longitude":146.348587,"id":"a622lvyb8ue7","state":"Tasmania"},"type":"Feature","geometry":{"type":"Point","coordinates":[146.348587,-41.179859]}},{"properties":{"city":"Docklands","latitude":-37.819031,"followers":1,"country":"Australia","longitude":144.946304,"id":"a622lvxenyf7","state":"Victoria"},"type":"Feature","geometry":{"type":"Point","coordinates":[144.946304,-37.819031]}},{"properties":{"city":"Doonside","latitude":-33.764561,"followers":1,"country":"Australia","longitude":150.869324,"id":"a622lvwh8u4r","state":"New South Wales"},"type":"Feature","geometry":{"type":"Point","coordinates":[150.869324,-33.764561]}},{"properties":{"city":"Drysdale","latitude":-38.153461,"followers":1,"country":"Australia","longitude":144.590103,"id":"a622lw35rt4y","state":"Victoria"},"type":"Feature","geometry":{"type":"Point","coordinates":[144.590103,-38.153461]}},{"properties":{"city":"East Bentleigh","latitude":-37.908508,"followers":1,"country":"Australia","longitude":145.088425,"id":"a622lvubn5za","state":"Victoria"},"type":"Feature","geometry":{"type":"Point","coordinates":[145.088425,-37.908508]}},{"properties":{"city":"Elizabeth Bay","latitude":-33.870331,"followers":1,"country":"Australia","longitude":151.225372,"id":"a622lvzsr337","state":"New South Wales"},"type":"Feature","geometry":{"type":"Point","coordinates":[151.225372,-33.870331]}},{"properties":{"city":"Essendon","latitude":-37.751541,"followers":1,"country":"Australia","longitude":144.909515,"id":"a622lw2hatdj","state":"Victoria"},"type":"Feature","geometry":{"type":"Point","coordinates":[144.909515,-37.751541]}},{"properties":{"city":"Fairbairn Park","latitude":-37.774342,"followers":1,"country":"Australia","longitude":144.899094,"id":"a622lvt3tclz","state":"Victoria"},"type":"Feature","geometry":{"type":"Point","coordinates":[144.899094,-37.774342]}},{"properties":{"city":"Fitzroy","latitude":-37.798389,"followers":1,"country":"Australia","longitude":144.979004,"id":"a622lvszzek2","state":"Victoria"},"type":"Feature","geometry":{"type":"Point","coordinates":[144.979004,-37.798389]}},{"properties":{"city":"Footscray","latitude":-37.791698,"followers":1,"country":"Australia","longitude":144.891251,"id":"a622lvz78jf9","state":"Victoria"},"type":"Feature","geometry":{"type":"Point","coordinates":[144.891251,-37.791698]}},{"properties":{"city":"Fremantle","latitude":-32.05286,"followers":1,"country":"Australia","longitude":115.748238,"id":"a622lvwhl4oy","state":"Western Australia"},"type":"Feature","geometry":{"type":"Point","coordinates":[115.748238,-32.05286]}},{"properties":{"city":"Geraldton","latitude":-28.7763,"followers":1,"country":"Australia","longitude":114.626068,"id":"a622lvx3od3z","state":"Western Australia"},"type":"Feature","geometry":{"type":"Point","coordinates":[114.626068,-28.7763]}},{"properties":{"city":"Gisborne","latitude":-37.487,"followers":1,"country":"Australia","longitude":144.591354,"id":"a622lvwwpjim","state":"Victoria"},"type":"Feature","geometry":{"type":"Point","coordinates":[144.591354,-37.487]}},{"properties":{"city":"Greensborough","latitude":-37.704491,"followers":1,"country":"Australia","longitude":145.102142,"id":"a622lvupdvu8","state":"Victoria"},"type":"Feature","geometry":{"type":"Point","coordinates":[145.102142,-37.704491]}},{"properties":{"city":"Greenvale","latitude":-37.63728,"followers":1,"country":"Australia","longitude":144.899277,"id":"a622lw1oz2fe","state":"Victoria"},"type":"Feature","geometry":{"type":"Point","coordinates":[144.899277,-37.63728]}},{"properties":{"city":"Gunning","latitude":-34.783009,"followers":1,"country":"Australia","longitude":149.265106,"id":"a622lvy0m7xc","state":"New South Wales"},"type":"Feature","geometry":{"type":"Point","coordinates":[149.265106,-34.783009]}},{"properties":{"city":"Hawthorn","latitude":-37.822861,"followers":1,"country":"Australia","longitude":145.035294,"id":"a622lvsahj89","state":"Victoria"},"type":"Feature","geometry":{"type":"Point","coordinates":[145.035294,-37.822861]}},{"properties":{"city":"Hillside","latitude":-37.688641,"followers":1,"country":"Australia","longitude":144.744736,"id":"a622lvtnm87x","state":"Victoria"},"type":"Feature","geometry":{"type":"Point","coordinates":[144.744736,-37.688641]}},{"properties":{"city":"Horsham","latitude":-36.71093,"followers":1,"country":"Australia","longitude":142.197372,"id":"a622lw5xjl73","state":"Victoria"},"type":"Feature","geometry":{"type":"Point","coordinates":[142.197372,-36.71093]}},{"properties":{"city":"Humpty Doo","latitude":-12.57374,"followers":1,"country":"Australia","longitude":131.109879,"id":"a622lvznyr8y","state":"Northern Territory"},"type":"Feature","geometry":{"type":"Point","coordinates":[131.109879,-12.57374]}},{"properties":{"city":"Kew","latitude":-37.807289,"followers":1,"country":"Australia","longitude":145.034485,"id":"a622lw5hhpcd","state":"Victoria"},"type":"Feature","geometry":{"type":"Point","coordinates":[145.034485,-37.807289]}},{"properties":{"city":"Kingston","latitude":-42.975609,"followers":1,"country":"Australia","longitude":147.309326,"id":"a622lw7mc4fi","state":"Tasmania"},"type":"Feature","geometry":{"type":"Point","coordinates":[147.309326,-42.975609]}},{"properties":{"city":"Langwarrin","latitude":-38.144901,"followers":1,"country":"Australia","longitude":145.204208,"id":"a622lvv5zb7p","state":"Victoria"},"type":"Feature","geometry":{"type":"Point","coordinates":[145.204208,-38.144901]}},{"properties":{"city":"Lavington","latitude":-36.043041,"followers":1,"country":"Australia","longitude":146.948975,"id":"a622lw4bv13c","state":"New South Wales"},"type":"Feature","geometry":{"type":"Point","coordinates":[146.948975,-36.043041]}},{"properties":{"city":"Liverpool","latitude":-33.922451,"followers":1,"country":"Australia","longitude":150.923096,"id":"a622lvx7fxoz","state":"New South Wales"},"type":"Feature","geometry":{"type":"Point","coordinates":[150.923096,-33.922451]}},{"properties":{"city":"Manchester","latitude":0.0,"followers":1,"country":"Australia","longitude":0.0,"id":"a622lw2iktik","state":"Victoria"},"type":"Feature","geometry":{"type":"Point","coordinates":[0.0,0.0]}},{"properties":{"city":"Maribyrnong","latitude":-37.769112,"followers":1,"country":"Australia","longitude":144.886475,"id":"a622lw4i5mo8","state":"Victoria"},"type":"Feature","geometry":{"type":"Point","coordinates":[144.886475,-37.769112]}},{"properties":{"city":"McLaren Vale","latitude":-35.215511,"followers":1,"country":"Australia","longitude":138.538147,"id":"a622lw2invxr","state":"South Australia"},"type":"Feature","geometry":{"type":"Point","coordinates":[138.538147,-35.215511]}},{"properties":{"city":"Melton","latitude":-37.683289,"followers":1,"country":"Australia","longitude":144.581894,"id":"a622lvtcsb9n","state":"Victoria"},"type":"Feature","geometry":{"type":"Point","coordinates":[144.581894,-37.683289]}},{"properties":{"city":"Mildura","latitude":-34.18605,"followers":1,"country":"Australia","longitude":142.161713,"id":"a622lvxp4zkm","state":"Victoria"},"type":"Feature","geometry":{"type":"Point","coordinates":[142.161713,-34.18605]}},{"properties":{"city":"Millicent","latitude":-37.593342,"followers":1,"country":"Australia","longitude":140.351334,"id":"a622lvwpc47a","state":"South Australia"},"type":"Feature","geometry":{"type":"Point","coordinates":[140.351334,-37.593342]}},{"properties":{"city":"Mornington","latitude":-38.217869,"followers":1,"country":"Australia","longitude":145.03743,"id":"a622lw249clc","state":"Victoria"},"type":"Feature","geometry":{"type":"Point","coordinates":[145.03743,-38.217869]}},{"properties":{"city":"Mount Gambier","latitude":-37.828159,"followers":1,"country":"Australia","longitude":140.780823,"id":"a622lw6489eg","state":"South Australia"},"type":"Feature","geometry":{"type":"Point","coordinates":[140.780823,-37.828159]}},{"properties":{"city":"Mount Waverley","latitude":-37.884258,"followers":1,"country":"Australia","longitude":145.127426,"id":"a622lvslo0k6","state":"Victoria"},"type":"Feature","geometry":{"type":"Point","coordinates":[145.127426,-37.884258]}},{"properties":{"city":"Mt Druitt","latitude":-33.765289,"followers":1,"country":"Australia","longitude":150.817276,"id":"a622lvww903c","state":"New South Wales"},"type":"Feature","geometry":{"type":"Point","coordinates":[150.817276,-33.765289]}},{"properties":{"city":"Mt Martha","latitude":-38.267551,"followers":1,"country":"Australia","longitude":145.012878,"id":"a622lw88iaz1","state":"Victoria"},"type":"Feature","geometry":{"type":"Point","coordinates":[145.012878,-38.267551]}},{"properties":{"city":"Newtown","latitude":-27.61451,"followers":1,"country":"Australia","longitude":152.772598,"id":"a622lw3tnubp","state":"Queensland"},"type":"Feature","geometry":{"type":"Point","coordinates":[152.772598,-27.61451]}},{"properties":{"city":"Noosa Heads","latitude":-26.399019,"followers":1,"country":"Australia","longitude":153.086105,"id":"a622lvuezdaf","state":"Queensland"},"type":"Feature","geometry":{"type":"Point","coordinates":[153.086105,-26.399019]}},{"properties":{"city":"North Brisbane","latitude":-27.461237,"followers":1,"country":"Australia","longitude":153.021484,"id":"a622lvvll561","state":"Queensland"},"type":"Feature","geometry":{"type":"Point","coordinates":[153.021484,-27.461237]}},{"properties":{"city":"North Sydney","latitude":-33.83989,"followers":1,"country":"Australia","longitude":151.207779,"id":"a622lw17jby8","state":"New South Wales"},"type":"Feature","geometry":{"type":"Point","coordinates":[151.207779,-33.83989]}},{"properties":{"city":"Oatley","latitude":-33.977871,"followers":1,"country":"Australia","longitude":151.073776,"id":"a622lvz8gx57","state":"New South Wales"},"type":"Feature","geometry":{"type":"Point","coordinates":[151.073776,-33.977871]}},{"properties":{"city":"Parkville","latitude":-37.793129,"followers":1,"country":"Australia","longitude":144.958176,"id":"a622lw5hekxo","state":"Victoria"},"type":"Feature","geometry":{"type":"Point","coordinates":[144.958176,-37.793129]}},{"properties":{"city":"Peakhurst","latitude":-33.962551,"followers":1,"country":"Australia","longitude":151.058105,"id":"a622lw2jc1cz","state":"New South Wales"},"type":"Feature","geometry":{"type":"Point","coordinates":[151.058105,-33.962551]}},{"properties":{"city":"Point Cook","latitude":-37.89584,"followers":1,"country":"Australia","longitude":144.753525,"id":"a622lw4mj3kl","state":"Victoria"},"type":"Feature","geometry":{"type":"Point","coordinates":[144.753525,-37.89584]}},{"properties":{"city":"Port Augusta","latitude":-32.492111,"followers":1,"country":"Australia","longitude":137.762527,"id":"a622lw1ga5zb","state":"South Australia"},"type":"Feature","geometry":{"type":"Point","coordinates":[137.762527,-32.492111]}},{"properties":{"city":"Port Fairy","latitude":-38.384609,"followers":1,"country":"Australia","longitude":142.227127,"id":"a622lvyn8r6u","state":"Victoria"},"type":"Feature","geometry":{"type":"Point","coordinates":[142.227127,-38.384609]}},{"properties":{"city":"Portland","latitude":-38.355289,"followers":1,"country":"Australia","longitude":141.614258,"id":"a622lvviubf3","state":"Victoria"},"type":"Feature","geometry":{"type":"Point","coordinates":[141.614258,-38.355289]}},{"properties":{"city":"Preston","latitude":-33.577415,"followers":1,"country":"Australia","longitude":148.658615,"id":"a622lw62afj5","state":"New South Wales"},"type":"Feature","geometry":{"type":"Point","coordinates":[148.658615,-33.577415]}},{"properties":{"city":"Princes Park","latitude":-37.78484,"followers":1,"country":"Australia","longitude":144.961517,"id":"a622lw7ldgya","state":"Victoria"},"type":"Feature","geometry":{"type":"Point","coordinates":[144.961517,-37.78484]}},{"properties":{"city":"Queanbeyan","latitude":-35.355091,"followers":1,"country":"Australia","longitude":149.232651,"id":"a622lw6audr7","state":"New South Wales"},"type":"Feature","geometry":{"type":"Point","coordinates":[149.232651,-35.355091]}},{"properties":{"city":"Raglan","latitude":-33.422489,"followers":1,"country":"Australia","longitude":149.651657,"id":"a622lw7nfi0p","state":"New South Wales"},"type":"Feature","geometry":{"type":"Point","coordinates":[149.651657,-33.422489]}},{"properties":{"city":"Red Cliffs","latitude":-34.307709,"followers":1,"country":"Australia","longitude":142.186523,"id":"a622lw79r65s","state":"Victoria"},"type":"Feature","geometry":{"type":"Point","coordinates":[142.186523,-34.307709]}},{"properties":{"city":"Riverina","latitude":-33.845314,"followers":1,"country":"Australia","longitude":151.067749,"id":"a622lvsv4xhs","state":"New South Wales"},"type":"Feature","geometry":{"type":"Point","coordinates":[151.067749,-33.845314]}},{"properties":{"city":"Rockhampton","latitude":-23.374241,"followers":1,"country":"Australia","longitude":150.503662,"id":"a622lvusb1wt","state":"Queensland"},"type":"Feature","geometry":{"type":"Point","coordinates":[150.503662,-23.374241]}},{"properties":{"city":"Sassafras","latitude":-37.86203,"followers":1,"country":"Australia","longitude":145.354309,"id":"a622lvz4b36r","state":"Victoria"},"type":"Feature","geometry":{"type":"Point","coordinates":[145.354309,-37.86203]}},{"properties":{"city":"Seven Hills","latitude":-33.77597,"followers":1,"country":"Australia","longitude":150.933884,"id":"a622lw52hntb","state":"New South Wales"},"type":"Feature","geometry":{"type":"Point","coordinates":[150.933884,-33.77597]}},{"properties":{"city":"Shepparton","latitude":-36.381401,"followers":1,"country":"Australia","longitude":145.401749,"id":"a622lw2i15vp","state":"Victoria"},"type":"Feature","geometry":{"type":"Point","coordinates":[145.401749,-36.381401]}},{"properties":{"city":"Somerville","latitude":-38.22234,"followers":1,"country":"Australia","longitude":145.17453,"id":"a622lw5d3qzr","state":"Victoria"},"type":"Feature","geometry":{"type":"Point","coordinates":[145.17453,-38.22234]}},{"properties":{"city":"South Caulfield","latitude":-37.910824,"followers":1,"country":"Australia","longitude":145.061035,"id":"a622lw6wrov5","state":"Victoria"},"type":"Feature","geometry":{"type":"Point","coordinates":[145.061035,-37.910824]}},{"properties":{"city":"South Perth","latitude":-31.97521,"followers":1,"country":"Australia","longitude":115.855759,"id":"a622lvtodndh","state":"Western Australia"},"type":"Feature","geometry":{"type":"Point","coordinates":[115.855759,-31.97521]}},{"properties":{"city":"Southbank","latitude":-37.825401,"followers":1,"country":"Australia","longitude":144.960709,"id":"a622lw0c3py6","state":"Victoria"},"type":"Feature","geometry":{"type":"Point","coordinates":[144.960709,-37.825401]}},{"properties":{"city":"Southland","latitude":0.0,"followers":1,"country":"Australia","longitude":0.0,"id":"a622lvsiodyv","state":"Victoria"},"type":"Feature","geometry":{"type":"Point","coordinates":[0.0,0.0]}},{"properties":{"city":"Stonnington","latitude":-37.861622,"followers":1,"country":"Australia","longitude":145.036102,"id":"a622lw0lubxl","state":"Victoria"},"type":"Feature","geometry":{"type":"Point","coordinates":[145.036102,-37.861622]}},{"properties":{"city":"Sunshine","latitude":-37.787601,"followers":1,"country":"Australia","longitude":144.832458,"id":"a622lvz4v4zy","state":"Victoria"},"type":"Feature","geometry":{"type":"Point","coordinates":[144.832458,-37.787601]}},{"properties":{"city":"Sunshine Coast","latitude":-26.544279,"followers":1,"country":"Australia","longitude":153.025314,"id":"a622lvsfbxie","state":"Queensland"},"type":"Feature","geometry":{"type":"Point","coordinates":[153.025314,-26.544279]}},{"properties":{"city":"Sydenham","latitude":-37.701809,"followers":1,"country":"Australia","longitude":144.763428,"id":"a622lw17ewon","state":"Victoria"},"type":"Feature","geometry":{"type":"Point","coordinates":[144.763428,-37.701809]}},{"properties":{"city":"Tamworth","latitude":-31.090639,"followers":1,"country":"Australia","longitude":150.928528,"id":"a622lw2q2qew","state":"New South Wales"},"type":"Feature","geometry":{"type":"Point","coordinates":[150.928528,-31.090639]}},{"properties":{"city":"Toronto","latitude":-33.011379,"followers":1,"country":"Australia","longitude":151.585083,"id":"a622lw10soub","state":"New South Wales"},"type":"Feature","geometry":{"type":"Point","coordinates":[151.585083,-33.011379]}},{"properties":{"city":"Torquay","latitude":-25.291929,"followers":1,"country":"Australia","longitude":152.869263,"id":"a622lvtn1pk7","state":"Queensland"},"type":"Feature","geometry":{"type":"Point","coordinates":[152.869263,-25.291929]}},{"properties":{"city":"Torquay","latitude":-38.329899,"followers":1,"country":"Australia","longitude":144.318115,"id":"a622lvx9385k","state":"Victoria"},"type":"Feature","geometry":{"type":"Point","coordinates":[144.318115,-38.329899]}},{"properties":{"city":"Townsville","latitude":-19.257231,"followers":1,"country":"Australia","longitude":146.82106,"id":"a622lvrzrhh8","state":"Queensland"},"type":"Feature","geometry":{"type":"Point","coordinates":[146.82106,-19.257231]}},{"properties":{"city":"Traralgon","latitude":-38.19495,"followers":1,"country":"Australia","longitude":146.538147,"id":"a622lw0rgn5j","state":"Victoria"},"type":"Feature","geometry":{"type":"Point","coordinates":[146.538147,-38.19495]}},{"properties":{"city":"Unely","latitude":-32.0289,"followers":1,"country":"Australia","longitude":135.002151,"id":"a622lvweyjlc","state":"South Australia"},"type":"Feature","geometry":{"type":"Point","coordinates":[135.002151,-32.0289]}},{"properties":{"city":"Wagin","latitude":-33.308632,"followers":1,"country":"Australia","longitude":117.344254,"id":"a622lw5rey64","state":"Western Australia"},"type":"Feature","geometry":{"type":"Point","coordinates":[117.344254,-33.308632]}},{"properties":{"city":"Wamberal","latitude":-33.418209,"followers":1,"country":"Australia","longitude":151.443146,"id":"a622lvtkolps","state":"New South Wales"},"type":"Feature","geometry":{"type":"Point","coordinates":[151.443146,-33.418209]}},{"properties":{"city":"Warnbro","latitude":-32.347172,"followers":1,"country":"Australia","longitude":115.759552,"id":"a622lvzbmm6v","state":"Western Australia"},"type":"Feature","geometry":{"type":"Point","coordinates":[115.759552,-32.347172]}},{"properties":{"city":"Warner","latitude":-27.31312,"followers":1,"country":"Australia","longitude":152.949738,"id":"a622lw2ktzvr","state":"Queensland"},"type":"Feature","geometry":{"type":"Point","coordinates":[152.949738,-27.31312]}},{"properties":{"city":"Warragul","latitude":-38.143978,"followers":1,"country":"Australia","longitude":145.938614,"id":"a622lw85rrri","state":"Victoria"},"type":"Feature","geometry":{"type":"Point","coordinates":[145.938614,-38.143978]}},{"properties":{"city":"Werribee","latitude":-37.903671,"followers":1,"country":"Australia","longitude":144.659668,"id":"a622lw1al4jz","state":"Victoria"},"type":"Feature","geometry":{"type":"Point","coordinates":[144.659668,-37.903671]}},{"properties":{"city":"Whittlesea","latitude":-37.511532,"followers":1,"country":"Australia","longitude":145.118118,"id":"a622lvs6j8t1","state":"Victoria"},"type":"Feature","geometry":{"type":"Point","coordinates":[145.118118,-37.511532]}},{"properties":{"city":"Whyalla","latitude":-33.025879,"followers":1,"country":"Australia","longitude":137.573303,"id":"a622lw869h70","state":"South Australia"},"type":"Feature","geometry":{"type":"Point","coordinates":[137.573303,-33.025879]}},{"properties":{"city":"Williamstown","latitude":-37.861511,"followers":1,"country":"Australia","longitude":144.902588,"id":"a622lw1493i1","state":"Victoria"},"type":"Feature","geometry":{"type":"Point","coordinates":[144.902588,-37.861511]}},{"properties":{"city":"Willoughby","latitude":-33.807331,"followers":1,"country":"Australia","longitude":151.199387,"id":"a622lw5o6may","state":"New South Wales"},"type":"Feature","geometry":{"type":"Point","coordinates":[151.199387,-33.807331]}},{"properties":{"city":"Woy Woy","latitude":-33.492901,"followers":1,"country":"Australia","longitude":151.327469,"id":"a622lvzbtx4z","state":"New South Wales"},"type":"Feature","geometry":{"type":"Point","coordinates":[151.327469,-33.492901]}},{"properties":{"city":"Yarraville","latitude":-37.816509,"followers":1,"country":"Australia","longitude":144.889435,"id":"a622lvzk9o5b","state":"Victoria"},"type":"Feature","geometry":{"type":"Point","coordinates":[144.889435,-37.816509]}},{"properties":{"city":"Yeronga","latitude":-27.51055,"followers":1,"country":"Australia","longitude":153.008545,"id":"a622lw0g6o2d","state":"Queensland"},"type":"Feature","geometry":{"type":"Point","coordinates":[153.008545,-27.51055]}},{"properties":{"city":"Young","latitude":-34.243179,"followers":1,"country":"Australia","longitude":148.188156,"id":"a622lw6nleuk","state":"New South Wales"},"type":"Feature","geometry":{"type":"Point","coordinates":[148.188156,-34.243179]}}],"is_temporal":false,"author":{"url":"","metadata":"","contact_name":"","contact_address":"","source":"","contact_phone":""},"source":"","pagination":{"sort":null,"start":0,"total":171,"limit":1000000},"state":"complete","tags":"gwsgiants","published":"2014-08-10T20:16:41-04:00","id":86666}