{"type":"FeatureCollection","data_type":"Dataset","url_type":null,"permissions":[{"permissions":{"download":true,"view":true},"group_id":"everyone"}],"classification":null,"title":"publiclibraries.com, Alabama Public Libraries, Alabama, 1.2008","count":286,"stream_id":873,"contributor":{"url":"http://geocommons.com/users/2","name":"data"},"data_attributes":null,"calculation_params":null,"icon_link":null,"link":"http://geocommons.com/overlays/873.json","extent":[-88.2934,30.2723,-85.0161,34.9678],"geometry_types":["point"],"unique_name":null,"name":"publiclibraries.com, Alabama Public Libraries, Alabama, 1.2008","feature_count":286,"description":"This dataset displays the locations of all the public libraries in the state of Alabama. The data included is the name of the library, name of the library system, library's address, phone, and lat/lon coordinates. The data came from publiclibraries.com which is a updated directory of all the public libraries throughout the United States.\n","next_feature":null,"is_raster":false,"short_classification":"Y","stats":{"latitude":{"max":34.967767,"mean":33.0172587412587,"variance":1.53832441661278,"stdev":1.24029206907598,"min":30.272334,"median":33.377499},"longitude":{"max":-85.016107,"mean":-86.7606939125874,"variance":0.655516811684971,"stdev":0.809639927180578,"min":-88.293425,"median":-86.753559}},"features":[{"properties":{"city":"Abbeville","latitude":31.567151,"librarysystem":"Abbeville Memorial Library","longitude":-85.250302,"id":"a672oufr741g","address":"301 Kirkland Street","libraryname":"Abbeville Memorial Library","state":"AL"},"type":"Feature","geometry":{"type":"Point","coordinates":[-85.250302,31.567151]}},{"properties":{"city":"Adamsville","latitude":33.600355,"librarysystem":"Adamsville Public Library","longitude":-86.953705,"id":"a672oud3wzn7","address":"4825 Main Street","libraryname":"Adamsville Public Library","state":"AL"},"type":"Feature","geometry":{"type":"Point","coordinates":[-86.953705,33.600355]}},{"properties":{"city":"Alexander City","latitude":32.942982,"librarysystem":"Adelia McConnell Russell Library","longitude":-85.953704,"id":"a672ou41yz2o","address":"318 Church Street","libraryname":"Adelia McConnell Russell Library","state":"AL"},"type":"Feature","geometry":{"type":"Point","coordinates":[-85.953704,32.942982]}},{"properties":{"city":"Akron","latitude":32.878685,"librarysystem":"Akron Public Library","longitude":-87.743749,"id":"a672ou7f80sm","address":"Oak Street","libraryname":"Akron Public Library","state":"AL"},"type":"Feature","geometry":{"type":"Point","coordinates":[-87.743749,32.878685]}},{"properties":{"city":"Alabaster","latitude":33.244234,"librarysystem":"Albert L. Scott Library","longitude":-86.826689,"id":"a672ou1inon9","address":"100 9th Street NW","libraryname":"Albert L. Scott Library","state":"AL"},"type":"Feature","geometry":{"type":"Point","coordinates":[-86.826689,33.244234]}},{"properties":{"city":"Albertville","latitude":34.264358,"librarysystem":"Albertville Public Library","longitude":-86.202988,"id":"a672ou46noze","address":"200 Jackson Street","libraryname":"Albertville Public Library","state":"AL"},"type":"Feature","geometry":{"type":"Point","coordinates":[-86.202988,34.264358]}},{"properties":{"city":"Aliceville","latitude":33.129139,"librarysystem":"Aliceville Public Library","longitude":-88.147822,"id":"a672ou13sjmq","address":"416 3rd Avenue NE","libraryname":"Aliceville Public Library","state":"AL"},"type":"Feature","geometry":{"type":"Point","coordinates":[-88.147822,33.129139]}},{"properties":{"city":"Andalusia","latitude":31.306727,"librarysystem":"Andalusia Public Library","longitude":-86.483108,"id":"a672ou3kdmwz","address":"212 South Three Notch Street","libraryname":"Andalusia Public Library","state":"AL"},"type":"Feature","geometry":{"type":"Point","coordinates":[-86.483108,31.306727]}},{"properties":{"city":"Roanoke","latitude":33.14934,"librarysystem":"Annie L. Awbrey Public Library","longitude":-85.362464,"id":"a672ouapyk6b","address":"736 College Street","libraryname":"Annie L. Awbrey Public Library","state":"AL"},"type":"Feature","geometry":{"type":"Point","coordinates":[-85.362464,33.14934]}},{"properties":{"city":"Anniston","latitude":33.656952,"librarysystem":"Anniston-Calhoun County Public Library","longitude":-85.828147,"id":"a672ou3d5ymw","address":"108 East 10th Street","libraryname":"Anniston-Calhoun County Public Library","state":"AL"},"type":"Feature","geometry":{"type":"Point","coordinates":[-85.828147,33.656952]}},{"properties":{"city":"Arab","latitude":34.320349,"librarysystem":"Arab Public Library","longitude":-86.497076,"id":"a672ou1xh1yf","address":"325 2nd Street NW","libraryname":"Arab Public Library","state":"AL"},"type":"Feature","geometry":{"type":"Point","coordinates":[-86.497076,34.320349]}},{"properties":{"city":"Ariton","latitude":31.599905,"librarysystem":"Ariton-Dot Laney Memorial Library","longitude":-85.720938,"id":"a672ou1424ho","address":"30 West Main Street","libraryname":"Ariton - Dot Laney Memorial Library","state":"AL"},"type":"Feature","geometry":{"type":"Point","coordinates":[-85.720938,31.599905]}},{"properties":{"city":"Arley","latitude":34.078806,"librarysystem":"Arley Public Library","longitude":-87.212411,"id":"a672ouchgppc","address":"Town Hall","libraryname":"Arley Public Library","state":"AL"},"type":"Feature","geometry":{"type":"Point","coordinates":[-87.212411,34.078806]}},{"properties":{"city":"Ashford","latitude":31.18266,"librarysystem":"Houston-Love Memorial Library","longitude":-85.233714,"id":"a672oua53trt","address":"Sixth Avenue","libraryname":"Ashford Branch Library","state":"AL"},"type":"Feature","geometry":{"type":"Point","coordinates":[-85.233714,31.18266]}},{"properties":{"city":"Ashland","latitude":33.279178,"librarysystem":"Ashland City Public Library","longitude":-85.823095,"id":"a672otzmdqpv","address":"113 North 2nd Avenue, W","libraryname":"Ashland City Public Library","state":"AL"},"type":"Feature","geometry":{"type":"Point","coordinates":[-85.823095,33.279178]}},{"properties":{"city":"Ashville","latitude":33.836515,"librarysystem":"Ashville Public Library","longitude":-86.255174,"id":"a672ou5eg7n5","address":"6th Avenue","libraryname":"Ashville Public Library","state":"AL"},"type":"Feature","geometry":{"type":"Point","coordinates":[-86.255174,33.836515]}},{"properties":{"city":"Athens","latitude":34.799942,"librarysystem":"Athens-Limestone Public Library","longitude":-86.965656,"id":"a672ou437g9n","address":"405 East South Street","libraryname":"Athens-Limestone Public Library","state":"AL"},"type":"Feature","geometry":{"type":"Point","coordinates":[-86.965656,34.799942]}},{"properties":{"city":"Atmore","latitude":31.022523,"librarysystem":"Atmore Public Library","longitude":-87.486359,"id":"a672ou4xrh55","address":"700 East Church Street","libraryname":"Atmore Public Library","state":"AL"},"type":"Feature","geometry":{"type":"Point","coordinates":[-87.486359,31.022523]}},{"properties":{"city":"Attalla","latitude":34.023957,"librarysystem":"Attalla-Etowah County Public Library","longitude":-86.087975,"id":"a672ou58k6xw","address":"604 North 4th Street","libraryname":"Attalla-Etowah County Public Library","state":"AL"},"type":"Feature","geometry":{"type":"Point","coordinates":[-86.087975,34.023957]}},{"properties":{"city":"Auburn","latitude":32.604546,"librarysystem":"Auburn Public Library","longitude":-85.465937,"id":"a672ou3q0aq6","address":"749 E. Thach Ave.","libraryname":"Auburn Public Library","state":"AL"},"type":"Feature","geometry":{"type":"Point","coordinates":[-85.465937,32.604546]}},{"properties":{"city":"Prattville","latitude":32.461865,"librarysystem":"Autauga - Prattville Public Library","longitude":-86.450699,"id":"a672ou2sikuf","address":"254 Doster Streeet","libraryname":"Autauga - Prattville Public Library","state":"AL"},"type":"Feature","geometry":{"type":"Point","coordinates":[-86.450699,32.461865]}},{"properties":{"city":"Autaugaville","latitude":32.432903,"librarysystem":"Autauga - Prattville Public Library","longitude":-86.658344,"id":"a672ou1edw6j","address":"207 Taylor Street","libraryname":"Autaugaville Public Library","state":"AL"},"type":"Feature","geometry":{"type":"Point","coordinates":[-86.658344,32.432903]}},{"properties":{"city":"Birmingham","latitude":33.52098,"librarysystem":"Birmingham Public Library","longitude":-86.774266,"id":"a672ouafm640","address":"509 40th Street South","libraryname":"Avondale Branch Library","state":"AL"},"type":"Feature","geometry":{"type":"Point","coordinates":[-86.774266,33.52098]}},{"properties":{"city":"Sylacauga","latitude":33.171809,"librarysystem":"B.B. Corner Memorial Library","longitude":-86.250594,"id":"a672ou2k0qk9","address":"314 North Broadway Avenue","libraryname":"B.B. Corner Memorial Library","state":"AL"},"type":"Feature","geometry":{"type":"Point","coordinates":[-86.250594,33.171809]}},{"properties":{"city":"Huntsville","latitude":34.643859,"librarysystem":"Huntsville-Madison County Public Library","longitude":-86.540428,"id":"a672ou49ktwo","address":"1409 Weatherly Plaza","libraryname":"Bailey Cove Branch Library","state":"AL"},"type":"Feature","geometry":{"type":"Point","coordinates":[-86.540428,34.643859]}},{"properties":{"city":"Robertsdale","latitude":30.556567,"librarysystem":"Baldwin County Library Cooperative","longitude":-87.711995,"id":"a672oucwd30z","address":"22743 Milwaukee Street","libraryname":"Baldwin County Library Cooperative","state":"AL"},"type":"Feature","geometry":{"type":"Point","coordinates":[-87.711995,30.556567]}},{"properties":{"city":"Bay Minette","latitude":30.882692,"librarysystem":"Bay Minette Public Library","longitude":-87.775424,"id":"a672ou1zgdz5","address":"205 West Second Street","libraryname":"Bay Minette Public Library","state":"AL"},"type":"Feature","geometry":{"type":"Point","coordinates":[-87.775424,30.882692]}},{"properties":{"city":"Bessemer","latitude":33.403169,"librarysystem":"Bessemer Public Library","longitude":-86.954759,"id":"a672ou3utwn2","address":"400 North 19th Street","libraryname":"Bessemer Public Library","state":"AL"},"type":"Feature","geometry":{"type":"Point","coordinates":[-86.954759,33.403169]}},{"properties":{"city":"Huntsville","latitude":34.761602,"librarysystem":"Huntsville-Madison County Public Library","longitude":-86.609842,"id":"a672ou1dxa9u","address":"3011-C Sparkman Drive","libraryname":"Bessie K. Russell Branch Library","state":"AL"},"type":"Feature","geometry":{"type":"Point","coordinates":[-86.609842,34.761602]}},{"properties":{"city":"Billingsley","latitude":32.659697,"librarysystem":"Autauga - Prattville Public Library","longitude":-86.718094,"id":"a672ou8zb220","address":"2021 Post Office Street","libraryname":"Billingsley Public Library","state":"AL"},"type":"Feature","geometry":{"type":"Point","coordinates":[-86.718094,32.659697]}},{"properties":{"city":"Birmingham","latitude":33.520705,"librarysystem":"Birmingham Public Library","longitude":-86.80786,"id":"a672oublphfy","address":"2100 Park Place","libraryname":"Birmingham Public Library","state":"AL"},"type":"Feature","geometry":{"type":"Point","coordinates":[-86.80786,33.520705]}},{"properties":{"city":"Headland","latitude":31.351722,"librarysystem":"Blanche R. Solomon Memorial Library","longitude":-85.341771,"id":"a672ou3kmqiv","address":"17 Park Street","libraryname":"Blanche R. Solomon Memorial Library","state":"AL"},"type":"Feature","geometry":{"type":"Point","coordinates":[-85.341771,31.351722]}},{"properties":{"city":"Blountsville","latitude":34.079038,"librarysystem":"Blountsville Public Library","longitude":-86.590321,"id":"a672ou98dhyy","address":"65 Chestnut Street","libraryname":"Blountsville Public Library","state":"AL"},"type":"Feature","geometry":{"type":"Point","coordinates":[-86.590321,34.079038]}},{"properties":{"city":"Huntsville","latitude":34.783009,"librarysystem":"Huntsville-Madison County Public Library","longitude":-86.598519,"id":"a672ouaprjk5","address":"4600 Blue Spring Road","libraryname":"Blue Spring Branch","state":"AL"},"type":"Feature","geometry":{"type":"Point","coordinates":[-86.598519,34.783009]}},{"properties":{"city":"Boaz","latitude":34.200857,"librarysystem":"Boaz Public Library","longitude":-86.161008,"id":"a672oueb8ei3","address":"407 Thomas Avenue","libraryname":"Boaz Public Library","state":"AL"},"type":"Feature","geometry":{"type":"Point","coordinates":[-86.161008,34.200857]}},{"properties":{"city":"Brantley","latitude":31.58549,"librarysystem":"Brantley Public Library","longitude":-86.257169,"id":"a672ou6p6rlp","address":"9273 North Main Street","libraryname":"Brantley Public Library","state":"AL"},"type":"Feature","geometry":{"type":"Point","coordinates":[-86.257169,31.58549]}},{"properties":{"city":"Centreville","latitude":32.947139,"librarysystem":"Brent-Centreville Public Library","longitude":-87.151037,"id":"a672ou3wj45p","address":"20 Library Street","libraryname":"Brent-Centreville Public Library","state":"AL"},"type":"Feature","geometry":{"type":"Point","coordinates":[-87.151037,32.947139]}},{"properties":{"city":"Brewton","latitude":31.120399,"librarysystem":"Brewton Public Library","longitude":-87.06942,"id":"a672ouermxxb","address":"206 West Jackson Street","libraryname":"Brewton Public Library","state":"AL"},"type":"Feature","geometry":{"type":"Point","coordinates":[-87.06942,31.120399]}},{"properties":{"city":"Bridgeport","latitude":34.947259,"librarysystem":"Bridgeport Public Library","longitude":-85.717906,"id":"a672oua8wcvm","address":"401 Alabama Avenue","libraryname":"Bridgeport Public Library","state":"AL"},"type":"Feature","geometry":{"type":"Point","coordinates":[-85.717906,34.947259]}},{"properties":{"city":"Calera","latitude":33.102044,"librarysystem":"Calera Public Library","longitude":-86.753559,"id":"a672ou2tn229","address":"1241 17th Avenue","libraryname":"Calera Public Library","state":"AL"},"type":"Feature","geometry":{"type":"Point","coordinates":[-86.753559,33.102044]}},{"properties":{"city":"Carbon Hill","latitude":33.890841,"librarysystem":"Carbon Hill City Library","longitude":-87.523029,"id":"a672oue5nuy1","address":"414 NW 5th Avenue","libraryname":"Carbon Hill City Library","state":"AL"},"type":"Feature","geometry":{"type":"Point","coordinates":[-87.523029,33.890841]}},{"properties":{"city":"Jasper","latitude":33.833484,"librarysystem":"Carl Elliott Regional Library","longitude":-87.27399,"id":"a672ou4k0box","address":"98 East 18th Street","libraryname":"Carl Elliott Regional Library","state":"AL"},"type":"Feature","geometry":{"type":"Point","coordinates":[-87.27399,33.833484]}},{"properties":{"city":"Carrollton","latitude":33.258072,"librarysystem":"Carrollton Public Library","longitude":-88.094318,"id":"a672oue3ve76","address":"225 Commerce Ave","libraryname":"Carrollton Public Library","state":"AL"},"type":"Feature","geometry":{"type":"Point","coordinates":[-88.094318,33.258072]}},{"properties":{"city":"Anniston","latitude":33.662261,"librarysystem":"Anniston-Calhoun County Public Library","longitude":-85.83847,"id":"a672ou9ay236","address":"722 West 14th Street","libraryname":"Carver Branch Library","state":"AL"},"type":"Feature","geometry":{"type":"Point","coordinates":[-85.83847,33.662261]}},{"properties":{"city":"Gadsden","latitude":34.024127,"librarysystem":"Gadsden Public Library","longitude":-86.013829,"id":"a672ou8srtuc","address":"1030 Tuscaloosa Avenue","libraryname":"Carver Memorial Library","state":"AL"},"type":"Feature","geometry":{"type":"Point","coordinates":[-86.013829,34.024127]}},{"properties":{"city":"Heflin","latitude":33.643333,"librarysystem":"Cheaha Regional Library","longitude":-85.580581,"id":"a672ou6atpry","address":"935 Coleman Street","libraryname":"Cheaha Regional Library","state":"AL"},"type":"Feature","geometry":{"type":"Point","coordinates":[-85.580581,33.643333]}},{"properties":{"city":"Chelsea","latitude":33.340168,"librarysystem":"Chelsea Public Library","longitude":-86.630229,"id":"a672oub9k3h3","address":"11611 Chelsea Road","libraryname":"Chelsea Public Library","state":"AL"},"type":"Feature","geometry":{"type":"Point","coordinates":[-86.630229,33.340168]}},{"properties":{"city":"Centre","latitude":34.149158,"librarysystem":"Cherokee County Public Library","longitude":-85.676348,"id":"a672ou2nstxn","address":"310 Mary Street","libraryname":"Cherokee County Public Library","state":"AL"},"type":"Feature","geometry":{"type":"Point","coordinates":[-85.676348,34.149158]}},{"properties":{"city":"Cherokee","latitude":34.754935,"librarysystem":"Cherokee Public Library","longitude":-87.973745,"id":"a672ou51nogj","address":"75 Main Street","libraryname":"Cherokee Public Library","state":"AL"},"type":"Feature","geometry":{"type":"Point","coordinates":[-87.973745,34.754935]}},{"properties":{"city":"Clanton","latitude":32.840786,"librarysystem":"Chilton-Clanton Public Library","longitude":-86.624553,"id":"a672ou0eewts","address":"100 First Avenue","libraryname":"Chilton-Clanton Public Library","state":"AL"},"type":"Feature","geometry":{"type":"Point","coordinates":[-86.624553,32.840786]}},{"properties":{"city":"Butler","latitude":32.090153,"librarysystem":"Choctaw County Public Library","longitude":-88.219977,"id":"a672ou3eitut","address":"124 North Academy Avenue","libraryname":"Choctaw County Public Library","state":"AL"},"type":"Feature","geometry":{"type":"Point","coordinates":[-88.219977,32.090153]}},{"properties":{"city":"Citronelle","latitude":31.09078,"librarysystem":"Citronelle Memorial Library","longitude":-88.228168,"id":"a672otzwazdc","address":"7855 State Street","libraryname":"Citronelle Memorial Library","state":"AL"},"type":"Feature","geometry":{"type":"Point","coordinates":[-88.228168,31.09078]}},{"properties":{"city":"Hamilton","latitude":34.143115,"librarysystem":"Clyde Nix Public Library","longitude":-87.991517,"id":"a672ouesoq6x","address":"350 Bexar Avenue W","libraryname":"Clyde Nix Public Library","state":"AL"},"type":"Feature","geometry":{"type":"Point","coordinates":[-87.991517,34.143115]}},{"properties":{"city":"Montgomery","latitude":32.400408,"librarysystem":"Montgomery City-County Public Library","longitude":-86.259465,"id":"a672ou0a7at3","address":"840 Coliseum Boulevard","libraryname":"Coliseum Boulevard Branch","state":"AL"},"type":"Feature","geometry":{"type":"Point","coordinates":[-86.259465,32.400408]}},{"properties":{"city":"Collinsville","latitude":34.255203,"librarysystem":"Collinsville Public Library","longitude":-85.86019,"id":"a672ou31ic7p","address":"4299 Alabama Highway 68","libraryname":"Collinsville Public Library","state":"AL"},"type":"Feature","geometry":{"type":"Point","coordinates":[-85.86019,34.255203]}},{"properties":{"city":"Columbiana","latitude":33.18208,"librarysystem":"Columbiana Public Library","longitude":-86.608564,"id":"a672ou1rlmo1","address":"Lester Street","libraryname":"Columbiana Public Library","state":"AL"},"type":"Feature","geometry":{"type":"Point","coordinates":[-86.608564,33.18208]}},{"properties":{"city":"Cordova","latitude":33.754915,"librarysystem":"Cordova Public Library","longitude":-87.182199,"id":"a672ou0rwztj","address":"130 Main Street","libraryname":"Cordova Public Library","state":"AL"},"type":"Feature","geometry":{"type":"Point","coordinates":[-87.182199,33.754915]}},{"properties":{"city":"Courtland","latitude":34.665961,"librarysystem":"Courtland Public Library","longitude":-87.310559,"id":"a672oubdqi50","address":"215 College Street","libraryname":"Courtland Public Library","state":"AL"},"type":"Feature","geometry":{"type":"Point","coordinates":[-87.310559,34.665961]}},{"properties":{"city":"Crane Hill","latitude":34.097021,"librarysystem":"Cullman County Public Library System","longitude":-87.053973,"id":"a672ou13154a","address":"14538 County Rd. 222","libraryname":"Crane Hill Community Library","state":"AL"},"type":"Feature","geometry":{"type":"Point","coordinates":[-87.053973,34.097021]}},{"properties":{"city":"Opp","latitude":31.303603,"librarysystem":"Cross Trails Regional Library","longitude":-86.25494,"id":"a672ouabir5d","address":"1604 North Main Street","libraryname":"Cross Trails Regional Library","state":"AL"},"type":"Feature","geometry":{"type":"Point","coordinates":[-86.25494,31.303603]}},{"properties":{"city":"Crossville","latitude":34.286775,"librarysystem":"Crossville Public Library","longitude":-85.992946,"id":"a672ou4ii765","address":"80 Gaines Street","libraryname":"Crossville Public Library","state":"AL"},"type":"Feature","geometry":{"type":"Point","coordinates":[-85.992946,34.286775]}},{"properties":{"city":"Cullman","latitude":34.179592,"librarysystem":"Cullman County Public Library System","longitude":-86.841128,"id":"a672ou79ih1n","address":"200 Clark Street Ne","libraryname":"Cullman County Public Library System","state":"AL"},"type":"Feature","geometry":{"type":"Point","coordinates":[-86.841128,34.179592]}},{"properties":{"city":"Dadeville","latitude":32.832797,"librarysystem":"Dadeville Public Library","longitude":-85.765303,"id":"a672oueeetsj","address":"205 North West Street","libraryname":"Dadeville Public Library","state":"AL"},"type":"Feature","geometry":{"type":"Point","coordinates":[-85.765303,32.832797]}},{"properties":{"city":"Daleville","latitude":31.317195,"librarysystem":"Daleville Public Library","longitude":-85.710183,"id":"a672oucfnq5q","address":"200 Warhawk Drive","libraryname":"Daleville Public Library","state":"AL"},"type":"Feature","geometry":{"type":"Point","coordinates":[-85.710183,31.317195]}},{"properties":{"city":"Daphne","latitude":30.61848,"librarysystem":"Daphne Public Library","longitude":-87.908629,"id":"a672ou0uf47s","address":"618 Whispering Pines Road","libraryname":"Daphne Public Library","state":"AL"},"type":"Feature","geometry":{"type":"Point","coordinates":[-87.908629,30.61848]}},{"properties":{"city":"Mobile","latitude":30.631332,"librarysystem":"Mobile Public Library","longitude":-88.089125,"id":"a672ouaw6jmr","address":"1924j Dauphin Island Parkway","libraryname":"Dauphin Island Parkway Branch","state":"AL"},"type":"Feature","geometry":{"type":"Point","coordinates":[-88.089125,30.631332]}},{"properties":{"city":"Decatur","latitude":34.607154,"librarysystem":"Decatur Public Library","longitude":-86.981558,"id":"a672oufjl2mq","address":"504 Cherry Street NE","libraryname":"Decatur Public Library","state":"AL"},"type":"Feature","geometry":{"type":"Point","coordinates":[-86.981558,34.607154]}},{"properties":{"city":"Fort Payne","latitude":34.458766,"librarysystem":"Dekalb County Public Library","longitude":-85.708712,"id":"a672ouafh940","address":"504 Grand Avenue NW","libraryname":"Dekalb County Public Library","state":"AL"},"type":"Feature","geometry":{"type":"Point","coordinates":[-85.708712,34.458766]}},{"properties":{"city":"Demopolis","latitude":32.51746,"librarysystem":"Demopolis Public Library","longitude":-87.833616,"id":"a672oublrvin","address":"211 East Washington Street","libraryname":"Demopolis Public Library","state":"AL"},"type":"Feature","geometry":{"type":"Point","coordinates":[-87.833616,32.51746]}},{"properties":{"city":"Dora","latitude":33.739735,"librarysystem":"Dora Public Library","longitude":-87.078909,"id":"a672oueggr1n","address":"1485 Sharon Blvd","libraryname":"Dora Public Library","state":"AL"},"type":"Feature","geometry":{"type":"Point","coordinates":[-87.078909,33.739735]}},{"properties":{"city":"Moody","latitude":33.589734,"librarysystem":"Doris Stanley Memorial Library","longitude":-86.492384,"id":"a672ou9gyw24","address":"2900 Daniel Drive","libraryname":"Doris Stanley Memorial Library","state":"AL"},"type":"Feature","geometry":{"type":"Point","coordinates":[-86.492384,33.589734]}},{"properties":{"city":"Double Springs","latitude":34.147108,"librarysystem":"Double Springs Public Library","longitude":-87.383665,"id":"a672ou2b4t7v","address":"Blake Drive","libraryname":"Double Springs Public Library","state":"AL"},"type":"Feature","geometry":{"type":"Point","coordinates":[-87.383665,34.147108]}},{"properties":{"city":"Montgomery","latitude":32.326934,"librarysystem":"Montgomery City-County Public Library","longitude":-86.195756,"id":"a672ou7u0guq","address":"3950 Bell Road","libraryname":"E. L. Lowder Branch","state":"AL"},"type":"Feature","geometry":{"type":"Point","coordinates":[-86.195756,32.326934]}},{"properties":{"city":"Childersburg","latitude":33.277604,"librarysystem":"Earle A. Rainwater Memorial Library","longitude":-86.355871,"id":"a672oubqzmpd","address":"124 Ninth Avenue SW","libraryname":"Earle A. Rainwater Memorial Library","state":"AL"},"type":"Feature","geometry":{"type":"Point","coordinates":[-86.355871,33.277604]}},{"properties":{"city":"Birmingham","latitude":33.515154,"librarysystem":"Birmingham Public Library","longitude":-86.889194,"id":"a672ou2g5aoq","address":"900 14th Street Ensley","libraryname":"East Ensley Branch Library","state":"AL"},"type":"Feature","geometry":{"type":"Point","coordinates":[-86.889194,33.515154]}},{"properties":{"city":"Gadsden","latitude":34.005607,"librarysystem":"Gadsden Public Library","longitude":-85.974806,"id":"a672ou4lqhas","address":"919 Wilson Avenue","libraryname":"East Gadsden Branch Library","state":"AL"},"type":"Feature","geometry":{"type":"Point","coordinates":[-85.974806,34.005607]}},{"properties":{"city":"Birmingham","latitude":33.560688,"librarysystem":"Birmingham Public Library","longitude":-86.727578,"id":"a672oub6fau7","address":"5 Oporto Madrid Blvd South","libraryname":"East Lake Branch Library","state":"AL"},"type":"Feature","geometry":{"type":"Point","coordinates":[-86.727578,33.560688]}},{"properties":{"city":"Birmingham","latitude":33.457991,"librarysystem":"Birmingham Public Library","longitude":-86.809997,"id":"a672oua3c8rg","address":"Eastwood Mall","libraryname":"Eastwood Branch","state":"AL"},"type":"Feature","geometry":{"type":"Point","coordinates":[-86.809997,33.457991]}},{"properties":{"city":"Elba","latitude":31.414475,"librarysystem":"Elba Public Library","longitude":-86.071494,"id":"a672ou5mjest","address":"406 Simmons Street","libraryname":"Elba Public Library","state":"AL"},"type":"Feature","geometry":{"type":"Point","coordinates":[-86.071494,31.414475]}},{"properties":{"city":"Huntsville","latitude":34.660365,"librarysystem":"Huntsville-Madison County Public Library","longitude":-86.572847,"id":"a672ou3lxg7m","address":"7910 Charlotte Drive","libraryname":"Eleanor E. Murphy Branch Library","state":"AL"},"type":"Feature","geometry":{"type":"Point","coordinates":[-86.572847,34.660365]}},{"properties":{"city":"New Hope","latitude":34.538583,"librarysystem":"Huntsville-Madison County Public Library","longitude":-86.394953,"id":"a672ou25a2ef","address":"5496 Main Street","libraryname":"Elizabeth Carpenter Public Library","state":"AL"},"type":"Feature","geometry":{"type":"Point","coordinates":[-86.394953,34.538583]}},{"properties":{"city":"Clio","latitude":31.661692,"librarysystem":"Elton B. Stephens Library","longitude":-85.487593,"id":"a672ou7qsr0q","address":"17 School Street","libraryname":"Elton B. Stephens Library","state":"AL"},"type":"Feature","geometry":{"type":"Point","coordinates":[-85.487593,31.661692]}},{"properties":{"city":"Mountain Brook","latitude":33.500892,"librarysystem":"Emmet O'Neal Library","longitude":-86.755322,"id":"a672ou42bwlj","address":"50 Oak Street","libraryname":"Emmet O'Neal Library","state":"AL"},"type":"Feature","geometry":{"type":"Point","coordinates":[-86.755322,33.500892]}},{"properties":{"city":"Birmingham","latitude":33.530574,"librarysystem":"Birmingham Public Library","longitude":-86.807302,"id":"a672ou5c0l88","address":"1201 25th Street Ensley","libraryname":"Ensley Branch","state":"AL"},"type":"Feature","geometry":{"type":"Point","coordinates":[-86.807302,33.530574]}},{"properties":{"city":"Enterprise","latitude":31.313591,"librarysystem":"Enterprise Public Library","longitude":-85.853057,"id":"a672ou31p2jf","address":"101 East Grubbs Street","libraryname":"Enterprise Public Library","state":"AL"},"type":"Feature","geometry":{"type":"Point","coordinates":[-85.853057,31.313591]}},{"properties":{"city":"Atmore","latitude":31.022523,"librarysystem":"Escambia County Cooperative Library System","longitude":-87.486359,"id":"a672oua2h3e7","address":"700 East Church Street","libraryname":"Escambia County Cooperative Library System","state":"AL"},"type":"Feature","geometry":{"type":"Point","coordinates":[-87.486359,31.022523]}},{"properties":{"city":"Eufaula","latitude":31.894034,"librarysystem":"Eufaula Carnegie Library","longitude":-85.145504,"id":"a672ou5p8b0w","address":"217 North Eufaula Avenue","libraryname":"Eufaula Carnegie Library","state":"AL"},"type":"Feature","geometry":{"type":"Point","coordinates":[-85.145504,31.894034]}},{"properties":{"city":"Green Pond","latitude":33.225565,"librarysystem":"Eunice Kelly Worthington Public Library","longitude":-87.127299,"id":"a672ou6rhvqy","address":"323 Presbyterian Church Road","libraryname":"Eunice Kelly Worthington Public Library","state":"AL"},"type":"Feature","geometry":{"type":"Point","coordinates":[-87.127299,33.225565]}},{"properties":{"city":"Eva","latitude":34.332331,"librarysystem":"Eva Public Library","longitude":-86.758244,"id":"a672oufk6mqj","address":"4549 Highway 55 East","libraryname":"Eva Public Library","state":"AL"},"type":"Feature","geometry":{"type":"Point","coordinates":[-86.758244,34.332331]}},{"properties":{"city":"Evergreen","latitude":31.430443,"librarysystem":"Evergreen Public Library","longitude":-86.952454,"id":"a672ou5i469s","address":"201 Park Street","libraryname":"Evergreen-Conecuh County Public Library","state":"AL"},"type":"Feature","geometry":{"type":"Point","coordinates":[-86.952454,31.430443]}},{"properties":{"city":"Fairhope","latitude":30.5268,"librarysystem":"Fairhope Public Library","longitude":-87.903155,"id":"a672ou6yugd9","address":"161 North Section Street","libraryname":"Fairhope Public Library","state":"AL"},"type":"Feature","geometry":{"type":"Point","coordinates":[-87.903155,30.5268]}},{"properties":{"city":"Cullman","latitude":34.245901,"librarysystem":"Cullman County Public Library System","longitude":-86.687526,"id":"a672ouehwkce","address":"7525 Alabama Hwy 69n","libraryname":"Fairview Public Library","state":"AL"},"type":"Feature","geometry":{"type":"Point","coordinates":[-86.687526,34.245901]}},{"properties":{"city":"Falkville","latitude":34.36776,"librarysystem":"Falkville Public Library","longitude":-86.882584,"id":"a672oubhzol9","address":"Highway 55 East","libraryname":"Falkville Public Library","state":"AL"},"type":"Feature","geometry":{"type":"Point","coordinates":[-86.882584,34.36776]}},{"properties":{"city":"Fayette","latitude":33.687941,"librarysystem":"Fayette County Memorial Library","longitude":-87.830678,"id":"a672ou66rp6j","address":"326 Temple Avenue N","libraryname":"Fayette County Memorial Library","state":"AL"},"type":"Feature","geometry":{"type":"Point","coordinates":[-87.830678,33.687941]}},{"properties":{"city":"Birmingham","latitude":33.494398,"librarysystem":"Birmingham Public Library","longitude":-86.878549,"id":"a672ou6qpahz","address":"4620 Avenue V","libraryname":"Five Points West Library","state":"AL"},"type":"Feature","geometry":{"type":"Point","coordinates":[-86.878549,33.494398]}},{"properties":{"city":"Flomaton","latitude":31.004497,"librarysystem":"Flomaton Public Library","longitude":-87.260202,"id":"a672ou4piyp6","address":"608 McCurdy Street","libraryname":"Flomaton Public Library","state":"AL"},"type":"Feature","geometry":{"type":"Point","coordinates":[-87.260202,31.004497]}},{"properties":{"city":"Florala","latitude":31.00757,"librarysystem":"Florala Public Library","longitude":-86.325703,"id":"a672ouait9v4","address":"510 North 4th Street","libraryname":"Florala Public Library","state":"AL"},"type":"Feature","geometry":{"type":"Point","coordinates":[-86.325703,31.00757]}},{"properties":{"city":"Florence","latitude":34.802503,"librarysystem":"Florence-Lauderdale Public Library","longitude":-87.673738,"id":"a672ou1op9m7","address":"218 North Wood Avenue","libraryname":"Florence-Lauderdale Public Library","state":"AL"},"type":"Feature","geometry":{"type":"Point","coordinates":[-87.673738,34.802503]}},{"properties":{"city":"Foley","latitude":30.40649,"librarysystem":"Foley Public Library","longitude":-87.679355,"id":"a672ou3w5pp8","address":"319 East Laurel Avenue","libraryname":"Foley Public Library","state":"AL"},"type":"Feature","geometry":{"type":"Point","coordinates":[-87.679355,30.40649]}},{"properties":{"city":"Fultondale","latitude":33.6086,"librarysystem":"Fultondale Public Library","longitude":-86.798101,"id":"a672oubfvncd","address":"1015 Walkers Chapel Road","libraryname":"Fultondale Public Library","state":"AL"},"type":"Feature","geometry":{"type":"Point","coordinates":[-86.798101,33.6086]}},{"properties":{"city":"Gadsden","latitude":34.012322,"librarysystem":"Gadsden Public Library","longitude":-86.009739,"id":"a672ou09vb27","address":"254 College Street","libraryname":"Gadsden Public Library","state":"AL"},"type":"Feature","geometry":{"type":"Point","coordinates":[-86.009739,34.012322]}},{"properties":{"city":"Garden City","latitude":34.01341,"librarysystem":"Cullman County Public Library System","longitude":-86.748764,"id":"a672oua5d48x","address":"City Hall","libraryname":"Garden City Public Library","state":"AL"},"type":"Feature","geometry":{"type":"Point","coordinates":[-86.748764,34.01341]}},{"properties":{"city":"Gardendale","latitude":33.650387,"librarysystem":"Gardendale-Martha Moore Library","longitude":-86.818402,"id":"a672oufsnfz7","address":"995 Mt Olive Road","libraryname":"Gardendale-Martha Moore Library","state":"AL"},"type":"Feature","geometry":{"type":"Point","coordinates":[-86.818402,33.650387]}},{"properties":{"city":"Geneva","latitude":31.036298,"librarysystem":"Geneva Public Library","longitude":-85.86518,"id":"a672ou97i9ka","address":"312 South Commerce Street","libraryname":"Geneva Public Library","state":"AL"},"type":"Feature","geometry":{"type":"Point","coordinates":[-85.86518,31.036298]}},{"properties":{"city":"Geraldine","latitude":34.358905,"librarysystem":"Geraldine Public Library","longitude":-86.006147,"id":"a672oue0e2y4","address":"13543 Alabama Hwy 227","libraryname":"Geraldine Public Library","state":"AL"},"type":"Feature","geometry":{"type":"Point","coordinates":[-86.006147,34.358905]}},{"properties":{"city":"Butler","latitude":32.089355,"librarysystem":"Choctaw County Public Library","longitude":-88.221279,"id":"a672ou14tlwc","address":"Gilbertown","libraryname":"Gilbertown Branch Library","state":"AL"},"type":"Feature","geometry":{"type":"Point","coordinates":[-88.221279,32.089355]}},{"properties":{"city":"Goodwater","latitude":33.063774,"librarysystem":"Goodwater Public Library","longitude":-86.054178,"id":"a672ouel137u","address":"36 Weogufka Street","libraryname":"Goodwater Public Library","state":"AL"},"type":"Feature","geometry":{"type":"Point","coordinates":[-86.054178,33.063774]}},{"properties":{"city":"Gordo","latitude":33.320455,"librarysystem":"Gordo Public Library","longitude":-87.903159,"id":"a672ou2c8zls","address":"Main Street","libraryname":"Gordo Public Library","state":"AL"},"type":"Feature","geometry":{"type":"Point","coordinates":[-87.903159,33.320455]}},{"properties":{"city":"Montgomery","latitude":32.327536,"librarysystem":"Montgomery City-County Public Library","longitude":-86.249819,"id":"a672ou8xszax","address":"2811-A East South Boulevard","libraryname":"Governor's Square Branch Library","state":"AL"},"type":"Feature","geometry":{"type":"Point","coordinates":[-86.249819,32.327536]}},{"properties":{"city":"Grant","latitude":34.526504,"librarysystem":"Grant Public Library","longitude":-86.25302,"id":"a672ou1amnah","address":"5379 Main Street","libraryname":"Grant Public Library","state":"AL"},"type":"Feature","geometry":{"type":"Point","coordinates":[-86.25302,34.526504]}},{"properties":{"city":"Graysville","latitude":33.626472,"librarysystem":"Graysville Public Library","longitude":-86.973357,"id":"a672ou3yckkq","address":"315 South Main Street","libraryname":"Graysville Public Library","state":"AL"},"type":"Feature","geometry":{"type":"Point","coordinates":[-86.973357,33.626472]}},{"properties":{"city":"Greenville","latitude":31.831717,"librarysystem":"Greenville-Butler County Public Library","longitude":-86.626098,"id":"a672ou86o027","address":"309 Ft Dale Street","libraryname":"Greenville-Butler County Public Library","state":"AL"},"type":"Feature","geometry":{"type":"Point","coordinates":[-86.626098,31.831717]}},{"properties":{"city":"Grove Hill","latitude":31.705493,"librarysystem":"Grove Hill Public Library","longitude":-87.771381,"id":"a672oueh2ky6","address":"108 Dubose Avenue","libraryname":"Grove Hill Public Library","state":"AL"},"type":"Feature","geometry":{"type":"Point","coordinates":[-87.771381,31.705493]}},{"properties":{"city":"Guntersville","latitude":34.349187,"librarysystem":"Guntersville Public Library","longitude":-86.302249,"id":"a672oubo5wha","address":"1240 O'Brig Avenue","libraryname":"Guntersville Public Library","state":"AL"},"type":"Feature","geometry":{"type":"Point","coordinates":[-86.302249,34.349187]}},{"properties":{"city":"Gurley","latitude":34.695954,"librarysystem":"Huntsville-Madison County Public Library","longitude":-86.369916,"id":"a672ou6zw2t3","address":"331 Walker Street","libraryname":"Gurley Public Library","state":"AL"},"type":"Feature","geometry":{"type":"Point","coordinates":[-86.369916,34.695954]}},{"properties":{"city":"Valley","latitude":32.838797,"librarysystem":"H. Grady Bradshaw-Chambers County Library","longitude":-85.177865,"id":"a672ou91kx83","address":"3419 20th Avenue","libraryname":"H. Grady Bradshaw-Chambers Co. Lib.","state":"AL"},"type":"Feature","geometry":{"type":"Point","coordinates":[-85.177865,32.838797]}},{"properties":{"city":"Greensboro","latitude":32.70404,"librarysystem":"Hale County Library","longitude":-87.592811,"id":"a672ou8awk6g","address":"1105 Main Street","libraryname":"Hale County-Greensboro Library","state":"AL"},"type":"Feature","geometry":{"type":"Point","coordinates":[-87.592811,32.70404]}},{"properties":{"city":"Haleyville","latitude":34.226417,"librarysystem":"Haleyville Public Library","longitude":-87.620987,"id":"a672ou2en2hg","address":"913 20th Street","libraryname":"Haleyville Public Library","state":"AL"},"type":"Feature","geometry":{"type":"Point","coordinates":[-87.620987,34.226417]}},{"properties":{"city":"Hanceville","latitude":34.059489,"librarysystem":"Cullman County Public Library System","longitude":-86.76849,"id":"a672ou9hhm3w","address":"108 Main Street","libraryname":"Hanceville Public Library","state":"AL"},"type":"Feature","geometry":{"type":"Point","coordinates":[-86.76849,34.059489]}},{"properties":{"city":"Harpersville","latitude":33.34081,"librarysystem":"Harpersville Public Library","longitude":-86.439459,"id":"a672ouamy860","address":"39397 Highway 25","libraryname":"Harpersville Public Library","state":"AL"},"type":"Feature","geometry":{"type":"Point","coordinates":[-86.439459,33.34081]}},{"properties":{"city":"Columbiana","latitude":33.179973,"librarysystem":"Harrison Regional Library System","longitude":-86.608788,"id":"a672ou9zvrsc","address":"50 Lester Street","libraryname":"Harrison Regional Library System","state":"AL"},"type":"Feature","geometry":{"type":"Point","coordinates":[-86.608788,33.179973]}},{"properties":{"city":"Hartford","latitude":31.102188,"librarysystem":"Hartford Public Library","longitude":-85.697703,"id":"a672ou31ct9f","address":"203b West Main Street","libraryname":"Hartford Public Library","state":"AL"},"type":"Feature","geometry":{"type":"Point","coordinates":[-85.697703,31.102188]}},{"properties":{"city":"Hartselle","latitude":34.444043,"librarysystem":"Hartselle Public Library","longitude":-86.934785,"id":"a672ou0l8l3f","address":"152 Sparkman Street NW","libraryname":"Hartselle Public Library","state":"AL"},"type":"Feature","geometry":{"type":"Point","coordinates":[-86.934785,34.444043]}},{"properties":{"city":"Hayneville","latitude":32.182087,"librarysystem":"Hayneville/Lowndes County Public Library","longitude":-86.579806,"id":"a672ou91iwjk","address":"4 Washington Street","libraryname":"Hayneville/Lowndes County Public Library","state":"AL"},"type":"Feature","geometry":{"type":"Point","coordinates":[-86.579806,32.182087]}},{"properties":{"city":"Tuscumbia","latitude":34.73657,"librarysystem":"Helen Keller Public Library","longitude":-87.703624,"id":"a672ouc21vqh","address":"511 North Main Street","libraryname":"Helen Keller Public Library","state":"AL"},"type":"Feature","geometry":{"type":"Point","coordinates":[-87.703624,34.73657]}},{"properties":{"city":"Henagar","latitude":34.631518,"librarysystem":"Dekalb County Public Library","longitude":-85.745172,"id":"a672ou5hr30o","address":"Town Hall","libraryname":"Henagar Public Library","state":"AL"},"type":"Feature","geometry":{"type":"Point","coordinates":[-85.745172,34.631518]}},{"properties":{"city":"York","latitude":32.484787,"librarysystem":"Hightower Memorial Library","longitude":-88.293425,"id":"a672ou4qw8vi","address":"630 Avenue A","libraryname":"Hightower Memorial Library","state":"AL"},"type":"Feature","geometry":{"type":"Point","coordinates":[-88.293425,32.484787]}},{"properties":{"city":"Homewood","latitude":33.475314,"librarysystem":"Homewood Public Library","longitude":-86.795558,"id":"a672oubf5njb","address":"1721 Oxmoor Road","libraryname":"Homewood Public Library","state":"AL"},"type":"Feature","geometry":{"type":"Point","coordinates":[-86.795558,33.475314]}},{"properties":{"city":"Hoover","latitude":33.387842,"librarysystem":"Hoover Public Library","longitude":-86.80547,"id":"a672ou68magk","address":"200 Municipal Drive","libraryname":"Hoover Public Library","state":"AL"},"type":"Feature","geometry":{"type":"Point","coordinates":[-86.80547,33.387842]}},{"properties":{"city":"Dadeville","latitude":32.832792,"librarysystem":"Horseshoe Bend Regional Library","longitude":-85.765299,"id":"a672ou7v59sr","address":"207 North West Street","libraryname":"Horseshoe Bend Regional Library","state":"AL"},"type":"Feature","geometry":{"type":"Point","coordinates":[-85.765299,32.832792]}},{"properties":{"city":"Dothan","latitude":31.228085,"librarysystem":"Houston-Love Memorial Library","longitude":-85.394347,"id":"a672ou7gmojw","address":"212 West Burdeshaw Street","libraryname":"Houston-Love Memorial Library","state":"AL"},"type":"Feature","geometry":{"type":"Point","coordinates":[-85.394347,31.228085]}},{"properties":{"city":"Gadsden","latitude":34.022532,"librarysystem":"Gadsden Public Library","longitude":-86.045361,"id":"a672ouaz4jft","address":"2700 West Meighan","libraryname":"Hoyt Warsham Alabama City Branch Library","state":"AL"},"type":"Feature","geometry":{"type":"Point","coordinates":[-86.045361,34.022532]}},{"properties":{"city":"Hueytown","latitude":33.447902,"librarysystem":"Hueytown Public Library","longitude":-86.996735,"id":"a672ouedzrb2","address":"1372 Hueytown Road","libraryname":"Hueytown Public Library","state":"AL"},"type":"Feature","geometry":{"type":"Point","coordinates":[-86.996735,33.447902]}},{"properties":{"city":"Huntsville","latitude":34.723352,"librarysystem":"Huntsville-Madison County Public Library","longitude":-86.590145,"id":"a672ou521161","address":"915 Monroe Street","libraryname":"Huntsville-Madison County Public Library","state":"AL"},"type":"Feature","geometry":{"type":"Point","coordinates":[-86.590145,34.723352]}},{"properties":{"city":"Ider","latitude":34.696865,"librarysystem":"Ider Public Library","longitude":-85.668017,"id":"a672ouegl8nh","address":"10808 Alabama Highway 75","libraryname":"Ider Public Library","state":"AL"},"type":"Feature","geometry":{"type":"Point","coordinates":[-85.668017,34.696865]}},{"properties":{"city":"Chickasaw","latitude":30.764984,"librarysystem":"Ina Pullen Smallwood Memorial Library","longitude":-88.078161,"id":"a672ouebd8cm","address":"224 Grant Street","libraryname":"Ina Pullen Smallwood Memorial Library","state":"AL"},"type":"Feature","geometry":{"type":"Point","coordinates":[-88.078161,30.764984]}},{"properties":{"city":"Birmingham","latitude":33.562195,"librarysystem":"Birmingham Public Library","longitude":-86.776645,"id":"a672ou9um0l1","address":"4100 40th Terrace North","libraryname":"Inglenook Branch Library","state":"AL"},"type":"Feature","geometry":{"type":"Point","coordinates":[-86.776645,33.562195]}},{"properties":{"city":"Irondale","latitude":33.538291,"librarysystem":"Irondale Public Library","longitude":-86.706856,"id":"a672ou0l5zy1","address":"105 South 20th Street","libraryname":"Irondale Public Library","state":"AL"},"type":"Feature","geometry":{"type":"Point","coordinates":[-86.706856,33.538291]}},{"properties":{"city":"Jacksonville","latitude":33.812797,"librarysystem":"Jacksonville Public Library","longitude":-85.761259,"id":"a672oucs00b0","address":"200 Pelham Road S","libraryname":"Jacksonville Public Library","state":"AL"},"type":"Feature","geometry":{"type":"Point","coordinates":[-85.761259,33.812797]}},{"properties":{"city":"Eutaw","latitude":32.836953,"librarysystem":"James C. Poole Jr. Memorial Library","longitude":-87.888087,"id":"a672oudvgalp","address":"219 Prairie Avenue","libraryname":"James C. Poole Jr. Memorial Library","state":"AL"},"type":"Feature","geometry":{"type":"Point","coordinates":[-87.888087,32.836953]}},{"properties":{"city":"Helena","latitude":33.288956,"librarysystem":"Jane B. Holmes Public Library","longitude":-86.84273,"id":"a672ou420jz8","address":"230 Tucker Road","libraryname":"Jane B. Holmes Public Library","state":"AL"},"type":"Feature","geometry":{"type":"Point","coordinates":[-86.84273,33.288956]}},{"properties":{"city":"Jasper","latitude":33.833484,"librarysystem":"Jasper Public Library","longitude":-87.27399,"id":"a672ou84nb7x","address":"98 East 18th Street","libraryname":"Jasper Public Library","state":"AL"},"type":"Feature","geometry":{"type":"Point","coordinates":[-87.27399,33.833484]}},{"properties":{"city":"Jemison","latitude":32.987873,"librarysystem":"Chilton-Clanton Public Library","longitude":-86.754566,"id":"a672ouah1a3k","address":"Highway 31","libraryname":"Jemison Public Library","state":"AL"},"type":"Feature","geometry":{"type":"Point","coordinates":[-86.754566,32.987873]}},{"properties":{"city":"Kennedy","latitude":33.621507,"librarysystem":"Kennedy Public Library","longitude":-87.949563,"id":"a672ou3lo3f5","address":"17885 Highway 96","libraryname":"Kennedy Public Library","state":"AL"},"type":"Feature","geometry":{"type":"Point","coordinates":[-87.949563,33.621507]}},{"properties":{"city":"Killen","latitude":34.859118,"librarysystem":"Killen Public Library","longitude":-87.541896,"id":"a672oudxje09","address":"229 J C Mauldin Hwy","libraryname":"Killen Public Library","state":"AL"},"type":"Feature","geometry":{"type":"Point","coordinates":[-87.541896,34.859118]}},{"properties":{"city":"Lafayette","latitude":32.898418,"librarysystem":"H. Grady Bradshaw-Chambers County Library","longitude":-85.400361,"id":"a672oubtpa7z","address":"198 First Street, Se","libraryname":"Lafayette Pilot Public Library","state":"AL"},"type":"Feature","geometry":{"type":"Point","coordinates":[-85.400361,32.898418]}},{"properties":{"city":"Vincent","latitude":33.38717,"librarysystem":"Lallouise F. Mcgraw Vincent Public Library","longitude":-86.410582,"id":"a672otzwi53k","address":"42860 Highway 25","libraryname":"Lallouise F. Mcgraw Vincent Public Library","state":"AL"},"type":"Feature","geometry":{"type":"Point","coordinates":[-86.410582,33.38717]}},{"properties":{"city":"Moulton","latitude":34.47612,"librarysystem":"Lawrence County Public","longitude":-87.294603,"id":"a672ouctkp2l","address":"401 College Street","libraryname":"Lawrence County Public Library","state":"AL"},"type":"Feature","geometry":{"type":"Point","coordinates":[-87.294603,34.47612]}},{"properties":{"city":"Leeds","latitude":33.54359,"librarysystem":"Leeds Jane Culbreth Library","longitude":-86.541609,"id":"a672ou0m9pkq","address":"8104 Parkway Drive","libraryname":"Leeds Jane Culbreth Library","state":"AL"},"type":"Feature","geometry":{"type":"Point","coordinates":[-86.541609,33.54359]}},{"properties":{"city":"Leighton","latitude":34.700408,"librarysystem":"Leighton Public Library","longitude":-87.52888,"id":"a672ou8lrtu5","address":"8740 Main Street","libraryname":"Leighton Public Library","state":"AL"},"type":"Feature","geometry":{"type":"Point","coordinates":[-87.52888,34.700408]}},{"properties":{"city":"Opelika","latitude":32.649152,"librarysystem":"Lewis Cooper Jr. Memorial Library","longitude":-85.375786,"id":"a672ouflmorh","address":"200 South 6th Street","libraryname":"Lewis Cooper Jr. Memorial Library","state":"AL"},"type":"Feature","geometry":{"type":"Point","coordinates":[-85.375786,32.649152]}},{"properties":{"city":"Lexington","latitude":34.967767,"librarysystem":"Burchell Campbell Memorial Library","longitude":-87.371329,"id":"a672ou7v1sfn","address":"11075 Highway 101","libraryname":"Lexington Public Library","state":"AL"},"type":"Feature","geometry":{"type":"Point","coordinates":[-87.371329,34.967767]}},{"properties":{"city":"Lincoln","latitude":33.617059,"librarysystem":"Lincoln City Public Library","longitude":-86.118517,"id":"a672ou0ym8zs","address":"49 Complex Drive","libraryname":"Lincoln City Public Library","state":"AL"},"type":"Feature","geometry":{"type":"Point","coordinates":[-86.118517,33.617059]}},{"properties":{"city":"Lineville","latitude":33.311008,"librarysystem":"Lineville Public Library","longitude":-85.754572,"id":"a672ou81qejp","address":"60119 Highway 49","libraryname":"Lineville Public Library","state":"AL"},"type":"Feature","geometry":{"type":"Point","coordinates":[-85.754572,33.311008]}},{"properties":{"city":"Louisville","latitude":31.783235,"librarysystem":"Louisville Public Library","longitude":-85.555679,"id":"a672oublkgc1","address":"City Hall, Main Street","libraryname":"Louisville Public Library","state":"AL"},"type":"Feature","geometry":{"type":"Point","coordinates":[-85.555679,31.783235]}},{"properties":{"city":"Loxley","latitude":30.61992,"librarysystem":"Loxley Public Library","longitude":-87.754259,"id":"a672oufw6pbi","address":"1001 Loxley Avenue","libraryname":"Loxley Public Library","state":"AL"},"type":"Feature","geometry":{"type":"Point","coordinates":[-87.754259,30.61992]}},{"properties":{"city":"Heflin","latitude":33.647399,"librarysystem":"Lucile L. Morgan Public Library","longitude":-85.587295,"id":"a672ou7o41li","address":"541 Ross Street","libraryname":"Lucile L. Morgan Public Library","state":"AL"},"type":"Feature","geometry":{"type":"Point","coordinates":[-85.587295,33.647399]}},{"properties":{"city":"Luverne","latitude":31.716251,"librarysystem":"Luverne Public Library","longitude":-86.261814,"id":"a672ou6zross","address":"148 East Third Avenue","libraryname":"Luverne Public Library","state":"AL"},"type":"Feature","geometry":{"type":"Point","coordinates":[-86.261814,31.716251]}},{"properties":{"city":"Guin","latitude":33.96369,"librarysystem":"MCHS Community Library","longitude":-87.885829,"id":"a672ou3s9jxs","address":"8115 Us Highway 43","libraryname":"MCHS Community Library","state":"AL"},"type":"Feature","geometry":{"type":"Point","coordinates":[-87.885829,33.96369]}},{"properties":{"city":"Tuskegee","latitude":32.421836,"librarysystem":"Macon County-Tuskegee Public Library","longitude":-85.68911,"id":"a672ou6wkclm","address":"302 South Main Street","libraryname":"Macon County-Tuskegee Pub. Library","state":"AL"},"type":"Feature","geometry":{"type":"Point","coordinates":[-85.68911,32.421836]}},{"properties":{"city":"Madison","latitude":34.708522,"librarysystem":"Huntsville-Madison County Public Library","longitude":-86.743144,"id":"a672ou19z0y5","address":"130 Plaza Drive","libraryname":"Madison Public Library","state":"AL"},"type":"Feature","geometry":{"type":"Point","coordinates":[-86.743144,34.708522]}},{"properties":{"city":"Alexander City","latitude":32.942931,"librarysystem":"Adelia McConnell Russell Library","longitude":-85.953704,"id":"a672ouagshmp","address":"284 Church Street","libraryname":"Mamie's Place","state":"AL"},"type":"Feature","geometry":{"type":"Point","coordinates":[-85.953704,32.942931]}},{"properties":{"city":"Maplesville","latitude":32.789576,"librarysystem":"Chilton-Clanton Public Library","longitude":-86.87252,"id":"a672ouaxc782","address":"City Hall Building","libraryname":"Maplesville Public Library","state":"AL"},"type":"Feature","geometry":{"type":"Point","coordinates":[-86.87252,32.789576]}},{"properties":{"city":"Marbury","latitude":32.701093,"librarysystem":"Autauga - Prattville Public Library","longitude":-86.475358,"id":"a672ouc8vnre","address":"205 County Road 20 E","libraryname":"Marbury Public Library","state":"AL"},"type":"Feature","geometry":{"type":"Point","coordinates":[-86.475358,32.701093]}},{"properties":{"city":"Linden","latitude":32.311306,"librarysystem":"Marengo County Public Library","longitude":-87.797894,"id":"a672ou9l50c1","address":"507 North Main","libraryname":"Marengo County Public Library","state":"AL"},"type":"Feature","geometry":{"type":"Point","coordinates":[-87.797894,32.311306]}},{"properties":{"city":"Marion","latitude":32.634183,"librarysystem":"Marion-Perry County Library","longitude":-87.318983,"id":"a672oue1sqq3","address":"202 Washington Street","libraryname":"Marion-Perry County Library","state":"AL"},"type":"Feature","geometry":{"type":"Point","coordinates":[-87.318983,32.634183]}},{"properties":{"city":"Midland City","latitude":31.31677,"librarysystem":"Mary Berry Brown Memorial Library","longitude":-85.494784,"id":"a672ou1jh5wk","address":"Hinton Waters Ave &amp;Amp; 3rd Street","libraryname":"Mary Berry Brown Memorial Library","state":"AL"},"type":"Feature","geometry":{"type":"Point","coordinates":[-85.494784,31.31677]}},{"properties":{"city":"Vernon","latitude":33.757812,"librarysystem":"Mary Wallace Cobb Memorial Library","longitude":-88.110673,"id":"a672ou1z6h0u","address":"110 First Avenue Nw","libraryname":"Mary Wallace Cobb Memorial Library","state":"AL"},"type":"Feature","geometry":{"type":"Point","coordinates":[-88.110673,33.757812]}},{"properties":{"city":"Eufaula","latitude":31.894034,"librarysystem":"Eufaula Carnegie Library","longitude":-85.145504,"id":"a672oufan8hz","address":"217 North Eufaula Avenue","libraryname":"McCoo Memorial Children's Library","state":"AL"},"type":"Feature","geometry":{"type":"Point","coordinates":[-85.145504,31.894034]}},{"properties":{"city":"Birmingham","latitude":33.511935,"librarysystem":"Birmingham Public Library","longitude":-86.847957,"id":"a672oubenpof","address":"730 8th Ave W. Suite 320","libraryname":"McCoy Literacy Library","state":"AL"},"type":"Feature","geometry":{"type":"Point","coordinates":[-86.847957,33.511935]}},{"properties":{"city":"Mcintosh","latitude":31.15646,"librarysystem":"Washington County Public Library","longitude":-88.007839,"id":"a672ou6aiagf","address":"River Road","libraryname":"Mcintosh Branch Library","state":"AL"},"type":"Feature","geometry":{"type":"Point","coordinates":[-88.007839,31.15646]}},{"properties":{"city":"Midfield","latitude":33.457371,"librarysystem":"Midfield Public Library","longitude":-86.916294,"id":"a672ouawmnxm","address":"400 Breland Drive","libraryname":"Midfield Public Library","state":"AL"},"type":"Feature","geometry":{"type":"Point","coordinates":[-86.916294,33.457371]}},{"properties":{"city":"Millbrook","latitude":32.47669,"librarysystem":"Millbrook Public Library","longitude":-86.362231,"id":"a672oufu6nqa","address":"3650 Grandview Road","libraryname":"Millbrook Public Library","state":"AL"},"type":"Feature","geometry":{"type":"Point","coordinates":[-86.362231,32.47669]}},{"properties":{"city":"Millport","latitude":33.563222,"librarysystem":"Millport Public Library","longitude":-88.082642,"id":"a672ou6rumiy","address":"480 Columbus Street","libraryname":"Millport Public Library","state":"AL"},"type":"Feature","geometry":{"type":"Point","coordinates":[-88.082642,33.563222]}},{"properties":{"city":"Eight Mile","latitude":30.760338,"librarysystem":"Prichard Public Library","longitude":-88.160852,"id":"a672ou5nxlxa","address":"4440 Highpoint Drive","libraryname":"Mitchell Branch Library","state":"AL"},"type":"Feature","geometry":{"type":"Point","coordinates":[-88.160852,30.760338]}},{"properties":{"city":"Mobile","latitude":30.687176,"librarysystem":"Mobile Public Library","longitude":-88.050467,"id":"a672oufkeh06","address":"701 Government Street","libraryname":"Mobile Public Library","state":"AL"},"type":"Feature","geometry":{"type":"Point","coordinates":[-88.050467,30.687176]}},{"properties":{"city":"Monroeville","latitude":31.52816,"librarysystem":"Monroe County Public Library","longitude":-87.323594,"id":"a672ou4nllsc","address":"121 Pineville Road","libraryname":"Monroe County Public Library","state":"AL"},"type":"Feature","geometry":{"type":"Point","coordinates":[-87.323594,31.52816]}},{"properties":{"city":"Madison","latitude":34.77829,"librarysystem":"Huntsville-Madison County Public Library","longitude":-86.714159,"id":"a672ouafmsro","address":"1962 Jeff Road","libraryname":"Monrovia Branch","state":"AL"},"type":"Feature","geometry":{"type":"Point","coordinates":[-86.714159,34.77829]}},{"properties":{"city":"Mobile","latitude":30.696085,"librarysystem":"Mobile Public Library","longitude":-88.144314,"id":"a672ou8yrwuc","address":"4 Mcgregor Avenue S","libraryname":"Monte L. Moorer/Springhill Branch","state":"AL"},"type":"Feature","geometry":{"type":"Point","coordinates":[-88.144314,30.696085]}},{"properties":{"city":"Montgomery","latitude":32.372028,"librarysystem":"Montgomery City-County Public Library","longitude":-86.305412,"id":"a672oubpflko","address":"245 High Street","libraryname":"Montgomery City-County Pub. Library","state":"AL"},"type":"Feature","geometry":{"type":"Point","coordinates":[-86.305412,32.372028]}},{"properties":{"city":"Bayou La Batre","latitude":30.401875,"librarysystem":"Mose Hudson Tapia Public Library","longitude":-88.248069,"id":"a672ouedaumc","address":"13885 South Wintzell Avenue","libraryname":"Mose Hudson Tapia Public Library","state":"AL"},"type":"Feature","geometry":{"type":"Point","coordinates":[-88.248069,30.401875]}},{"properties":{"city":"Moundville","latitude":32.99865,"librarysystem":"Moundville Public Library","longitude":-87.622279,"id":"a672ou2ky145","address":"City Hall, Market Street","libraryname":"Moundville Public Library","state":"AL"},"type":"Feature","geometry":{"type":"Point","coordinates":[-87.622279,32.99865]}},{"properties":{"city":"Mt Vernon","latitude":31.086182,"librarysystem":"Mount Vernon Public Library","longitude":-88.012592,"id":"a672ouco9oia","address":"1220 Military Road","libraryname":"Mount Vernon Public Library","state":"AL"},"type":"Feature","geometry":{"type":"Point","coordinates":[-88.012592,31.086182]}},{"properties":{"city":"Muscle Shoals","latitude":34.744325,"librarysystem":"Muscle Shoals Public Library","longitude":-87.646761,"id":"a672ou6jddde","address":"1918 East Avalon Avenue","libraryname":"Muscle Shoals Public Library","state":"AL"},"type":"Feature","geometry":{"type":"Point","coordinates":[-87.646761,34.744325]}},{"properties":{"city":"Newton","latitude":31.330717,"librarysystem":"Newton Public Library","longitude":-85.595992,"id":"a672oudql5mx","address":"203 Oates Street","libraryname":"Newton Public Library","state":"AL"},"type":"Feature","geometry":{"type":"Point","coordinates":[-85.595992,31.330717]}},{"properties":{"city":"Birmingham","latitude":33.530768,"librarysystem":"Birmingham Public Library","longitude":-86.772116,"id":"a672ouaxb88a","address":"501 43rd Street N","libraryname":"North Avondale Branch Library","state":"AL"},"type":"Feature","geometry":{"type":"Point","coordinates":[-86.772116,33.530768]}},{"properties":{"city":"Birmingham","latitude":33.552271,"librarysystem":"Birmingham Public Library","longitude":-86.819651,"id":"a672ou2swn9c","address":"2501 31st Avenue North","libraryname":"North Birmingham Branch","state":"AL"},"type":"Feature","geometry":{"type":"Point","coordinates":[-86.819651,33.552271]}},{"properties":{"city":"Birmingham","latitude":33.365491,"librarysystem":"North Shelby Library","longitude":-86.715693,"id":"a672ou5da0w7","address":"5521 Cahaba Valley Road","libraryname":"North Shelby Library","state":"AL"},"type":"Feature","geometry":{"type":"Point","coordinates":[-86.715693,33.365491]}},{"properties":{"city":"Winfield","latitude":33.931709,"librarysystem":"Northwest Regional Library","longitude":-87.815147,"id":"a672oudldki9","address":"185 Ashwood Drive","libraryname":"Northwest Regional Library","state":"AL"},"type":"Feature","geometry":{"type":"Point","coordinates":[-87.815147,33.931709]}},{"properties":{"city":"Odenville","latitude":33.682017,"librarysystem":"Odenville Public Library","longitude":-86.396511,"id":"a672oua0zo50","address":"150 Alabama Street","libraryname":"Odenville Public Library","state":"AL"},"type":"Feature","geometry":{"type":"Point","coordinates":[-86.396511,33.682017]}},{"properties":{"city":"Oneonta","latitude":33.940331,"librarysystem":"Oneonta Public Library","longitude":-86.472266,"id":"a672ou7mynpj","address":"221 2nd Street South","libraryname":"Oneonta Public Library","state":"AL"},"type":"Feature","geometry":{"type":"Point","coordinates":[-86.472266,33.940331]}},{"properties":{"city":"Opp","latitude":31.303603,"librarysystem":"Opp Public Library","longitude":-86.25494,"id":"a672ou20efjt","address":"1604 North Main Street","libraryname":"Opp Public Library","state":"AL"},"type":"Feature","geometry":{"type":"Point","coordinates":[-86.25494,31.303603]}},{"properties":{"city":"Orange Beach","latitude":30.292094,"librarysystem":"Orange Beach Public Library","longitude":-87.581303,"id":"a672oua6pgxh","address":"26267 Canal Road","libraryname":"Orange Beach Public Library","state":"AL"},"type":"Feature","geometry":{"type":"Point","coordinates":[-87.581303,30.292094]}},{"properties":{"city":"Silverhill","latitude":30.54556,"librarysystem":"Oscar Johnson Memorial Library","longitude":-87.751869,"id":"a672ou54depm","address":"21967 6th St","libraryname":"Oscar Johnson Memorial Library","state":"AL"},"type":"Feature","geometry":{"type":"Point","coordinates":[-87.751869,30.54556]}},{"properties":{"city":"Huntsville","latitude":34.727206,"librarysystem":"Huntsville-Madison County Public Library","longitude":-86.605378,"id":"a672oucya1d8","address":"149 Mason Court","libraryname":"Oscar Mason Branch","state":"AL"},"type":"Feature","geometry":{"type":"Point","coordinates":[-86.605378,34.727206]}},{"properties":{"city":"Oxford","latitude":33.614981,"librarysystem":"Oxford Public Library","longitude":-85.832762,"id":"a672ou09lata","address":"213 Choccolocco Street","libraryname":"Oxford Public Library","state":"AL"},"type":"Feature","geometry":{"type":"Point","coordinates":[-85.832762,33.614981]}},{"properties":{"city":"Ozark","latitude":31.452005,"librarysystem":"Ozark-Dale County Public Library","longitude":-85.63329,"id":"a672ou1ms7i9","address":"416 James Street","libraryname":"Ozark-Dale County Public Library","state":"AL"},"type":"Feature","geometry":{"type":"Point","coordinates":[-85.63329,31.452005]}},{"properties":{"city":"Montevallo","latitude":33.102107,"librarysystem":"Parnell Memorial Library","longitude":-86.862545,"id":"a672ou3jl13z","address":"845 Valley Street","libraryname":"Parnell Memorial Library","state":"AL"},"type":"Feature","geometry":{"type":"Point","coordinates":[-86.862545,33.102107]}},{"properties":{"city":"Pelham","latitude":33.286372,"librarysystem":"Pelham Public Library","longitude":-86.810649,"id":"a672oued2nxt","address":"3160 Pelham Parkway","libraryname":"Pelham Public Library","state":"AL"},"type":"Feature","geometry":{"type":"Point","coordinates":[-86.810649,33.286372]}},{"properties":{"city":"Pell City","latitude":33.590091,"librarysystem":"Pell City Public Library","longitude":-86.309185,"id":"a672ou0dal23","address":"1923 1st Avenue North","libraryname":"Pell City Public Library","state":"AL"},"type":"Feature","geometry":{"type":"Point","coordinates":[-86.309185,33.590091]}},{"properties":{"city":"Phenix City","latitude":32.474973,"librarysystem":"Phenix City-Russell Co Pub. Library","longitude":-85.016107,"id":"a672ou6vrgnc","address":"1501 17th Avenue","libraryname":"Phenix City-Russell Co Pub. Library","state":"AL"},"type":"Feature","geometry":{"type":"Point","coordinates":[-85.016107,32.474973]}},{"properties":{"city":"Piedmont","latitude":33.923317,"librarysystem":"Piedmont Public Library","longitude":-85.613438,"id":"a672ouagalhr","address":"106 North Main Street","libraryname":"Piedmont Public Library","state":"AL"},"type":"Feature","geometry":{"type":"Point","coordinates":[-85.613438,33.923317]}},{"properties":{"city":"Pike Road","latitude":32.31455,"librarysystem":"Montgomery City-County Public Library","longitude":-86.047319,"id":"a672ou913ft6","address":"Wallahatchee Road/Old Pike Road","libraryname":"Pike Road Branch","state":"AL"},"type":"Feature","geometry":{"type":"Point","coordinates":[-86.047319,32.31455]}},{"properties":{"city":"Pine Apple","latitude":31.88252,"librarysystem":"Wilcox County Library","longitude":-86.992964,"id":"a672ou5ynb7f","address":"124 County Road 59","libraryname":"Pine Apple Library","state":"AL"},"type":"Feature","geometry":{"type":"Point","coordinates":[-86.992964,31.88252]}},{"properties":{"city":"Pine Hill","latitude":31.991337,"librarysystem":"Wilcox County Library","longitude":-87.57774,"id":"a672oufs5jid","address":"329 Church Stree","libraryname":"Pine Hill Library","state":"AL"},"type":"Feature","geometry":{"type":"Point","coordinates":[-87.57774,31.991337]}},{"properties":{"city":"Pine Level","latitude":32.069483,"librarysystem":"Montgomery City-County Public Library","longitude":-86.059961,"id":"a672ou9vtape","address":"Us 231 And Moore Road","libraryname":"Pine Level Branch","state":"AL"},"type":"Feature","geometry":{"type":"Point","coordinates":[-86.059961,32.069483]}},{"properties":{"city":"Montgomery","latitude":32.38355,"librarysystem":"Montgomery City-County Public Library","longitude":-86.272633,"id":"a672oua5v9jv","address":"255 Federal Road","libraryname":"Pintlala Branch","state":"AL"},"type":"Feature","geometry":{"type":"Point","coordinates":[-86.272633,32.38355]}},{"properties":{"city":"Pleasant Grove","latitude":33.490567,"librarysystem":"Pleasant Grove Public Library","longitude":-86.970358,"id":"a672oubqemwv","address":"501 Park Road","libraryname":"Pleasant Grove Public Library","state":"AL"},"type":"Feature","geometry":{"type":"Point","coordinates":[-86.970358,33.490567]}},{"properties":{"city":"Birmingham","latitude":33.463905,"librarysystem":"Birmingham Public Library","longitude":-86.88752,"id":"a672oufrtl59","address":"3301 Jefferson Avenue SW","libraryname":"Powderly Branch","state":"AL"},"type":"Feature","geometry":{"type":"Point","coordinates":[-86.88752,33.463905]}},{"properties":{"city":"Birmingham","latitude":33.540902,"librarysystem":"Birmingham Public Library","longitude":-86.879014,"id":"a672oub3gd4f","address":"1100 Hibernian Street","libraryname":"Pratt City Branch","state":"AL"},"type":"Feature","geometry":{"type":"Point","coordinates":[-86.879014,33.540902]}},{"properties":{"city":"Priceville","latitude":34.52598,"librarysystem":"Priceville Public Library","longitude":-86.890942,"id":"a672ouaw3opr","address":"103 Faye Drive","libraryname":"Priceville Public Library","state":"AL"},"type":"Feature","geometry":{"type":"Point","coordinates":[-86.890942,34.52598]}},{"properties":{"city":"Prichard","latitude":30.73177,"librarysystem":"Prichard Public Library","longitude":-88.083843,"id":"a672ou5jtz5u","address":"300 Lovejoy Loop West","libraryname":"Prichard Public Library","state":"AL"},"type":"Feature","geometry":{"type":"Point","coordinates":[-88.083843,30.73177]}},{"properties":{"city":"Ragland","latitude":33.742788,"librarysystem":"Ragland Public Library","longitude":-86.163042,"id":"a672ou50ofef","address":"196 Old Main Street","libraryname":"Ragland Public Library","state":"AL"},"type":"Feature","geometry":{"type":"Point","coordinates":[-86.163042,33.742788]}},{"properties":{"city":"Rainbow City","latitude":33.950896,"librarysystem":"Rainbow City Public Library","longitude":-86.045003,"id":"a672ou5eolag","address":"3702 Rainbow Drive","libraryname":"Rainbow City Public Library","state":"AL"},"type":"Feature","geometry":{"type":"Point","coordinates":[-86.045003,33.950896]}},{"properties":{"city":"Rainsville","latitude":34.488091,"librarysystem":"Rainsville Public Library","longitude":-85.832459,"id":"a672ou5w2t5v","address":"941 East Main Street","libraryname":"Rainsville Public Library","state":"AL"},"type":"Feature","geometry":{"type":"Point","coordinates":[-85.832459,34.488091]}},{"properties":{"city":"Ramer","latitude":32.032439,"librarysystem":"Montgomery City-County Public Library","longitude":-86.15953,"id":"a672ou5xivog","address":"State Highway 94","libraryname":"Ramer Branch","state":"AL"},"type":"Feature","geometry":{"type":"Point","coordinates":[-86.15953,32.032439]}},{"properties":{"city":"Reform","latitude":33.377499,"librarysystem":"Reform Public Library","longitude":-88.01551,"id":"a672ou4ibpn7","address":"216 1st Street South","libraryname":"Reform Public Library","state":"AL"},"type":"Feature","geometry":{"type":"Point","coordinates":[-88.01551,33.377499]}},{"properties":{"city":"Robertsdale","latitude":30.553933,"librarysystem":"Robertsdale Public Library","longitude":-87.711453,"id":"a672ou3ls8e2","address":"18301 Pennsylvania Street","libraryname":"Robertsdale Public Library","state":"AL"},"type":"Feature","geometry":{"type":"Point","coordinates":[-87.711453,30.553933]}},{"properties":{"city":"Rockford","latitude":32.889395,"librarysystem":"Rockford Public Library","longitude":-86.219449,"id":"a672oud0g9qs","address":"110 Main Street","libraryname":"Rockford Public Library","state":"AL"},"type":"Feature","geometry":{"type":"Point","coordinates":[-86.219449,32.889395]}},{"properties":{"city":"Rogersville","latitude":34.82522,"librarysystem":"Rogersville Public Library","longitude":-87.294384,"id":"a672ou8hmh7j","address":"74 Bank Street","libraryname":"Rogersville Public Library","state":"AL"},"type":"Feature","geometry":{"type":"Point","coordinates":[-87.294384,34.82522]}},{"properties":{"city":"Montgomery","latitude":32.359437,"librarysystem":"Montgomery City-County Public Library","longitude":-86.316928,"id":"a672ou2opxnt","address":"1276 Rosa Parks Avenue","libraryname":"Rosa Parks Avenue Branch","state":"AL"},"type":"Feature","geometry":{"type":"Point","coordinates":[-86.316928,32.359437]}},{"properties":{"city":"Columbia","latitude":31.286968,"librarysystem":"Houston-Love Memorial Library","longitude":-85.112385,"id":"a672oubyiw5h","address":"South Main Street","libraryname":"Rossie Purcell Branch","state":"AL"},"type":"Feature","geometry":{"type":"Point","coordinates":[-85.112385,31.286968]}},{"properties":{"city":"Livingston","latitude":32.58442,"librarysystem":"Ruby Pickens Tartt Public Library","longitude":-88.189379,"id":"a672ou2mckb3","address":"206 Monroe St.","libraryname":"Ruby Pickens Tartt Public Library","state":"AL"},"type":"Feature","geometry":{"type":"Point","coordinates":[-88.189379,32.58442]}},{"properties":{"city":"Montgomery","latitude":32.348222,"librarysystem":"Montgomery City-County Public Library","longitude":-86.338449,"id":"a672ou2ik5qn","address":"3095 Mobile Highway","libraryname":"Rufus A. Lewis Regional Branch","state":"AL"},"type":"Feature","geometry":{"type":"Point","coordinates":[-86.338449,32.348222]}},{"properties":{"city":"Hokes Bluff","latitude":33.992479,"librarysystem":"Rufus Floyd Public Library","longitude":-85.866224,"id":"a672oucooea7","address":"3310 Alfords Bend Road","libraryname":"Rufus Floyd Public Library","state":"AL"},"type":"Feature","geometry":{"type":"Point","coordinates":[-85.866224,33.992479]}},{"properties":{"city":"Russellville","latitude":34.504047,"librarysystem":"Russellville Public Library","longitude":-87.727955,"id":"a672ou4eq5gb","address":"110 East Lawrence Street","libraryname":"Russellville Public Library","state":"AL"},"type":"Feature","geometry":{"type":"Point","coordinates":[-87.727955,34.504047]}},{"properties":{"city":"Samson","latitude":31.116694,"librarysystem":"Samson Public Library","longitude":-86.045908,"id":"a672ou8jz38f","address":"200 North Johnson Street","libraryname":"Samson Public Library","state":"AL"},"type":"Feature","geometry":{"type":"Point","coordinates":[-86.045908,31.116694]}},{"properties":{"city":"Saraland","latitude":30.824611,"librarysystem":"Mobile Public Library","longitude":-88.073594,"id":"a672oufc0lvf","address":"111 Saraland Loop","libraryname":"Saraland Public Library","state":"AL"},"type":"Feature","geometry":{"type":"Point","coordinates":[-88.073594,30.824611]}},{"properties":{"city":"Sardis City","latitude":34.183334,"librarysystem":"Sardis City Public Library","longitude":-86.119268,"id":"a672ouam722p","address":"296 Parkway Drive","libraryname":"Sardis City Public Library","state":"AL"},"type":"Feature","geometry":{"type":"Point","coordinates":[-86.119268,34.183334]}},{"properties":{"city":"Satsuma","latitude":30.845085,"librarysystem":"Satsuma Public Library","longitude":-88.059646,"id":"a672ou32e4eh","address":"5466 Old Highway 43","libraryname":"Satsuma Public Library","state":"AL"},"type":"Feature","geometry":{"type":"Point","coordinates":[-88.059646,30.845085]}},{"properties":{"city":"Scottsboro","latitude":34.661053,"librarysystem":"Scottsboro Public Library","longitude":-86.03519,"id":"a672ou32h0rp","address":"1002 South Broad Street","libraryname":"Scottsboro Public Library","state":"AL"},"type":"Feature","geometry":{"type":"Point","coordinates":[-86.03519,34.661053]}},{"properties":{"city":"Selma","latitude":32.409085,"librarysystem":"Selma-Dallas County Public Library","longitude":-87.020493,"id":"a672oua6lcp6","address":"1103 Selma Avenue","libraryname":"Selma-Dallas County Public Library","state":"AL"},"type":"Feature","geometry":{"type":"Point","coordinates":[-87.020493,32.409085]}},{"properties":{"city":"Sheffield","latitude":34.76109,"librarysystem":"Sheffield Public Library","longitude":-87.698469,"id":"a672ou37bko8","address":"316 North Montgomery Avenue","libraryname":"Sheffield Public Library","state":"AL"},"type":"Feature","geometry":{"type":"Point","coordinates":[-87.698469,34.76109]}},{"properties":{"city":"Butler","latitude":32.089355,"librarysystem":"Choctaw County Public Library","longitude":-88.221279,"id":"a672oue0ex62","address":"Silas","libraryname":"Silas Branch Library","state":"AL"},"type":"Feature","geometry":{"type":"Point","coordinates":[-88.221279,32.089355]}},{"properties":{"city":"Slocomb","latitude":31.110757,"librarysystem":"Slocomb Public Library","longitude":-85.591622,"id":"a672ou66mf31","address":"132 North Washington Street","libraryname":"Slocomb Public Library","state":"AL"},"type":"Feature","geometry":{"type":"Point","coordinates":[-85.591622,31.110757]}},{"properties":{"city":"Birmingham","latitude":33.54404,"librarysystem":"Birmingham Public Library","longitude":-86.82566,"id":"a672ouf8h0tu","address":"1916 25th Court North","libraryname":"Slossfield Branch","state":"AL"},"type":"Feature","geometry":{"type":"Point","coordinates":[-86.82566,33.54404]}},{"properties":{"city":"Birmingham","latitude":33.513898,"librarysystem":"Birmingham Public Library","longitude":-86.836352,"id":"a672ou0dar9x","address":"1 8th Avenue West","libraryname":"Smithfield Branch","state":"AL"},"type":"Feature","geometry":{"type":"Point","coordinates":[-86.836352,33.513898]}},{"properties":{"city":"Birmingham","latitude":33.499526,"librarysystem":"Birmingham Public Library","longitude":-86.798914,"id":"a672oue5t097","address":"1814 11th Avenue South","libraryname":"Southside Branch Library","state":"AL"},"type":"Feature","geometry":{"type":"Point","coordinates":[-86.798914,33.499526]}},{"properties":{"city":"Springville","latitude":33.775447,"librarysystem":"Springville Public Library","longitude":-86.470844,"id":"a672ou4od2xa","address":"6496 Us 11","libraryname":"Springville Public Library","state":"AL"},"type":"Feature","geometry":{"type":"Point","coordinates":[-86.470844,33.775447]}},{"properties":{"city":"Birmingham","latitude":33.615908,"librarysystem":"Birmingham Public Library","longitude":-86.676454,"id":"a672ou4e78pf","address":"1224 Old Springville Road","libraryname":"Springville Road Regional Library","state":"AL"},"type":"Feature","geometry":{"type":"Point","coordinates":[-86.676454,33.615908]}},{"properties":{"city":"Ashville","latitude":33.839742,"librarysystem":"St. Clair County Library","longitude":-86.255044,"id":"a672ou25wtcl","address":"139 5th Street","libraryname":"St. Clair County Library","state":"AL"},"type":"Feature","geometry":{"type":"Point","coordinates":[-86.255044,33.839742]}},{"properties":{"city":"Steele","latitude":33.872497,"librarysystem":"St. Clair County Library","longitude":-86.304129,"id":"a672oub500lx","address":"Us Highway 11","libraryname":"Steele Public Library","state":"AL"},"type":"Feature","geometry":{"type":"Point","coordinates":[-86.304129,33.872497]}},{"properties":{"city":"Stevenson","latitude":34.868698,"librarysystem":"Stevenson Public Library","longitude":-85.838939,"id":"a672oucs1bno","address":"102 West Main Street","libraryname":"Stevenson Public Library","state":"AL"},"type":"Feature","geometry":{"type":"Point","coordinates":[-85.838939,34.868698]}},{"properties":{"city":"Sulligent","latitude":33.900798,"librarysystem":"Sulligent Public Library","longitude":-88.1337,"id":"a672ou96tiun","address":"55188 Highway 17","libraryname":"Sulligent Public Library","state":"AL"},"type":"Feature","geometry":{"type":"Point","coordinates":[-88.1337,33.900798]}},{"properties":{"city":"Sumiton","latitude":33.758135,"librarysystem":"Sumiton Public Library","longitude":-87.049629,"id":"a672ou2hp7pa","address":"State Street","libraryname":"Sumiton Public Library","state":"AL"},"type":"Feature","geometry":{"type":"Point","coordinates":[-87.049629,33.758135]}},{"properties":{"city":"Talladega","latitude":33.433219,"librarysystem":"Talladega Public Library","longitude":-86.099716,"id":"a672ou6878vy","address":"202 South Street E","libraryname":"Talladega Public Library","state":"AL"},"type":"Feature","geometry":{"type":"Point","coordinates":[-86.099716,33.433219]}},{"properties":{"city":"East Tallassee","latitude":32.534258,"librarysystem":"Tallassee Community Library","longitude":-85.883745,"id":"a672ou1m9g1f","address":"102 Freeman Avenue","libraryname":"Tallassee Community Library","state":"AL"},"type":"Feature","geometry":{"type":"Point","coordinates":[-85.883745,32.534258]}},{"properties":{"city":"Tarrant","latitude":33.583487,"librarysystem":"Tarrant Public Library","longitude":-86.77068,"id":"a672ou4n5txu","address":"1143 Ford Avenue","libraryname":"Tarrant Public Library","state":"AL"},"type":"Feature","geometry":{"type":"Point","coordinates":[-86.77068,33.583487]}},{"properties":{"city":"Warrior","latitude":33.813221,"librarysystem":"The Evelyn Thornton - Warrior Public Library","longitude":-86.807863,"id":"a672ou5q7ppu","address":"10 First Street","libraryname":"The Evelyn Thornton - Warrior Public Library","state":"AL"},"type":"Feature","geometry":{"type":"Point","coordinates":[-86.807863,33.813221]}},{"properties":{"city":"Gulf Shores","latitude":30.272334,"librarysystem":"Thomas B. Norton Public Library","longitude":-87.694793,"id":"a672otznwmpn","address":"221 West 19th Avenue","libraryname":"Thomas B. Norton Public Library","state":"AL"},"type":"Feature","geometry":{"type":"Point","coordinates":[-87.694793,30.272334]}},{"properties":{"city":"Thomasville","latitude":31.929634,"librarysystem":"Thomasville Public Library","longitude":-87.738326,"id":"a672oucc7bmm","address":"1401 Mosley Drive","libraryname":"Thomasville Public Library","state":"AL"},"type":"Feature","geometry":{"type":"Point","coordinates":[-87.738326,31.929634]}},{"properties":{"city":"Thorsby","latitude":32.900961,"librarysystem":"Chilton-Clanton Public Library","longitude":-86.698747,"id":"a672ou1fvojp","address":"Highway 31 North","libraryname":"Thorsby Public Library","state":"AL"},"type":"Feature","geometry":{"type":"Point","coordinates":[-86.698747,32.900961]}},{"properties":{"city":"Hazel Green","latitude":34.934202,"librarysystem":"Huntsville-Madison County Public Library","longitude":-86.57332,"id":"a672oue80s62","address":"131 Knowledge Drive","libraryname":"Tillman Hill Branch Library","state":"AL"},"type":"Feature","geometry":{"type":"Point","coordinates":[-86.57332,34.934202]}},{"properties":{"city":"Mobile","latitude":30.591961,"librarysystem":"Mobile Public Library","longitude":-88.167961,"id":"a672ou7sffny","address":"5451 Halls Mill Road, Suite 10","libraryname":"Tillmans Corner Branch","state":"AL"},"type":"Feature","geometry":{"type":"Point","coordinates":[-88.167961,30.591961]}},{"properties":{"city":"Birmingham","latitude":33.492606,"librarysystem":"Birmingham Public Library","longitude":-86.83124,"id":"a672oue2cuii","address":"2 6th Avenue SW","libraryname":"Titusville Branch","state":"AL"},"type":"Feature","geometry":{"type":"Point","coordinates":[-86.83124,33.492606]}},{"properties":{"city":"Hanceville","latitude":33.948122,"librarysystem":"Cullman County Public Library System","longitude":-86.888198,"id":"a672oua37h71","address":"115 Byars Road","libraryname":"Tom Bevel Branch","state":"AL"},"type":"Feature","geometry":{"type":"Point","coordinates":[-86.888198,33.948122]}},{"properties":{"city":"Mobile","latitude":30.718793,"librarysystem":"Mobile Public Library","longitude":-88.083712,"id":"a672oufiwcna","address":"2318 St. Stephens Road","libraryname":"Toulminville Branch","state":"AL"},"type":"Feature","geometry":{"type":"Point","coordinates":[-88.083712,30.718793]}},{"properties":{"city":"Clayton","latitude":31.881403,"librarysystem":"Town And County Public Library","longitude":-85.449524,"id":"a672oufqvalv","address":"45 No. Midway Street","libraryname":"Town And County Public Library","state":"AL"},"type":"Feature","geometry":{"type":"Point","coordinates":[-85.449524,31.881403]}},{"properties":{"city":"Madison","latitude":34.585534,"librarysystem":"Huntsville-Madison County Public Library","longitude":-86.736699,"id":"a672ou0vuotm","address":"280 Zierdt Road","libraryname":"Triana Branch Library","state":"AL"},"type":"Feature","geometry":{"type":"Point","coordinates":[-86.736699,34.585534]}},{"properties":{"city":"Troy","latitude":31.809314,"librarysystem":"Troy Public Library","longitude":-85.972278,"id":"a672oufv35vn","address":"300 North Three Notch Street","libraryname":"Troy Public Library","state":"AL"},"type":"Feature","geometry":{"type":"Point","coordinates":[-85.972278,31.809314]}},{"properties":{"city":"Trussville","latitude":33.626508,"librarysystem":"Trussville Public Library","longitude":-86.604507,"id":"a672oud0h9uc","address":"201 Parkway Drive","libraryname":"Trussville Public Library","state":"AL"},"type":"Feature","geometry":{"type":"Point","coordinates":[-86.604507,33.626508]}},{"properties":{"city":"Brundidge","latitude":31.718874,"librarysystem":"Tupper Lightfoot Memorial Library","longitude":-85.815787,"id":"a672ou4zdkuu","address":"164 South Main Street","libraryname":"Tupper Lightfoot Memorial Library","state":"AL"},"type":"Feature","geometry":{"type":"Point","coordinates":[-85.815787,31.718874]}},{"properties":{"city":"Tuscaloosa","latitude":33.216626,"librarysystem":"Tuscaloosa Public Library","longitude":-87.560533,"id":"a672ou83ym9s","address":"1801 Jack Warner Parkway","libraryname":"Tuscaloosa Public Library","state":"AL"},"type":"Feature","geometry":{"type":"Point","coordinates":[-87.560533,33.216626]}},{"properties":{"city":"Union Springs","latitude":32.151087,"librarysystem":"Union Springs Public Library","longitude":-85.715811,"id":"a672ou5ihns2","address":"103 North Prairie Street","libraryname":"Union Springs Public Library","state":"AL"},"type":"Feature","geometry":{"type":"Point","coordinates":[-85.715811,32.151087]}},{"properties":{"city":"Uniontown","latitude":32.44584,"librarysystem":"Uniontown Public Library","longitude":-87.514274,"id":"a672ou607teh","address":"108 Water Street","libraryname":"Uniontown Public Library","state":"AL"},"type":"Feature","geometry":{"type":"Point","coordinates":[-87.514274,32.44584]}},{"properties":{"city":"Vestavia Hills","latitude":33.436431,"librarysystem":"Vestavia Hills Public Library","longitude":-86.788558,"id":"a672oubqxovu","address":"1112 Montgomery Highway","libraryname":"Vestavia Hills Public Library","state":"AL"},"type":"Feature","geometry":{"type":"Point","coordinates":[-86.788558,33.436431]}},{"properties":{"city":"Fairfield","latitude":33.491222,"librarysystem":"Walter J. Hanna Memorial Library","longitude":-86.915177,"id":"a672ou0pijzr","address":"4615 Gary Avenue","libraryname":"Walter J. Hanna Memorial Library","state":"AL"},"type":"Feature","geometry":{"type":"Point","coordinates":[-86.915177,33.491222]}},{"properties":{"city":"Chatom","latitude":31.45995,"librarysystem":"Washington County Public Library","longitude":-88.234344,"id":"a672ou2op7ab","address":"Highway 56","libraryname":"Washington County Public Library","state":"AL"},"type":"Feature","geometry":{"type":"Point","coordinates":[-88.234344,31.45995]}},{"properties":{"city":"Red Bay","latitude":34.438622,"librarysystem":"Weatherford Public Library","longitude":-88.141759,"id":"a672ou3f0imf","address":"307 4th Avenue S","libraryname":"Weatherford Public Library","state":"AL"},"type":"Feature","geometry":{"type":"Point","coordinates":[-88.141759,34.438622]}},{"properties":{"city":"Tuscaloosa","latitude":33.196677,"librarysystem":"Tuscaloosa Public Library","longitude":-87.573172,"id":"a672ou6ix6zi","address":"2937 18th Street","libraryname":"Weaver-Bolden Branch Library","state":"AL"},"type":"Feature","geometry":{"type":"Point","coordinates":[-87.573172,33.196677]}},{"properties":{"city":"West Blocton","latitude":33.11738,"librarysystem":"West Blocton Public Library","longitude":-87.114439,"id":"a672ou0f6x27","address":"62 Walter Owens Drive","libraryname":"West Blocton Public Library","state":"AL"},"type":"Feature","geometry":{"type":"Point","coordinates":[-87.114439,33.11738]}},{"properties":{"city":"Birmingham","latitude":33.493698,"librarysystem":"Birmingham Public Library","longitude":-86.852544,"id":"a672ou61jcrf","address":"1241 Tuscaloosa Avenue SW","libraryname":"West End Branch","state":"AL"},"type":"Feature","geometry":{"type":"Point","coordinates":[-86.852544,33.493698]}},{"properties":{"city":"Mobile","latitude":30.663293,"librarysystem":"Mobile Public Library","longitude":-88.170104,"id":"a672oue18glb","address":"5555 Grelot Road","libraryname":"West Regional Library","state":"AL"},"type":"Feature","geometry":{"type":"Point","coordinates":[-88.170104,30.663293]}},{"properties":{"city":"Fairfield","latitude":33.490612,"librarysystem":"Walter J. Hanna Memorial Library","longitude":-86.915661,"id":"a672oucdz0r3","address":"Suite 32 Aronov Drive","libraryname":"Western Hills Mall Branch","state":"AL"},"type":"Feature","geometry":{"type":"Point","coordinates":[-86.915661,33.490612]}},{"properties":{"city":"Westover","latitude":33.358596,"librarysystem":"Westover Public Library","longitude":-86.518065,"id":"a672ou5u37p2","address":"3312 Westover Road","libraryname":"Westover Public Library","state":"AL"},"type":"Feature","geometry":{"type":"Point","coordinates":[-86.518065,33.358596]}},{"properties":{"city":"Walnut Grove","latitude":34.054033,"librarysystem":"Westside Public Library","longitude":-86.307421,"id":"a672ou6nc27t","address":"5151 Walnut Grove Road","libraryname":"Westside Public Library","state":"AL"},"type":"Feature","geometry":{"type":"Point","coordinates":[-86.307421,34.054033]}},{"properties":{"city":"Wetumpka","latitude":32.536559,"librarysystem":"Wetumpka Public Library","longitude":-86.205811,"id":"a672ou494dgk","address":"212 South Main Street","libraryname":"Wetumpka Public Library","state":"AL"},"type":"Feature","geometry":{"type":"Point","coordinates":[-86.205811,32.536559]}},{"properties":{"city":"Decatur","latitude":34.607154,"librarysystem":"Wheeler Basin Regional Library","longitude":-86.981558,"id":"a672oueragtt","address":"504 Cherry Street NE","libraryname":"Wheeler Basin Regional Library","state":"AL"},"type":"Feature","geometry":{"type":"Point","coordinates":[-86.981558,34.607154]}},{"properties":{"city":"White Hall","latitude":32.30427,"librarysystem":"White Hall Public Library","longitude":-86.713059,"id":"a672ou5dd41d","address":"756 White Hall Road","libraryname":"White Hall Public Library","state":"AL"},"type":"Feature","geometry":{"type":"Point","coordinates":[-86.713059,32.30427]}},{"properties":{"city":"Jackson","latitude":31.5124,"librarysystem":"White Smith Memorial Library","longitude":-87.893932,"id":"a672oudi6f26","address":"213 College Avenue","libraryname":"White Smith Memorial Library","state":"AL"},"type":"Feature","geometry":{"type":"Point","coordinates":[-87.893932,31.5124]}},{"properties":{"city":"Camden","latitude":31.991858,"librarysystem":"Wilcox County Library","longitude":-87.289786,"id":"a672ou6yw54t","address":"100 Broad Street","libraryname":"Wilcox County Library","state":"AL"},"type":"Feature","geometry":{"type":"Point","coordinates":[-87.289786,31.991858]}},{"properties":{"city":"Wilsonville","latitude":33.23633,"librarysystem":"Wilsonville Public Library","longitude":-86.484069,"id":"a672oudxyk31","address":"9905 North Main Street","libraryname":"Wilsonville Public Library","state":"AL"},"type":"Feature","geometry":{"type":"Point","coordinates":[-86.484069,33.23633]}},{"properties":{"city":"Winfield","latitude":33.931709,"librarysystem":"Winfield Public Library","longitude":-87.815147,"id":"a672ou0ftn2g","address":"185 Ashwood Drive","libraryname":"Winfield Public Library","state":"AL"},"type":"Feature","geometry":{"type":"Point","coordinates":[-87.815147,33.931709]}},{"properties":{"city":"Birmingham","latitude":33.542009,"librarysystem":"Birmingham Public Library","longitude":-86.750239,"id":"a672ou2zbg07","address":"5709 First Avenue North","libraryname":"Woodlawn Branch","state":"AL"},"type":"Feature","geometry":{"type":"Point","coordinates":[-86.750239,33.542009]}},{"properties":{"city":"Woodville","latitude":34.627154,"librarysystem":"Woodville Public Library","longitude":-86.274844,"id":"a672ouccy5j1","address":"26 Venson Street","libraryname":"Woodville Public Library","state":"AL"},"type":"Feature","geometry":{"type":"Point","coordinates":[-86.274844,34.627154]}},{"properties":{"city":"Birmingham","latitude":33.505781,"librarysystem":"Birmingham Public Library","longitude":-86.920046,"id":"a672ou51sthf","address":"4300 7th Avenue Wylam","libraryname":"Wylam Branch","state":"AL"},"type":"Feature","geometry":{"type":"Point","coordinates":[-86.920046,33.505781]}}],"is_temporal":false,"author":{"url":"http://www.publiclibraries.com/alabama.htm","metadata":"","contact_name":"","contact_address":"","source":"publiclibrairies.com","contact_phone":""},"source":"http://www.publiclibraries.com/alabama.htm","pagination":{"sort":null,"start":0,"total":286,"limit":1000000},"state":"complete","tags":"alabama,books,education,libraries,library,public","published":"2008-05-09T12:00:00Z","id":873}