{"type":"FeatureCollection","data_type":"Dataset","url_type":null,"permissions":[{"permissions":{"download":true,"view":true},"group_id":"everyone"}],"classification":null,"title":"Helena Chemical Plant List","count":305,"stream_id":87312,"contributor":{"url":"http://geocommons.com/users/14766","name":"dpkennedy"},"data_attributes":null,"calculation_params":null,"icon_link":null,"link":"http://geocommons.com/overlays/87312.json","extent":[-122.87,25.4517,-72.6207,48.9286],"geometry_types":["point"],"unique_name":null,"name":"Helena Chemical Plant List","feature_count":305,"description":"","next_feature":null,"is_raster":false,"short_classification":"Y","stats":{},"features":[{"properties":{"restrictions":null,"city":"Centre","name":"Centre (AL)","station name":null,"switch status":null,"zip":"35960","geo_score":0.502,"scac":null,"fax":"Fax: 256-927-6217","phone":"Phone: 256-927-8520","served roads":null,"fsac":null,"id":"a6569whb0n4u","geo_precision":"street","address":"545 Industrial Park Dr","state":"AL"},"type":"Feature","geometry":{"type":"Point","coordinates":[-85.670558,34.157361]}},{"properties":{"restrictions":null,"city":"Dothan","name":"Dothan (AL)","station name":null,"switch status":null,"zip":"36301","geo_score":0.884,"scac":null,"fax":"Fax: 334-792-0093","phone":"Phone: 334-792-0091","served roads":null,"fsac":null,"id":"a6569wn3by4k","geo_precision":"range","address":"1312 E Coe Dairy Rd","state":"AL"},"type":"Feature","geometry":{"type":"Point","coordinates":[-85.384593,31.19458]}},{"properties":{"restrictions":null,"city":"Florence","name":"Florence (AL)","station name":null,"switch status":null,"zip":"35633","geo_score":0.78,"scac":null,"fax":"Fax: 256-765-0376","phone":"Phone: 256-765-0370","served roads":null,"fsac":null,"id":"a6569wc7ukgz","geo_precision":"range","address":"24054 CO RD 14","state":"AL"},"type":"Feature","geometry":{"type":"Point","coordinates":[-87.798734,34.842542]}},{"properties":{"restrictions":null,"city":"Selma","name":"Selma (AL)","station name":null,"switch status":null,"zip":"36701","geo_score":0.883,"scac":null,"fax":"Fax: 334-875-3814","phone":"Phone: 334-875-2737","served roads":null,"fsac":null,"id":"a6569wihpwer","geo_precision":"range","address":"3200 Old Montgomery Highway","state":"AL"},"type":"Feature","geometry":{"type":"Point","coordinates":[-86.98423,32.365074]}},{"properties":{"restrictions":null,"city":"Selma","name":"Selma (AL) - Forestry","station name":null,"switch status":null,"zip":"36701","geo_score":0.883,"scac":null,"fax":"Fax: 334-875-3814","phone":"Phone: 334-875-2737","served roads":null,"fsac":null,"id":"a6569wejrx29","geo_precision":"range","address":"3200 Old Montgomery Highway","state":"AL"},"type":"Feature","geometry":{"type":"Point","coordinates":[-86.98423,32.365074]}},{"properties":{"restrictions":null,"city":"Summerdale","name":"Summerdale-Spclty (AL)","station name":null,"switch status":null,"zip":"36580","geo_score":0.645,"scac":null,"fax":"Fax: 251-989-6242","phone":"Phone: 251-989-6241","served roads":null,"fsac":null,"id":"a6569wlflwk0","geo_precision":"street","address":"113 North West First Street","state":"AL"},"type":"Feature","geometry":{"type":"Point","coordinates":[-87.700234,30.488341]}},{"properties":{"restrictions":null,"city":"Tanner","name":"Tanner (AL)","station name":null,"switch status":null,"zip":"35671","geo_score":0.622,"scac":null,"fax":"Fax: 256-350-9788","phone":"Phone: 256-232-2617","served roads":null,"fsac":null,"id":"a6569wg52o51","geo_precision":"zip","address":"19740 Moyer Road","state":"AL"},"type":"Feature","geometry":{"type":"Point","coordinates":[-86.955007,34.731201]}},{"properties":{"restrictions":null,"city":"Buckeye","name":"Buckeye (AZ) FERTIZONA","station name":"BUCKEYE","switch status":"L","zip":"85326","geo_score":0.912,"scac":"UP","fax":"Fax: 623-386-3432","phone":"Phone: 623-386-5934","served roads":null,"fsac":"73048 LOCAL BUCKEYE","id":"a6569weet67p","geo_precision":"range","address":"26675 West Baseline Road","state":"AZ"},"type":"Feature","geometry":{"type":"Point","coordinates":[-112.62441,33.377627]}},{"properties":{"restrictions":null,"city":"Casa Grande","name":"Casa Grande (AZ)","station name":null,"switch status":null,"zip":"85230","geo_score":0.805,"scac":null,"fax":"Fax: 520-426-9153","phone":"Phone: 520-836-7369","served roads":null,"fsac":null,"id":"a6569wkz92gy","geo_precision":"range","address":"1107 North VIP Boulevard","state":"AZ"},"type":"Feature","geometry":{"type":"Point","coordinates":[-111.78578,32.883415]}},{"properties":{"restrictions":null,"city":"Yuma","name":"Yuma (AZ)","station name":null,"switch status":null,"zip":"85365","geo_score":0.916,"scac":null,"fax":"Fax: 928-344-8462","phone":"Phone: 928-344-9400","served roads":null,"fsac":null,"id":"a6569wop8o0h","geo_precision":"range","address":"2775 East 14th Street","state":"AZ"},"type":"Feature","geometry":{"type":"Point","coordinates":[-114.586984,32.702293]}},{"properties":{"restrictions":null,"city":"Bay","name":"Bay (AR)","station name":null,"switch status":null,"zip":"72411","geo_score":0.763,"scac":null,"fax":"Fax: 870-781-9383","phone":"Phone: 870-781-0037","served roads":null,"fsac":null,"id":"a6569waaj5cs","geo_precision":"street","address":"927 South Bay Drive","state":"AR"},"type":"Feature","geometry":{"type":"Point","coordinates":[-90.570647,35.748219]}},{"properties":{"restrictions":null,"city":"De Witt","name":"Dewitt (AR)","station name":null,"switch status":null,"zip":"72042","geo_score":0.805,"scac":null,"fax":"Fax: 870-946-3518","phone":"Phone: 870-946-3516","served roads":null,"fsac":null,"id":"a6569wbjjfm9","geo_precision":"range","address":"664 Highway 165 North","state":"AR"},"type":"Feature","geometry":{"type":"Point","coordinates":[-91.35027,34.287552]}},{"properties":{"restrictions":null,"city":"Elaine","name":"Elaine (AR)","station name":null,"switch status":null,"zip":"72333","geo_score":0.667,"scac":null,"fax":"Fax: 870-827-3682","phone":"Phone: 870-827-3227","served roads":null,"fsac":null,"id":"a6569wm31j91","geo_precision":"street","address":"22182 Highway 44 /PO Box 29","state":"AR"},"type":"Feature","geometry":{"type":"Point","coordinates":[-90.924589,34.263868]}},{"properties":{"restrictions":null,"city":"England","name":"England Warehouse (AR)","station name":null,"switch status":null,"zip":"72046","geo_score":0.714,"scac":null,"fax":"Fax: 501-842-1234","phone":"Phone: 501-412-6669","served roads":null,"fsac":null,"id":"a6569wl4dbmm","geo_precision":"range","address":"2195 Hwy 165 East England","state":"AR"},"type":"Feature","geometry":{"type":"Point","coordinates":[-91.847984,34.545379]}},{"properties":{"restrictions":null,"city":"Gould","name":"Gould (AR)","station name":null,"switch status":null,"zip":"71643","geo_score":0.493,"scac":null,"fax":"Fax: 870-263-4140","phone":"Phone: 870-263-4003","served roads":null,"fsac":null,"id":"a6569wgiupv8","geo_precision":"street","address":"20773 ST HWY 114 E","state":"AR"},"type":"Feature","geometry":{"type":"Point","coordinates":[-91.556644,33.991423]}},{"properties":{"restrictions":null,"city":"Holly Grove","name":"Holly Grove (AR)","station name":null,"switch status":null,"zip":"72069","geo_score":0.561,"scac":null,"fax":"Fax: 870-462-3359","phone":"Phone: 870-462-3358","served roads":null,"fsac":null,"id":"a6569wgphvgh","geo_precision":"street","address":"10179 Highway 86","state":"AR"},"type":"Feature","geometry":{"type":"Point","coordinates":[-91.200015,34.597376]}},{"properties":{"restrictions":null,"city":"Hughes","name":"Hughes (AR)","station name":null,"switch status":null,"zip":"72348","geo_score":0.789,"scac":null,"fax":"Fax: 870-339-2092","phone":"Phone: 870-339-2363","served roads":null,"fsac":null,"id":"a6569whwkpkd","geo_precision":"range","address":"101 College Street","state":"AR"},"type":"Feature","geometry":{"type":"Point","coordinates":[-90.471283,34.953186]}},{"properties":{"restrictions":null,"city":"Jonesboro","name":"Jonesboro (AR)","station name":null,"switch status":null,"zip":"72404","geo_score":0.68,"scac":null,"fax":"Fax: 870.268.7537","phone":"Phone: 870.268.7533","served roads":null,"fsac":null,"id":"a6569wm50tx9","geo_precision":"street","address":"11113 Hwy 49 South","state":"AR"},"type":"Feature","geometry":{"type":"Point","coordinates":[-90.835821,35.728958]}},{"properties":{"restrictions":null,"city":"Marion","name":"Marion (AR)","station name":null,"switch status":null,"zip":"72364","geo_score":0.471,"scac":null,"fax":"Fax: 870-739-1621","phone":"Phone: 870-739-3110","served roads":null,"fsac":null,"id":"a6569wcazb90","geo_precision":"street","address":"1480 Cypress Ave \\ PO Box 329","state":"AR"},"type":"Feature","geometry":{"type":"Point","coordinates":[-90.199038,35.230787]}},{"properties":{"restrictions":null,"city":"Marvell","name":"Marvell (AR)","station name":null,"switch status":null,"zip":"72366","geo_score":0.593,"scac":null,"fax":"Fax: 870-829-3805","phone":"Phone: 870-829-2576","served roads":null,"fsac":null,"id":"a6569wfxgiaq","geo_precision":"street","address":"204 Highway 1 South / PO Box 1089","state":"AR"},"type":"Feature","geometry":{"type":"Point","coordinates":[-90.951914,34.53547]}},{"properties":{"restrictions":null,"city":"Mcgehee","name":"McGehee (AR)","station name":null,"switch status":null,"zip":"71654","geo_score":0.695,"scac":null,"fax":"Fax: 870-222-4776","phone":"Phone: 870-222-5098","served roads":null,"fsac":null,"id":"a6569wiku9j6","geo_precision":"street","address":"6501 Hwy 65 North","state":"AR"},"type":"Feature","geometry":{"type":"Point","coordinates":[-91.38305,33.60135]}},{"properties":{"restrictions":null,"city":"Newport","name":"Newport (AR)","station name":null,"switch status":null,"zip":"72112","geo_score":0.575,"scac":null,"fax":"Fax: 870-217-0241","phone":"Phone: 870-217-0240","served roads":null,"fsac":null,"id":"a6569wojmxqy","geo_precision":"street","address":"2100 Highway 69","state":"AR"},"type":"Feature","geometry":{"type":"Point","coordinates":[-91.28375,35.62872]}},{"properties":{"restrictions":null,"city":"Paragould","name":"Paragould (AR)","station name":null,"switch status":null,"zip":"72450","geo_score":0.785,"scac":null,"fax":"Fax: 870-240-8050","phone":"Phone: 870-240-8889","served roads":null,"fsac":null,"id":"a6569whgvuv3","geo_precision":"street","address":"3100 Highway 135","state":"AR"},"type":"Feature","geometry":{"type":"Point","coordinates":[-90.503386,36.100015]}},{"properties":{"restrictions":null,"city":"Pine Bluff","name":"Pine Bluff (AR)","station name":null,"switch status":null,"zip":"71601","geo_score":0.913,"scac":null,"fax":"Fax: 870-536-9946","phone":"Phone: 870-536-9945","served roads":null,"fsac":null,"id":"a6569wagojge","geo_precision":"range","address":"110 Chambliss Road","state":"AR"},"type":"Feature","geometry":{"type":"Point","coordinates":[-91.917324,34.194549]}},{"properties":{"restrictions":null,"city":"Portland","name":"Portland (AR)","station name":null,"switch status":null,"zip":"71663","geo_score":0.935,"scac":null,"fax":"Fax: 870-737-4345","phone":"Phone: 870-737-4344","served roads":null,"fsac":null,"id":"a6569wckixjx","geo_precision":"range","address":"224 Highway 165 South","state":"AR"},"type":"Feature","geometry":{"type":"Point","coordinates":[-91.510674,33.230734]}},{"properties":{"restrictions":null,"city":"Sherrill","name":"Sherrill (AR)","station name":null,"switch status":null,"zip":"72152","geo_score":0.768,"scac":null,"fax":"Fax: 870-766-4351","phone":"Phone: 870-766-4425","served roads":null,"fsac":null,"id":"a6569we647b7","geo_precision":"range","address":"6004 North Highway 31","state":"AR"},"type":"Feature","geometry":{"type":"Point","coordinates":[-91.944874,34.374634]}},{"properties":{"restrictions":null,"city":"West Helena","name":"West Helena (Sales)","station name":null,"switch status":null,"zip":"72390","geo_score":0.638,"scac":null,"fax":"Fax: 870-572-4213","phone":"Phone: 870-572-6751","served roads":null,"fsac":null,"id":"a6569wlc4htu","geo_precision":"street","address":"2083 Highway 242 South/PO Box 3379","state":"AR"},"type":"Feature","geometry":{"type":"Point","coordinates":[-90.641373,34.544086]}},{"properties":{"restrictions":null,"city":"Bermuda Dunes","name":"Bermuda Dunes (CA)","station name":null,"switch status":null,"zip":"92201","geo_score":0.707,"scac":null,"fax":"Fax: 760-200-0844","phone":"Phone: 760-200-0098","served roads":null,"fsac":null,"id":"a6569wjbi0rq","geo_precision":"street","address":"79 833 Country Club Drive","state":"CA"},"type":"Feature","geometry":{"type":"Point","coordinates":[-116.286382,33.754314]}},{"properties":{"restrictions":"Reciprocal switching will apply only in connection with ARZC","city":"Blythe","name":"Blythe (CA) GRIJALVA AG SERVICES INC","station name":"BLYTHE","switch status":null,"zip":"92225","geo_score":0.64,"scac":"BNSF","fax":"Fax: 760-922-0364","phone":"Phone: 760-922-0243","served roads":null,"fsac":"19400","id":"a6569wgn12dz","geo_precision":"street","address":"10821 West 15th Ave","state":"CA"},"type":"Feature","geometry":{"type":"Point","coordinates":[-114.657477,33.596471]}},{"properties":{"restrictions":null,"city":"Brawley","name":"Brawley (CA)","station name":null,"switch status":null,"zip":"92227","geo_score":0.916,"scac":null,"fax":"Fax: 760-344-6486","phone":"Phone: 760-344-6400","served roads":null,"fsac":null,"id":"a6569wkb65rz","geo_precision":"range","address":"101 West Carey Road","state":"CA"},"type":"Feature","geometry":{"type":"Point","coordinates":[-115.546422,32.927079]}},{"properties":{"restrictions":null,"city":"Butte City","name":"Butte City (CA)","station name":null,"switch status":null,"zip":"95920","geo_score":0.678,"scac":null,"fax":"Fax: 530-982-2166","phone":"Phone: 530-982-2123","served roads":null,"fsac":null,"id":"a6569wjrdep4","geo_precision":"street","address":"Corner of Highway 45 &amp; Highway 162","state":"CA"},"type":"Feature","geometry":{"type":"Point","coordinates":[-121.87829,39.464061]}},{"properties":{"restrictions":"Reciprocal switching will apply only in connection with SJVR.","city":"Kerman","name":"Central Valley Distribution","station name":"KERMAN","switch status":null,"zip":"93630","geo_score":0.512,"scac":"UP","fax":"Fax: 559-482-3821","phone":"Phone: 559-482-3820","served roads":null,"fsac":"72284","id":"a6569wluskue","geo_precision":"street","address":"14600 West Commerce Way","state":"CA"},"type":"Feature","geometry":{"type":"Point","coordinates":[-120.087645,36.945579]}},{"properties":{"restrictions":null,"city":"Chico","name":"Chico (CA)","station name":null,"switch status":null,"zip":"95928","geo_score":1.0,"scac":null,"fax":"Fax: 530-893-3806","phone":"Phone: 530-343-5881","served roads":null,"fsac":null,"id":"a6569wfz4oou","geo_precision":"range","address":"3155 Southgate Lane","state":"CA"},"type":"Feature","geometry":{"type":"Point","coordinates":[-121.780529,39.696859]}},{"properties":{"restrictions":null,"city":"Chico","name":"Chico (CA) Specialty","station name":null,"switch status":null,"zip":"95928","geo_score":1.0,"scac":null,"fax":"Fax: 530-343-9047","phone":"Phone: 530-342-4786","served roads":null,"fsac":null,"id":"a6569wl0jal6","geo_precision":"range","address":"3155 Southgate Lane","state":"CA"},"type":"Feature","geometry":{"type":"Point","coordinates":[-121.780529,39.696859]}},{"properties":{"restrictions":null,"city":"Hanford","name":"Hanford (CA)","station name":null,"switch status":null,"zip":"93230","geo_score":0.817,"scac":null,"fax":"Fax: 559-582-9648","phone":"Phone: 559-582-0291","served roads":null,"fsac":null,"id":"a6569wh1rus3","geo_precision":"range","address":"12218 11th Avenue","state":"CA"},"type":"Feature","geometry":{"type":"Point","coordinates":[-119.654819,36.29719]}},{"properties":{"restrictions":null,"city":"Hemet","name":"Hemet (CA)","station name":null,"switch status":null,"zip":"92545","geo_score":0.807,"scac":null,"fax":"Fax: 951-766-6019","phone":"Phone: 951-766-6060","served roads":null,"fsac":null,"id":"a6569wfo0kgx","geo_precision":"street","address":"3905 Wentworth Dr","state":"CA"},"type":"Feature","geometry":{"type":"Point","coordinates":[-117.015401,33.732685]}},{"properties":{"restrictions":"Reciprocal switching will apply only in connection with SJVR.","city":"Kerman","name":"Kerman (Sales) (CA)","station name":"KERMAN","switch status":"R","zip":"93630","geo_score":0.512,"scac":"UP","fax":"Fax: 559-846-3428","phone":"Phone: 559-846-7383","served roads":null,"fsac":"72284","id":"a6569war8uea","geo_precision":"street","address":"14600 West Commerce Way","state":"CA"},"type":"Feature","geometry":{"type":"Point","coordinates":[-120.087645,36.945579]}},{"properties":{"restrictions":null,"city":"Exeter","name":"Lindsay (CA)","station name":null,"switch status":null,"zip":"93221","geo_score":0.78,"scac":null,"fax":"Fax: 559-562-5403","phone":"Phone: 559-562-5400","served roads":null,"fsac":null,"id":"a6569weocorz","geo_precision":"range","address":"25114 Rd 204","state":"CA"},"type":"Feature","geometry":{"type":"Point","coordinates":[-119.118381,36.250892]}},{"properties":{"restrictions":null,"city":"Modesto","name":"Modesto (CA)","station name":null,"switch status":null,"zip":"95358","geo_score":0.476,"scac":null,"fax":"Fax: 209-537-9153","phone":"Phone: 209-538-2615","served roads":null,"fsac":null,"id":"a6569wc7c2f5","geo_precision":"street","address":"312 West Service Road / PO Box 580065","state":"CA"},"type":"Feature","geometry":{"type":"Point","coordinates":[-120.956904,37.580311]}},{"properties":{"restrictions":null,"city":"Oxnard","name":"Oxnard (CA)","station name":null,"switch status":null,"zip":"93033","geo_score":1.0,"scac":null,"fax":"Fax: 805-385-4720","phone":"Phone: 805-240-3237","served roads":null,"fsac":null,"id":"a6569wcfnglm","geo_precision":"range","address":"1001 Yarnell Place","state":"CA"},"type":"Feature","geometry":{"type":"Point","coordinates":[-119.165135,34.185415]}},{"properties":{"restrictions":null,"city":"Salinas","name":"Salinas (CA)","station name":null,"switch status":null,"zip":"93901","geo_score":0.773,"scac":null,"fax":"Fax: 831-775-0133","phone":"Phone: 831-775-0104","served roads":null,"fsac":null,"id":"a6569wdy7qum","geo_precision":"range","address":"1355 Abbott Street Suite 102","state":"CA"},"type":"Feature","geometry":{"type":"Point","coordinates":[-121.625282,36.652643]}},{"properties":{"restrictions":null,"city":"Shafter","name":"Shafter (CA)","station name":null,"switch status":null,"zip":"93263","geo_score":0.959,"scac":null,"fax":"Fax: 661-746-2100","phone":"Phone: 661-746-1000","served roads":null,"fsac":null,"id":"a6569wdutmta","geo_precision":"range","address":"751 East Ash Avenue","state":"CA"},"type":"Feature","geometry":{"type":"Point","coordinates":[-119.270137,35.496177]}},{"properties":{"restrictions":null,"city":"Thermal","name":"Thermal (CA)","station name":null,"switch status":null,"zip":"92274","geo_score":0.916,"scac":null,"fax":"Fax: 760-399-1155","phone":"Phone: 760-399-5400","served roads":null,"fsac":null,"id":"a6569wlrtdy1","geo_precision":"range","address":"60995 Pierce Street","state":"CA"},"type":"Feature","geometry":{"type":"Point","coordinates":[-116.112333,33.60587]}},{"properties":{"restrictions":null,"city":"Yuba City","name":"Yuba City (CA)","station name":null,"switch status":null,"zip":"95993","geo_score":1.0,"scac":null,"fax":"Fax: 530-674-1365","phone":"Phone: 530-674-3718","served roads":null,"fsac":null,"id":"a6569whn7ubh","geo_precision":"range","address":"6788 Colusa Highway","state":"CA"},"type":"Feature","geometry":{"type":"Point","coordinates":[-121.739805,39.142117]}},{"properties":{"restrictions":null,"city":"Aurora","name":"Aurora (CO)","station name":null,"switch status":null,"zip":"80011","geo_score":0.795,"scac":null,"fax":"Fax: 720-374-8696","phone":"Phone: 720-374-1994","served roads":null,"fsac":null,"id":"a6569wka6svf","geo_precision":"range","address":"14704 East 33rd Place Unit J","state":"CO"},"type":"Feature","geometry":{"type":"Point","coordinates":[-104.816823,39.765645]}},{"properties":{"restrictions":null,"city":"Fort Morgan","name":"Ft. Morgan (CO)","station name":null,"switch status":null,"zip":"80701","geo_score":0.916,"scac":null,"fax":"Fax: 970-867-2838","phone":"Phone: 970-867-4802","served roads":null,"fsac":null,"id":"a6569wjb3ded","geo_precision":"range","address":"12836 Energy Road","state":"CO"},"type":"Feature","geometry":{"type":"Point","coordinates":[-103.909421,40.24583]}},{"properties":{"restrictions":null,"city":"Alachua","name":"Alachua (FL)","station name":null,"switch status":null,"zip":"32616","geo_score":0.714,"scac":null,"fax":"Fax: 386-462-7011","phone":"Phone: 386-462-4157","served roads":null,"fsac":null,"id":"a6569waahou1","geo_precision":"street","address":"12614 NW 77 Terrace/PO Box 428","state":"FL"},"type":"Feature","geometry":{"type":"Point","coordinates":[-82.424782,29.686276]}},{"properties":{"restrictions":null,"city":"Belle Glade","name":"Belle Glade (FL)","station name":null,"switch status":null,"zip":"33430","geo_score":0.972,"scac":null,"fax":"Fax: 561-996-5083","phone":"Phone: 561-996-6200","served roads":null,"fsac":null,"id":"a6569wjra1la","geo_precision":"range","address":"1336 Northwest Avenue L","state":"FL"},"type":"Feature","geometry":{"type":"Point","coordinates":[-80.680629,26.696802]}},{"properties":{"restrictions":null,"city":"Boynton Beach","name":"Del Ray Beach (FL)","station name":null,"switch status":null,"zip":"33426","geo_score":0.674,"scac":null,"fax":"Fax: 561-585-2223","phone":"Phone: 561-585-2221","served roads":null,"fsac":null,"id":"a6569wkd4qyx","geo_precision":"street","address":"3020 High Ridge Road Suite 600A","state":"FL"},"type":"Feature","geometry":{"type":"Point","coordinates":[-80.075103,26.556013]}},{"properties":{"restrictions":null,"city":"Boynton Beach","name":"Delray (FL) T&amp;O","station name":null,"switch status":null,"zip":"33426","geo_score":0.674,"scac":null,"fax":"Fax: 561-585-2223","phone":"Phone: 561-585-2221","served roads":null,"fsac":null,"id":"a6569wfkbfe1","geo_precision":"street","address":"3020 High Ridge Road Suite 600 A","state":"FL"},"type":"Feature","geometry":{"type":"Point","coordinates":[-80.075103,26.556013]}},{"properties":{"restrictions":null,"city":"Tampa","name":"Florida Division Office","station name":"TAMPA","switch status":"L","zip":"33619","geo_score":0.825,"scac":"CSXT","fax":"Fax: 813-628-0437","phone":"Phone: 813-626-5121","served roads":null,"fsac":"14209","id":"a6569wle5m2t","geo_precision":"range","address":"2405 North 71st Street","state":"FL"},"type":"Feature","geometry":{"type":"Point","coordinates":[-82.375073,27.963447]}},{"properties":{"restrictions":null,"city":"Dade City","name":"Florida Lawn Care (FL)","station name":"DADE CITY","switch status":"L","zip":"33525","geo_score":0.849,"scac":"CSXT","fax":"Fax: 352.567.0204","phone":"Phone: 352.567.5622","served roads":null,"fsac":"14399","id":"a6569wembd4w","geo_precision":"range","address":"11500 Old Lakeland Road","state":"FL"},"type":"Feature","geometry":{"type":"Point","coordinates":[-82.16128,28.325054]}},{"properties":{"restrictions":null,"city":"Fort Pierce","name":"Ft. Pierce (FL)","station name":null,"switch status":null,"zip":"34945","geo_score":1.0,"scac":null,"fax":"Fax: 772-464-8686","phone":"Phone: 772-464-8660","served roads":null,"fsac":null,"id":"a6569waurk1o","geo_precision":"range","address":"1520 Shinn Road","state":"FL"},"type":"Feature","geometry":{"type":"Point","coordinates":[-80.472542,27.426421]}},{"properties":{"restrictions":null,"city":"Fort Pierce","name":"Ft. Pierce Fertilizer (FL)","station name":"FT PIERCE","switch status":"C","zip":"34981","geo_score":1.0,"scac":"FEC","fax":"Fax: 772-465-5524","phone":"Phone: 772-465-5616","served roads":null,"fsac":"222","id":"a6569wdedbbx","geo_precision":"range","address":"3630 Selvitz Rd","state":"FL"},"type":"Feature","geometry":{"type":"Point","coordinates":[-80.36623,27.396941]}},{"properties":{"restrictions":null,"city":"Florida City","name":"Homestead (FL)","station name":null,"switch status":null,"zip":"33034","geo_score":0.838,"scac":null,"fax":"Fax: 305-245-8270","phone":"Phone: 305-245-0433","served roads":null,"fsac":null,"id":"a6569wgjm0hv","geo_precision":"range","address":"450 NW 3rd Avenue","state":"FL"},"type":"Feature","geometry":{"type":"Point","coordinates":[-80.480802,25.451663]}},{"properties":{"restrictions":null,"city":"Lakeland","name":"Lakeland, FL (Golf Only)","station name":null,"switch status":null,"zip":"33811","geo_score":0.805,"scac":null,"fax":"Fax: 863-667-3862","phone":"Phone: 863-666-1513","served roads":null,"fsac":null,"id":"a6569wcpbx2a","geo_precision":"street","address":"5101 Gateway Blvd. #18","state":"FL"},"type":"Feature","geometry":{"type":"Point","coordinates":[-82.055591,28.007454]}},{"properties":{"restrictions":null,"city":"Mount Dora","name":"Mt. Dora (FL)","station name":null,"switch status":null,"zip":"32757","geo_score":0.737,"scac":null,"fax":"Fax: 352-383-8130","phone":"Phone: 352-383-8139","served roads":null,"fsac":null,"id":"a6569wcj6vjs","geo_precision":"range","address":"21244 State Rd 46 PO Box 941","state":"FL"},"type":"Feature","geometry":{"type":"Point","coordinates":[-81.605177,28.800551]}},{"properties":{"restrictions":null,"city":"Palmetto","name":"Palmetto (FL)","station name":null,"switch status":null,"zip":"34221","geo_score":0.659,"scac":null,"fax":"Fax: 941-723-2508","phone":"Phone: 941-722-3253","served roads":null,"fsac":null,"id":"a6569way0kis","geo_precision":"street","address":"1408 20th Avenue East","state":"FL"},"type":"Feature","geometry":{"type":"Point","coordinates":[-82.589283,27.517698]}},{"properties":{"restrictions":null,"city":"Tampa","name":"Tampa (FL) - Dist","station name":null,"switch status":null,"zip":"33619","geo_score":0.825,"scac":null,"fax":"Fax: 813-628-0437","phone":"Phone: 813-626-5121","served roads":null,"fsac":null,"id":"a6569wf5qkv5","geo_precision":"range","address":"2405 North 71st Street","state":"FL"},"type":"Feature","geometry":{"type":"Point","coordinates":[-82.375073,27.963447]}},{"properties":{"restrictions":null,"city":"Albany","name":"Albany (GA)","station name":null,"switch status":null,"zip":"31707","geo_score":1.0,"scac":null,"fax":"Fax: 229-883-3466","phone":"Phone: 229-883-3460","served roads":null,"fsac":null,"id":"a6569wffz840","geo_precision":"range","address":"1129 Seminole Lane","state":"GA"},"type":"Feature","geometry":{"type":"Point","coordinates":[-84.177855,31.553187]}},{"properties":{"restrictions":null,"city":"Arlington","name":"Arlington (GA)","station name":null,"switch status":null,"zip":"39813","geo_score":0.488,"scac":null,"fax":"Fax: 229-725-4873","phone":"Phone: 229-725-4246","served roads":null,"fsac":null,"id":"a6569wbq4pvx","geo_precision":"street","address":"28136 Georgia Hwy 62","state":"GA"},"type":"Feature","geometry":{"type":"Point","coordinates":[-83.485055,31.566603]}},{"properties":{"restrictions":null,"city":"Cordele","name":"Cordele (GA)","station name":"CORDELE","switch status":"C","zip":"31015","geo_score":0.902,"scac":"CSXT","fax":"Fax: 229-273-0838","phone":"Phone: 229-273-1379","served roads":null,"fsac":"13572","id":"a6569wfwsk4c","geo_precision":"range","address":"423 Fenn Road","state":"GA"},"type":"Feature","geometry":{"type":"Point","coordinates":[-83.811397,32.014611]}},{"properties":{"restrictions":null,"city":"Donalsonville","name":"Donalsonville (GA)","station name":null,"switch status":null,"zip":"39845","geo_score":0.537,"scac":null,"fax":"Fax: 229-524-1213","phone":"Phone: 229-524-2405","served roads":null,"fsac":null,"id":"a6569wl006p6","geo_precision":"street","address":"2729 Highway 84 East","state":"GA"},"type":"Feature","geometry":{"type":"Point","coordinates":[-83.934956,30.83469]}},{"properties":{"restrictions":null,"city":"Moultrie","name":"Moultrie (GA)","station name":null,"switch status":null,"zip":"31768","geo_score":0.664,"scac":null,"fax":"Fax: 229-890-1140","phone":"Phone: 229-985-5784","served roads":null,"fsac":null,"id":"a6569wfg6zdf","geo_precision":"range","address":"301 West By Pass","state":"GA"},"type":"Feature","geometry":{"type":"Point","coordinates":[-83.927081,31.197014]}},{"properties":{"restrictions":null,"city":"Rebecca","name":"Rebecca (GA)","station name":"REBECCA","switch status":"L","zip":"31783","geo_score":0.65,"scac":"CSXT","fax":"Fax: 229-643-7682","phone":"Phone: 229-643-7666","served roads":null,"fsac":"13559","id":"a6569wpmnm2u","geo_precision":"street","address":"30 East Ashley Street","state":"GA"},"type":"Feature","geometry":{"type":"Point","coordinates":[-83.486646,31.806614]}},{"properties":{"restrictions":null,"city":"Statesboro","name":"Statesboro (GA)","station name":null,"switch status":null,"zip":"30458","geo_score":0.644,"scac":null,"fax":"Fax: 912-764-3324","phone":"Phone: 912-764-6578","served roads":null,"fsac":null,"id":"a6569wlb9uix","geo_precision":"street","address":"16200 Highway 80 West","state":"GA"},"type":"Feature","geometry":{"type":"Point","coordinates":[-81.800913,32.476062]}},{"properties":{"restrictions":null,"city":"Waynesboro","name":"Waynesboro (GA)","station name":"EAST WAYNESBORO","switch status":"L","zip":"30830","geo_score":0.902,"scac":"NS","fax":"Fax: 706-554-7997","phone":"Phone: 706-554-7485","served roads":null,"fsac":"58884","id":"a6569wl2ijgf","geo_precision":"range","address":"900 Davis Road","state":"GA"},"type":"Feature","geometry":{"type":"Point","coordinates":[-82.008551,33.101548]}},{"properties":{"restrictions":null,"city":"Suwanee","name":"Winder (GA) T&amp;O","station name":null,"switch status":null,"zip":"30024","geo_score":0.932,"scac":null,"fax":"Fax: 770-945-6908","phone":"Phone: 770-945-0686","served roads":null,"fsac":null,"id":"a6569wdtme0w","geo_precision":"range","address":"3211 Shawnee Industrial Way Ste 100","state":"GA"},"type":"Feature","geometry":{"type":"Point","coordinates":[-84.060514,34.023088]}},{"properties":{"restrictions":null,"city":"Gooding","name":"Gooding (ID)","station name":"GOODING","switch status":"L","zip":"83330","geo_score":0.347,"scac":"UP","fax":"Fax: 208-934-8584","phone":"Phone: 208-934-8441","served roads":null,"fsac":"4130","id":"a6569wgv2ygg","geo_precision":"street","address":"PO Box 56","state":"ID"},"type":"Feature","geometry":{"type":"Point","coordinates":[-113.765231,42.556335]}},{"properties":{"restrictions":null,"city":"Grace","name":"Grace (ID)","station name":null,"switch status":null,"zip":"83241","geo_score":0.626,"scac":null,"fax":"Fax: 208-425-3726","phone":"Phone: 208-425-3722","served roads":null,"fsac":null,"id":"a6569wddv71o","geo_precision":"street","address":"426 One Mile Road","state":"ID"},"type":"Feature","geometry":{"type":"Point","coordinates":[-111.760002,42.560126]}},{"properties":{"restrictions":null,"city":"Hazelton","name":"Hazelton (ID)","station name":null,"switch status":null,"zip":"83335","geo_score":0.927,"scac":null,"fax":"Fax: 208.829.4122","phone":"Phone: 208.829.5482","served roads":null,"fsac":null,"id":"a6569w9tyt4e","geo_precision":"range","address":"1924 East 990 South","state":"ID"},"type":"Feature","geometry":{"type":"Point","coordinates":[-114.144485,42.576504]}},{"properties":{"restrictions":null,"city":"Homedale","name":"Homedale (ID)","station name":null,"switch status":null,"zip":"83628","geo_score":0.634,"scac":null,"fax":"Fax: 208-337-3357","phone":"Phone: 208-337-3123","served roads":null,"fsac":null,"id":"a6569whwcas0","geo_precision":"street","address":"3656 Industrial Drive","state":"ID"},"type":"Feature","geometry":{"type":"Point","coordinates":[-116.929009,43.615821]}},{"properties":{"restrictions":null,"city":"Paul","name":"Idaho Distribution","station name":null,"switch status":null,"zip":"83347","geo_score":0.286,"scac":null,"fax":"Fax:","phone":"Phone: 208-678-8511","served roads":null,"fsac":null,"id":"a6569wiln1pt","geo_precision":"street","address":"401 East Railroad / P.O. Box 239","state":"ID"},"type":"Feature","geometry":{"type":"Point","coordinates":[-114.259135,43.469653]}},{"properties":{"restrictions":"Reciprocal switching will apply only in connection with EIRR","city":"Murtaugh","name":"Milner (ID)","station name":"MURTAUGH","switch status":"R","zip":"83344","geo_score":0.919,"scac":"UP","fax":"Fax: 208.432.5468","phone":"Phone: 208.432.5468","served roads":null,"fsac":"4925","id":"a6569wc9h4fg","geo_precision":"range","address":"5243 East 3610 North","state":"ID"},"type":"Feature","geometry":{"type":"Point","coordinates":[-114.019538,42.51855]}},{"properties":{"restrictions":null,"city":"New Plymouth","name":"New Plymouth (ID)","station name":null,"switch status":null,"zip":"83655","geo_score":0.916,"scac":null,"fax":"Fax: 208- 278-3561","phone":"Phone: 208-278-3871","served roads":null,"fsac":null,"id":"a6569wd0ctq6","geo_precision":"range","address":"205 East Idaho Street","state":"ID"},"type":"Feature","geometry":{"type":"Point","coordinates":[-116.818808,43.974497]}},{"properties":{"restrictions":"Reciprocal switching will apply only in connection with EIRR.","city":"Paul","name":"Paul (ID)","station name":"PAUL","switch status":"R","zip":"83347","geo_score":0.537,"scac":"UP","fax":"Fax: 208-438-5905","phone":"Phone: 208-438-5227","served roads":null,"fsac":"4963","id":"a6569wjtvkyb","geo_precision":"street","address":"PO Box 129 - 550 W 75 S","state":"ID"},"type":"Feature","geometry":{"type":"Point","coordinates":[-114.556947,42.73441]}},{"properties":{"restrictions":"Reciprocal switching will apply only when EIRR .","city":"Sugar City","name":"Sugar City (ID)","station name":"SUGAR CITY","switch status":"R","zip":"83448","geo_score":0.63,"scac":"UP","fax":"Fax: 208-356-9543","phone":"Phone: 208-356-9514","served roads":null,"fsac":"4660","id":"a6569wdy5ta7","geo_precision":"street","address":"PO Box 179 / 1693 North 7th East","state":"ID"},"type":"Feature","geometry":{"type":"Point","coordinates":[-111.737876,43.854776]}},{"properties":{"restrictions":null,"city":"Adair","name":"Adair (IL)","station name":null,"switch status":null,"zip":"61411","geo_score":1.0,"scac":null,"fax":"Fax: 309-653-2614","phone":"Phone: 309-653-2615","served roads":null,"fsac":null,"id":"a6569whjn2ai","geo_precision":"range","address":"9960 E 2100th Street","state":"IL"},"type":"Feature","geometry":{"type":"Point","coordinates":[-90.505814,40.425935]}},{"properties":{"restrictions":null,"city":"Astoria","name":"Astoria (IL)","station name":null,"switch status":null,"zip":"61501","geo_score":0.509,"scac":null,"fax":"Fax: 309-759-4103","phone":"Phone: 309-759-4540","served roads":null,"fsac":null,"id":"a6569wobw17m","geo_precision":"street","address":"7132 E Seed Corn Rd","state":"IL"},"type":"Feature","geometry":{"type":"Point","coordinates":[-90.2795,40.268968]}},{"properties":{"restrictions":null,"city":"Broughton","name":"Broughton (IL)","station name":null,"switch status":null,"zip":"62817","geo_score":0.5,"scac":null,"fax":"Fax: 618-773-4677","phone":"Phone: 618-773-4676","served roads":null,"fsac":null,"id":"a6569wo2e1dt","geo_precision":"street","address":"Box 219 Route 142","state":"IL"},"type":"Feature","geometry":{"type":"Point","coordinates":[-88.534992,38.088567]}},{"properties":{"restrictions":null,"city":"Camp Point","name":"Camp Point (IL)","station name":null,"switch status":null,"zip":"62320","geo_score":0.807,"scac":null,"fax":"Fax: 217-593-7768","phone":"Phone: 217-593-7761","served roads":null,"fsac":null,"id":"a6569wi2nhur","geo_precision":"street","address":"1899 E 2500th Street","state":"IL"},"type":"Feature","geometry":{"type":"Point","coordinates":[-91.030808,40.018837]}},{"properties":{"restrictions":null,"city":"Danville","name":"Danville (IL)","station name":null,"switch status":null,"zip":"61834","geo_score":0.81,"scac":null,"fax":"Fax: 217-286-3592","phone":"Phone: 217-286-3562","served roads":null,"fsac":null,"id":"a6569wbqdod5","geo_precision":"street","address":"12959 E 2750 North Rd","state":"IL"},"type":"Feature","geometry":{"type":"Point","coordinates":[-87.69948,40.26368]}},{"properties":{"restrictions":null,"city":"Fairview","name":"Fairview (IL)","station name":null,"switch status":null,"zip":"61432","geo_score":0.817,"scac":null,"fax":"Fax: 309-778-2002","phone":"Phone: 309-778-2213","served roads":null,"fsac":null,"id":"a6569wjohc9p","geo_precision":"street","address":"1285 Carter St","state":"IL"},"type":"Feature","geometry":{"type":"Point","coordinates":[-90.177641,40.633226]}},{"properties":{"restrictions":null,"city":"Greenup","name":"Greenup (IL)","station name":null,"switch status":null,"zip":"62428","geo_score":0.884,"scac":null,"fax":"Fax: 217-923-3987","phone":"Phone: 217-923-3154","served roads":null,"fsac":null,"id":"a6569wp7av54","geo_precision":"range","address":"1773A US Route 40 East","state":"IL"},"type":"Feature","geometry":{"type":"Point","coordinates":[-88.145139,39.252948]}},{"properties":{"restrictions":null,"city":"Lewistown","name":"Lewistown (IL)","station name":null,"switch status":null,"zip":"61542","geo_score":0.888,"scac":null,"fax":"Fax: 309-547-3796","phone":"Phone: 309-547-3793","served roads":null,"fsac":null,"id":"a6569wfsgfab","geo_precision":"range","address":"13191 North US Hwy 24","state":"IL"},"type":"Feature","geometry":{"type":"Point","coordinates":[-90.167397,40.378629]}},{"properties":{"restrictions":null,"city":"Oglesby","name":"Oglesby (IL)","station name":null,"switch status":null,"zip":"61348","geo_score":0.922,"scac":null,"fax":"Fax: 815-883-9897","phone":"Phone: 815-883-9896","served roads":null,"fsac":null,"id":"a6569wl6lyxq","geo_precision":"range","address":"31 Marquette Avenue","state":"IL"},"type":"Feature","geometry":{"type":"Point","coordinates":[-89.075718,41.294226]}},{"properties":{"restrictions":null,"city":"Orion","name":"Orion(IL)","station name":null,"switch status":null,"zip":"61273","geo_score":0.86,"scac":null,"fax":"Fax: 309-526-3610","phone":"Phone: 309-526-3608","served roads":null,"fsac":null,"id":"a6569wmu6llz","geo_precision":"range","address":"2929 N 1300 Ave","state":"IL"},"type":"Feature","geometry":{"type":"Point","coordinates":[-90.378431,41.340244]}},{"properties":{"restrictions":null,"city":"Warrensburg","name":"Warrensburg (IL)","station name":null,"switch status":null,"zip":"62573","geo_score":0.633,"scac":null,"fax":"Fax: 217-672-8455","phone":"Phone: 217-672-3557","served roads":null,"fsac":null,"id":"a6569w9erqhv","geo_precision":"street","address":"8208 North RT 121","state":"IL"},"type":"Feature","geometry":{"type":"Point","coordinates":[-89.051747,39.926086]}},{"properties":{"restrictions":null,"city":"Berne","name":"Berne (IN)","station name":null,"switch status":null,"zip":"46711","geo_score":0.878,"scac":null,"fax":"Fax: 260-589-3904","phone":"Phone: 260-589-3867","served roads":null,"fsac":null,"id":"a6569wh4ny3i","geo_precision":"range","address":"205 East Parr Road","state":"IN"},"type":"Feature","geometry":{"type":"Point","coordinates":[-84.949268,40.665195]}},{"properties":{"restrictions":null,"city":"Bluffton","name":"Bluffton (IN)","station name":"BLUFFTON","switch status":"C","zip":"46714","geo_score":0.902,"scac":"NS","fax":"Fax: 260-824-1650","phone":"Phone: 260-824-1023","served roads":null,"fsac":"12123","id":"a6569wotdaiz","geo_precision":"range","address":"712 West Lancaster Street","state":"IN"},"type":"Feature","geometry":{"type":"Point","coordinates":[-85.178454,40.742632]}},{"properties":{"restrictions":null,"city":"Camden","name":"Camden (IN)","station name":"CAMDEN","switch status":"C","zip":"46917","geo_score":0.913,"scac":"WSRY","fax":"Fax: 574-686-2052","phone":"Phone: 574-686-2053","served roads":null,"fsac":"90131","id":"a6569wk5o9rx","geo_precision":"range","address":"75 W 200 N","state":"IN"},"type":"Feature","geometry":{"type":"Point","coordinates":[-86.52635,40.576155]}},{"properties":{"restrictions":null,"city":"Craigville","name":"Craigville (IN)","station name":null,"switch status":null,"zip":"46731","geo_score":0.961,"scac":null,"fax":"Fax: 260-565-3783","phone":"Phone: 260-565-3196","served roads":null,"fsac":null,"id":"a6569wn1eji2","geo_precision":"range","address":"2300 North State Rd 301","state":"IN"},"type":"Feature","geometry":{"type":"Point","coordinates":[-85.090577,40.776545]}},{"properties":{"restrictions":null,"city":"Dillsboro","name":"Dillsboro (IN)","station name":null,"switch status":null,"zip":"47018","geo_score":0.768,"scac":null,"fax":"Fax: 812-654-3427","phone":"Phone: 812-654-3177","served roads":null,"fsac":null,"id":"a6569wkba67z","geo_precision":"range","address":"5262 East US 50","state":"IN"},"type":"Feature","geometry":{"type":"Point","coordinates":[-84.928851,39.038529]}},{"properties":{"restrictions":null,"city":"Goshen","name":"Goshen (IN)","station name":"MILLERSBURG","switch status":"L","zip":"46528","geo_score":1.0,"scac":"NS","fax":"Fax: 574-642-3592","phone":"Phone: 574-642-4963","served roads":null,"fsac":"70643","id":"a6569welof30","geo_precision":"range","address":"63239 State Road 13","state":"IN"},"type":"Feature","geometry":{"type":"Point","coordinates":[-85.694283,41.577944]}},{"properties":{"restrictions":null,"city":"Ligonier","name":"Kimmell (IN)","station name":null,"switch status":null,"zip":"46767","geo_score":1.0,"scac":null,"fax":"Fax: 260-635-1530","phone":"Phone: 260-635-8220","served roads":null,"fsac":null,"id":"a6569wn06wsx","geo_precision":"range","address":"3113 N 650 W","state":"IN"},"type":"Feature","geometry":{"type":"Point","coordinates":[-85.548581,41.396833]}},{"properties":{"restrictions":null,"city":"Liberty Center","name":"Liberty Center (IN)","station name":null,"switch status":null,"zip":"46766","geo_score":1.0,"scac":null,"fax":"Fax: 260-694-6320","phone":"Phone: 260-694-6926","served roads":null,"fsac":null,"id":"a6569wpm6tv4","geo_precision":"range","address":"3073 S Main St","state":"IN"},"type":"Feature","geometry":{"type":"Point","coordinates":[-85.279061,40.697103]}},{"properties":{"restrictions":null,"city":"Markle","name":"Markle BLF (IN)","station name":null,"switch status":null,"zip":"46770","geo_score":0.806,"scac":null,"fax":"Fax: 260-758-2124","phone":"Phone: 260-758-2128","served roads":null,"fsac":null,"id":"a6569wghw8f2","geo_precision":"street","address":"325 E Logan ST","state":"IN"},"type":"Feature","geometry":{"type":"Point","coordinates":[-85.335466,40.829214]}},{"properties":{"restrictions":null,"city":"Pennville","name":"Pennville (IN)","station name":null,"switch status":null,"zip":"47369","geo_score":1.0,"scac":null,"fax":"Fax: 260-731-4522","phone":"Phone: 260-731-8755","served roads":null,"fsac":null,"id":"a6569wj8z3o0","geo_precision":"range","address":"8774 West 500 North","state":"IN"},"type":"Feature","geometry":{"type":"Point","coordinates":[-85.149294,40.508905]}},{"properties":{"restrictions":null,"city":"Bluffton","name":"Vera Cruz BLF","station name":null,"switch status":null,"zip":"46714","geo_score":0.902,"scac":null,"fax":"Fax: 260-565-3881","phone":"Phone: 260-565-3520","served roads":null,"fsac":null,"id":"a6569wox14fz","geo_precision":"range","address":"3501 S 700 East","state":"IN"},"type":"Feature","geometry":{"type":"Point","coordinates":[-85.088637,40.692711]}},{"properties":{"restrictions":null,"city":"Versailles","name":"Versailles (IN)","station name":null,"switch status":null,"zip":"47042","geo_score":0.766,"scac":null,"fax":"Fax: 812-689-1465","phone":"Phone: 812-689-4025","served roads":null,"fsac":null,"id":"a6569whp9bua","geo_precision":"range","address":"4079 S US 421","state":"IN"},"type":"Feature","geometry":{"type":"Point","coordinates":[-85.28337,39.015108]}},{"properties":{"restrictions":null,"city":"Adair","name":"Adair (IA)","station name":null,"switch status":null,"zip":"50002","geo_score":0.718,"scac":null,"fax":"Fax: 641-742-3789","phone":"Phone: 641-742-3208","served roads":null,"fsac":null,"id":"a6569wkwch18","geo_precision":"street","address":"100 Hillcrest St","state":"IA"},"type":"Feature","geometry":{"type":"Point","coordinates":[-94.639433,41.496766]}},{"properties":{"restrictions":null,"city":"Ankeny","name":"Ankeny (IA)","station name":null,"switch status":null,"zip":"50021","geo_score":0.87,"scac":null,"fax":"Fax: 515-965-5774","phone":"Phone: 515-965-5667","served roads":null,"fsac":null,"id":"a6569wm6epvp","geo_precision":"range","address":"728 Southeast Creek View Dr","state":"IA"},"type":"Feature","geometry":{"type":"Point","coordinates":[-93.573464,41.724953]}},{"properties":{"restrictions":null,"city":"Guthrie Center","name":"Guthrie Center (IA)","station name":null,"switch status":null,"zip":"50115","geo_score":0.73,"scac":null,"fax":"Fax: 641-747-8145","phone":"Phone: 641-747-8303","served roads":null,"fsac":null,"id":"a6569wl580ps","geo_precision":"range","address":"705 North 1st","state":"IA"},"type":"Feature","geometry":{"type":"Point","coordinates":[-94.50728,41.683007]}},{"properties":{"restrictions":null,"city":"Manchester","name":"Manchester (IA)","station name":null,"switch status":null,"zip":"52057","geo_score":0.873,"scac":null,"fax":"Fax: 563-927-2038","phone":"Phone: 563-927-2711","served roads":null,"fsac":null,"id":"a6569wh7uttu","geo_precision":"range","address":"2191 Hwy 13 S","state":"IA"},"type":"Feature","geometry":{"type":"Point","coordinates":[-91.480563,42.470393]}},{"properties":{"restrictions":null,"city":"Centralia","name":"Centralia (KS)","station name":null,"switch status":null,"zip":"66415","geo_score":0.807,"scac":null,"fax":"Fax: 785-857-3364","phone":"Phone: 785-857-3577","served roads":null,"fsac":null,"id":"a6569wkjz5g9","geo_precision":"street","address":"806 State Highway 9","state":"KS"},"type":"Feature","geometry":{"type":"Point","coordinates":[-96.135705,39.725699]}},{"properties":{"restrictions":null,"city":"Cimarron","name":"Cimarron (KS)","station name":null,"switch status":null,"zip":"67835","geo_score":0.705,"scac":null,"fax":"Fax: 620-855-3409","phone":"Phone: 620-855-3980","served roads":null,"fsac":null,"id":"a6569wa7brbb","geo_precision":"range","address":"15903 State Road 23","state":"KS"},"type":"Feature","geometry":{"type":"Point","coordinates":[-100.342174,37.764991]}},{"properties":{"restrictions":null,"city":"Garden City","name":"Garden City (KS)","station name":"GARDEN CITY","switch status":"O","zip":"67846","geo_score":0.514,"scac":"GCW-BNSF","fax":"Fax: 620-275-1835","phone":"Phone: 620-275-9531","served roads":null,"fsac":"5","id":"a6569wjn9xnv","geo_precision":"street","address":"1004 N. Anderson Road","state":"KS"},"type":"Feature","geometry":{"type":"Point","coordinates":[-100.856387,37.96243]}},{"properties":{"restrictions":null,"city":"Goodland","name":"Goodland (KS)","station name":null,"switch status":null,"zip":"67735","geo_score":0.623,"scac":null,"fax":"Fax: 785-899-2581","phone":"Phone: 785-899-2391","served roads":null,"fsac":null,"id":"a6569wdqtg16","geo_precision":"street","address":"6409 Road 25","state":"KS"},"type":"Feature","geometry":{"type":"Point","coordinates":[-101.614025,39.380393]}},{"properties":{"restrictions":null,"city":"Goodland","name":"Goodland (KS) Retail","station name":null,"switch status":null,"zip":"67735","geo_score":0.671,"scac":null,"fax":"Fax:","phone":"Phone: 785-899-7140","served roads":null,"fsac":null,"id":"a6569wliszz4","geo_precision":"street","address":"2220 Road 64","state":"KS"},"type":"Feature","geometry":{"type":"Point","coordinates":[-101.665502,39.336838]}},{"properties":{"restrictions":null,"city":"Shawnee","name":"Lenexa (KS) Splty","station name":null,"switch status":null,"zip":"66227","geo_score":0.634,"scac":null,"fax":"Fax: 913-441-0522","phone":"Phone: 913-441-0676","served roads":null,"fsac":null,"id":"a6569woj940y","geo_precision":"zip","address":"8215 Hedge Lane","state":"KS"},"type":"Feature","geometry":{"type":"Point","coordinates":[-94.868066,38.974684]}},{"properties":{"restrictions":null,"city":"Shawnee","name":"Lenexa Fertilizer (KS)","station name":null,"switch status":null,"zip":"66227","geo_score":0.634,"scac":null,"fax":"Fax: 913-441-0522","phone":"Phone: 913-441-0676","served roads":null,"fsac":null,"id":"a6569wafnsf6","geo_precision":"zip","address":"8215 Hedge Lane","state":"KS"},"type":"Feature","geometry":{"type":"Point","coordinates":[-94.868066,38.974684]}},{"properties":{"restrictions":null,"city":"Scott City","name":"Scott City (KS)","station name":null,"switch status":null,"zip":"67871","geo_score":0.913,"scac":null,"fax":"Fax: 620-872-3839","phone":"Phone: 620-872-2156","served roads":null,"fsac":null,"id":"a6569wj88448","geo_precision":"range","address":"1711 South Main St","state":"KS"},"type":"Feature","geometry":{"type":"Point","coordinates":[-100.906794,38.466875]}},{"properties":{"restrictions":null,"city":"Seneca","name":"Seneca (KS) - SENECA FERTILIZER INC","station name":"SENECA","switch status":"C","zip":"66538","geo_score":0.862,"scac":"UP","fax":"Fax:","phone":"Phone: 785-336-6419","served roads":null,"fsac":"2366","id":"a6569wgwb441","geo_precision":"range","address":"1301 BaltimoreStreet","state":"KS"},"type":"Feature","geometry":{"type":"Point","coordinates":[-96.073377,39.833165]}},{"properties":{"restrictions":null,"city":"Sublette","name":"Sublette (KS)","station name":null,"switch status":null,"zip":"67877","geo_score":0.405,"scac":null,"fax":"Fax: 620-275-1835","phone":"Phone: 620-675-2442","served roads":null,"fsac":null,"id":"a6569whogfkt","geo_precision":"street","address":"700 West La Lande Street","state":"KS"},"type":"Feature","geometry":{"type":"Point","coordinates":[-100.013967,37.768108]}},{"properties":{"restrictions":null,"city":"Hickman","name":"Hickman (KY)","station name":null,"switch status":null,"zip":"42050","geo_score":0.537,"scac":null,"fax":"Fax: 270-236-4748","phone":"Phone: 270-236-4746","served roads":null,"fsac":null,"id":"a6569waw68jk","geo_precision":"street","address":"3500 State Route 1099","state":"KY"},"type":"Feature","geometry":{"type":"Point","coordinates":[-89.20375,36.558932]}},{"properties":{"restrictions":null,"city":"Morganfield","name":"Morganfield (KY)","station name":null,"switch status":null,"zip":"42437","geo_score":0.874,"scac":null,"fax":"Fax: 270-389-1492","phone":"Phone: 270-389-1490","served roads":null,"fsac":null,"id":"a6569wnml64x","geo_precision":"range","address":"1675 US HWY 60 West","state":"KY"},"type":"Feature","geometry":{"type":"Point","coordinates":[-87.887811,37.692103]}},{"properties":{"restrictions":null,"city":"Murray","name":"Murray (KY)","station name":null,"switch status":null,"zip":"42071","geo_score":0.873,"scac":null,"fax":"Fax: 270-767-1777","phone":"Phone: 270-767-1700","served roads":null,"fsac":null,"id":"a6569wbvzesy","geo_precision":"range","address":"2878 Wiswell Rd","state":"KY"},"type":"Feature","geometry":{"type":"Point","coordinates":[-88.374545,36.583023]}},{"properties":{"restrictions":null,"city":"Owensboro","name":"Owensboro (KY)","station name":"OWENSBORO","switch status":"L","zip":"42301","geo_score":0.692,"scac":"CSXT","fax":"Fax: 270-683-9612","phone":"Phone: 270-683-2349","served roads":null,"fsac":"44085","id":"a6569wdere6p","geo_precision":"range","address":"2301 Ebach Street","state":"KY"},"type":"Feature","geometry":{"type":"Point","coordinates":[-87.137348,37.776401]}},{"properties":{"restrictions":null,"city":"Springfield","name":"Springfield (KY)","station name":null,"switch status":null,"zip":"40069","geo_score":0.741,"scac":null,"fax":"Fax: 859-336-3833","phone":"Phone: 859-336-3947","served roads":null,"fsac":null,"id":"a6569wnvfgur","geo_precision":"street","address":"888 Perryville Road","state":"KY"},"type":"Feature","geometry":{"type":"Point","coordinates":[-85.204047,37.675895]}},{"properties":{"restrictions":null,"city":"Bunkie","name":"Bunkie (LA)","station name":null,"switch status":null,"zip":"71322","geo_score":0.857,"scac":null,"fax":"Fax: 318-346-2263","phone":"Phone: 318-346-6651","served roads":null,"fsac":null,"id":"a6569wffyk66","geo_precision":"street","address":"1160 Highway 71 South/PO Box 685","state":"LA"},"type":"Feature","geometry":{"type":"Point","coordinates":[-92.17549,30.9438]}},{"properties":{"restrictions":null,"city":"Delhi","name":"Delhi (LA)","station name":"DELHI","switch status":"L","zip":"71232","geo_score":0.61,"scac":"KCS","fax":"Fax: 318-878-5919","phone":"Phone: 318-878-5523","served roads":null,"fsac":"1139","id":"a6569wbdk4zs","geo_precision":"street","address":"234 Illinois Ave","state":"LA"},"type":"Feature","geometry":{"type":"Point","coordinates":[-92.612827,32.542943]}},{"properties":{"restrictions":null,"city":"Rayne","name":"Duson (LA)","station name":null,"switch status":null,"zip":"70578","geo_score":0.941,"scac":null,"fax":"Fax: 337-873-0415","phone":"Phone: 337-873-8105","served roads":null,"fsac":null,"id":"a6569wjn6mk2","geo_precision":"range","address":"1606 Sellers Road","state":"LA"},"type":"Feature","geometry":{"type":"Point","coordinates":[-92.190322,30.137455]}},{"properties":{"restrictions":null,"city":"Gilliam","name":"Gilliam (LA)","station name":null,"switch status":null,"zip":"71029","geo_score":0.6,"scac":null,"fax":"Fax: 318-296-4290","phone":"Phone: 318-296-4285","served roads":null,"fsac":null,"id":"a6569waclc41","geo_precision":"street","address":"13280 Highway 71","state":"LA"},"type":"Feature","geometry":{"type":"Point","coordinates":[-93.867609,32.855272]}},{"properties":{"restrictions":null,"city":"Jonesville","name":"Jonesville (LA)","station name":null,"switch status":null,"zip":"71343","geo_score":0.591,"scac":null,"fax":"Fax: 318-339-6506","phone":"Phone: 318-339-1701","served roads":null,"fsac":null,"id":"a6569wjse5eu","geo_precision":"street","address":"3615 4th Street","state":"LA"},"type":"Feature","geometry":{"type":"Point","coordinates":[-91.84531,31.62295]}},{"properties":{"restrictions":null,"city":"Lake Providence","name":"Lake Providence (LA)","station name":null,"switch status":null,"zip":"71254","geo_score":0.596,"scac":null,"fax":"Fax: 318-559-3933","phone":"Phone: 318-559-2656","served roads":null,"fsac":null,"id":"a6569wcno2yy","geo_precision":"street","address":"9528 Highway 65 South","state":"LA"},"type":"Feature","geometry":{"type":"Point","coordinates":[-91.187367,32.811624]}},{"properties":{"restrictions":null,"city":"Mer Rouge","name":"Mer Rouge (LA)","station name":null,"switch status":null,"zip":"71261","geo_score":1.0,"scac":null,"fax":"Fax: 318-647-9932","phone":"Phone: 318-647-5571","served roads":null,"fsac":null,"id":"a6569wan1isj","geo_precision":"range","address":"8604 Oak Ridge Road","state":"LA"},"type":"Feature","geometry":{"type":"Point","coordinates":[-91.783719,32.74509]}},{"properties":{"restrictions":null,"city":"Tallulah","name":"Mid Delta Terminal Helena LLC (LA)","station name":null,"switch status":null,"zip":"71282","geo_score":0.595,"scac":null,"fax":"Fax: 318-574-6303","phone":"Phone: 318-574-6301","served roads":null,"fsac":null,"id":"a6569wkv7o47","geo_precision":"zip","address":"111 Bunge Rd","state":"LA"},"type":"Feature","geometry":{"type":"Point","coordinates":[-91.06983,32.357367]}},{"properties":{"restrictions":null,"city":"New Roads","name":"New Roads (LA)","station name":null,"switch status":null,"zip":"70760","geo_score":0.78,"scac":null,"fax":"Fax: 225-638-7735","phone":"Phone: 225-638-7056","served roads":null,"fsac":null,"id":"a6569woell29","geo_precision":"range","address":"2041 Hospital Road","state":"LA"},"type":"Feature","geometry":{"type":"Point","coordinates":[-91.464624,30.68522]}},{"properties":{"restrictions":null,"city":"Welsh","name":"Pine Island (LA)","station name":null,"switch status":null,"zip":"70591","geo_score":1.0,"scac":null,"fax":"Fax: 337-734-2574","phone":"Phone: 337-734-3367","served roads":null,"fsac":null,"id":"a6569wjitvjy","geo_precision":"range","address":"10127 PINE ISLAND HWY","state":"LA"},"type":"Feature","geometry":{"type":"Point","coordinates":[-92.781143,30.349756]}},{"properties":{"restrictions":null,"city":"Saint Joseph","name":"St. Joseph (LA)","station name":null,"switch status":null,"zip":"71366","geo_score":0.562,"scac":null,"fax":"Fax: 318-766-4040","phone":"Phone: 318-766-4982","served roads":null,"fsac":null,"id":"a6569wgq13q2","geo_precision":"street","address":"4684 Highway 65 North","state":"LA"},"type":"Feature","geometry":{"type":"Point","coordinates":[-91.488931,31.581377]}},{"properties":{"restrictions":null,"city":"Saint Martinville","name":"St. Martinville (LA)","station name":null,"switch status":null,"zip":"70582","geo_score":0.545,"scac":null,"fax":"Fax: 337-394-4735","phone":"Phone: 337-394-3875","served roads":null,"fsac":null,"id":"a6569wllv202","geo_precision":"street","address":"1030 Levert - St John Field Road","state":"LA"},"type":"Feature","geometry":{"type":"Point","coordinates":[-91.819243,30.052087]}},{"properties":{"restrictions":null,"city":"Tallulah","name":"Tallulah (LA)","station name":null,"switch status":null,"zip":"71282","geo_score":0.604,"scac":null,"fax":"Fax: 318-574-0791","phone":"Phone: 318-574-4831","served roads":null,"fsac":null,"id":"a6569wjj6nkq","geo_precision":"range","address":"100 Merle Gustafson Road","state":"LA"},"type":"Feature","geometry":{"type":"Point","coordinates":[-92.595266,32.574053]}},{"properties":{"restrictions":null,"city":"Thibodaux","name":"Thibodaux (LA)","station name":null,"switch status":null,"zip":"70301","geo_score":0.889,"scac":null,"fax":"Fax: 985-446-3022","phone":"Phone: 985-446-5881","served roads":null,"fsac":null,"id":"a6569wa8td1p","geo_precision":"street","address":"694 Highway 3266 \\ PO Box 1123","state":"LA"},"type":"Feature","geometry":{"type":"Point","coordinates":[-90.833295,29.800853]}},{"properties":{"restrictions":null,"city":"Winnsboro","name":"Winnsboro (LA)","station name":null,"switch status":null,"zip":"71295","geo_score":0.487,"scac":null,"fax":"Fax:","phone":"Phone: 318-435-4721","served roads":null,"fsac":null,"id":"a6569wjlynv9","geo_precision":"street","address":"5325 Hwy 15","state":"LA"},"type":"Feature","geometry":{"type":"Point","coordinates":[-91.70584,32.116697]}},{"properties":{"restrictions":null,"city":"Snow Hill","name":"Snow Hill (MD)","station name":"SNOW HILL","switch status":"R","zip":"21863","geo_score":0.829,"scac":"MDDE - NS","fax":"Fax: 410-632-1830","phone":"Phone: 410-632-0697","served roads":null,"fsac":"67196","id":"a6569wbku92v","geo_precision":"street","address":"308 Timmons Street","state":"MD"},"type":"Feature","geometry":{"type":"Point","coordinates":[-75.385672,38.177813]}},{"properties":{"restrictions":null,"city":"Hatfield","name":"Hatfield (MA)","station name":null,"switch status":null,"zip":"1038","geo_score":0.922,"scac":null,"fax":"Fax: 413-247-3253","phone":"Phone: 413-247-3126","served roads":null,"fsac":null,"id":"a6569wdn5ary","geo_precision":"range","address":"101 Elm Street","state":"MA"},"type":"Feature","geometry":{"type":"Point","coordinates":[-72.62068,42.360535]}},{"properties":{"restrictions":null,"city":"Conklin","name":"Conklin (MI)","station name":null,"switch status":null,"zip":"49403","geo_score":0.829,"scac":null,"fax":"Fax: 616-899-2046","phone":"Phone: 616-899-2042","served roads":null,"fsac":null,"id":"a6569wlise7s","geo_precision":"range","address":"349 Wilson Road","state":"MI"},"type":"Feature","geometry":{"type":"Point","coordinates":[-85.807555,43.118139]}},{"properties":{"restrictions":null,"city":"Croswell","name":"Croswell (MI)","station name":null,"switch status":null,"zip":"48422","geo_score":0.902,"scac":null,"fax":"Fax: 810-679-8156","phone":"Phone: 810-679-3565","served roads":null,"fsac":null,"id":"a6569wlaafuw","geo_precision":"range","address":"41 Ward Street","state":"MI"},"type":"Feature","geometry":{"type":"Point","coordinates":[-82.617648,43.273601]}},{"properties":{"restrictions":null,"city":"Imlay City","name":"Imlay City (MI)","station name":null,"switch status":null,"zip":"48444","geo_score":0.806,"scac":null,"fax":"Fax: 810- 724-4706","phone":"Phone: 810-724-2204","served roads":null,"fsac":null,"id":"a6569wihrhxu","geo_precision":"street","address":"7245 Imlay City Road","state":"MI"},"type":"Feature","geometry":{"type":"Point","coordinates":[-83.082565,43.031707]}},{"properties":{"restrictions":null,"city":"Richmond","name":"Richmond (MI)","station name":"RICHMOND","switch status":"L","zip":"48062","geo_score":0.902,"scac":"CN","fax":"Fax: 586-727-4930","phone":"Phone: 586-727-2791","served roads":null,"fsac":"55503","id":"a6569wdc6dk1","geo_precision":"range","address":"68790 Oak Street","state":"MI"},"type":"Feature","geometry":{"type":"Point","coordinates":[-82.751864,42.807488]}},{"properties":{"restrictions":null,"city":"Saginaw","name":"Saginaw (MI)","station name":null,"switch status":null,"zip":"48609","geo_score":1.0,"scac":null,"fax":"Fax: 989-781-5367","phone":"Phone: 989-781-5353","served roads":null,"fsac":null,"id":"a6569wlk4q6e","geo_precision":"range","address":"3477 South Graham Road","state":"MI"},"type":"Feature","geometry":{"type":"Point","coordinates":[-84.131022,43.372958]}},{"properties":{"restrictions":null,"city":"Shelby","name":"Shelby (MI)","station name":null,"switch status":null,"zip":"49455","geo_score":0.636,"scac":null,"fax":"Fax: 231-861-6640","phone":"Phone: 231-861-2526","served roads":null,"fsac":null,"id":"a6569wid5y34","geo_precision":"street","address":"37 W Third Street","state":"MI"},"type":"Feature","geometry":{"type":"Point","coordinates":[-86.365929,43.611306]}},{"properties":{"restrictions":null,"city":"Standish","name":"Standish (MI)","station name":null,"switch status":null,"zip":"48658","geo_score":0.727,"scac":null,"fax":"Fax: 989-846-2228","phone":"Phone: 989-846-6222","served roads":null,"fsac":null,"id":"a6569wgfcrpm","geo_precision":"street","address":"4250 S Huron Road","state":"MI"},"type":"Feature","geometry":{"type":"Point","coordinates":[-83.960523,43.960097]}},{"properties":{"restrictions":null,"city":"Vestaburg","name":"Vestaburg (MI)","station name":null,"switch status":null,"zip":"48891","geo_score":0.691,"scac":null,"fax":"Fax: 989-268-5597","phone":"Phone: 989-268-3001","served roads":null,"fsac":null,"id":"a6569wka70jn","geo_precision":"street","address":"7460 N Crystal Road","state":"MI"},"type":"Feature","geometry":{"type":"Point","coordinates":[-84.905212,43.399837]}},{"properties":{"restrictions":null,"city":"Watervliet","name":"Watervliet (MI)","station name":null,"switch status":null,"zip":"49098","geo_score":0.688,"scac":null,"fax":"Fax: 269-463-7820","phone":"Phone: 269-463-6767","served roads":null,"fsac":null,"id":"a6569wbqlcjk","geo_precision":"range","address":"125 North M-140","state":"MI"},"type":"Feature","geometry":{"type":"Point","coordinates":[-85.866128,42.435503]}},{"properties":{"restrictions":null,"city":"Webberville","name":"Webberville (MI)","station name":null,"switch status":null,"zip":"48892","geo_score":0.778,"scac":null,"fax":"Fax:","phone":"Phone: 517-521-4627","served roads":null,"fsac":null,"id":"a6569wj8gwaz","geo_precision":"range","address":"2960 Stockbridge","state":"MI"},"type":"Feature","geometry":{"type":"Point","coordinates":[-84.198659,42.669175]}},{"properties":{"restrictions":null,"city":"Canby","name":"Canby (MN)","station name":null,"switch status":null,"zip":"56220","geo_score":0.805,"scac":null,"fax":"Fax: 507-223-7258","phone":"Phone: 507-223-7256","served roads":null,"fsac":null,"id":"a6569wckfpm2","geo_precision":"range","address":"120 First Street West","state":"MN"},"type":"Feature","geometry":{"type":"Point","coordinates":[-96.276724,44.708884]}},{"properties":{"restrictions":null,"city":"Clarks Grove","name":"Clarks Grove (MN)","station name":null,"switch status":null,"zip":"56016","geo_score":0.646,"scac":null,"fax":"Fax: 507-256-4498","phone":"Phone: 507-256-4225","served roads":null,"fsac":null,"id":"a6569weltozi","geo_precision":"street","address":"78053 Highway 251 East","state":"MN"},"type":"Feature","geometry":{"type":"Point","coordinates":[-93.302792,43.760228]}},{"properties":{"restrictions":null,"city":"Marshall","name":"Marshall (MN)","station name":null,"switch status":null,"zip":"56258","geo_score":0.831,"scac":null,"fax":"Fax: 507-537-1677","phone":"Phone: 507-537-0317","served roads":null,"fsac":null,"id":"a6569w9q5dqk","geo_precision":"range","address":"500 North 7th Street","state":"MN"},"type":"Feature","geometry":{"type":"Point","coordinates":[-95.792874,44.45518]}},{"properties":{"restrictions":null,"city":"Marshall","name":"Marshall-Retail (MN)","station name":"MARSHALL","switch status":"L","zip":"56258","geo_score":0.929,"scac":"BNSF","fax":"Fax: 507-532-4477","phone":"Phone: 507-532-4326","served roads":null,"fsac":"7270","id":"a6569wi6fyi4","geo_precision":"range","address":"1403 West College Drive","state":"MN"},"type":"Feature","geometry":{"type":"Point","coordinates":[-95.816592,44.443049]}},{"properties":{"restrictions":null,"city":"Eagan","name":"Minnesota T&amp;O (MN)","station name":null,"switch status":null,"zip":"55121","geo_score":0.902,"scac":null,"fax":"Fax: 651-484-8257","phone":"Phone: 651-994-7025","served roads":null,"fsac":null,"id":"a6569weec824","geo_precision":"range","address":"2905 Lexington Ave South","state":"MN"},"type":"Feature","geometry":{"type":"Point","coordinates":[-93.146761,44.851282]}},{"properties":{"restrictions":null,"city":"Royalton","name":"Royalton (MN)","station name":null,"switch status":null,"zip":"56373","geo_score":0.922,"scac":null,"fax":"Fax: 320-584-8050","phone":"Phone: 320-584-5520","served roads":null,"fsac":null,"id":"a6569wpiz0wj","geo_precision":"range","address":"16250 Highway 10 NW","state":"MN"},"type":"Feature","geometry":{"type":"Point","coordinates":[-94.268827,45.804374]}},{"properties":{"restrictions":null,"city":"Belzoni","name":"Belzoni (MS)","station name":null,"switch status":null,"zip":"39038","geo_score":0.683,"scac":null,"fax":"Fax: 662-247-3841","phone":"Phone: 662-247-3525","served roads":null,"fsac":null,"id":"a6569wirdlch","geo_precision":"street","address":"14616 US Hwy 49","state":"MS"},"type":"Feature","geometry":{"type":"Point","coordinates":[-90.499028,33.190602]}},{"properties":{"restrictions":null,"city":"Bruce","name":"Bruce (MS)","station name":null,"switch status":null,"zip":"38915","geo_score":0.417,"scac":null,"fax":"Fax: 662-983-3401","phone":"Phone: 662-983-3400","served roads":null,"fsac":null,"id":"a6569w9ja5tz","geo_precision":"street","address":"45 CR 219","state":"MS"},"type":"Feature","geometry":{"type":"Point","coordinates":[-89.552407,34.19114]}},{"properties":{"restrictions":null,"city":"Canton","name":"Canton (MS)","station name":null,"switch status":null,"zip":"39046","geo_score":0.724,"scac":null,"fax":"Fax: 601-859-3970","phone":"Phone: 601-859-8735","served roads":null,"fsac":null,"id":"a6569wiwkgfo","geo_precision":"street","address":"1831 West Peace Street","state":"MS"},"type":"Feature","geometry":{"type":"Point","coordinates":[-90.057814,32.60948]}},{"properties":{"restrictions":null,"city":"Clarksdale","name":"Clarksdale (MS)","station name":null,"switch status":null,"zip":"38614","geo_score":0.912,"scac":null,"fax":"Fax: 662-627-4189","phone":"Phone: 662-627-4188","served roads":null,"fsac":null,"id":"a6569wjflc9f","geo_precision":"range","address":"825 Desoto Ave","state":"MS"},"type":"Feature","geometry":{"type":"Point","coordinates":[-90.564575,34.195686]}},{"properties":{"restrictions":null,"city":"Boyle","name":"Cleveland (MS)","station name":null,"switch status":null,"zip":"38730","geo_score":0.722,"scac":null,"fax":"Fax: 662-843-3676","phone":"Phone: 662-843-3661","served roads":null,"fsac":null,"id":"a6569wdkpxf8","geo_precision":"street","address":"175 Laughlin Road","state":"MS"},"type":"Feature","geometry":{"type":"Point","coordinates":[-90.797761,33.718416]}},{"properties":{"restrictions":null,"city":"Greenwood","name":"Greenwood (MS)","station name":null,"switch status":null,"zip":"38930","geo_score":0.61,"scac":null,"fax":"Fax: 662-455-1716","phone":"Phone: 662-455-2110","served roads":null,"fsac":null,"id":"a6569wdx9qx6","geo_precision":"street","address":"2508 Highway 49 South","state":"MS"},"type":"Feature","geometry":{"type":"Point","coordinates":[-90.233598,33.530397]}},{"properties":{"restrictions":null,"city":"Hollandale","name":"Hollandale (MS)","station name":null,"switch status":null,"zip":"38748","geo_score":0.552,"scac":null,"fax":"Fax: 662-827-2582","phone":"Phone: 662-827-5008","served roads":null,"fsac":null,"id":"a6569wb7aums","geo_precision":"street","address":"2515 Highway 12 East","state":"MS"},"type":"Feature","geometry":{"type":"Point","coordinates":[-90.802092,33.168363]}},{"properties":{"restrictions":null,"city":"Leland","name":"Leland (MS)","station name":null,"switch status":null,"zip":"38756","geo_score":0.673,"scac":null,"fax":"Fax: 662-686-2205","phone":"Phone: 662-686-2144","served roads":null,"fsac":null,"id":"a6569woiip4k","geo_precision":"street","address":"207 Hwy 82 East","state":"MS"},"type":"Feature","geometry":{"type":"Point","coordinates":[-91.135589,33.303872]}},{"properties":{"restrictions":null,"city":"Marks","name":"Marks (MS)","station name":"MARKS","switch status":"L","zip":"38646","geo_score":0.714,"scac":"CN","fax":"Fax: 662-326-8058","phone":"Phone: 662-326-8122","served roads":null,"fsac":"58634","id":"a6569won4z0c","geo_precision":"street","address":"Rogers Road","state":"MS"},"type":"Feature","geometry":{"type":"Point","coordinates":[-89.508516,34.3778]}},{"properties":{"restrictions":null,"city":"Tunica","name":"Tunica (MS)","station name":null,"switch status":null,"zip":"38676","geo_score":0.927,"scac":null,"fax":"Fax: 662-363-1034","phone":"Phone: 662-363-1116","served roads":null,"fsac":null,"id":"a6569wfy6zql","geo_precision":"range","address":"1255 Drexel Road","state":"MS"},"type":"Feature","geometry":{"type":"Point","coordinates":[-90.381492,34.654651]}},{"properties":{"restrictions":null,"city":"Tutwiler","name":"Tutwiler (MS)","station name":null,"switch status":null,"zip":"38963","geo_score":0.734,"scac":null,"fax":"Fax: 662-345-2212","phone":"Phone: 662-345-2220","served roads":null,"fsac":null,"id":"a6569wnczt7v","geo_precision":"street","address":"310 Holly Street","state":"MS"},"type":"Feature","geometry":{"type":"Point","coordinates":[-90.43493,34.013196]}},{"properties":{"restrictions":null,"city":"Yazoo City","name":"Yazoo City (MS)","station name":null,"switch status":null,"zip":"39194","geo_score":0.731,"scac":null,"fax":"Fax: 662-746-3434","phone":"Phone: 662-746-7466","served roads":null,"fsac":null,"id":"a6569wgchqlm","geo_precision":"street","address":"1205 Rialto Road","state":"MS"},"type":"Feature","geometry":{"type":"Point","coordinates":[-90.43736,32.83947]}},{"properties":{"restrictions":null,"city":"Canton","name":"Canton (MO)","station name":null,"switch status":null,"zip":"63435","geo_score":0.922,"scac":null,"fax":"Fax: 573-288-2203","phone":"Phone: 573-288-2203","served roads":null,"fsac":null,"id":"a6569wctvou6","geo_precision":"range","address":"213 Plum St","state":"MO"},"type":"Feature","geometry":{"type":"Point","coordinates":[-91.516481,40.123628]}},{"properties":{"restrictions":null,"city":"Chillicothe","name":"Chillicothe (MO)","station name":null,"switch status":null,"zip":"64601","geo_score":0.642,"scac":null,"fax":"Fax: 660-707-1607","phone":"Phone: 660-707-0997","served roads":null,"fsac":null,"id":"a6569wgtte5d","geo_precision":"street","address":"551 East Business Hwy 36","state":"MO"},"type":"Feature","geometry":{"type":"Point","coordinates":[-93.500233,39.775729]}},{"properties":{"restrictions":null,"city":"Clarkton","name":"Clarkton (MO)","station name":null,"switch status":null,"zip":"63837","geo_score":0.737,"scac":null,"fax":"Fax: 573-448-5584","phone":"Phone: 573-448-5357","served roads":null,"fsac":null,"id":"a6569wkwe11v","geo_precision":"street","address":"34085 State Highway 25","state":"MO"},"type":"Feature","geometry":{"type":"Point","coordinates":[-89.96705,36.449231]}},{"properties":{"restrictions":null,"city":"Dudley","name":"Dudley (MO)","station name":null,"switch status":null,"zip":"63936","geo_score":0.919,"scac":null,"fax":"Fax:","phone":"Phone: 573-967-3747","served roads":null,"fsac":null,"id":"a6569wl5kh7v","geo_precision":"range","address":"7462 Old Highway 60","state":"MO"},"type":"Feature","geometry":{"type":"Point","coordinates":[-90.145551,36.790444]}},{"properties":{"restrictions":null,"city":"Edina","name":"Edina (MO)","station name":null,"switch status":null,"zip":"63537","geo_score":1.0,"scac":null,"fax":"Fax: 660-397-3152","phone":"Phone: 660-397-3145","served roads":null,"fsac":null,"id":"a6569wh3pf6w","geo_precision":"zip","address":"RR3 Box 50A","state":"MO"},"type":"Feature","geometry":{"type":"Point","coordinates":[-92.233699,40.161431]}},{"properties":{"restrictions":null,"city":"Hayti","name":"Hayti (MO)","station name":null,"switch status":null,"zip":"63851","geo_score":0.902,"scac":null,"fax":"Fax: 573-359-2539","phone":"Phone: 573-359-2080","served roads":null,"fsac":null,"id":"a6569wfoywex","geo_precision":"range","address":"500 East Main Street","state":"MO"},"type":"Feature","geometry":{"type":"Point","coordinates":[-89.746755,36.232048]}},{"properties":{"restrictions":null,"city":"New Madrid","name":"New Madrid (MO)","station name":null,"switch status":null,"zip":"63869","geo_score":0.913,"scac":null,"fax":"Fax: 573-748-2373","phone":"Phone: 573-748-2105","served roads":null,"fsac":null,"id":"a6569wdy07h8","geo_precision":"range","address":"618 US Highway 61","state":"MO"},"type":"Feature","geometry":{"type":"Point","coordinates":[-89.542963,36.590432]}},{"properties":{"restrictions":null,"city":"Sikeston","name":"Sikeston (MO)","station name":null,"switch status":null,"zip":"63801","geo_score":0.695,"scac":null,"fax":"Fax: 573-471-1661","phone":"Phone: 573-481-9660","served roads":null,"fsac":null,"id":"a6569whj1cyq","geo_precision":"street","address":"2907 US Hwy 62 E","state":"MO"},"type":"Feature","geometry":{"type":"Point","coordinates":[-89.527394,36.894357]}},{"properties":{"restrictions":null,"city":"Bridgeton","name":"St Louis (MO)","station name":null,"switch status":null,"zip":"63044","geo_score":0.669,"scac":null,"fax":"Fax: 314-298-0689","phone":"Phone: 314-298-0686","served roads":null,"fsac":null,"id":"a6569wiarao4","geo_precision":"street","address":"12964B St Charles Rock Road","state":"MO"},"type":"Feature","geometry":{"type":"Point","coordinates":[-90.437407,38.743914]}},{"properties":{"restrictions":null,"city":"Wyaconda","name":"Wyaconda (MO)","station name":"WYACONDA","switch status":"L","zip":"63474","geo_score":0.671,"scac":"BNSF","fax":"Fax: 660-479-5472","phone":"Phone: 660-479-5471","served roads":null,"fsac":"63460","id":"a6569whdh5og","geo_precision":"street","address":"121 E Jefferson","state":"MO"},"type":"Feature","geometry":{"type":"Point","coordinates":[-91.921095,40.391662]}},{"properties":{"restrictions":null,"city":"Havre","name":"Havre (MT)","station name":null,"switch status":null,"zip":"59501","geo_score":0.857,"scac":null,"fax":"Fax: 406-265-9563","phone":"Phone: 406-265-9502","served roads":null,"fsac":null,"id":"a6569why4zqs","geo_precision":"zip","address":"1 Mi. North Wild Horse Rd.","state":"MT"},"type":"Feature","geometry":{"type":"Point","coordinates":[-110.206043,48.928619]}},{"properties":{"restrictions":null,"city":"Laurel","name":"Laurel (MT)","station name":null,"switch status":null,"zip":"59044","geo_score":0.854,"scac":null,"fax":"Fax: 406-628-8778","phone":"Phone: 406-628-8768","served roads":null,"fsac":null,"id":"a6569wa0w6h2","geo_precision":"range","address":"10 5th Ave South","state":"MT"},"type":"Feature","geometry":{"type":"Point","coordinates":[-108.777548,45.668395]}},{"properties":{"restrictions":null,"city":"Sidney","name":"Sidney (MT)","station name":null,"switch status":null,"zip":"59270","geo_score":0.914,"scac":null,"fax":"Fax: 406-482-6026","phone":"Phone: 406-482-6023","served roads":null,"fsac":null,"id":"a6569wnfn3wq","geo_precision":"street","address":"1175 Red River Drive/HC Box 5177","state":"MT"},"type":"Feature","geometry":{"type":"Point","coordinates":[-104.184774,47.727135]}},{"properties":{"restrictions":"Reciprocal switching will apply only in connection with NCRC.","city":"Albion","name":"Albion (NE)","station name":"ALBION","switch status":"R","zip":"68620","geo_score":0.707,"scac":"UP","fax":"Fax: 402-395-2242","phone":"Phone: 402-395-5051","served roads":null,"fsac":"730","id":"a6569wmvlfm2","geo_precision":"street","address":"2493 State Highway 14","state":"NE"},"type":"Feature","geometry":{"type":"Point","coordinates":[-98.003858,41.690781]}},{"properties":{"restrictions":null,"city":"Benkelman","name":"Benkelman (NE)","station name":null,"switch status":null,"zip":"69021","geo_score":0.526,"scac":null,"fax":"Fax: 308-423-2943","phone":"Phone: 308-423-2942","served roads":null,"fsac":null,"id":"a6569wkalchf","geo_precision":"street","address":"33821 Hwy 34","state":"NE"},"type":"Feature","geometry":{"type":"Point","coordinates":[-100.601851,40.198093]}},{"properties":{"restrictions":null,"city":"Fremont","name":"Fremont (NE)","station name":null,"switch status":null,"zip":"68025","geo_score":0.665,"scac":null,"fax":"Fax: 402-727-6387","phone":"Phone: 402-727-9177","served roads":null,"fsac":null,"id":"a6569wobuehh","geo_precision":"street","address":"1880 Proctor Road","state":"NE"},"type":"Feature","geometry":{"type":"Point","coordinates":[-96.473388,41.415531]}},{"properties":{"restrictions":null,"city":"Oakland","name":"Oakland (NE)","station name":null,"switch status":null,"zip":"68045","geo_score":0.614,"scac":null,"fax":"Fax: 402-685-5745","phone":"Phone: 402-685-6206","served roads":null,"fsac":null,"id":"a6569wm23lft","geo_precision":"street","address":"900 N. Charde Ave","state":"NE"},"type":"Feature","geometry":{"type":"Point","coordinates":[-96.463411,41.834509]}},{"properties":{"restrictions":null,"city":"Osmond","name":"Osmond (NE)","station name":null,"switch status":null,"zip":"68765","geo_score":0.708,"scac":null,"fax":"Fax: 402-748-3122","phone":"Phone: 402-748-3121","served roads":null,"fsac":null,"id":"a6569wf8kp48","geo_precision":"street","address":"104 North Main Street","state":"NE"},"type":"Feature","geometry":{"type":"Point","coordinates":[-97.601306,42.358703]}},{"properties":{"restrictions":null,"city":"Pender","name":"Pender (NE)","station name":null,"switch status":null,"zip":"68047","geo_score":1.0,"scac":null,"fax":"Fax:","phone":"Phone: 402-287-3500","served roads":null,"fsac":null,"id":"a6569wm2xnv5","geo_precision":"range","address":"58395 849th Rd","state":"NE"},"type":"Feature","geometry":{"type":"Point","coordinates":[-96.863329,42.134277]}},{"properties":{"restrictions":null,"city":"Petersburg","name":"Petersburg (NE)","station name":null,"switch status":null,"zip":"68652","geo_score":0.592,"scac":null,"fax":"Fax: 402-386-5330","phone":"Phone: 402-386-5388","served roads":null,"fsac":null,"id":"a6569watcf8j","geo_precision":"street","address":"113 East Main / PO Box 120","state":"NE"},"type":"Feature","geometry":{"type":"Point","coordinates":[-97.78334,41.074704]}},{"properties":{"restrictions":null,"city":"Las Vegas","name":"Las Vegas (NV)-Spclty","station name":null,"switch status":null,"zip":"89118","geo_score":0.927,"scac":null,"fax":"Fax: 702-740-5325","phone":"Phone: 702-740-5320","served roads":null,"fsac":null,"id":"a6569whhdnlw","geo_precision":"range","address":"3650 West Dewey Drive","state":"NV"},"type":"Feature","geometry":{"type":"Point","coordinates":[-115.188168,36.088079]}},{"properties":{"restrictions":null,"city":"Hammonton","name":"Hammonton (NJ)","station name":null,"switch status":null,"zip":"8037","geo_score":0.607,"scac":null,"fax":"Fax: 609-567-9502","phone":"Phone: 609-567-9207","served roads":null,"fsac":null,"id":"a6569wp2e0tc","geo_precision":"range","address":"66 Route 206","state":"NJ"},"type":"Feature","geometry":{"type":"Point","coordinates":[-74.78731,39.649815]}},{"properties":{"restrictions":null,"city":"Woodstown","name":"Woodstown Ag (NJ)","station name":null,"switch status":null,"zip":"8098","geo_score":0.957,"scac":null,"fax":"Fax: 856-769-4011","phone":"Phone: 856-769-0147","served roads":null,"fsac":null,"id":"a6569wbi96uf","geo_precision":"range","address":"440 North Main Street","state":"NJ"},"type":"Feature","geometry":{"type":"Point","coordinates":[-75.322229,39.660736]}},{"properties":{"restrictions":null,"city":"Artesia","name":"Artesia (NM)","station name":null,"switch status":null,"zip":"88210","geo_score":0.524,"scac":null,"fax":"Fax: 575-365-2153","phone":"Phone: 575-365-2148","served roads":null,"fsac":null,"id":"a6569w9wtmtc","geo_precision":"street","address":"504 Lake Arthur Highway - PO Box 1110","state":"NM"},"type":"Feature","geometry":{"type":"Point","coordinates":[-104.330963,32.819113]}},{"properties":{"restrictions":null,"city":"Mesquite","name":"Mesquite (NM)","station name":"MESQUITE","switch status":"L","zip":"88048","geo_score":0.43,"scac":"BNSF","fax":"Fax: 575-233-2790","phone":"Phone: 575-233-3171","served roads":null,"fsac":"29580","id":"a6569waxs5ru","geo_precision":"street","address":"251 John Grisham Drive","state":"NM"},"type":"Feature","geometry":{"type":"Point","coordinates":[-106.74503,32.296889]}},{"properties":{"restrictions":null,"city":"Albuquerque","name":"New Mexico (NM) Spec","station name":null,"switch status":null,"zip":"87113","geo_score":0.916,"scac":null,"fax":"Fax: 505-797-5859","phone":"Phone: 505-797-5800","served roads":null,"fsac":null,"id":"a6569wclwekz","geo_precision":"range","address":"8905 Adams NE","state":"NM"},"type":"Feature","geometry":{"type":"Point","coordinates":[-106.594438,35.185929]}},{"properties":{"restrictions":null,"city":"Rincon","name":"Rincon (NM)","station name":null,"switch status":null,"zip":"87940","geo_score":0.592,"scac":null,"fax":"Fax: 575-267-3971","phone":"Phone: 575-267-3961","served roads":null,"fsac":null,"id":"a6569wk6jcth","geo_precision":"street","address":"2537 Highway 140","state":"NM"},"type":"Feature","geometry":{"type":"Point","coordinates":[-107.09045,32.66858]}},{"properties":{"restrictions":null,"city":"Albion","name":"Albion (NY)","station name":null,"switch status":null,"zip":"14411","geo_score":0.766,"scac":null,"fax":"Fax: 585-589-0257","phone":"Phone: 585-589-4195","served roads":null,"fsac":null,"id":"a6569wnce3nu","geo_precision":"range","address":"165 South Platt Street Suite 100","state":"NY"},"type":"Feature","geometry":{"type":"Point","coordinates":[-78.192341,43.241955]}},{"properties":{"restrictions":null,"city":"Geneva","name":"Geneva (NY)","station name":null,"switch status":null,"zip":"14456","geo_score":0.92,"scac":null,"fax":"Fax: 315-789-4452","phone":"Phone: 315-789-4450","served roads":null,"fsac":null,"id":"a6569w9yfcpw","geo_precision":"range","address":"3704 Yaegel Road","state":"NY"},"type":"Feature","geometry":{"type":"Point","coordinates":[-77.038427,42.851135]}},{"properties":{"restrictions":null,"city":"Enfield","name":"Enfield (NC)","station name":"TARBORO","switch status":"L","zip":"27823","geo_score":0.915,"scac":"CSXT","fax":"Fax: 252-445-2313","phone":"Phone: 252-445-5126","served roads":null,"fsac":"11227","id":"a6569wm0278n","geo_precision":"range","address":"1127 South Dennis St","state":"NC"},"type":"Feature","geometry":{"type":"Point","coordinates":[-77.678307,36.172433]}},{"properties":{"restrictions":null,"city":"Kinston","name":"Fertilizer Kin Terminal","station name":null,"switch status":null,"zip":"28501","geo_score":0.798,"scac":null,"fax":"Fax:","phone":"Phone: 252-208-0281","served roads":null,"fsac":null,"id":"a6569w9eok6h","geo_precision":"range","address":"526 British Rd","state":"NC"},"type":"Feature","geometry":{"type":"Point","coordinates":[-77.515143,35.231601]}},{"properties":{"restrictions":null,"city":"Four Oaks","name":"Four Oaks (NC) Specialty","station name":null,"switch status":null,"zip":"27524","geo_score":0.902,"scac":null,"fax":"Fax: 919-934-0578","phone":"Phone: 919-934-7395","served roads":null,"fsac":null,"id":"a6569wgshvna","geo_precision":"range","address":"1097 US 701 South","state":"NC"},"type":"Feature","geometry":{"type":"Point","coordinates":[-78.387532,35.441065]}},{"properties":{"restrictions":null,"city":"Fremont","name":"Fremont (NC)","station name":"FREMONT","switch status":"L","zip":"27830","geo_score":0.61,"scac":"CSXT","fax":"Fax: 919-242-9757","phone":"Phone: 919-242-4085","served roads":null,"fsac":"11365","id":"a6569wmfl6aq","geo_precision":"street","address":"5904 US 117 North","state":"NC"},"type":"Feature","geometry":{"type":"Point","coordinates":[-77.973087,35.548967]}},{"properties":{"restrictions":null,"city":"Goldsboro","name":"Goldsboro (NC) Distribution","station name":null,"switch status":null,"zip":"27530","geo_score":0.805,"scac":null,"fax":"Fax: 919-736-4970","phone":"Phone: 919-736-3738","served roads":null,"fsac":null,"id":"a6569w9rggyt","geo_precision":"range","address":"101 Hinnant Road","state":"NC"},"type":"Feature","geometry":{"type":"Point","coordinates":[-78.230246,35.527842]}},{"properties":{"restrictions":null,"city":"Hendersonville","name":"Hendersonville (NC)","station name":null,"switch status":null,"zip":"28792","geo_score":1.0,"scac":null,"fax":"Fax: 828-685-3402","phone":"Phone: 828-685-1182","served roads":null,"fsac":null,"id":"a6569wgzul1y","geo_precision":"range","address":"3590B Chimney Rock Rd","state":"NC"},"type":"Feature","geometry":{"type":"Point","coordinates":[-82.364803,35.377942]}},{"properties":{"restrictions":null,"city":"Kinston","name":"Kinston (NC)","station name":"KINSTON","switch status":"L","zip":"28504","geo_score":1.0,"scac":"NS","fax":"Fax: 252-527-4230","phone":"Phone: 252-527-3276","served roads":null,"fsac":"59932","id":"a6569wkd8n2o","geo_precision":"range","address":"842 Will Baker Road","state":"NC"},"type":"Feature","geometry":{"type":"Point","coordinates":[-77.599596,35.219149]}},{"properties":{"restrictions":null,"city":"Laurinburg","name":"Laurinburg (NC)","station name":null,"switch status":null,"zip":"28352","geo_score":0.789,"scac":null,"fax":"Fax: 910-276-3613","phone":"Phone: 910-276-6310","served roads":null,"fsac":null,"id":"a6569wgm3rqx","geo_precision":"range","address":"17321 Harry Malloy Rd.","state":"NC"},"type":"Feature","geometry":{"type":"Point","coordinates":[-79.425906,34.746179]}},{"properties":{"restrictions":null,"city":"Maury","name":"Maury (NC)","station name":null,"switch status":null,"zip":"28554","geo_score":1.0,"scac":null,"fax":"Fax: 252-747-7490","phone":"Phone: 252-747-5276","served roads":null,"fsac":null,"id":"a6569wiaf2yy","geo_precision":"range","address":"4345 HWY 123 North","state":"NC"},"type":"Feature","geometry":{"type":"Point","coordinates":[-77.586348,35.480813]}},{"properties":{"restrictions":null,"city":"Plymouth","name":"Plymouth (NC)","station name":null,"switch status":null,"zip":"27962","geo_score":0.915,"scac":null,"fax":"Fax: 252-793-3526","phone":"Phone: 252-793-3016","served roads":null,"fsac":null,"id":"a6569wlk364r","geo_precision":"range","address":"327 Folly Road","state":"NC"},"type":"Feature","geometry":{"type":"Point","coordinates":[-76.664778,35.880459]}},{"properties":{"restrictions":null,"city":"Rowland","name":"Rowland (NC)","station name":"ROWLAND","switch status":"L","zip":"28383","geo_score":0.721,"scac":"CSXT","fax":"Fax: 910-422-9030","phone":"Phone: 910-422-8901","served roads":null,"fsac":"11121","id":"a6569wpd1qmc","geo_precision":"street","address":"13866 US Highway 301","state":"NC"},"type":"Feature","geometry":{"type":"Point","coordinates":[-79.282915,34.547646]}},{"properties":{"restrictions":null,"city":"Tabor City","name":"Tabor City (NC) Spec","station name":null,"switch status":null,"zip":"28463","geo_score":0.92,"scac":null,"fax":"Fax: 910-653-8998","phone":"Phone: 910-653-8996","served roads":null,"fsac":null,"id":"a6569wponisf","geo_precision":"range","address":"12087 Joe Brown Highway South","state":"NC"},"type":"Feature","geometry":{"type":"Point","coordinates":[-78.845102,34.164625]}},{"properties":{"restrictions":null,"city":"Whiteville","name":"Whiteville (NC)","station name":null,"switch status":null,"zip":"28472","geo_score":0.846,"scac":null,"fax":"Fax: 910-642-8542","phone":"Phone: 910-642-8319","served roads":null,"fsac":null,"id":"a6569wbiy1cs","geo_precision":"range","address":"747 West Virgil Street","state":"NC"},"type":"Feature","geometry":{"type":"Point","coordinates":[-78.711873,34.324655]}},{"properties":{"restrictions":null,"city":"Dickinson","name":"Dickinson (ND)","station name":null,"switch status":null,"zip":"58601","geo_score":0.718,"scac":null,"fax":"Fax: 701-483-6845","phone":"Phone: 701-483-6838","served roads":null,"fsac":null,"id":"a6569wdo9c93","geo_precision":"street","address":"2804 East Villard","state":"ND"},"type":"Feature","geometry":{"type":"Point","coordinates":[-102.714399,46.876273]}},{"properties":{"restrictions":null,"city":"Fargo","name":"Fargo (ND)","station name":null,"switch status":null,"zip":"58103","geo_score":1.0,"scac":null,"fax":"Fax: 701-356-0982","phone":"Phone: 701-356-0980","served roads":null,"fsac":null,"id":"a6569wkux9ow","geo_precision":"range","address":"4275 Main Avenue","state":"ND"},"type":"Feature","geometry":{"type":"Point","coordinates":[-96.855746,46.876253]}},{"properties":{"restrictions":null,"city":"Rugby","name":"Rugby ND","station name":null,"switch status":null,"zip":"58368","geo_score":0.837,"scac":null,"fax":"Fax: 701.776.7680","phone":"Phone: 701.776.7668","served roads":null,"fsac":null,"id":"a6569wdz1zec","geo_precision":"range","address":"6470 28th Ave NE","state":"ND"},"type":"Feature","geometry":{"type":"Point","coordinates":[-100.020619,48.350761]}},{"properties":{"restrictions":null,"city":"Bowling Green","name":"Bowling Green (OH)","station name":null,"switch status":null,"zip":"43402","geo_score":0.374,"scac":null,"fax":"Fax: 419-353-7190","phone":"Phone: 419-354-0253","served roads":null,"fsac":null,"id":"a6569wlh35x3","geo_precision":"street","address":"PO Box 407 - 7978 Bowling Green Road East","state":"OH"},"type":"Feature","geometry":{"type":"Point","coordinates":[-83.737736,41.386773]}},{"properties":{"restrictions":null,"city":"Coldwater","name":"Coldwater (OH)","station name":null,"switch status":null,"zip":"45828","geo_score":0.878,"scac":"RJC","fax":"Fax: 419-678-3429","phone":"Phone: 419-678-2267","served roads":null,"fsac":null,"id":"a6569wprd4z7","geo_precision":"range","address":"3971 Burkettsville Saint Henry Road","state":"OH"},"type":"Feature","geometry":{"type":"Point","coordinates":[-84.647913,40.464513]}},{"properties":{"restrictions":null,"city":"Columbus","name":"Columbus (OH)","station name":null,"switch status":null,"zip":"43228","geo_score":0.902,"scac":null,"fax":"Fax: 614-275-4270","phone":"Phone: 614-275-4200","served roads":null,"fsac":null,"id":"a6569wn1hbhd","geo_precision":"range","address":"800 Distribution Drive","state":"OH"},"type":"Feature","geometry":{"type":"Point","coordinates":[-83.109059,39.969837]}},{"properties":{"restrictions":null,"city":"Martin","name":"Martin (OH)","station name":"MARTIN","switch status":"L","zip":"43445","geo_score":0.821,"scac":"NS","fax":"Fax: 419-855-3341","phone":"Phone: 419-855-7778","served roads":null,"fsac":"71941","id":"a6569wctaily","geo_precision":"range","address":"3014 North Martin Willis","state":"OH"},"type":"Feature","geometry":{"type":"Point","coordinates":[-83.339186,41.559207]}},{"properties":{"restrictions":null,"city":"Altus","name":"Altus (OK)","station name":null,"switch status":null,"zip":"73521","geo_score":0.498,"scac":null,"fax":"Fax: 580-477-0992","phone":"Phone: 580-477-0986","served roads":null,"fsac":null,"id":"a6569wjj82f3","geo_precision":"street","address":"20369 E CR 158\\PO Box 814","state":"OK"},"type":"Feature","geometry":{"type":"Point","coordinates":[-99.317499,34.629595]}},{"properties":{"restrictions":null,"city":"Coweta","name":"Coweta (OK)","station name":null,"switch status":null,"zip":"74429","geo_score":0.61,"scac":null,"fax":"Fax: 918-482-3603","phone":"Phone: 918-482-3363","served roads":null,"fsac":null,"id":"a6569wocwtwm","geo_precision":"zip","address":"32890 E 211th Street South","state":"OK"},"type":"Feature","geometry":{"type":"Point","coordinates":[-95.672759,36.0751]}},{"properties":{"restrictions":null,"city":"Devol","name":"Devol (OK)","station name":null,"switch status":null,"zip":"73531","geo_score":0.592,"scac":null,"fax":"Fax: 580-299-3341","phone":"Phone: 580-299-3341","served roads":null,"fsac":null,"id":"a6569wcgej1o","geo_precision":"street","address":"Hwy 70 &amp; Main St","state":"OK"},"type":"Feature","geometry":{"type":"Point","coordinates":[-98.683392,34.231868]}},{"properties":{"restrictions":null,"city":"El Reno","name":"El Reno (OK)","station name":null,"switch status":null,"zip":"73036","geo_score":0.805,"scac":null,"fax":"Fax: 405-262-3418","phone":"Phone: 405-262-3141","served roads":null,"fsac":null,"id":"a6569wn2f8ds","geo_precision":"range","address":"310 East Jensen","state":"OK"},"type":"Feature","geometry":{"type":"Point","coordinates":[-97.957048,35.493398]}},{"properties":{"restrictions":null,"city":"Welch","name":"Welch (OK)","station name":null,"switch status":null,"zip":"74369","geo_score":0.604,"scac":null,"fax":"Fax: 918-788-3351","phone":"Phone: 918-788-3251","served roads":null,"fsac":null,"id":"a6569wlwvalv","geo_precision":"street","address":"241 North Washington P.O. BOX 298","state":"OK"},"type":"Feature","geometry":{"type":"Point","coordinates":[-95.09885,36.876509]}},{"properties":{"restrictions":null,"city":"Medford","name":"Medford (OR)","station name":null,"switch status":null,"zip":"97501","geo_score":0.913,"scac":null,"fax":"Fax: 541-772-3458","phone":"Phone: 541-772-1714","served roads":null,"fsac":null,"id":"a6569wkfekvh","geo_precision":"range","address":"511 South Fir Street","state":"OR"},"type":"Feature","geometry":{"type":"Point","coordinates":[-122.870295,42.321262]}},{"properties":{"restrictions":null,"city":"Stayton","name":"Stayton (OR)","station name":null,"switch status":null,"zip":"97383","geo_score":0.939,"scac":null,"fax":"Fax: 503-769-4018","phone":"Phone: 503-769-4573","served roads":null,"fsac":null,"id":"a6569wobgb1t","geo_precision":"range","address":"2034 Deschutes Drive","state":"OR"},"type":"Feature","geometry":{"type":"Point","coordinates":[-122.815054,44.799969]}},{"properties":{"restrictions":null,"city":"Biglerville","name":"Biglerville (PA)","station name":null,"switch status":null,"zip":"17307","geo_score":0.929,"scac":null,"fax":"Fax: 717-677-7383","phone":"Phone: 717-677-4599","served roads":null,"fsac":null,"id":"a6569wd1i2jp","geo_precision":"range","address":"62 Mill Road","state":"PA"},"type":"Feature","geometry":{"type":"Point","coordinates":[-77.289124,39.927066]}},{"properties":{"restrictions":null,"city":"Mifflinville","name":"Mifflinville (PA)","station name":null,"switch status":null,"zip":"18631","geo_score":0.526,"scac":null,"fax":"Fax: 570-759-1394","phone":"Phone: 570-759-1311","served roads":null,"fsac":null,"id":"a6569wcjp9hy","geo_precision":"street","address":"513 W 3rd Street","state":"PA"},"type":"Feature","geometry":{"type":"Point","coordinates":[-75.840239,41.32374]}},{"properties":{"restrictions":null,"city":"Evans City","name":"Pittsburgh Specialty (PA)","station name":null,"switch status":null,"zip":"16033","geo_score":0.913,"scac":null,"fax":"Fax:","phone":"Phone:","served roads":null,"fsac":null,"id":"a6569wo799if","geo_precision":"range","address":"1498 Evans City Road","state":"PA"},"type":"Feature","geometry":{"type":"Point","coordinates":[-80.034775,40.786415]}},{"properties":{"restrictions":null,"city":"Shrewsbury","name":"Shrewsbury (PA)","station name":null,"switch status":null,"zip":"17361","geo_score":1.0,"scac":null,"fax":"Fax: 717-235-1372","phone":"Phone: 717-235-7961","served roads":null,"fsac":null,"id":"a6569wony0c0","geo_precision":"range","address":"8 Onion Blvd","state":"PA"},"type":"Feature","geometry":{"type":"Point","coordinates":[-76.677992,39.755669]}},{"properties":{"restrictions":null,"city":"Warriors Mark","name":"Warriors Mark (PA)","station name":null,"switch status":null,"zip":"16877","geo_score":0.488,"scac":null,"fax":"Fax: 814-632-5197","phone":"Phone: 814-632-5177","served roads":null,"fsac":null,"id":"a6569wmhe62q","geo_precision":"street","address":"2413 Pennington Rd \\ PO Box 131","state":"PA"},"type":"Feature","geometry":{"type":"Point","coordinates":[-78.165998,40.691933]}},{"properties":{"restrictions":null,"city":"Cameron","name":"Cameron (SC)","station name":null,"switch status":null,"zip":"29030","geo_score":0.5,"scac":null,"fax":"Fax: 803-823-2059","phone":"Phone: 803-823-2777","served roads":null,"fsac":null,"id":"a6569wil6fdg","geo_precision":"street","address":"28 Helena Road","state":"SC"},"type":"Feature","geometry":{"type":"Point","coordinates":[-81.052934,33.977667]}},{"properties":{"restrictions":null,"city":"Fairfax","name":"Fairfax (SC)","station name":null,"switch status":null,"zip":"29827","geo_score":0.559,"scac":null,"fax":"Fax: 803-632-2556","phone":"Phone: 803-632-2555","served roads":null,"fsac":null,"id":"a6569wgtvg2m","geo_precision":"street","address":"2376 Hampton Avenue South","state":"SC"},"type":"Feature","geometry":{"type":"Point","coordinates":[-81.235644,32.963392]}},{"properties":{"restrictions":null,"city":"Mayesville","name":"Mayesville (SC)","station name":null,"switch status":null,"zip":"29104","geo_score":0.893,"scac":null,"fax":"Fax: 803-453-5153","phone":"Phone: 803-453-5151","served roads":null,"fsac":null,"id":"a6569wbk3a1b","geo_precision":"range","address":"5055 Florence Highway 76 E","state":"SC"},"type":"Feature","geometry":{"type":"Point","coordinates":[-80.200858,33.990286]}},{"properties":{"restrictions":null,"city":"Inman","name":"Spartanburg (SC) T&amp;O","station name":null,"switch status":null,"zip":"29349","geo_score":0.902,"scac":null,"fax":"Fax: 864-472-5004","phone":"Phone: 864-472-2017","served roads":null,"fsac":null,"id":"a6569wo7xrfa","geo_precision":"range","address":"120 Settle Rd","state":"SC"},"type":"Feature","geometry":{"type":"Point","coordinates":[-82.042049,35.02864]}},{"properties":{"restrictions":null,"city":"Madison","name":"Madison (SD)","station name":"Madison","switch status":"L","zip":"57042","geo_score":0.52,"scac":"BNSF","fax":"Fax: 605-256-2377","phone":"Phone: 605-256-3973","served roads":null,"fsac":"54807","id":"a6569wot3qk9","geo_precision":"street","address":"620 S.W. 3rd Street","state":"SD"},"type":"Feature","geometry":{"type":"Point","coordinates":[-97.218898,44.118477]}},{"properties":{"restrictions":null,"city":"Pierre","name":"Pierre (SD)","station name":null,"switch status":null,"zip":"57501","geo_score":0.72,"scac":null,"fax":"Fax: 605-224-0767","phone":"Phone: 605-224-0602","served roads":null,"fsac":null,"id":"a6569wbcq6m1","geo_precision":"street","address":"2301 293rd Avenue","state":"SD"},"type":"Feature","geometry":{"type":"Point","coordinates":[-100.289747,44.392097]}},{"properties":{"restrictions":null,"city":"Warner","name":"Warner (SD)","station name":null,"switch status":null,"zip":"57479","geo_score":0.81,"scac":null,"fax":"Fax:","phone":"Phone: 507-537-0317","served roads":null,"fsac":null,"id":"a6569wjndr3k","geo_precision":"street","address":"38565 142nd Street","state":"SD"},"type":"Feature","geometry":{"type":"Point","coordinates":[-98.506109,45.329205]}},{"properties":{"restrictions":null,"city":"Alamo","name":"Alamo (TN)","station name":null,"switch status":null,"zip":"38001","geo_score":0.598,"scac":null,"fax":"Fax: 731-696-4800","phone":"Phone: 731-696-2500","served roads":null,"fsac":null,"id":"a6569wnryuk4","geo_precision":"street","address":"2064 Highway 412 North","state":"TN"},"type":"Feature","geometry":{"type":"Point","coordinates":[-89.183942,35.834818]}},{"properties":{"restrictions":null,"city":"Atoka","name":"Atoka (TN)","station name":null,"switch status":null,"zip":"38004","geo_score":0.902,"scac":null,"fax":"Fax: 901-837-8128","phone":"Phone: 901-837-8138","served roads":null,"fsac":null,"id":"a6569wfr2bao","geo_precision":"range","address":"2148 Tipton Road","state":"TN"},"type":"Feature","geometry":{"type":"Point","coordinates":[-89.818708,35.418473]}},{"properties":{"restrictions":null,"city":"Dyersburg","name":"Dyersburg (TN)","station name":null,"switch status":null,"zip":"38024","geo_score":0.46,"scac":null,"fax":"Fax: 731-287-1148","phone":"Phone: 731-286-4569","served roads":null,"fsac":null,"id":"a6569wgrn5gg","geo_precision":"street","address":"625 Radio Rd","state":"TN"},"type":"Feature","geometry":{"type":"Point","coordinates":[-89.387759,36.038062]}},{"properties":{"restrictions":null,"city":"Humboldt","name":"Humboldt (TN)","station name":null,"switch status":null,"zip":"38343","geo_score":0.718,"scac":null,"fax":"Fax: 731-784-2829","phone":"Phone: 731-784-9492","served roads":null,"fsac":null,"id":"a6569wgpylep","geo_precision":"street","address":"4000 William Barnett Road","state":"TN"},"type":"Feature","geometry":{"type":"Point","coordinates":[-88.867359,35.832461]}},{"properties":{"restrictions":null,"city":"Jackson","name":"Jackson (TN)","station name":null,"switch status":null,"zip":"38301","geo_score":0.915,"scac":null,"fax":"Fax: 731-424-8560","phone":"Phone: 731-424-8585","served roads":null,"fsac":null,"id":"a6569w9rwcfz","geo_precision":"range","address":"14 Compass Drive","state":"TN"},"type":"Feature","geometry":{"type":"Point","coordinates":[-88.912891,35.612382]}},{"properties":{"restrictions":null,"city":"Ripley","name":"Ripley (TN)","station name":null,"switch status":null,"zip":"38063","geo_score":0.924,"scac":null,"fax":"Fax:","phone":"Phone: 731-635-5807","served roads":null,"fsac":null,"id":"a6569wfv1dnf","geo_precision":"range","address":"322 Cleveland Street","state":"TN"},"type":"Feature","geometry":{"type":"Point","coordinates":[-89.536647,35.75488]}},{"properties":{"restrictions":null,"city":"Sharon","name":"Sharon (TN)","station name":null,"switch status":null,"zip":"38255","geo_score":0.736,"scac":null,"fax":"Fax: 731-456-9871","phone":"Phone: 731-456-2411","served roads":null,"fsac":null,"id":"a6569wouo1jv","geo_precision":"street","address":"4874 US Highway 45 East","state":"TN"},"type":"Feature","geometry":{"type":"Point","coordinates":[-88.823703,36.21044]}},{"properties":{"restrictions":null,"city":"Abernathy","name":"Abernathy (TX)","station name":null,"switch status":null,"zip":"79311","geo_score":0.805,"scac":null,"fax":"Fax: 806-298-4735","phone":"Phone: 806-298-4622","served roads":null,"fsac":null,"id":"a6569wdcmm71","geo_precision":"range","address":"100 Main St","state":"TX"},"type":"Feature","geometry":{"type":"Point","coordinates":[-102.722846,34.225629]}},{"properties":{"restrictions":null,"city":"Abernathy","name":"Abernathy (TX) Inland Terminal","station name":null,"switch status":null,"zip":"79311","geo_score":0.927,"scac":null,"fax":"Fax: 806-298-4735","phone":"Phone: 806-298-4622","served roads":null,"fsac":null,"id":"a6569wg5j97v","geo_precision":"range","address":"1109 Jerome","state":"TX"},"type":"Feature","geometry":{"type":"Point","coordinates":[-101.83789,33.834458]}},{"properties":{"restrictions":null,"city":"Alamo","name":"Alamo (TX)","station name":"ALAMO","switch status":"L","zip":"78516","geo_score":0.61,"scac":"UP","fax":"Fax: 956-464-0185","phone":"Phone: 956-464-4411","served roads":null,"fsac":"52784","id":"a6569wobp7el","geo_precision":"street","address":"107 Border Road","state":"TX"},"type":"Feature","geometry":{"type":"Point","coordinates":[-98.090251,26.206464]}},{"properties":{"restrictions":null,"city":"Aransas Pass","name":"Aransas Pass (TX)","station name":null,"switch status":null,"zip":"78336","geo_score":0.762,"scac":null,"fax":"Fax: 361-758-4459","phone":"Phone: 361-758-2761","served roads":null,"fsac":null,"id":"a6569wio1zt8","geo_precision":"street","address":"1611 North Commercial","state":"TX"},"type":"Feature","geometry":{"type":"Point","coordinates":[-97.131898,27.92251]}},{"properties":{"restrictions":null,"city":"Bardwell","name":"Bardwell (TX)","station name":null,"switch status":null,"zip":"75101","geo_score":0.756,"scac":null,"fax":"Fax: 972-646-5607","phone":"Phone: 972-646-5411","served roads":null,"fsac":null,"id":"a6569woa89n3","geo_precision":"street","address":"3467 FM 984 North","state":"TX"},"type":"Feature","geometry":{"type":"Point","coordinates":[-96.697098,32.268594]}},{"properties":{"restrictions":null,"city":"Big Spring","name":"Big Springs (TX)","station name":"BIG SPRING","switch status":null,"zip":"79720","geo_score":0.872,"scac":"UP","fax":"Fax: 432-264-9030","phone":"Phone: 432-263-9963","served roads":null,"fsac":"53464","id":"a6569wfni9qj","geo_precision":"range","address":"3104 North Highway 87","state":"TX"},"type":"Feature","geometry":{"type":"Point","coordinates":[-101.498831,32.289327]}},{"properties":{"restrictions":null,"city":"Bryan","name":"Bryan (TX)","station name":null,"switch status":null,"zip":"77807","geo_score":1.0,"scac":null,"fax":"Fax: 979-823-7087","phone":"Phone: 979-823-6946","served roads":null,"fsac":null,"id":"a6569wae06vc","geo_precision":"range","address":"8875 Fazzino Road","state":"TX"},"type":"Feature","geometry":{"type":"Point","coordinates":[-96.558811,30.671573]}},{"properties":{"restrictions":"Reciprocal switching will apply only in connection with WTJR.","city":"Burkburnett","name":"Burkburnett (TX)","station name":"BURKBURNETT","switch status":"R","zip":"76354","geo_score":0.955,"scac":"UP","fax":"Fax: 940-569-5236","phone":"Phone: 940-569-3386","served roads":null,"fsac":"54398","id":"a6569wkj9aam","geo_precision":"range","address":"2202 S Red River Expy","state":"TX"},"type":"Feature","geometry":{"type":"Point","coordinates":[-98.558863,34.055749]}},{"properties":{"restrictions":null,"city":"De Leon","name":"DeLeon (TX)","station name":null,"switch status":null,"zip":"76444","geo_score":0.805,"scac":null,"fax":"Fax: 254-893-5258","phone":"Phone: 254-893-2055","served roads":null,"fsac":null,"id":"a6569wopbyqi","geo_precision":"range","address":"124 West Bivar","state":"TX"},"type":"Feature","geometry":{"type":"Point","coordinates":[-98.536383,32.112273]}},{"properties":{"restrictions":null,"city":"East Bernard","name":"East Bernard (TX)","station name":null,"switch status":null,"zip":"77435","geo_score":0.333,"scac":null,"fax":"Fax: 979-335-4712","phone":"Phone: 979-335-7525","served roads":null,"fsac":null,"id":"a6569wb1vpt7","geo_precision":"street","address":"16826 Foundation Loop / PO Box 1187","state":"TX"},"type":"Feature","geometry":{"type":"Point","coordinates":[-96.117922,29.64034]}},{"properties":{"restrictions":null,"city":"Eddy","name":"Eddy (TX)","station name":"EDDY","switch status":"L","zip":"76524","geo_score":0.619,"scac":"UP","fax":"Fax: 254-859-3668","phone":"Phone: 254-859-3600","served roads":null,"fsac":"54436","id":"a6569whuibky","geo_precision":"street","address":"101 Hwy 7 / PO Box 309","state":"TX"},"type":"Feature","geometry":{"type":"Point","coordinates":[-97.249665,31.294005]}},{"properties":{"restrictions":null,"city":"El Campo","name":"El Campo (TX)","station name":null,"switch status":null,"zip":"77437","geo_score":0.632,"scac":null,"fax":"Fax: 979-543-6260","phone":"Phone: 979-543-6268","served roads":null,"fsac":null,"id":"a6569wn298m6","geo_precision":"street","address":"27204 US 59 Road/PO Box 510","state":"TX"},"type":"Feature","geometry":{"type":"Point","coordinates":[-96.269877,29.196735]}},{"properties":{"restrictions":null,"city":"Electra","name":"Electra (TX)","station name":null,"switch status":null,"zip":"76360","geo_score":0.722,"scac":null,"fax":"Fax: 940-495-3817","phone":"Phone: 940-495-2212","served roads":null,"fsac":null,"id":"a6569wlihhvf","geo_precision":"range","address":"5156 SH 25 N","state":"TX"},"type":"Feature","geometry":{"type":"Point","coordinates":[-98.916114,34.091088]}},{"properties":{"restrictions":null,"city":"Ganado","name":"Ganado (TX)","station name":null,"switch status":null,"zip":"77962","geo_score":0.805,"scac":null,"fax":"Fax: 361-872-2478","phone":"Phone: 361-872-2475","served roads":null,"fsac":null,"id":"a6569whggw0f","geo_precision":"street","address":"2987 FM 1823","state":"TX"},"type":"Feature","geometry":{"type":"Point","coordinates":[-96.441138,28.919119]}},{"properties":{"restrictions":null,"city":"Greenville","name":"Greenville-Spclty (TX)","station name":null,"switch status":null,"zip":"75402","geo_score":0.629,"scac":null,"fax":"Fax: 903-455-5563","phone":"Phone: 903-455-5540","served roads":null,"fsac":null,"id":"a6569wj5zh1l","geo_precision":"street","address":"6801 Highway 66 West","state":"TX"},"type":"Feature","geometry":{"type":"Point","coordinates":[-96.144764,33.125192]}},{"properties":{"restrictions":null,"city":"Harlingen","name":"Harlingen (TX)","station name":null,"switch status":null,"zip":"78550","geo_score":0.61,"scac":null,"fax":"Fax: 956-428-8261","phone":"Phone: 956-425-7022","served roads":null,"fsac":null,"id":"a6569wbg33sz","geo_precision":"street","address":"24497 Port Road","state":"TX"},"type":"Feature","geometry":{"type":"Point","coordinates":[-97.219574,26.070693]}},{"properties":{"restrictions":null,"city":"Hartley","name":"Hartley (TX)","station name":"HARTLEY","switch status":"L","zip":"79044","geo_score":0.688,"scac":"BNSF","fax":"Fax: 806-365-4604","phone":"Phone: 806-365-4433","served roads":null,"fsac":"40738","id":"a6569wab7kcq","geo_precision":"range","address":"410 4th Street","state":"TX"},"type":"Feature","geometry":{"type":"Point","coordinates":[-103.013466,36.373005]}},{"properties":{"restrictions":"Reciprocal switching will apply only in connection with HRR.","city":"Hondo","name":"Hondo (TX)","station name":"HONDO","switch status":"R","zip":"78861","geo_score":0.566,"scac":"UP","fax":"Fax: 830-426-2069","phone":"Phone: 830-741-4304","served roads":null,"fsac":"58608","id":"a6569we9o3n9","geo_precision":"street","address":"240 Highway 173 North","state":"TX"},"type":"Feature","geometry":{"type":"Point","coordinates":[-99.116735,29.377713]}},{"properties":{"restrictions":null,"city":"Honey Grove","name":"Honey Grove (TX)","station name":null,"switch status":null,"zip":"75446","geo_score":0.61,"scac":null,"fax":"Fax: 903-378-2316","phone":"Phone: 903-378-7391","served roads":null,"fsac":null,"id":"a6569wmw4aq8","geo_precision":"street","address":"15158 E Highway 56","state":"TX"},"type":"Feature","geometry":{"type":"Point","coordinates":[-95.926867,33.582114]}},{"properties":{"restrictions":null,"city":"Waller","name":"Houston (TX) Specialty","station name":null,"switch status":null,"zip":"77484","geo_score":0.592,"scac":null,"fax":"Fax: 936-372-1509","phone":"Phone: 936-372-1505","served roads":null,"fsac":null,"id":"a6569wm96u9f","geo_precision":"street","address":"41232B Park 290","state":"TX"},"type":"Feature","geometry":{"type":"Point","coordinates":[-95.933894,30.058318]}},{"properties":{"restrictions":null,"city":"Iowa Park","name":"Iowa Park (TX)","station name":null,"switch status":null,"zip":"76367","geo_score":0.902,"scac":null,"fax":"Fax: 940-592-4162","phone":"Phone: 940-592-4161","served roads":null,"fsac":null,"id":"a6569wel2nw9","geo_precision":"range","address":"2062 FM 368S","state":"TX"},"type":"Feature","geometry":{"type":"Point","coordinates":[-98.671878,33.926828]}},{"properties":{"restrictions":null,"city":"Jourdanton","name":"Jourdanton (TX)","station name":null,"switch status":null,"zip":"78026","geo_score":0.645,"scac":null,"fax":"Fax: 830-769-2638","phone":"Phone: 830-769-2635","served roads":null,"fsac":null,"id":"a6569wh3li7s","geo_precision":"street","address":"3205 Zanderson Hwy 16","state":"TX"},"type":"Feature","geometry":{"type":"Point","coordinates":[-98.558551,28.934395]}},{"properties":{"restrictions":null,"city":"Lamesa","name":"Lamesa (TX)","station name":null,"switch status":null,"zip":"79331","geo_score":0.838,"scac":null,"fax":"Fax: 806-872-2714","phone":"Phone: 806-872-8883","served roads":null,"fsac":null,"id":"a6569wipzrhv","geo_precision":"range","address":"107 North 22nd St","state":"TX"},"type":"Feature","geometry":{"type":"Point","coordinates":[-101.950412,32.754913]}},{"properties":{"restrictions":null,"city":"Lubbock","name":"Lubbock (TX)","station name":null,"switch status":null,"zip":"79415","geo_score":0.916,"scac":null,"fax":"Fax: 806-762-6256","phone":"Phone: 806-765-8121","served roads":null,"fsac":null,"id":"a6569wb43ihe","geo_precision":"range","address":"4718 Hwy 84","state":"TX"},"type":"Feature","geometry":{"type":"Point","coordinates":[-101.913088,33.628385]}},{"properties":{"restrictions":null,"city":"Merkel","name":"Merkel (TX)","station name":"TYE","switch status":"L","zip":"79536","geo_score":0.738,"scac":"UP","fax":"Fax: 325-692-0873","phone":"Phone: 325-692-1197","served roads":null,"fsac":"53440","id":"a6569wbozzzb","geo_precision":"range","address":"226 County Road 287 Building U","state":"TX"},"type":"Feature","geometry":{"type":"Point","coordinates":[-99.926493,32.45484]}},{"properties":{"restrictions":null,"city":"Pearsall","name":"Pearsall (TX)","station name":null,"switch status":null,"zip":"78061","geo_score":0.488,"scac":null,"fax":"Fax: 830-334-2439","phone":"Phone: 830-334-9405","served roads":null,"fsac":null,"id":"a6569wpp5wr5","geo_precision":"street","address":"3255 Business Interstate 35E","state":"TX"},"type":"Feature","geometry":{"type":"Point","coordinates":[-99.136575,28.759012]}},{"properties":{"restrictions":null,"city":"Port Lavaca","name":"Port Lavaca (TX)","station name":"PORT LAVACA","switch status":"L","zip":"77979","geo_score":0.605,"scac":"UP","fax":"Fax: 361-552-7147","phone":"Phone: 361-552-3728","served roads":null,"fsac":"58916","id":"a6569wkxhg5k","geo_precision":"zip","address":"111 Pinta","state":"TX"},"type":"Feature","geometry":{"type":"Point","coordinates":[-96.453584,28.723881]}},{"properties":{"restrictions":null,"city":"Raywood","name":"Raywood (TX)","station name":null,"switch status":null,"zip":"77582","geo_score":0.558,"scac":null,"fax":"Fax: 936-549-7224","phone":"Phone: 936-549-7336","served roads":null,"fsac":null,"id":"a6569wa7ocwp","geo_precision":"street","address":"206629 Highway 90 East","state":"TX"},"type":"Feature","geometry":{"type":"Point","coordinates":[-94.676327,30.04176]}},{"properties":{"restrictions":null,"city":"Robstown","name":"Robstown (TX)","station name":"NUECES","switch status":"L","zip":"78380","geo_score":0.72,"scac":"UP","fax":"Fax: 361-387-9236","phone":"Phone: 361-387-0637","served roads":null,"fsac":"52730","id":"a6569wa7q1g5","geo_precision":"street","address":"4089 County Road 34","state":"TX"},"type":"Feature","geometry":{"type":"Point","coordinates":[-97.701043,27.754327]}},{"properties":{"restrictions":null,"city":"Seminole","name":"Seminole (TX)","station name":null,"switch status":null,"zip":"79360","geo_score":0.681,"scac":null,"fax":"Fax: 432-758-3593","phone":"Phone: 432-758-3970","served roads":null,"fsac":null,"id":"a6569wkm9yqy","geo_precision":"street","address":"1313 North Main Street","state":"TX"},"type":"Feature","geometry":{"type":"Point","coordinates":[-102.643026,32.731704]}},{"properties":{"restrictions":null,"city":"Stanton","name":"Stanton (TX)","station name":"STANTON","switch status":"L","zip":"79782","geo_score":0.619,"scac":"UP","fax":"Fax: 432-756-2691","phone":"Phone: 432-756-2888","served roads":null,"fsac":"53466","id":"a6569wdpha2r","geo_precision":"range","address":"100 South Saint Peter","state":"TX"},"type":"Feature","geometry":{"type":"Point","coordinates":[-102.389279,31.833747]}},{"properties":{"restrictions":null,"city":"Taft","name":"Taft (TX)","station name":null,"switch status":null,"zip":"78390","geo_score":0.74,"scac":null,"fax":"Fax: 361-528-4420","phone":"Phone: 361-528-4418","served roads":null,"fsac":null,"id":"a6569wgt8sdz","geo_precision":"street","address":"6932 FM 631","state":"TX"},"type":"Feature","geometry":{"type":"Point","coordinates":[-97.374242,27.985584]}},{"properties":{"restrictions":null,"city":"Taylor","name":"Taylor (TX)","station name":"TAYLOR","switch status":"C","zip":"76574","geo_score":0.874,"scac":"UP","fax":"Fax: 512-352-9385","phone":"Phone: 512-352-9420","served roads":null,"fsac":"53032","id":"a6569wdds2yu","geo_precision":"range","address":"504 East Walnut","state":"TX"},"type":"Feature","geometry":{"type":"Point","coordinates":[-97.404153,30.565195]}},{"properties":{"restrictions":null,"city":"Tornillo","name":"Tornillo (TX)","station name":"TORNILLO","switch status":"C","zip":"79853","geo_score":0.545,"scac":"UP","fax":"Fax: 915-764-3955","phone":"Phone: 915-764-2227","served roads":null,"fsac":"53530","id":"a6569wi0mqfq","geo_precision":"range","address":"390 O T Smith Road","state":"TX"},"type":"Feature","geometry":{"type":"Point","coordinates":[-103.659257,30.360218]}},{"properties":{"restrictions":null,"city":"Uvalde","name":"Uvalde (TX)","station name":null,"switch status":null,"zip":"78801","geo_score":0.6,"scac":null,"fax":"Fax: 830-278-5305","phone":"Phone: 830-278-2569","served roads":null,"fsac":null,"id":"a6569wjt3873","geo_precision":"street","address":"4642 Highway 90 East","state":"TX"},"type":"Feature","geometry":{"type":"Point","coordinates":[-99.72975,29.256383]}},{"properties":{"restrictions":null,"city":"Veribest","name":"Veribest (TX)","station name":null,"switch status":null,"zip":"76886","geo_score":0.39,"scac":null,"fax":"Fax: 325-659-8442","phone":"Phone: 325-655-3014","served roads":null,"fsac":null,"id":"a6569wi2s7h5","geo_precision":"street","address":"10552 Highway FM 388","state":"TX"},"type":"Feature","geometry":{"type":"Point","coordinates":[-99.270157,31.589432]}},{"properties":{"restrictions":null,"city":"Wellington","name":"Wellington (TX)","station name":null,"switch status":null,"zip":"79095","geo_score":0.797,"scac":null,"fax":"Fax: 806-447-2919","phone":"Phone: 806-447-2531","served roads":null,"fsac":null,"id":"a6569wnw5thf","geo_precision":"range","address":"508 West Avenue","state":"TX"},"type":"Feature","geometry":{"type":"Point","coordinates":[-100.214159,34.859086]}},{"properties":{"restrictions":null,"city":"Wharton","name":"Wharton (TX)","station name":null,"switch status":null,"zip":"77488","geo_score":0.655,"scac":null,"fax":"Fax: 979-532-8310","phone":"Phone: 979-532-3162","served roads":null,"fsac":null,"id":"a6569wbkgppf","geo_precision":"street","address":"904 N Sunset","state":"TX"},"type":"Feature","geometry":{"type":"Point","coordinates":[-96.102153,29.320808]}},{"properties":{"restrictions":"Reciprocal switching will apply only in connection with TNER.","city":"Whitewright","name":"Whitewright (TX)","station name":"WHITEWRIGHT","switch status":"R","zip":"75491","geo_score":0.676,"scac":"UP","fax":"Fax: 903-364-5285","phone":"Phone: 903-364-5675","served roads":null,"fsac":"54344","id":"a6569wmvmufp","geo_precision":"street","address":"1110 Bond Street","state":"TX"},"type":"Feature","geometry":{"type":"Point","coordinates":[-96.392692,33.508663]}},{"properties":{"restrictions":null,"city":"Winnie","name":"Winnie (TX)","station name":null,"switch status":null,"zip":"77665","geo_score":0.683,"scac":null,"fax":"Fax: 409-296-2501","phone":"Phone: 409-296-2153","served roads":null,"fsac":null,"id":"a6569wffsdii","geo_precision":"zip","address":"214 Airport Rd","state":"TX"},"type":"Feature","geometry":{"type":"Point","coordinates":[-94.475364,29.823383]}},{"properties":{"restrictions":null,"city":"Buffalo Junction","name":"Bufflalo Junction (VA)","station name":null,"switch status":null,"zip":"24529","geo_score":0.948,"scac":null,"fax":"Fax: 434-374-9269","phone":"Phone: 434-374-8887","served roads":null,"fsac":null,"id":"a6569wa4m3tr","geo_precision":"range","address":"6142 US Hwy 58","state":"VA"},"type":"Feature","geometry":{"type":"Point","coordinates":[-78.606325,36.614841]}},{"properties":{"restrictions":null,"city":"Courtland","name":"Courtland (VA)","station name":null,"switch status":null,"zip":"23837","geo_score":0.924,"scac":null,"fax":"Fax: 757-653-0439","phone":"Phone: 757-653-2161","served roads":null,"fsac":null,"id":"a6569wnpa5ve","geo_precision":"range","address":"28158 Southampton Parkway","state":"VA"},"type":"Feature","geometry":{"type":"Point","coordinates":[-77.028723,36.690169]}},{"properties":{"restrictions":null,"city":"Harrisonburg","name":"Mt. Crawford (VA)","station name":null,"switch status":null,"zip":"22801","geo_score":0.911,"scac":null,"fax":"Fax: 540-438-7552","phone":"Phone: 540-438-7550","served roads":null,"fsac":null,"id":"a6569wj1l9t8","geo_precision":"range","address":"4431 Early Road","state":"VA"},"type":"Feature","geometry":{"type":"Point","coordinates":[-78.913126,38.389618]}},{"properties":{"restrictions":null,"city":"Nassawadox","name":"Nassawadox (VA)","station name":null,"switch status":null,"zip":"23413","geo_score":0.805,"scac":null,"fax":"Fax: 757-414-0247","phone":"Phone: 757-414-0245","served roads":null,"fsac":null,"id":"a6569wi9e2oc","geo_precision":"range","address":"7422 Lankford Hwy","state":"VA"},"type":"Feature","geometry":{"type":"Point","coordinates":[-75.547016,37.934635]}},{"properties":{"restrictions":null,"city":"Tasley","name":"Tasley (VA)","station name":null,"switch status":null,"zip":"23441","geo_score":0.61,"scac":null,"fax":"Fax: 757-787-2515","phone":"Phone: 757-787-2033","served roads":null,"fsac":null,"id":"a6569wk1o34w","geo_precision":"street","address":"24003 Greenbush Road / PO Box 117","state":"VA"},"type":"Feature","geometry":{"type":"Point","coordinates":[-75.701155,37.713397]}},{"properties":{"restrictions":null,"city":"Walkerton","name":"Walkerton (VA)","station name":null,"switch status":null,"zip":"23177","geo_score":0.61,"scac":null,"fax":"Fax: 804-769-7527","phone":"Phone: 804-769-7525","served roads":null,"fsac":null,"id":"a6569wkm9x7k","geo_precision":"street","address":"5503A Canterbury Road","state":"VA"},"type":"Feature","geometry":{"type":"Point","coordinates":[-77.680532,37.766599]}},{"properties":{"restrictions":null,"city":"Winchester","name":"Winchester (VA)","station name":null,"switch status":null,"zip":"22603","geo_score":1.0,"scac":null,"fax":"Fax: 540-667-5399","phone":"Phone: 540-667-2371","served roads":null,"fsac":null,"id":"a6569wikhih1","geo_precision":"range","address":"224A Welltown Road","state":"VA"},"type":"Feature","geometry":{"type":"Point","coordinates":[-78.140784,39.220116]}},{"properties":{"restrictions":null,"city":"Moses Lake","name":"Moses Lake (WA)","station name":null,"switch status":null,"zip":"98837","geo_score":0.68,"scac":null,"fax":"Fax: 509-765-0109","phone":"Phone: 509-765-1074","served roads":null,"fsac":null,"id":"a6569wnpj9ka","geo_precision":"street","address":"3188 Road M 2 NE","state":"WA"},"type":"Feature","geometry":{"type":"Point","coordinates":[-119.214422,47.145457]}},{"properties":{"restrictions":null,"city":"Pasco","name":"Pasco (WA)","station name":"PASCO","switch status":"L","zip":"99301","geo_score":0.877,"scac":"BNSF","fax":"Fax: 509-544-0437","phone":"Phone: 509-544-0436","served roads":null,"fsac":"12143","id":"a6569wnakp9e","geo_precision":"range","address":"1010 East Kartchner","state":"WA"},"type":"Feature","geometry":{"type":"Point","coordinates":[-119.097065,46.265409]}},{"properties":{"restrictions":null,"city":"Eden","name":"Eden (WI)","station name":"EDEN","switch status":"L","zip":"53019","geo_score":0.718,"scac":"CN","fax":"Fax: 920-477-2524","phone":"Phone: 920-477-3231","served roads":null,"fsac":"56089","id":"a6569wlc0kyu","geo_precision":"street","address":"102 W Main St","state":"WI"},"type":"Feature","geometry":{"type":"Point","coordinates":[-88.362926,43.692519]}},{"properties":{"restrictions":null,"city":"Madison","name":"Madison (WI)","station name":null,"switch status":null,"zip":"53716","geo_score":0.902,"scac":null,"fax":"Fax: 608-224-2115","phone":"Phone: 608-224-2110","served roads":null,"fsac":null,"id":"a6569wfsi9qb","geo_precision":"range","address":"2929 Progress Road","state":"WI"},"type":"Feature","geometry":{"type":"Point","coordinates":[-89.304132,43.055085]}},{"properties":{"restrictions":null,"city":"West Bend","name":"West Bend (WI)","station name":"WEST BEND","switch status":"L","zip":"53095","geo_score":0.689,"scac":"CN","fax":"Fax: 262-629-1913","phone":"Phone: 262-629-5564","served roads":null,"fsac":"56099","id":"a6569wnstrg8","geo_precision":"street","address":"6525 Townline Road","state":"WI"},"type":"Feature","geometry":{"type":"Point","coordinates":[-88.221355,43.369018]}},{"properties":{"restrictions":null,"city":"Stevens Point","name":"AG Services - STEVENS POINT","station name":"Stevens Point","switch status":"L","zip":"54481","geo_score":0.919,"scac":"CN","fax":"715-592-3791","phone":"262-483-0770","served roads":null,"fsac":"56275","id":"a6569w9wvpcl","geo_precision":"range","address":"2417 Stockton Rd.","state":"WI"},"type":"Feature","geometry":{"type":"Point","coordinates":[-89.467114,44.512032]}},{"properties":{"restrictions":null,"city":"WESTFIELD","name":"AG Services - WESTFIELD","station name":null,"switch status":null,"zip":"53964","geo_score":0.204,"scac":null,"fax":"608-296-3688","phone":"608-369-1137","served roads":null,"fsac":null,"id":"a6569wbm0nne","geo_precision":"street","address":"N7081 Cty Hwy E.","state":"WI"},"type":"Feature","geometry":{"type":"Point","coordinates":[-89.184901,43.769907]}},{"properties":{"restrictions":null,"city":"Clear Lake","name":"Helena Chemical Company","station name":null,"switch status":null,"zip":"57226","geo_score":0.529,"scac":null,"fax":null,"phone":"507-829-0528","served roads":null,"fsac":null,"id":"a6569wfxeo19","geo_precision":"street","address":"202 - 2nd Ave. South","state":"SD"},"type":"Feature","geometry":{"type":"Point","coordinates":[-96.683292,44.757867]}},{"properties":{"restrictions":null,"city":"COON RAPIDS","name":"Guthrie Center COON RAPIDS","station name":null,"switch status":null,"zip":"50115","geo_score":0.815,"scac":null,"fax":"641-747-8165","phone":"641-757-7886","served roads":null,"fsac":null,"id":"a6569wgo41i7","geo_precision":"range","address":"705 North 1st St.","state":"IA"},"type":"Feature","geometry":{"type":"Point","coordinates":[-94.50728,41.683007]}},{"properties":{"restrictions":null,"city":"Holloway","name":"Western Consolidated Terminal","station name":"HOLLOWAY","switch status":"L","zip":"56249","geo_score":0.805,"scac":"BNSF","fax":"320-394-2187","phone":null,"served roads":null,"fsac":"54015","id":"a6569wokbyf1","geo_precision":"range","address":"520 County Road 9","state":"MN"},"type":"Feature","geometry":{"type":"Point","coordinates":[-95.211308,44.599782]}},{"properties":{"restrictions":null,"city":"DES MOINES","name":"HELENA INDUSTRIES INC","station name":"DES MOINES","switch status":"O","zip":"50317","geo_score":0.924,"scac":"BNSF","fax":null,"phone":null,"served roads":null,"fsac":"77569","id":"a6569w9rok21","geo_precision":"range","address":"3525 VANDALIA RD","state":"IA"},"type":"Feature","geometry":{"type":"Point","coordinates":[-93.546154,41.569187]}},{"properties":{"restrictions":null,"city":"PARMA","name":"HELENA CHEMICAL CO","station name":"PARMA","switch status":"L","zip":"83660","geo_score":0.385,"scac":"UP","fax":null,"phone":null,"served roads":null,"fsac":"4250","id":"a6569wlhmcpx","geo_precision":"street","address":"UP LEASED TRACK","state":"ID"},"type":"Feature","geometry":{"type":"Point","coordinates":[-116.543403,43.405232]}},{"properties":{"restrictions":null,"city":"MAX","name":"HELENA CHEMICAL CO","station name":"MAX","switch status":"L","zip":"69037","geo_score":0.476,"scac":"BNSF","fax":null,"phone":null,"served roads":null,"fsac":"20767","id":"a6569wgpijyu","geo_precision":"street","address":"MAX SIDING","state":"NE"},"type":"Feature","geometry":{"type":"Point","coordinates":[-101.649342,40.520998]}},{"properties":{"restrictions":null,"city":"BUCYRUS","name":"HELENA CHEMICAL CO","station name":"BUCYRUS","switch status":"C","zip":"44820","geo_score":0.902,"scac":"CFE","fax":null,"phone":null,"served roads":null,"fsac":"18480","id":"a6569wkyao5e","geo_precision":"range","address":"2840 LEMERT RD","state":"OH"},"type":"Feature","geometry":{"type":"Point","coordinates":[-82.97735,40.892027]}},{"properties":{"restrictions":null,"city":"CORPUS CHRISTI","name":"HELENA CHEMICAL CO","station name":"CORPUS CHRISTI","switch status":"C","zip":"78408","geo_score":0.393,"scac":"UP","fax":null,"phone":null,"served roads":null,"fsac":"53244","id":"a6569wdli0op","geo_precision":"street","address":"UP LEASE TRACK","state":"TX"},"type":"Feature","geometry":{"type":"Point","coordinates":[-97.386789,27.760682]}},{"properties":{"restrictions":null,"city":"OSHKOSH","name":"AG Services - OSHKOSH","station name":"OSHKOSH","switch status":"C","zip":"54904","geo_score":1.0,"scac":"WSOR","fax":"920-426-5696","phone":"920-295-7087","served roads":null,"fsac":"18754","id":"a6569wiz8eho","geo_precision":"range","address":"2550 Clairville Rd.","state":"WI"},"type":"Feature","geometry":{"type":"Point","coordinates":[-88.62351,43.983804]}},{"properties":{"restrictions":null,"city":"SCOTTSBLUFF","name":"JR SIMPLOT CO","station name":"SCOTTSBLUFF","switch status":"L","zip":"69361","geo_score":0.819,"scac":"BNSF","fax":null,"phone":null,"served roads":null,"fsac":null,"id":"a6569wmxw393","geo_precision":"range","address":"1018 W 26TH ST","state":"NE"},"type":"Feature","geometry":{"type":"Point","coordinates":[-103.676416,41.87276]}},{"properties":{"restrictions":null,"city":"CONTINENTAL, OH 45831","name":"???WOLLAM AG CENTER INC","station name":null,"switch status":null,"zip":"45831","geo_score":0.821,"scac":null,"fax":null,"phone":null,"served roads":null,"fsac":null,"id":"a6569whuz28v","geo_precision":"range","address":"202 N MAIN ST","state":null},"type":"Feature","geometry":{"type":"Point","coordinates":[-84.265994,41.098604]}},{"properties":{"restrictions":null,"city":"CONTINENTAL, OH 45831","name":null,"station name":null,"switch status":null,"zip":"45831","geo_score":0.578,"scac":null,"fax":null,"phone":null,"served roads":null,"fsac":null,"id":"a6569wcswq9w","geo_precision":"street","address":"100 East Oak Street","state":null},"type":"Feature","geometry":{"type":"Point","coordinates":[-84.262824,41.097389]}}],"is_temporal":false,"author":{"url":"","metadata":"","contact_name":"","contact_address":"","source":"","contact_phone":""},"source":"","pagination":{"sort":null,"start":0,"total":305,"limit":1000000},"state":"complete","tags":"","published":"2014-08-10T21:17:46-04:00","id":87312}