{"type":"FeatureCollection","data_type":"Dataset","url_type":null,"permissions":[{"permissions":{"download":true,"view":true},"group_id":"everyone"}],"classification":null,"title":"publiclibraries.com, Arizona Public Libraries, Arizona, 1.2008","count":195,"stream_id":875,"contributor":{"url":"http://geocommons.com/users/2","name":"data"},"data_attributes":null,"calculation_params":null,"icon_link":null,"link":"http://geocommons.com/overlays/875.json","extent":[-114.781,31.3446,-87.6745,36.9512],"geometry_types":["point"],"unique_name":null,"name":"publiclibraries.com, Arizona Public Libraries, Arizona, 1.2008","feature_count":195,"description":"This dataset displays the locations of all the public libraries in the state of Arizona. The data included is the name of the library, name of the library system, library's address, phone, and lat/lon coordinates. The data came from publiclibraries.com which is a updated directory of all the public libraries throughout the United States.\n","next_feature":null,"is_raster":false,"short_classification":"Y","stats":{"lon":{"max":-87.674469,"mean":-111.608459446154,"variance":4.87138380955055,"stdev":2.20712115878367,"min":-114.780947,"median":-111.841519},"phone":{"max":9289276593,"mean":7205744879.27692,"variance":3.9713351962262e+18,"stdev":1992820914.23846,"min":2567646564,"median":6237737555},"lat":{"max":36.951198,"mean":33.5646276717949,"variance":1.34860838457589,"stdev":1.16129599352443,"min":31.344583,"median":33.478388}},"features":[{"properties":{"city":"Phoenix","lon":-112.063364,"zip":"","librarysystem":"Phoenix Public Library","phone":6022626223,"id":"a63gg35c4hck","address":"750 East Townley Avenue","lat":33.56609,"libraryname":"Acacia Branch Library","state":"AZ"},"type":"Feature","geometry":{"type":"Point","coordinates":[-112.063364,33.56609]}},{"properties":{"city":"Aguila","lon":-113.172564,"zip":"","librarysystem":"Maricopa County Library District","phone":9286852214,"id":"a63gg3bm59mi","address":"51300 West U.S. 60","lat":33.943117,"libraryname":"Aguila Branch Library","state":"AZ"},"type":"Feature","geometry":{"type":"Point","coordinates":[-113.172564,33.943117]}},{"properties":{"city":"Pearce","lon":-109.638552,"zip":"","librarysystem":"Cochise County Library District","phone":5208243340,"id":"a63gg384gepd","address":"6460 East Highway 181","lat":31.876382,"libraryname":"Alice Woods Sunizona Library","state":"AZ"},"type":"Feature","geometry":{"type":"Point","coordinates":[-109.638552,31.876382]}},{"properties":{"city":"Alpine","lon":-109.140388,"zip":"","librarysystem":"Apache County Library District","phone":9283394925,"id":"a63gg30mvrvp","address":"42677 Highway 180","lat":33.848281,"libraryname":"Alpine Public Library","state":"AZ"},"type":"Feature","geometry":{"type":"Point","coordinates":[-109.140388,33.848281]}},{"properties":{"city":"Apache Junction","lon":-111.545938,"zip":"","librarysystem":"Apache Junction Public Library","phone":4804748555,"id":"a63gg3cqb23e","address":"1177 North Idaho Road","lat":33.424994,"libraryname":"Apache Junction Public Library","state":"AZ"},"type":"Feature","geometry":{"type":"Point","coordinates":[-111.545938,33.424994]}},{"properties":{"city":"Scottsdale","lon":-111.8613,"zip":"","librarysystem":"Scottsdale Public Library","phone":4803126200,"id":"a63gg391la57","address":"10187 E Mcdowell Mountain Ranch Rd","lat":33.627877,"libraryname":"Arabian Library","state":"AZ"},"type":"Feature","geometry":{"type":"Point","coordinates":[-111.8613,33.627877]}},{"properties":{"city":"Arizona City","lon":-111.671234,"zip":"","librarysystem":"Arizona City Community Library","phone":5204665565,"id":"a63gg37ir9nf","address":"13254 S. Sunland Gin Rd.","lat":32.759659,"libraryname":"Arizona City Community Library","state":"AZ"},"type":"Feature","geometry":{"type":"Point","coordinates":[-111.671234,32.759659]}},{"properties":{"city":"Kearny","lon":-110.913996,"zip":"","librarysystem":"Arthur E. Pomeroy Public Library","phone":5203635861,"id":"a63gg3dxceau","address":"912-A Tilbury Road","lat":33.054728,"libraryname":"Arthur E. Pomeroy Public Library","state":"AZ"},"type":"Feature","geometry":{"type":"Point","coordinates":[-110.913996,33.054728]}},{"properties":{"city":"Ash Fork","lon":-112.487151,"zip":"","librarysystem":"Ash Fork Public Library","phone":9286372442,"id":"a63gg3bduwnr","address":"518 Lewis Ave","lat":35.224779,"libraryname":"Ash Fork Public Library","state":"AZ"},"type":"Feature","geometry":{"type":"Point","coordinates":[-112.487151,35.224779]}},{"properties":{"city":"Avondale","lon":-112.305236,"zip":"","librarysystem":"Maricopa County Library District","phone":6026523000,"id":"a63gg34lfu68","address":"11350 Civic Center Drive","lat":33.445073,"libraryname":"Avondale Civic Center Library","state":"AZ"},"type":"Feature","geometry":{"type":"Point","coordinates":[-112.305236,33.445073]}},{"properties":{"city":"Avondale","lon":-112.353264,"zip":"","librarysystem":"Avondale Old Town Library","phone":6239329415,"id":"a63gg3a792uq","address":"328 West Western Avenue","lat":33.435501,"libraryname":"Avondale Old Town Library","state":"AZ"},"type":"Feature","geometry":{"type":"Point","coordinates":[-112.353264,33.435501]}},{"properties":{"city":"Bagdad","lon":-113.175412,"zip":"","librarysystem":"Bagdad Public Library","phone":9286332325,"id":"a63gg37awmcc","address":"100 Main Street","lat":34.568392,"libraryname":"Bagdad Public Library","state":"AZ"},"type":"Feature","geometry":{"type":"Point","coordinates":[-113.175412,34.568392]}},{"properties":{"city":"Beaver Dam","lon":-113.934684,"zip":"","librarysystem":"Mohave County Library District","phone":9283475796,"id":"a63gg3egn8fy","address":"3436 E Rio Virgin Rd","lat":36.899272,"libraryname":"Beaver Dam/Littlefield Library","state":"AZ"},"type":"Feature","geometry":{"type":"Point","coordinates":[-113.934684,36.899272]}},{"properties":{"city":"Benson","lon":-110.296666,"zip":"","librarysystem":"Benson Public Library","phone":5205869535,"id":"a63gg39ramt3","address":"300 South Huachuca Street","lat":31.966009,"libraryname":"Benson Public Library","state":"AZ"},"type":"Feature","geometry":{"type":"Point","coordinates":[-110.296666,31.966009]}},{"properties":{"city":"Black Canyon City","lon":-112.148586,"zip":"","librarysystem":"Black Canyon City Community Library","phone":6233745866,"id":"a63gg330qxsk","address":"34701 S Old Black Canyon Hwy","lat":34.064397,"libraryname":"Black Canyon City Community Library","state":"AZ"},"type":"Feature","geometry":{"type":"Point","coordinates":[-112.148586,34.064397]}},{"properties":{"city":"Buckeye","lon":-112.583357,"zip":"","librarysystem":"Buckeye Public Library","phone":6233496300,"id":"a63gg38k5l4x","address":"310 North 6th Street","lat":33.372426,"libraryname":"Buckeye Public Library","state":"AZ"},"type":"Feature","geometry":{"type":"Point","coordinates":[-112.583357,33.372426]}},{"properties":{"city":"Phoenix","lon":-112.073584,"zip":"","librarysystem":"Phoenix Public Library","phone":6022624636,"id":"a63gg3a961xp","address":"1221 North Central Avenue","lat":33.461595,"libraryname":"Burton Barr Central Library","state":"AZ"},"type":"Feature","geometry":{"type":"Point","coordinates":[-112.073584,33.461595]}},{"properties":{"city":"Camp Verde","lon":-111.854613,"zip":"","librarysystem":"Camp Verde Community Library","phone":9285673414,"id":"a63gg38na552","address":"130 Black Bridge Loop Road","lat":34.571013,"libraryname":"Camp Verde Community Library","state":"AZ"},"type":"Feature","geometry":{"type":"Point","coordinates":[-111.854613,34.571013]}},{"properties":{"city":"Casa Grande","lon":-111.749935,"zip":"","librarysystem":"Casa Grande Public Library","phone":5204218710,"id":"a63gg3dom39g","address":"449 N Dry Lake","lat":32.87677,"libraryname":"Casa Grande Public Library","state":"AZ"},"type":"Feature","geometry":{"type":"Point","coordinates":[-111.749935,32.87677]}},{"properties":{"city":"Wilhoit","lon":-112.587486,"zip":"","librarysystem":"Cathy Prentice Memorial Library","phone":9284423611,"id":"a63gg3blov3f","address":"9325 Donegal Drive","lat":34.425347,"libraryname":"Cathy Prentice Memorial Library","state":"AZ"},"type":"Feature","geometry":{"type":"Point","coordinates":[-112.587486,34.425347]}},{"properties":{"city":"Arivaca","lon":-111.334537,"zip":"","librarysystem":"Pima County Public Library","phone":5203982764,"id":"a63gg3a6zo5i","address":"17050 W Arivaca Road","lat":31.576948,"libraryname":"Caviglia-Arivaca Branch Library","state":"AZ"},"type":"Feature","geometry":{"type":"Point","coordinates":[-111.334537,31.576948]}},{"properties":{"city":"Phoenix","lon":-112.043598,"zip":"","librarysystem":"Phoenix Public Library","phone":6022627412,"id":"a63gg3epzm0o","address":"1750 East Highland","lat":33.505739,"libraryname":"Century Branch","state":"AZ"},"type":"Feature","geometry":{"type":"Point","coordinates":[-112.043598,33.505739]}},{"properties":{"city":"Chandler","lon":-111.837638,"zip":"","librarysystem":"Chandler Public Library","phone":4807822803,"id":"a63gg3a3ovqd","address":"22 South Delaware","lat":33.303097,"libraryname":"Chandler Public Library","state":"AZ"},"type":"Feature","geometry":{"type":"Point","coordinates":[-111.837638,33.303097]}},{"properties":{"city":"Chino Valley","lon":-112.465467,"zip":"","librarysystem":"Chino Valley Public Library","phone":9286362687,"id":"a63gg3fih83c","address":"1020 W. Palomino Rd","lat":34.773567,"libraryname":"Chino Valley Public Library","state":"AZ"},"type":"Feature","geometry":{"type":"Point","coordinates":[-112.465467,34.773567]}},{"properties":{"city":"Chloride","lon":-114.200329,"zip":"","librarysystem":"Mohave County Library District","phone":9285652200,"id":"a63gg35ckum4","address":"4940 Payroll","lat":35.414341,"libraryname":"Chloride Community Library","state":"AZ"},"type":"Feature","geometry":{"type":"Point","coordinates":[-114.200329,35.414341]}},{"properties":{"city":"Phoenix","lon":-112.118882,"zip":"","librarysystem":"Phoenix Public Library","phone":6025343770,"id":"a63gg2zdx1x9","address":"10050 Metro Parkway East","lat":33.578255,"libraryname":"Cholla Branch Library","state":"AZ"},"type":"Feature","geometry":{"type":"Point","coordinates":[-112.118882,33.578255]}},{"properties":{"city":"Cibecue","lon":-110.486119,"zip":"","librarysystem":"Whiteriver Public Library","phone":9283322621,"id":"a63gg37wl428","address":"6 West 3rd St","lat":34.044755,"libraryname":"Cibecue Community Library","state":"AZ"},"type":"Feature","geometry":{"type":"Point","coordinates":[-110.486119,34.044755]}},{"properties":{"city":"Mesa","lon":-111.829849,"zip":"","librarysystem":"City of Mesa Library","phone":4806442702,"id":"a63gg3etr1sy","address":"64 East 1st Street","lat":33.417378,"libraryname":"City of Mesa Library","state":"AZ"},"type":"Feature","geometry":{"type":"Point","coordinates":[-111.829849,33.417378]}},{"properties":{"city":"Scottsdale","lon":-111.921635,"zip":"","librarysystem":"Scottsdale Public Library","phone":4803122474,"id":"a63gg3al5s0r","address":"3839 North Drinkwater Blvd","lat":33.491698,"libraryname":"Civic Center Library","state":"AZ"},"type":"Feature","geometry":{"type":"Point","coordinates":[-111.921635,33.491698]}},{"properties":{"city":"Clarkdale","lon":-112.057374,"zip":"","librarysystem":"Clark Memorial Library","phone":9286349760,"id":"a63gg30djdas","address":"39 North Ninth Street","lat":34.771747,"libraryname":"Clark Memorial Library","state":"AZ"},"type":"Feature","geometry":{"type":"Point","coordinates":[-112.057374,34.771747]}},{"properties":{"city":"Clay Springs","lon":-110.298029,"zip":"","librarysystem":"Navajo County Library District","phone":9287394760,"id":"a63gg305s7jq","address":"2114 Sandstone","lat":34.36267,"libraryname":"Clay Springs Public Library","state":"AZ"},"type":"Feature","geometry":{"type":"Point","coordinates":[-110.298029,34.36267]}},{"properties":{"city":"Clifton","lon":-109.289575,"zip":"","librarysystem":"Clifton Public Library","phone":9288652461,"id":"a63gg3ehla0x","address":"102 School Street","lat":33.045985,"libraryname":"Clifton Public Library","state":"AZ"},"type":"Feature","geometry":{"type":"Point","coordinates":[-109.289575,33.045985]}},{"properties":{"city":"Somerton","lon":-114.769769,"zip":"","librarysystem":"Cocopah Tribal Library","phone":9286278026,"id":"a63gg351uk33","address":"14250 South Avenue I","lat":32.59399,"libraryname":"Cocopah Tribal Library","state":"AZ"},"type":"Feature","geometry":{"type":"Point","coordinates":[-114.769769,32.59399]}},{"properties":{"city":"Parker","lon":-114.481497,"zip":"","librarysystem":"Colorado River Indian Tribes Public Library","phone":9286691332,"id":"a63gg3bmkz6v","address":"Rt. 1, Box 23-B","lat":33.671231,"libraryname":"Colorado River Indian Tribes Public Library","state":"AZ"},"type":"Feature","geometry":{"type":"Point","coordinates":[-114.481497,33.671231]}},{"properties":{"city":"Tucson","lon":-110.89959,"zip":"","librarysystem":"Pima County Public Library","phone":5207914081,"id":"a63gg3blq8c9","address":"4350 East 22nd Street","lat":32.206769,"libraryname":"Columbus Library","state":"AZ"},"type":"Feature","geometry":{"type":"Point","coordinates":[-110.89959,32.206769]}},{"properties":{"city":"Concho","lon":-109.542679,"zip":"","librarysystem":"Apache County Library District","phone":9283372167,"id":"a63gg35lgngz","address":"119 County Road 5051 / Evergreen Dr","lat":34.485455,"libraryname":"Concho Public Library","state":"AZ"},"type":"Feature","geometry":{"type":"Point","coordinates":[-109.542679,34.485455]}},{"properties":{"city":"Congress","lon":-112.859064,"zip":"","librarysystem":"Congress Public Library","phone":9284273945,"id":"a63gg3f6e9pf","address":"25730 Tenderfoot Rd","lat":34.1777,"libraryname":"Congress Public Library","state":"AZ"},"type":"Feature","geometry":{"type":"Point","coordinates":[-112.859064,34.1777]}},{"properties":{"city":"Green Valley","lon":-110.995191,"zip":"","librarysystem":"Pima County Public Library","phone":5206258660,"id":"a63gg31zeke8","address":"601 North La Canada Drive","lat":31.879065,"libraryname":"Conrad Joyner-Green Valley Branch Library","state":"AZ"},"type":"Feature","geometry":{"type":"Point","coordinates":[-110.995191,31.879065]}},{"properties":{"city":"Coolidge","lon":-111.517185,"zip":"","librarysystem":"Coolidge Public Library","phone":5207239559,"id":"a63gg3abtih8","address":"160 West Central Avenue","lat":32.977757,"libraryname":"Coolidge Public Library","state":"AZ"},"type":"Feature","geometry":{"type":"Point","coordinates":[-111.517185,32.977757]}},{"properties":{"city":"Bisbee","lon":-109.915388,"zip":"","librarysystem":"Copper Queen Library","phone":5204324232,"id":"a63gg3c4h55h","address":"6 Main Street","lat":31.441785,"libraryname":"Copper Queen Library","state":"AZ"},"type":"Feature","geometry":{"type":"Point","coordinates":[-109.915388,31.441785]}},{"properties":{"city":"Mayer","lon":-112.10439,"zip":"","librarysystem":"Cordes Lakes Public Library","phone":9286325492,"id":"a63gg35pe8lw","address":"20445 E Quail Run Dr","lat":34.310657,"libraryname":"Cordes Lakes Public Library","state":"AZ"},"type":"Feature","geometry":{"type":"Point","coordinates":[-112.10439,34.310657]}},{"properties":{"city":"Cottonwood","lon":-112.022918,"zip":"","librarysystem":"Cottonwood Public Library","phone":9286347559,"id":"a63gg3617lcq","address":"100 South 6th Street","lat":34.737735,"libraryname":"Cottonwood Public Library","state":"AZ"},"type":"Feature","geometry":{"type":"Point","coordinates":[-112.022918,34.737735]}},{"properties":{"city":"Crown King","lon":-112.347119,"zip":"","librarysystem":"Crown King Public Library","phone":9286325986,"id":"a63gg3apgez0","address":"635 Towers Mountain Rd","lat":34.21496,"libraryname":"Crown King Public Library","state":"AZ"},"type":"Feature","geometry":{"type":"Point","coordinates":[-112.347119,34.21496]}},{"properties":{"city":"Dateland","lon":-113.540934,"zip":"","librarysystem":"Yuma County Library District","phone":9284542242,"id":"a63gg3abbhdw","address":"1300 S Avenue 67E","lat":32.7996,"libraryname":"Dateland Branch Library","state":"AZ"},"type":"Feature","geometry":{"type":"Point","coordinates":[-113.540934,32.7996]}},{"properties":{"city":"Cave Creek","lon":-111.943113,"zip":"","librarysystem":"Desert Foothills Library","phone":4804882286,"id":"a63gg39wuq6o","address":"38443 N. Schoolhouse","lat":33.833867,"libraryname":"Desert Foothills Library","state":"AZ"},"type":"Feature","geometry":{"type":"Point","coordinates":[-111.943113,33.833867]}},{"properties":{"city":"Phoenix","lon":-112.223069,"zip":"","librarysystem":"Phoenix Public Library","phone":6025345276,"id":"a63gg31mh5er","address":"7602 West Encanto Blvd","lat":33.47301,"libraryname":"Desert Sage Branch Library","state":"AZ"},"type":"Feature","geometry":{"type":"Point","coordinates":[-112.223069,33.47301]}},{"properties":{"city":"Catalina","lon":-110.925899,"zip":"","librarysystem":"Pima County Public Library","phone":5208259541,"id":"a63gg34bms89","address":"15631 N. Oracle Rd.","lat":32.506615,"libraryname":"Dewhirst-Catalina Branch Library","state":"AZ"},"type":"Feature","geometry":{"type":"Point","coordinates":[-110.925899,32.506615]}},{"properties":{"city":"Mesa","lon":-111.879927,"zip":"","librarysystem":"City of Mesa Library","phone":4806443441,"id":"a63gg34dsgdg","address":"2425 South Dobson Road","lat":33.371425,"libraryname":"Dobson Ranch Branch Library","state":"AZ"},"type":"Feature","geometry":{"type":"Point","coordinates":[-111.879927,33.371425]}},{"properties":{"city":"Dolan Springs","lon":-114.27108,"zip":"","librarysystem":"Mohave County Library District","phone":9287674292,"id":"a63gg32muafs","address":"15947 Don Nell","lat":35.592371,"libraryname":"Dolan Springs Community Library","state":"AZ"},"type":"Feature","geometry":{"type":"Point","coordinates":[-114.27108,35.592371]}},{"properties":{"city":"Douglas","lon":-109.553587,"zip":"","librarysystem":"Douglas Public Library","phone":5203643851,"id":"a63gg362wz5d","address":"560 East 10th Street","lat":31.344583,"libraryname":"Douglas Public Library","state":"AZ"},"type":"Feature","geometry":{"type":"Point","coordinates":[-109.553587,31.344583]}},{"properties":{"city":"Duncan","lon":-109.104589,"zip":"","librarysystem":"Duncan Public Library","phone":9283592094,"id":"a63gg34gkpo4","address":"122 N Highway 75","lat":32.721751,"libraryname":"Duncan Public Library","state":"AZ"},"type":"Feature","geometry":{"type":"Point","coordinates":[-109.104589,32.721751]}},{"properties":{"city":"Tucson","lon":-110.969754,"zip":"","librarysystem":"Pima County Public Library","phone":5207914979,"id":"a63gg3748l14","address":"5605 East River Road, No.105","lat":32.221553,"libraryname":"Dusenberry River Center Library","state":"AZ"},"type":"Feature","geometry":{"type":"Point","coordinates":[-110.969754,32.221553]}},{"properties":{"city":"Clifton","lon":-109.293933,"zip":"","librarysystem":"Clifton Public Library","phone":9283481120,"id":"a63gg35q23rg","address":"P O Box 1566","lat":33.047576,"libraryname":"Eagle Creek Deposit Library","state":"AZ"},"type":"Feature","geometry":{"type":"Point","coordinates":[-109.293933,33.047576]}},{"properties":{"city":"Flagstaff","lon":-111.613384,"zip":"","librarysystem":"Flagstaff City-Coconino County Public Library","phone":9287748434,"id":"a63gg32ued3k","address":"3000 N Fourth St","lat":35.217174,"libraryname":"East Flagstaff Community Library","state":"AZ"},"type":"Feature","geometry":{"type":"Point","coordinates":[-111.613384,35.217174]}},{"properties":{"city":"Mesa","lon":-111.68427,"zip":"","librarysystem":"City of Mesa Library","phone":4806443184,"id":"a63gg3eo8we2","address":"635 North Power Road","lat":33.427374,"libraryname":"East Mesa Regional Library","state":"AZ"},"type":"Feature","geometry":{"type":"Point","coordinates":[-111.68427,33.427374]}},{"properties":{"city":"Sun Lakes","lon":-111.881634,"zip":"","librarysystem":"Maricopa County Library District","phone":6026523000,"id":"a63gg33fgjvd","address":"9330 E Riggs Rd","lat":33.218149,"libraryname":"Ed Robson Branch Library","state":"AZ"},"type":"Feature","geometry":{"type":"Point","coordinates":[-111.881634,33.218149]}},{"properties":{"city":"El Mirage","lon":-112.325784,"zip":"","librarysystem":"Maricopa County Library District","phone":6026523000,"id":"a63gg3cv65l0","address":"14011 N. 1st Avenue","lat":33.611144,"libraryname":"El Mirage Branch Library","state":"AZ"},"type":"Feature","geometry":{"type":"Point","coordinates":[-112.325784,33.611144]}},{"properties":{"city":"Tucson","lon":-110.969427,"zip":"","librarysystem":"Pima County Public Library","phone":5207914733,"id":"a63gg3fb8xkp","address":"101 West Irvington","lat":32.163094,"libraryname":"El Pueblo Library","state":"AZ"},"type":"Feature","geometry":{"type":"Point","coordinates":[-110.969427,32.163094]}},{"properties":{"city":"Tucson","lon":-110.994337,"zip":"","librarysystem":"Pima County Public Library","phone":5207914468,"id":"a63gg30gpcmf","address":"1390 West Speedway","lat":32.235908,"libraryname":"El Rio Library","state":"AZ"},"type":"Feature","geometry":{"type":"Point","coordinates":[-110.994337,32.235908]}},{"properties":{"city":"Eloy","lon":-111.55405,"zip":"","librarysystem":"Eloy Public Library","phone":5204663814,"id":"a63gg38031kg","address":"100 East 7th Street","lat":32.756602,"libraryname":"Eloy Public Library","state":"AZ"},"type":"Feature","geometry":{"type":"Point","coordinates":[-111.55405,32.756602]}},{"properties":{"city":"Willcox","lon":-109.833744,"zip":"","librarysystem":"Elsie S. Hogan Community Library","phone":5203844271,"id":"a63gg3ahiwwd","address":"207 West Maley","lat":32.253295,"libraryname":"Elsie S. Hogan Community Library","state":"AZ"},"type":"Feature","geometry":{"type":"Point","coordinates":[-109.833744,32.253295]}},{"properties":{"city":"Flagstaff","lon":-111.652023,"zip":"","librarysystem":"Flagstaff City-Coconino County Public Library","phone":9287797670,"id":"a63gg30rrae1","address":"300 West Aspen","lat":35.199607,"libraryname":"Flagstaff Public Library","state":"AZ"},"type":"Feature","geometry":{"type":"Point","coordinates":[-111.652023,35.199607]}},{"properties":{"city":"Florence","lon":-111.389454,"zip":"","librarysystem":"Florence Community Library","phone":5208689471,"id":"a63gg33ma8sw","address":"1000 South Willow","lat":33.024062,"libraryname":"Florence Community Library","state":"AZ"},"type":"Feature","geometry":{"type":"Point","coordinates":[-111.389454,33.024062]}},{"properties":{"city":"Florence","lon":-87.674469,"zip":"","librarysystem":"Florence-Lauderdale Public Library","phone":2567646564,"id":"a63gg3fprbdc","address":"350 North Wood Avenue","lat":34.803634,"libraryname":"Florence-Lauderdale Public Library","state":"AZ"},"type":"Feature","geometry":{"type":"Point","coordinates":[-87.674469,34.803634]}},{"properties":{"city":"Yuma","lon":-114.406504,"zip":"","librarysystem":"Yuma County Library District","phone":9283421640,"id":"a63gg36yvu9o","address":"11299 South Glenwood","lat":32.666768,"libraryname":"Foothills Branch Library","state":"AZ"},"type":"Feature","geometry":{"type":"Point","coordinates":[-114.406504,32.666768]}},{"properties":{"city":"Yuma","lon":-114.406504,"zip":"","librarysystem":"Yuma County Library District","phone":9283421640,"id":"a63gg33pjk2e","address":"11299 South Glenwood","lat":32.666768,"libraryname":"Foothills Branch Library","state":"AZ"},"type":"Feature","geometry":{"type":"Point","coordinates":[-114.406504,32.666768]}},{"properties":{"city":"Glendale","lon":-112.180305,"zip":"","librarysystem":"Glendale Public Library","phone":6239303830,"id":"a63gg30rvcci","address":"19055 North 57th Avenue","lat":33.657725,"libraryname":"Foothills Branch Library","state":"AZ"},"type":"Feature","geometry":{"type":"Point","coordinates":[-112.180305,33.657725]}},{"properties":{"city":"Forest Lakes","lon":-110.806114,"zip":"","librarysystem":"Flagstaff City-Coconino County Public Library","phone":9285359125,"id":"a63gg35lphrf","address":"417 Old Rim Rd","lat":34.33599,"libraryname":"Forest Lakes Community Library","state":"AZ"},"type":"Feature","geometry":{"type":"Point","coordinates":[-110.806114,34.33599]}},{"properties":{"city":"Fountain Hills","lon":-111.721928,"zip":"","librarysystem":"Maricopa County Library District","phone":4808379793,"id":"a63gg3f94l6b","address":"12901 N La Montana Dr","lat":33.603894,"libraryname":"Fountain Hills Branch Library","state":"AZ"},"type":"Feature","geometry":{"type":"Point","coordinates":[-111.721928,33.603894]}},{"properties":{"city":"Fredonia","lon":-112.526264,"zip":"","librarysystem":"Fredonia Public Library","phone":9286437137,"id":"a63gg320p5ou","address":"118 North Main Street","lat":36.951198,"libraryname":"Fredonia Public Library","state":"AZ"},"type":"Feature","geometry":{"type":"Point","coordinates":[-112.526264,36.951198]}},{"properties":{"city":"Marana","lon":-111.208308,"zip":"","librarysystem":"Pima County Public Library","phone":5206824216,"id":"a63gg38r7vyr","address":"13370 Lon Adams Road","lat":32.448826,"libraryname":"Geasa-Marana Branch Library","state":"AZ"},"type":"Feature","geometry":{"type":"Point","coordinates":[-111.208308,32.448826]}},{"properties":{"city":"Phoenix","lon":-112.013391,"zip":"","librarysystem":"Maricopa County Library District","phone":6026523000,"id":"a63gg2zzdunf","address":"17811 N 32nd St","lat":33.648702,"libraryname":"George L. Campbell Branch Library","state":"AZ"},"type":"Feature","geometry":{"type":"Point","coordinates":[-112.013391,33.648702]}},{"properties":{"city":"Tucson","lon":-110.78641,"zip":"","librarysystem":"Pima County Public Library","phone":5207915524,"id":"a63gg327m1sf","address":"9640 East Golf Links Road","lat":32.19161,"libraryname":"George Miller-Golf Links Library","state":"AZ"},"type":"Feature","geometry":{"type":"Point","coordinates":[-110.78641,32.19161]}},{"properties":{"city":"Gila Bend","lon":-112.718712,"zip":"","librarysystem":"Maricopa County Library District","phone":9286832061,"id":"a63gg2zc9hvc","address":"200 North Euclid","lat":32.949247,"libraryname":"Gila Bend Branch Library","state":"AZ"},"type":"Feature","geometry":{"type":"Point","coordinates":[-112.718712,32.949247]}},{"properties":{"city":"Glendale","lon":-112.187339,"zip":"","librarysystem":"Glendale Public Library","phone":6239303530,"id":"a63gg31bl221","address":"5959 West Brown Street","lat":33.578165,"libraryname":"Glendale Public Library","state":"AZ"},"type":"Feature","geometry":{"type":"Point","coordinates":[-112.187339,33.578165]}},{"properties":{"city":"Globe","lon":-110.785394,"zip":"","librarysystem":"Globe Public Library","phone":9284256111,"id":"a63gg358sctp","address":"339 South Broad Street","lat":33.393756,"libraryname":"Globe Public Library","state":"AZ"},"type":"Feature","geometry":{"type":"Point","coordinates":[-110.785394,33.393756]}},{"properties":{"city":"Topock","lon":-114.480851,"zip":"","librarysystem":"Mohave County Library District","phone":9287682235,"id":"a63gg3851o3x","address":"13136 Golden Shores Parkway","lat":34.717993,"libraryname":"Golden Shores/Topock Community Library","state":"AZ"},"type":"Feature","geometry":{"type":"Point","coordinates":[-114.480851,34.717993]}},{"properties":{"city":"Golden Valley","lon":-114.218594,"zip":"","librarysystem":"Mohave County Library District","phone":9285652989,"id":"a63gg32shf1p","address":"3417 N. Verde Road","lat":35.225949,"libraryname":"Golden Valley Community Library","state":"AZ"},"type":"Feature","geometry":{"type":"Point","coordinates":[-114.218594,35.225949]}},{"properties":{"city":"Grand Canyon National Park","lon":-111.947303,"zip":"","librarysystem":"Grand Canyon Community Library","phone":9286382718,"id":"a63gg3d9moe5","address":"208 Navajo Street","lat":35.259814,"libraryname":"Grand Canyon Community Library","state":"AZ"},"type":"Feature","geometry":{"type":"Point","coordinates":[-111.947303,35.259814]}},{"properties":{"city":"Greer","lon":-109.453338,"zip":"","librarysystem":"Apache County Library District","phone":9287357710,"id":"a63gg31t5gtu","address":"109 County Road 1120 / Main Street","lat":34.018357,"libraryname":"Greer Memorial Library","state":"AZ"},"type":"Feature","geometry":{"type":"Point","coordinates":[-109.453338,34.018357]}},{"properties":{"city":"Guadalupe","lon":-111.962984,"zip":"","librarysystem":"Maricopa County Library District","phone":4808315967,"id":"a63gg39uwizy","address":"9241 South Avenida Del Yaqui","lat":33.362938,"libraryname":"Guadalupe Branch Library","state":"AZ"},"type":"Feature","geometry":{"type":"Point","coordinates":[-111.962984,33.362938]}},{"properties":{"city":"Chandler","lon":-111.841519,"zip":"","librarysystem":"Chandler Public Library","phone":4807822828,"id":"a63gg3e0kvi4","address":"3700 South Arizona Avenue","lat":33.252337,"libraryname":"Hamilton Branch Library","state":"AZ"},"type":"Feature","geometry":{"type":"Point","coordinates":[-111.841519,33.252337]}},{"properties":{"city":"Phoenix","lon":-112.079289,"zip":"","librarysystem":"Phoenix Public Library","phone":6022626362,"id":"a63gg34j6wfj","address":"411 West Yavapai Street","lat":33.436014,"libraryname":"Harmon Branch Library","state":"AZ"},"type":"Feature","geometry":{"type":"Point","coordinates":[-112.079289,33.436014]}},{"properties":{"city":"Supai","lon":-112.696404,"zip":"","librarysystem":"Flagstaff Public Library","phone":9284482901,"id":"a63gg34twnll","address":"P O Box 40","lat":36.135325,"libraryname":"Havasupai Village Library","state":"AZ"},"type":"Feature","geometry":{"type":"Point","coordinates":[-112.696404,36.135325]}},{"properties":{"city":"Hayden","lon":-110.784809,"zip":"","librarysystem":"Hayden Public Library","phone":5203567031,"id":"a63gg38l59cz","address":"520 Velasco Avenue","lat":33.003515,"libraryname":"Hayden Public Library","state":"AZ"},"type":"Feature","geometry":{"type":"Point","coordinates":[-110.784809,33.003515]}},{"properties":{"city":"Tucson","lon":-110.931265,"zip":"","librarysystem":"Pima County Public Library","phone":5207914397,"id":"a63gg3bpc35b","address":"1035 North Treat Avenue","lat":32.234605,"libraryname":"Himmel Library","state":"AZ"},"type":"Feature","geometry":{"type":"Point","coordinates":[-110.931265,32.234605]}},{"properties":{"city":"Holbrook","lon":-110.160251,"zip":"","librarysystem":"Holbrook Public Library","phone":9285243732,"id":"a63gg34xlp66","address":"451 North 1st Avenue","lat":34.904704,"libraryname":"Holbrook Public Library","state":"AZ"},"type":"Feature","geometry":{"type":"Point","coordinates":[-110.160251,34.904704]}},{"properties":{"city":"Surprise","lon":-112.331287,"zip":"","librarysystem":"Maricopa County Library District","phone":6235830626,"id":"a63gg3b3dfa4","address":"15844 N. Hollyhock St","lat":33.628318,"libraryname":"Hollyhock Branch Library","state":"AZ"},"type":"Feature","geometry":{"type":"Point","coordinates":[-112.331287,33.628318]}},{"properties":{"city":"Kykotsmovi","lon":-110.621204,"zip":"","librarysystem":"Hopi Public Library","phone":9287372336,"id":"a63gg3f6gx83","address":"Hopi Education Dept. Main Street","lat":35.874218,"libraryname":"Hopi Public Library","state":"AZ"},"type":"Feature","geometry":{"type":"Point","coordinates":[-110.621204,35.874218]}},{"properties":{"city":"Huachuca City","lon":-110.33498,"zip":"","librarysystem":"Huachuca City Public Library","phone":5204561063,"id":"a63gg3cshs45","address":"506 North Gonzales Blvd.","lat":31.631585,"libraryname":"Huachuca City Public Library","state":"AZ"},"type":"Feature","geometry":{"type":"Point","coordinates":[-110.33498,31.631585]}},{"properties":{"city":"Salome","lon":-113.610329,"zip":"","librarysystem":"Parker Public Library","phone":9288594271,"id":"a63gg30au3ql","address":"66907 Indian Hills Way","lat":33.76601,"libraryname":"Indian Hills Branch Library","state":"AZ"},"type":"Feature","geometry":{"type":"Point","coordinates":[-113.610329,33.76601]}},{"properties":{"city":"Phoenix","lon":-111.990415,"zip":"","librarysystem":"Phoenix Public Library","phone":6025341900,"id":"a63gg3acy2ej","address":"4333 East Chandler Blvd","lat":33.304979,"libraryname":"Ironwood Branch Library","state":"AZ"},"type":"Feature","geometry":{"type":"Point","coordinates":[-111.990415,33.304979]}},{"properties":{"city":"Pine","lon":-111.456223,"zip":"","librarysystem":"Isabelle Hunt Memorial Public Library","phone":9284763678,"id":"a63gg39p0g2s","address":"6124 N Randall Pl","lat":34.38804,"libraryname":"Isabelle Hunt Memorial Public Library","state":"AZ"},"type":"Feature","geometry":{"type":"Point","coordinates":[-111.456223,34.38804]}},{"properties":{"city":"Jerome","lon":-112.11622,"zip":"","librarysystem":"Jerome Public Library","phone":9286390574,"id":"a63gg3d14lnz","address":"111 Jerome Avenue","lat":34.751112,"libraryname":"Jerome Public Library","state":"AZ"},"type":"Feature","geometry":{"type":"Point","coordinates":[-112.11622,34.751112]}},{"properties":{"city":"Bowie","lon":-109.486909,"zip":"","librarysystem":"Cochise County Library District","phone":5208472545,"id":"a63gg3ebqrp6","address":"201 North Central","lat":32.326695,"libraryname":"Jimmie Libhart Library","state":"AZ"},"type":"Feature","geometry":{"type":"Point","coordinates":[-109.486909,32.326695]}},{"properties":{"city":"Tucson","lon":-110.971581,"zip":"","librarysystem":"Pima County Public Library","phone":5207914393,"id":"a63gg319l81r","address":"101 N. Stone Ave.","lat":32.222989,"libraryname":"Joel D. Valdez Main Library","state":"AZ"},"type":"Feature","geometry":{"type":"Point","coordinates":[-110.971581,32.222989]}},{"properties":{"city":"Phoenix","lon":-112.098252,"zip":"","librarysystem":"Phoenix Public Library","phone":6025343900,"id":"a63gg33vqlyc","address":"1825 W Union Hills Dr","lat":33.654571,"libraryname":"Juniper Branch Library","state":"AZ"},"type":"Feature","geometry":{"type":"Point","coordinates":[-112.098252,33.654571]}},{"properties":{"city":"Tucson","lon":-110.80087,"zip":"","librarysystem":"Pima County Public Library","phone":5207915021,"id":"a63gg3efosdn","address":"8959 East Tanque Verde Road","lat":32.258324,"libraryname":"Kirk-Bear Canyon Library","state":"AZ"},"type":"Feature","geometry":{"type":"Point","coordinates":[-110.80087,32.258324]}},{"properties":{"city":"Lakeside","lon":-109.971329,"zip":"","librarysystem":"Larson Memorial Public Library","phone":9283686688,"id":"a63gg37k6kbk","address":"1595 W. Johnson Dr","lat":34.14892,"libraryname":"Larson Memorial Public Library","state":"AZ"},"type":"Feature","geometry":{"type":"Point","coordinates":[-109.971329,34.14892]}},{"properties":{"city":"Laveen","lon":-112.16894,"zip":"","librarysystem":"Maricopa County Library District","phone":6022372904,"id":"a63gg38jtukl","address":"9401 S. 51st Ave","lat":33.360908,"libraryname":"Laveen Branch Library","state":"AZ"},"type":"Feature","geometry":{"type":"Point","coordinates":[-112.16894,33.360908]}},{"properties":{"city":"Ajo","lon":-112.860748,"zip":"","librarysystem":"Pima County Public Library","phone":5203876075,"id":"a63gg37p8mxh","address":"33 Plaza Street","lat":32.372188,"libraryname":"Lillie C Salazar-Ajo Branch Library","state":"AZ"},"type":"Feature","geometry":{"type":"Point","coordinates":[-112.860748,32.372188]}},{"properties":{"city":"Litchfield Park","lon":-112.358363,"zip":"","librarysystem":"Maricopa County Library District","phone":6239354118,"id":"a63gg3ac7m45","address":"101 West Indian School Road","lat":33.493245,"libraryname":"Litchfield Park Branch Library","state":"AZ"},"type":"Feature","geometry":{"type":"Point","coordinates":[-112.358363,33.493245]}},{"properties":{"city":"Mammoth","lon":-110.640597,"zip":"","librarysystem":"Mammoth Public Library","phone":5204872026,"id":"a63gg3815ri0","address":"125 North Clark St.","lat":32.721248,"libraryname":"Mammoth Public Library","state":"AZ"},"type":"Feature","geometry":{"type":"Point","coordinates":[-110.640597,32.721248]}},{"properties":{"city":"Maricopa","lon":-112.043739,"zip":"","librarysystem":"Maricopa Community Library","phone":5205682926,"id":"a63gg3dber0r","address":"44240 W. Maricopa","lat":33.05696,"libraryname":"Maricopa Community Library","state":"AZ"},"type":"Feature","geometry":{"type":"Point","coordinates":[-112.043739,33.05696]}},{"properties":{"city":"Mayer","lon":-112.235047,"zip":"","librarysystem":"Mayer Public Library","phone":9286327370,"id":"a63gg31y8gqm","address":"10004 Wicks Street","lat":34.398488,"libraryname":"Mayer Public Library","state":"AZ"},"type":"Feature","geometry":{"type":"Point","coordinates":[-112.235047,34.398488]}},{"properties":{"city":"Mcnary","lon":-109.854174,"zip":"","librarysystem":"Whiteriver Public Library","phone":9283342116,"id":"a63gg386ixcs","address":"14 Cady Street","lat":34.073459,"libraryname":"Mcnary Community Library","state":"AZ"},"type":"Feature","geometry":{"type":"Point","coordinates":[-109.854174,34.073459]}},{"properties":{"city":"Meadview","lon":-114.084749,"zip":"","librarysystem":"Mohave County Library District","phone":9285642535,"id":"a63gg3fgp5cf","address":"149 Meadview Blvd","lat":36.00222,"libraryname":"Meadview Community Library","state":"AZ"},"type":"Feature","geometry":{"type":"Point","coordinates":[-114.084749,36.00222]}},{"properties":{"city":"Phoenix","lon":-111.983596,"zip":"","librarysystem":"Phoenix Public Library","phone":6022627299,"id":"a63gg3cznk1k","address":"4525 Paradise Village Parkway North","lat":33.604812,"libraryname":"Mesquite Branch Librry","state":"AZ"},"type":"Feature","geometry":{"type":"Point","coordinates":[-111.983596,33.604812]}},{"properties":{"city":"Miami","lon":-110.869213,"zip":"","librarysystem":"Miami Memorial Library","phone":9284732621,"id":"a63gg3c0718f","address":"1052 Adonis Avenue","lat":33.396942,"libraryname":"Miami Memorial Library","state":"AZ"},"type":"Feature","geometry":{"type":"Point","coordinates":[-110.869213,33.396942]}},{"properties":{"city":"Tucson","lon":-111.003464,"zip":"","librarysystem":"Pima County Public Library","phone":5207914811,"id":"a63gg31p9rge","address":"3770 South Mission Road","lat":32.178409,"libraryname":"Mission Library","state":"AZ"},"type":"Feature","geometry":{"type":"Point","coordinates":[-111.003464,32.178409]}},{"properties":{"city":"Bullhead City","lon":-114.605835,"zip":"","librarysystem":"Mohave County Library District","phone":9287580714,"id":"a63gg347s86t","address":"1170 East Hancock Road","lat":35.107812,"libraryname":"Mohave County Library at Bullhead City Library","state":"AZ"},"type":"Feature","geometry":{"type":"Point","coordinates":[-114.605835,35.107812]}},{"properties":{"city":"Kingman","lon":-114.029199,"zip":"","librarysystem":"Mohave County Library District","phone":9286922665,"id":"a63gg32ozerl","address":"3269 N. Burbank St","lat":35.22486,"libraryname":"Mohave County Library at Kingman","state":"AZ"},"type":"Feature","geometry":{"type":"Point","coordinates":[-114.029199,35.22486]}},{"properties":{"city":"Lake Havasu City","lon":-114.339538,"zip":"","librarysystem":"Mohave County Library District","phone":9284530718,"id":"a63gg38s033j","address":"1770 N McCulloch Blvd","lat":34.477338,"libraryname":"Mohave County Library at Lake Havasu City","state":"AZ"},"type":"Feature","geometry":{"type":"Point","coordinates":[-114.339538,34.477338]}},{"properties":{"city":"Scottsdale","lon":-111.885886,"zip":"","librarysystem":"Scottsdale Public Library","phone":4803126061,"id":"a63gg310xn0n","address":"10101 North 90th Street","lat":33.577813,"libraryname":"Mustang Library","state":"AZ"},"type":"Feature","geometry":{"type":"Point","coordinates":[-111.885886,33.577813]}},{"properties":{"city":"Portal","lon":-109.225809,"zip":"","librarysystem":"Cochise County Library District","phone":5205582468,"id":"a63gg306pq6i","address":"Old Portal School / 3 Rock House Rd","lat":32.269495,"libraryname":"Myrtle Kraft Library","state":"AZ"},"type":"Feature","geometry":{"type":"Point","coordinates":[-109.225809,32.269495]}},{"properties":{"city":"Tucson","lon":-111.029621,"zip":"","librarysystem":"Pima County Public Library","phone":5207914626,"id":"a63gg328t6kk","address":"7300 North Shannon Road","lat":32.339446,"libraryname":"Nanini Library","state":"AZ"},"type":"Feature","geometry":{"type":"Point","coordinates":[-111.029621,32.339446]}},{"properties":{"city":"Window Rock","lon":-109.05916,"zip":"","librarysystem":"Office Of Navajo Nation Library","phone":9288716376,"id":"a63gg3a0gohj","address":"P.O. Box 9040","lat":35.670855,"libraryname":"Navajo Nation Library System","state":"AZ"},"type":"Feature","geometry":{"type":"Point","coordinates":[-109.05916,35.670855]}},{"properties":{"city":"Santa Cruz","lon":-112.167963,"zip":"","librarysystem":"Nogales City/Santa Cruz County Public Library","phone":5202873343,"id":"a63gg39mtp73","address":"518 N Grand Avenue","lat":33.239966,"libraryname":"Nogales City/Santa Cruz County Public Library","state":"AZ"},"type":"Feature","geometry":{"type":"Point","coordinates":[-112.167963,33.239966]}},{"properties":{"city":"Anthem","lon":-112.138909,"zip":"","librarysystem":"Maricopa County Library District","phone":6026523000,"id":"a63gg2zawz85","address":"40410 North Gavilan Peak Parkway","lat":33.852383,"libraryname":"North Valley Regional Anthem","state":"AZ"},"type":"Feature","geometry":{"type":"Point","coordinates":[-112.138909,33.852383]}},{"properties":{"city":"Oatman","lon":-114.384269,"zip":"","librarysystem":"Mohave County Library District","phone":9287682323,"id":"a63gg3111xx4","address":"140 Main Street","lat":35.02686,"libraryname":"Oatman Community Library","state":"AZ"},"type":"Feature","geometry":{"type":"Point","coordinates":[-114.384269,35.02686]}},{"properties":{"city":"Phoenix","lon":-112.07446,"zip":"","librarysystem":"Phoenix Public Library","phone":6022626694,"id":"a63gg34uj4f2","address":"102 West Southern Avenue","lat":33.39237,"libraryname":"Ocotillo Branch Library","state":"AZ"},"type":"Feature","geometry":{"type":"Point","coordinates":[-112.07446,33.39237]}},{"properties":{"city":"Window Rock","lon":-109.05916,"zip":"","librarysystem":"Office Of Navajo Nation Library","phone":9288716376,"id":"a63gg339wif6","address":"P.O. Box 9040","lat":35.670855,"libraryname":"Office Of Navajo Nation Library","state":"AZ"},"type":"Feature","geometry":{"type":"Point","coordinates":[-109.05916,35.670855]}},{"properties":{"city":"Oracle","lon":-110.7681,"zip":"","librarysystem":"Oracle Public Library","phone":5208962121,"id":"a63gg30kcpea","address":"565 American Ave","lat":32.610655,"libraryname":"Oracle Public Library","state":"AZ"},"type":"Feature","geometry":{"type":"Point","coordinates":[-110.7681,32.610655]}},{"properties":{"city":"Oro Valley","lon":-111.002979,"zip":"","librarysystem":"Oro Valley Public Library","phone":5202295300,"id":"a63gg2zcug0k","address":"1305 West Naranja Drive","lat":32.40976,"libraryname":"Oro Valley Public Library","state":"AZ"},"type":"Feature","geometry":{"type":"Point","coordinates":[-111.002979,32.40976]}},{"properties":{"city":"Page","lon":-111.460163,"zip":"","librarysystem":"Page Public Library","phone":9286452231,"id":"a63gg3criigl","address":"479 S Lake Powell Blvd","lat":36.910026,"libraryname":"Page Public Library","state":"AZ"},"type":"Feature","geometry":{"type":"Point","coordinates":[-111.460163,36.910026]}},{"properties":{"city":"Phoenix","lon":-112.169016,"zip":"","librarysystem":"Phoenix Public Library","phone":6022626805,"id":"a63gg2zuybuk","address":"4402 North 51st Avenue","lat":33.50091,"libraryname":"Palo Verde Branch Library","state":"AZ"},"type":"Feature","geometry":{"type":"Point","coordinates":[-112.169016,33.50091]}},{"properties":{"city":"Scottsdale","lon":-111.810318,"zip":"","librarysystem":"Scottsdale Public Library","phone":4803126100,"id":"a63gg2za16hu","address":"12575 East Via Linda, #102","lat":33.589468,"libraryname":"Palomino Library","state":"AZ"},"type":"Feature","geometry":{"type":"Point","coordinates":[-111.810318,33.589468]}},{"properties":{"city":"Parker","lon":-114.295677,"zip":"","librarysystem":"Parker Public Library","phone":9286692622,"id":"a63gg38thxvx","address":"1001 Navajo Avenue","lat":34.1486,"libraryname":"Parker Public Library","state":"AZ"},"type":"Feature","geometry":{"type":"Point","coordinates":[-114.295677,34.1486]}},{"properties":{"city":"Patagonia","lon":-110.753671,"zip":"","librarysystem":"Patagonia Public Library","phone":5203942010,"id":"a63gg3bhixh6","address":"346 Duquesne","lat":31.538979,"libraryname":"Patagonia Public Library","state":"AZ"},"type":"Feature","geometry":{"type":"Point","coordinates":[-110.753671,31.538979]}},{"properties":{"city":"Payson","lon":-111.331947,"zip":"","librarysystem":"Payson Public Library","phone":9284749260,"id":"a63gg39iht69","address":"328 North Mclane Road","lat":34.243855,"libraryname":"Payson Public Library","state":"AZ"},"type":"Feature","geometry":{"type":"Point","coordinates":[-111.331947,34.243855]}},{"properties":{"city":"Peoria","lon":-112.241137,"zip":"","librarysystem":"Peoria Public Library","phone":6237737555,"id":"a63gg33lwamz","address":"8463 West Monroe","lat":33.577176,"libraryname":"Peoria Public Library","state":"AZ"},"type":"Feature","geometry":{"type":"Point","coordinates":[-112.241137,33.577176]}},{"properties":{"city":"Gilbert","lon":-111.765199,"zip":"","librarysystem":"Maricopa County Library District","phone":6026523000,"id":"a63gg3ekunio","address":"1965 E. Queen Creek Rd.","lat":33.2631,"libraryname":"Perry Branch Library","state":"AZ"},"type":"Feature","geometry":{"type":"Point","coordinates":[-111.765199,33.2631]}},{"properties":{"city":"Pima","lon":-109.831739,"zip":"","librarysystem":"Pima Public Library","phone":9284852822,"id":"a63gg36mlmgt","address":"50 S. 200 West","lat":32.895336,"libraryname":"Pima Public Library","state":"AZ"},"type":"Feature","geometry":{"type":"Point","coordinates":[-109.831739,32.895336]}},{"properties":{"city":"Sells","lon":-112.313334,"zip":"","librarysystem":"Venito Garcia Library And Archives","phone":5203622806,"id":"a63gg3224pmk","address":"Pisinemo Village, Highway 21","lat":32.033565,"libraryname":"Pisinemo Media Center Library","state":"AZ"},"type":"Feature","geometry":{"type":"Point","coordinates":[-112.313334,32.033565]}},{"properties":{"city":"Prescott","lon":-112.411276,"zip":"","librarysystem":"Prescott Public Library","phone":9284453799,"id":"a63gg3b0dq8s","address":"3250 Gateway Blvd","lat":34.546935,"libraryname":"Prescott Gateway Branch","state":"AZ"},"type":"Feature","geometry":{"type":"Point","coordinates":[-112.411276,34.546935]}},{"properties":{"city":"Prescott","lon":-112.467028,"zip":"","librarysystem":"Prescott Public Library","phone":9287771500,"id":"a63gg30npcn6","address":"215 East Goodwin Street","lat":34.539791,"libraryname":"Prescott Public Library","state":"AZ"},"type":"Feature","geometry":{"type":"Point","coordinates":[-112.467028,34.539791]}},{"properties":{"city":"Prescott Valley","lon":-112.331227,"zip":"","librarysystem":"Prescott Valley Public Library","phone":9287593040,"id":"a63gg32tqkhd","address":"7501 E Civic Circle","lat":34.594743,"libraryname":"Prescott Valley Public Library","state":"AZ"},"type":"Feature","geometry":{"type":"Point","coordinates":[-112.331227,34.594743]}},{"properties":{"city":"Quartzite","lon":-114.20823,"zip":"","librarysystem":"Quartzite Public Library","phone":9289276593,"id":"a63gg328xkoc","address":"465 N. Plymouth Road","lat":33.674331,"libraryname":"Quartzite Public Library","state":"AZ"},"type":"Feature","geometry":{"type":"Point","coordinates":[-114.20823,33.674331]}},{"properties":{"city":"Queen Creek","lon":-111.634384,"zip":"","librarysystem":"Maricopa County Library District","phone":4809873600,"id":"a63gg2zb8a73","address":"22407 South Ellsworth Road","lat":33.24474,"libraryname":"Queen Creek Branch Library","state":"AZ"},"type":"Feature","geometry":{"type":"Point","coordinates":[-111.634384,33.24474]}},{"properties":{"city":"Heber","lon":-110.598679,"zip":"","librarysystem":"Navajo County Library District","phone":9285355749,"id":"a63gg3004kml","address":"3401 Kimball Street","lat":34.430525,"libraryname":"Rim Community Library","state":"AZ"},"type":"Feature","geometry":{"type":"Point","coordinates":[-110.598679,34.430525]}},{"properties":{"city":"Rio Rico","lon":-111.000164,"zip":"","librarysystem":"Nogales City/Santa Cruz County Public Library","phone":5202818067,"id":"a63gg3ew5aqx","address":"1060 Yavapai Drive","lat":31.464745,"libraryname":"Rio Rico Library","state":"AZ"},"type":"Feature","geometry":{"type":"Point","coordinates":[-111.000164,31.464745]}},{"properties":{"city":"Roll","lon":-113.970564,"zip":"","librarysystem":"Yuma County Library District","phone":9287853701,"id":"a63gg373y81o","address":"5151 S Avenue 39E","lat":32.751994,"libraryname":"Roll Branch Library","state":"AZ"},"type":"Feature","geometry":{"type":"Point","coordinates":[-113.970564,32.751994]}},{"properties":{"city":"Eagar","lon":-109.291384,"zip":"","librarysystem":"Apache County Library District","phone":9283334694,"id":"a63gg37uko7h","address":"367 North Main Street","lat":34.117455,"libraryname":"Round Valley Public Library","state":"AZ"},"type":"Feature","geometry":{"type":"Point","coordinates":[-109.291384,34.117455]}},{"properties":{"city":"Safford","lon":-109.71505,"zip":"","librarysystem":"Safford City - Graham County Library","phone":9283483202,"id":"a63gg3cml8ug","address":"808 7th Avenue","lat":32.83134,"libraryname":"Safford City - Graham County Library","state":"AZ"},"type":"Feature","geometry":{"type":"Point","coordinates":[-109.71505,32.83134]}},{"properties":{"city":"Phoenix","lon":-111.982746,"zip":"","librarysystem":"Phoenix Public Library","phone":6022626801,"id":"a63gg31wwl0r","address":"2808 North 46th Street","lat":33.478388,"libraryname":"Saguaro Branch Library","state":"AZ"},"type":"Feature","geometry":{"type":"Point","coordinates":[-111.982746,33.478388]}},{"properties":{"city":"Scottsdale","lon":-111.865879,"zip":"","librarysystem":"Salt River Tribal Library","phone":4808508339,"id":"a63gg3830xmb","address":"1880 North Longmore Road","lat":33.46581,"libraryname":"Salt River Tribal Library","state":"AZ"},"type":"Feature","geometry":{"type":"Point","coordinates":[-111.865879,33.46581]}},{"properties":{"city":"Tucson","lon":-110.968304,"zip":"","librarysystem":"Pima County Public Library","phone":5207914791,"id":"a63gg3e0jll9","address":"1607 South 6th Avenue","lat":32.202479,"libraryname":"Sam Lena South Tucson Library","state":"AZ"},"type":"Feature","geometry":{"type":"Point","coordinates":[-110.968304,32.202479]}},{"properties":{"city":"San Carlos","lon":-110.45264,"zip":"","librarysystem":"San Carlos Public Library","phone":9284752611,"id":"a63gg3bu2oa2","address":"San Carlos Avenue","lat":33.355697,"libraryname":"San Carlos Public Library","state":"AZ"},"type":"Feature","geometry":{"type":"Point","coordinates":[-110.45264,33.355697]}},{"properties":{"city":"Gila Bend","lon":-112.718504,"zip":"","librarysystem":"Venito Garcia Library And Archives","phone":9286832012,"id":"a63gg3ac64y5","address":"1125 C Street","lat":32.963558,"libraryname":"San Lucy District Library","state":"AZ"},"type":"Feature","geometry":{"type":"Point","coordinates":[-112.718504,32.963558]}},{"properties":{"city":"San Luis","lon":-114.780947,"zip":"","librarysystem":"Yuma County Library District","phone":9286278344,"id":"a63gg35y3t70","address":"731 North 1st Avenue","lat":32.491019,"libraryname":"San Luis Branch Library","state":"AZ"},"type":"Feature","geometry":{"type":"Point","coordinates":[-114.780947,32.491019]}},{"properties":{"city":"San Manuel","lon":-110.63393,"zip":"","librarysystem":"San Manuel Public Library","phone":5203854470,"id":"a63gg3f77mq4","address":"108 W Fifth Avenue","lat":32.609194,"libraryname":"San Manuel Public Library","state":"AZ"},"type":"Feature","geometry":{"type":"Point","coordinates":[-110.63393,32.609194]}},{"properties":{"city":"Tucson","lon":-111.006319,"zip":"","librarysystem":"Venito Garcia Library And Archives","phone":5202951025,"id":"a63gg39zassw","address":"1960 West Walk Lane","lat":32.09639,"libraryname":"San Xavier Learning Center Library","state":"AZ"},"type":"Feature","geometry":{"type":"Point","coordinates":[-111.006319,32.09639]}},{"properties":{"city":"Sanders","lon":-109.332734,"zip":"","librarysystem":"Apache County Library District","phone":9286882677,"id":"a63gg38wbeap","address":"I-40 Exit 339; 191 N Frontage Rd E","lat":35.2152,"libraryname":"Sanders Public Library","state":"AZ"},"type":"Feature","geometry":{"type":"Point","coordinates":[-109.332734,35.2152]}},{"properties":{"city":"Tucson","lon":-110.974494,"zip":"","librarysystem":"Pima County Public Library","phone":5208798019,"id":"a63gg3bdh9yv","address":"1075 South 10th Ave","lat":32.208476,"libraryname":"Santa Rosa Learning Center Library","state":"AZ"},"type":"Feature","geometry":{"type":"Point","coordinates":[-110.974494,32.208476]}},{"properties":{"city":"Sedona","lon":-111.817047,"zip":"","librarysystem":"Sedona Public Library","phone":9282827714,"id":"a63gg2zkbwjx","address":"3250 White Bear Road","lat":34.8625,"libraryname":"Sedona Public Library","state":"AZ"},"type":"Feature","geometry":{"type":"Point","coordinates":[-111.817047,34.8625]}},{"properties":{"city":"Seligman","lon":-112.873883,"zip":"","librarysystem":"Seligman Public Library","phone":9284223633,"id":"a63gg32p8dgs","address":"202 Floyd","lat":35.327603,"libraryname":"Seligman Public Library","state":"AZ"},"type":"Feature","geometry":{"type":"Point","coordinates":[-112.873883,35.327603]}},{"properties":{"city":"Show Low","lon":-110.036304,"zip":"","librarysystem":"Show Low Public Library","phone":9285324070,"id":"a63gg3cc05hg","address":"20 North 6th Street","lat":34.249788,"libraryname":"Show Low Public Library","state":"AZ"},"type":"Feature","geometry":{"type":"Point","coordinates":[-110.036304,34.249788]}},{"properties":{"city":"Sierra Vista","lon":-110.271089,"zip":"","librarysystem":"Sierra Vista Public Library","phone":5204584225,"id":"a63gg30g6uju","address":"2600 East Tacoma Street","lat":31.56586,"libraryname":"Sierra Vista Public Library","state":"AZ"},"type":"Feature","geometry":{"type":"Point","coordinates":[-110.271089,31.56586]}},{"properties":{"city":"Snowflake","lon":-110.085774,"zip":"","librarysystem":"Snowflake-Taylor Public Library","phone":9285367103,"id":"a63gg3awt3am","address":"418 South 4th West","lat":34.503623,"libraryname":"Snowflake-Taylor Public Library","state":"AZ"},"type":"Feature","geometry":{"type":"Point","coordinates":[-110.085774,34.503623]}},{"properties":{"city":"Somerton","lon":-114.710546,"zip":"","librarysystem":"Yuma County Library District","phone":9286272149,"id":"a63gg3860qki","address":"240 Canal Street","lat":32.60312,"libraryname":"Somerton Branch Library","state":"AZ"},"type":"Feature","geometry":{"type":"Point","coordinates":[-114.710546,32.60312]}},{"properties":{"city":"Nogales","lon":-110.506889,"zip":"","librarysystem":"Nogales City/Santa Cruz County Public Library","phone":5204555517,"id":"a63gg3ckpbho","address":"3147 State Route 83 / Hwy 82","lat":31.54352,"libraryname":"Sonoita Community Library","state":"AZ"},"type":"Feature","geometry":{"type":"Point","coordinates":[-110.506889,31.54352]}},{"properties":{"city":"Mohave Valley","lon":-114.597984,"zip":"","librarysystem":"Mohave County Library District","phone":9287681151,"id":"a63gg3dpua8d","address":"8045 Highway 95, Suite D","lat":34.922641,"libraryname":"South Mohave Valley Community Library","state":"AZ"},"type":"Feature","geometry":{"type":"Point","coordinates":[-114.597984,34.922641]}},{"properties":{"city":"Gilbert","lon":-111.738626,"zip":"","librarysystem":"Maricopa County Library District","phone":4805395100,"id":"a63gg3cy00hf","address":"775 North Greenfield Road","lat":33.363965,"libraryname":"Southeast Regional Library","state":"AZ"},"type":"Feature","geometry":{"type":"Point","coordinates":[-111.738626,33.363965]}},{"properties":{"city":"Tucson","lon":-111.071809,"zip":"","librarysystem":"Pima County Public Library","phone":5207914009,"id":"a63gg372ml2v","address":"6855 South Mark Road","lat":32.12615,"libraryname":"Southwest Branch Library","state":"AZ"},"type":"Feature","geometry":{"type":"Point","coordinates":[-111.071809,32.12615]}},{"properties":{"city":"St. Johns","lon":-109.368538,"zip":"","librarysystem":"Apache County Library District","phone":9283374405,"id":"a63gg33dut28","address":"245 West 1st South","lat":34.50554,"libraryname":"St. Johns Public Library","state":"AZ"},"type":"Feature","geometry":{"type":"Point","coordinates":[-109.368538,34.50554]}},{"properties":{"city":"Peoria","lon":-112.237974,"zip":"","librarysystem":"Peoria Public Library","phone":6234875150,"id":"a63gg301ifvd","address":"21200 North 83rd Ave, Ste 101","lat":33.676575,"libraryname":"Sunrise Mountain Branch Library","state":"AZ"},"type":"Feature","geometry":{"type":"Point","coordinates":[-112.237974,33.676575]}},{"properties":{"city":"Chandler","lon":-111.926052,"zip":"","librarysystem":"Chandler Public Library","phone":4807822840,"id":"a63gg3ccl4md","address":"4930 West Ray Road","lat":33.320172,"libraryname":"Sunset Branch Library","state":"AZ"},"type":"Feature","geometry":{"type":"Point","coordinates":[-111.926052,33.320172]}},{"properties":{"city":"Pearce","lon":-109.832368,"zip":"","librarysystem":"Cochise County Library District","phone":5208263866,"id":"a63gg3dw3u27","address":"210 Ford Road","lat":31.938683,"libraryname":"Sunsites Community Library","state":"AZ"},"type":"Feature","geometry":{"type":"Point","coordinates":[-109.832368,31.938683]}},{"properties":{"city":"Superior","lon":-111.097569,"zip":"","librarysystem":"Superior Public Library","phone":5206892327,"id":"a63gg34uygez","address":"99 Kellner Avenue","lat":33.294496,"libraryname":"Superior Public Library","state":"AZ"},"type":"Feature","geometry":{"type":"Point","coordinates":[-111.097569,33.294496]}},{"properties":{"city":"Tempe","lon":-111.926545,"zip":"","librarysystem":"Tempe Public Library","phone":4803505500,"id":"a63gg3b5j0kn","address":"3500 South Rural Road","lat":33.390471,"libraryname":"Tempe Public Library","state":"AZ"},"type":"Feature","geometry":{"type":"Point","coordinates":[-111.926545,33.390471]}},{"properties":{"city":"Surprise","lon":-112.376556,"zip":"","librarysystem":"Maricopa County Library District","phone":6026523000,"id":"a63gg39yubs2","address":"16089 N. Bullard Avenue","lat":33.632136,"libraryname":"The Northwest Regional Library","state":"AZ"},"type":"Feature","geometry":{"type":"Point","coordinates":[-112.376556,33.632136]}},{"properties":{"city":"Tolleson","lon":-112.265001,"zip":"","librarysystem":"Tolleson Public Library","phone":6239362746,"id":"a63gg33j2nf2","address":"9555 West Van Buren","lat":33.450159,"libraryname":"Tolleson Public Library","state":"AZ"},"type":"Feature","geometry":{"type":"Point","coordinates":[-112.265001,33.450159]}},{"properties":{"city":"Tombstone","lon":-110.067529,"zip":"","librarysystem":"Tombstone City Library","phone":5204573612,"id":"a63gg31lsa7x","address":"4th &amp; Toughnut St.","lat":31.71196,"libraryname":"Tombstone City Library","state":"AZ"},"type":"Feature","geometry":{"type":"Point","coordinates":[-110.067529,31.71196]}},{"properties":{"city":"Tonto Basin","lon":-111.315775,"zip":"","librarysystem":"Tonto Basin Public Library","phone":9284792355,"id":"a63gg2zn8xxz","address":"1 School Street","lat":33.937156,"libraryname":"Tonto Basin Public Library","state":"AZ"},"type":"Feature","geometry":{"type":"Point","coordinates":[-111.315775,33.937156]}},{"properties":{"city":"Tuba City","lon":-111.239683,"zip":"","librarysystem":"Flagstaff Public Library","phone":9282835856,"id":"a63gg345z8ik","address":"78 Main Street","lat":36.14067,"libraryname":"Tuba City Public Library","state":"AZ"},"type":"Feature","geometry":{"type":"Point","coordinates":[-111.239683,36.14067]}},{"properties":{"city":"Tubac","lon":-111.051889,"zip":"","librarysystem":"Nogales City/Santa Cruz County Public Library","phone":5203989814,"id":"a63gg31m0t13","address":"50 Bridge Road","lat":31.61231,"libraryname":"Tubac Community Library","state":"AZ"},"type":"Feature","geometry":{"type":"Point","coordinates":[-111.051889,31.61231]}},{"properties":{"city":"Tucson","lon":-110.972183,"zip":"","librarysystem":"Pima County Public Library","phone":5207914531,"id":"a63gg2zzdk87","address":"202 West Valencia Road","lat":32.134216,"libraryname":"Valencia Library","state":"AZ"},"type":"Feature","geometry":{"type":"Point","coordinates":[-110.972183,32.134216]}},{"properties":{"city":"Kingman","lon":-113.860932,"zip":"","librarysystem":"Mohave County Library District","phone":9286927662,"id":"a63gg3fmih13","address":"7193 Concho Drive, Suite B","lat":35.400333,"libraryname":"Valle Vista Community Library","state":"AZ"},"type":"Feature","geometry":{"type":"Point","coordinates":[-113.860932,35.400333]}},{"properties":{"city":"Glendale","lon":-112.183879,"zip":"","librarysystem":"Glendale Public Library","phone":6239303431,"id":"a63gg32x2ohu","address":"7010 North 58th Avenue","lat":33.538795,"libraryname":"Velma Teague Branch Library","state":"AZ"},"type":"Feature","geometry":{"type":"Point","coordinates":[-112.183879,33.538795]}},{"properties":{"city":"Sells","lon":-111.870551,"zip":"","librarysystem":"Venito Garcia Library And Archives","phone":5203835756,"id":"a63gg3fk7z62","address":"Main Street, Tribal Building","lat":31.91424,"libraryname":"Venito Garcia Library And Archives","state":"AZ"},"type":"Feature","geometry":{"type":"Point","coordinates":[-111.870551,31.91424]}},{"properties":{"city":"Wellton","lon":-114.142038,"zip":"","librarysystem":"Yuma County Library District","phone":9287859575,"id":"a63gg3399ec0","address":"10425 William Street","lat":32.673116,"libraryname":"Wellton Branch Library","state":"AZ"},"type":"Feature","geometry":{"type":"Point","coordinates":[-114.142038,32.673116]}},{"properties":{"city":"Whiteriver","lon":-109.964912,"zip":"","librarysystem":"Whiteriver Public Library","phone":9283384884,"id":"a63gg3fboq9b","address":"Main Street","lat":33.834865,"libraryname":"Whiteriver Public Library","state":"AZ"},"type":"Feature","geometry":{"type":"Point","coordinates":[-109.964912,33.834865]}},{"properties":{"city":"Wickenburg","lon":-112.730073,"zip":"","librarysystem":"Wickenburg Public Library","phone":9286842665,"id":"a63gg34ujiv3","address":"164 Apache Street","lat":33.970193,"libraryname":"Wickenburg Public Library","state":"AZ"},"type":"Feature","geometry":{"type":"Point","coordinates":[-112.730073,33.970193]}},{"properties":{"city":"Williams","lon":-112.187005,"zip":"","librarysystem":"Williams Public Library","phone":9286352263,"id":"a63gg3d3mt3o","address":"113 South 1st Street","lat":35.250735,"libraryname":"Williams Public Library","state":"AZ"},"type":"Feature","geometry":{"type":"Point","coordinates":[-112.187005,35.250735]}},{"properties":{"city":"Tucson","lon":-110.857653,"zip":"","librarysystem":"Pima County Public Library","phone":5207914627,"id":"a63gg39j6lb5","address":"530 North Wilmot Road","lat":32.227776,"libraryname":"Wilmot Library","state":"AZ"},"type":"Feature","geometry":{"type":"Point","coordinates":[-110.857653,32.227776]}},{"properties":{"city":"Winslow","lon":-110.698141,"zip":"","librarysystem":"Winslow Public Library","phone":9282894982,"id":"a63gg347ptry","address":"420 West Gilmore","lat":35.033674,"libraryname":"Winslow Public Library","state":"AZ"},"type":"Feature","geometry":{"type":"Point","coordinates":[-110.698141,35.033674]}},{"properties":{"city":"Woodruff","lon":-110.042134,"zip":"","librarysystem":"Navajo County Library District","phone":9285243885,"id":"a63gg35b42nu","address":"6414 West 1st Street","lat":34.78152,"libraryname":"Woodruff Community Library","state":"AZ"},"type":"Feature","geometry":{"type":"Point","coordinates":[-110.042134,34.78152]}},{"properties":{"city":"Tucson","lon":-110.96109,"zip":"","librarysystem":"Pima County Public Library","phone":5207914548,"id":"a63gg3asen2b","address":"3455 North 1st Street","lat":32.269706,"libraryname":"Woods Library","state":"AZ"},"type":"Feature","geometry":{"type":"Point","coordinates":[-110.96109,32.269706]}},{"properties":{"city":"Yarnell","lon":-112.544105,"zip":"","librarysystem":"Yarnell Public Library","phone":9284273191,"id":"a63gg33auw0m","address":"22278 N Highway 89","lat":34.446192,"libraryname":"Yarnell Public Library","state":"AZ"},"type":"Feature","geometry":{"type":"Point","coordinates":[-112.544105,34.446192]}},{"properties":{"city":"Yarnell","lon":-112.544105,"zip":"","librarysystem":"Yarnell Public Library","phone":9284273191,"id":"a63gg3077t5s","address":"22278 N Highway 89","lat":34.446192,"libraryname":"Yarnell Public Library","state":"AZ"},"type":"Feature","geometry":{"type":"Point","coordinates":[-112.544105,34.446192]}},{"properties":{"city":"Young","lon":-110.945594,"zip":"","librarysystem":"Young Public Library","phone":9284623588,"id":"a63gg32pphnp","address":"150 Community Center Rd","lat":34.101445,"libraryname":"Young Public Library","state":"AZ"},"type":"Feature","geometry":{"type":"Point","coordinates":[-110.945594,34.101445]}},{"properties":{"city":"Young","lon":-110.945594,"zip":"","librarysystem":"Young Public Library","phone":9284623588,"id":"a63gg30v0w8k","address":"150 Community Center Rd","lat":34.101445,"libraryname":"Young Public Library","state":"AZ"},"type":"Feature","geometry":{"type":"Point","coordinates":[-110.945594,34.101445]}},{"properties":{"city":"Phoenix","lon":-112.091269,"zip":"","librarysystem":"Phoenix Public Library","phone":6022626788,"id":"a63gg38vlo30","address":"5648 North 15th Avenue","lat":33.519536,"libraryname":"Yucca Branch Library","state":"AZ"},"type":"Feature","geometry":{"type":"Point","coordinates":[-112.091269,33.519536]}},{"properties":{"city":"Yuma","lon":-114.617865,"zip":"","librarysystem":"Yuma County Library District","phone":9287821871,"id":"a63gg328gytk","address":"185 S Main Street","lat":32.724403,"libraryname":"Yuma Main Library","state":"AZ"},"type":"Feature","geometry":{"type":"Point","coordinates":[-114.617865,32.724403]}},{"properties":{"city":"Yuma","lon":-114.617865,"zip":"","librarysystem":"Yuma County Library District","phone":9287821871,"id":"a63gg3c3pwpz","address":"185 S Main Street","lat":32.724403,"libraryname":"Yuma Main Library","state":"AZ"},"type":"Feature","geometry":{"type":"Point","coordinates":[-114.617865,32.724403]}}],"is_temporal":false,"author":{"url":"http://www.publiclibraries.com/arizona.htm","metadata":"","contact_name":"","contact_address":"","source":"publiclibrairies.com","contact_phone":""},"source":"http://www.publiclibraries.com/arizona.htm","pagination":{"sort":null,"start":0,"total":195,"limit":1000000},"state":"complete","tags":"arizona,books,education,libraries,library,public","published":"2008-05-09T12:00:00Z","id":875}