{"type":"FeatureCollection","data_type":"Dataset","url_type":null,"permissions":[{"permissions":{"download":true,"view":true},"group_id":"everyone"}],"classification":null,"title":"western fertlizer plant data6","count":313,"stream_id":87544,"contributor":{"url":"http://geocommons.com/users/14766","name":"dpkennedy"},"data_attributes":null,"calculation_params":null,"icon_link":null,"link":"http://geocommons.com/overlays/87544.json","extent":[-103.942,40.0079,-96.414,42.9291],"geometry_types":["point"],"unique_name":null,"name":"western fertlizer plant data6","feature_count":313,"description":"","next_feature":null,"is_raster":false,"short_classification":"Y","stats":{"id":{"max":3378,"mean":3222.0,"variance":8190.16666666667,"stdev":90.4995395936723,"min":3066,"median":3222}},"features":[{"properties":{"ship_phone":"402-748-3371","city":"OSMOND","name":"BATTLE CREEK FARMERS COOPERATIVE","zip":"68765","st":"NE","comments":"WAS OSMOND COOP","geo_score":0.592,"id":"a63gfz46wwe2","geo_precision":"street","address":"EAST HIGHWAY 20"},"type":"Feature","geometry":{"type":"Point","coordinates":[-98.633738,42.455946]}},{"properties":{"ship_phone":"402-748-3388","city":"OSMOND","name":"HELENA CHEMICAL / MIDWEST DIVISION","zip":"68765","st":"NE","comments":"PER T BOSSHART","geo_score":0.514,"id":"a63gfyyfhbuu","geo_precision":"street","address":"2ND &amp; MAIN ST/BOX 207"},"type":"Feature","geometry":{"type":"Point","coordinates":[-97.593942,42.357625]}},{"properties":{"ship_phone":"402-748-3633","city":"OSMOND","name":"OSMOND FARM SUPPLY CENTER INC","zip":"68765","st":"NE","comments":null,"geo_score":0.514,"id":"a63gfyuued6g","geo_precision":"street","address":"1ST &amp; STATE ST"},"type":"Feature","geometry":{"type":"Point","coordinates":[-97.596856,42.35653]}},{"properties":{"ship_phone":"402-338-5580","city":"PAGE","name":"AGRICULTURAL SERVICES INC","zip":"68766","st":"NE","comments":null,"geo_score":0.714,"id":"a63gfyy7idc2","geo_precision":"street","address":"MAIN STREET"},"type":"Feature","geometry":{"type":"Point","coordinates":[-96.865065,42.269126]}},{"properties":{"ship_phone":"402-338-5580","city":"PAGE","name":"AGRICULTURAL SERVICES INC","zip":"68766","st":"NE","comments":"NOW A SATELLITE 208231","geo_score":0.714,"id":"a63gfz8079hb","geo_precision":"street","address":"MAIN STREET"},"type":"Feature","geometry":{"type":"Point","coordinates":[-96.865065,42.269126]}},{"properties":{"ship_phone":"402-329-4955","city":"PIERCE","name":"BATTLE CREEK FARMERS COOPERATIVE","zip":"68767","st":"NE","comments":null,"geo_score":0.786,"id":"a63gfz5bt6qg","geo_precision":"street","address":"NORTH HIGHWAY 13"},"type":"Feature","geometry":{"type":"Point","coordinates":[-97.528576,42.198547]}},{"properties":{"ship_phone":"402-329-4801","city":"PIERCE","name":"COMINCO AMERICAN,INC.","zip":"68767","st":"NE","comments":null,"geo_score":0.35,"id":"a63gfz5bfriw","geo_precision":"street","address":"RT. 13 N."},"type":"Feature","geometry":{"type":"Point","coordinates":[-97.268724,42.623632]}},{"properties":{"ship_phone":"402-329-4695","city":"PIERCE","name":"FARM AND GARDEN CENTER LLC","zip":"68767","st":"NE","comments":null,"geo_score":1.0,"id":"a63gfz94z6qa","geo_precision":"range","address":"333 E MAIN ST"},"type":"Feature","geometry":{"type":"Point","coordinates":[-97.524564,42.199059]}},{"properties":{"ship_phone":"402-396-3480","city":"PILGER","name":"FARMERS COOPERATIVE","zip":"68768","st":"NE","comments":null,"geo_score":0.688,"id":"a63gfz84ja5i","geo_precision":"street","address":"105 1ST WEST STREET"},"type":"Feature","geometry":{"type":"Point","coordinates":[-97.058751,42.006751]}},{"properties":{"ship_phone":"402-582-3220","city":"PLAINVIEW","name":"FULTON FERTILIZER CO.","zip":"68769","st":"NE","comments":null,"geo_score":0.441,"id":"a63gfywl9gtt","geo_precision":"street","address":"JUNCION HWY 13 &amp; 20"},"type":"Feature","geometry":{"type":"Point","coordinates":[-97.528573,42.199013]}},{"properties":{"ship_phone":"402-582-3220","city":"CREIGHTON","name":"FULTON FERTILIZER CO.","zip":"68769","st":"NE","comments":null,"geo_score":0.543,"id":"a63gfywmu3oo","geo_precision":"street","address":"SOUTH HWY 13"},"type":"Feature","geometry":{"type":"Point","coordinates":[-97.450034,42.105258]}},{"properties":{"ship_phone":"402-582-4911","city":"PLAINVIEW","name":"KOCH AGRI SERVICES","zip":"68769","st":"NE","comments":"BUSINESS OUT OF 408240025","geo_score":0.619,"id":"a63gfz6dv45u","geo_precision":"street","address":"RURAL ROUTE 1"},"type":"Feature","geometry":{"type":"Point","coordinates":[-97.787854,42.351988]}},{"properties":{"ship_phone":"402-582-4600","city":"PLAINVIEW","name":"BATTLE CREEK FARMERS COOPERATIVE","zip":"68769","st":"NE","comments":"WAS OSMOND COOP","geo_score":0.878,"id":"a63gfz3fjhxn","geo_precision":"street","address":"WEST HIGHWAY 20"},"type":"Feature","geometry":{"type":"Point","coordinates":[-97.787844,42.350795]}},{"properties":{"ship_phone":"402-337-0555","city":"RANDOLPH","name":"TERRA INTERNATIONAL INC","zip":"68771","st":"NE","comments":"WAS 3565","geo_score":0.77,"id":"a63gfyxz2th9","geo_precision":"street","address":"NORTH HIGHWAY 20"},"type":"Feature","geometry":{"type":"Point","coordinates":[-97.295036,42.393425]}},{"properties":{"ship_phone":"402-337-0509","city":"RANDOLPH","name":"RANDOLPH FARM SUPPLY","zip":"68771","st":"NE","comments":null,"geo_score":0.77,"id":"a63gfyx7e79k","geo_precision":"street","address":"WEST HIGHWAY 20"},"type":"Feature","geometry":{"type":"Point","coordinates":[-97.295036,42.393425]}},{"properties":{"ship_phone":"402-494-4261","city":"SOUTH SIOUX CITY","name":"BOYER VALLEY FERTILIZER COMPANY","zip":"68776","st":"NE","comments":"WAS CUST# 3769","geo_score":0.651,"id":"a63gfyyz940n","geo_precision":"street","address":"HIGHWAY 35 SOUTH"},"type":"Feature","geometry":{"type":"Point","coordinates":[-96.414012,42.449217]}},{"properties":{"ship_phone":"402-494-6748","city":"SOUTH SIOUX CITY","name":"FARMERS COOPERATIVE ASSOCIATION","zip":"68776","st":"NE","comments":"CLEAN","geo_score":0.751,"id":"a63gfyxkcylc","geo_precision":"range","address":"412 WEST 29TH ST BOX 445"},"type":"Feature","geometry":{"type":"Point","coordinates":[-96.417278,42.462597]}},{"properties":{"ship_phone":"402-497-9141","city":"SPRINGVIEW","name":"VAN HOUTEN FERTILIZER INC","zip":"68778","st":"NE","comments":null,"geo_score":0.871,"id":"a63gfz9w25l5","geo_precision":"zip","address":"RURAL ROUTE"},"type":"Feature","geometry":{"type":"Point","coordinates":[-99.591779,42.911669]}},{"properties":{"ship_phone":"402-439-2002","city":"STANTON","name":"STANCO FARM SUPPLY INC","zip":"68779","st":"NE","comments":null,"geo_score":0.512,"id":"a63gfz7u122f","geo_precision":"street","address":"RT 2 HWY 275 &amp; 57C BOX 31"},"type":"Feature","geometry":{"type":"Point","coordinates":[-97.214263,41.952244]}},{"properties":{"ship_phone":"402-924-3616","city":"STUART","name":"STUART FERTILIZER AND GRAIN INC","zip":"68780","st":"NE","comments":null,"geo_score":0.357,"id":"a63gfz3gfv1u","geo_precision":"street","address":"206 E. FIRST STREET"},"type":"Feature","geometry":{"type":"Point","coordinates":[-96.701785,42.564262]}},{"properties":{"ship_phone":"402-368-5323","city":"TILDEN","name":"FARMERS COOP EXCHANGE","zip":"68781","st":"NE","comments":null,"geo_score":0.688,"id":"a63gfz3ldfmh","geo_precision":"range","address":"201 1ST STREET"},"type":"Feature","geometry":{"type":"Point","coordinates":[-97.732943,42.031186]}},{"properties":{"ship_phone":"402-668-2288","city":"VERDIGRE","name":"HERBERT FEED &amp; GRAIN CO INC","zip":"68783","st":"NE","comments":null,"geo_score":0.857,"id":"a63gfz837m41","geo_precision":"street","address":"MAIN STREET"},"type":"Feature","geometry":{"type":"Point","coordinates":[-98.033388,42.599042]}},{"properties":{"ship_phone":"402-287-2222","city":"WAKEFIELD","name":"TERRA INTERNATIONAL INC","zip":"68784","st":"NE","comments":"PER REP/ORDERS THRU WAYNE,NE","geo_score":0.508,"id":"a63gfywt7i0j","geo_precision":"street","address":"101 NORTH OAK"},"type":"Feature","geometry":{"type":"Point","coordinates":[-96.862162,42.269115]}},{"properties":{"ship_phone":null,"city":"WAKEFIELD","name":"NORTHEAST COOPERATIVE","zip":"68784","st":"NE","comments":"CLEAN","geo_score":0.743,"id":"a63gfz81nef1","geo_precision":"street","address":"HIGHWAY 35 NORTH"},"type":"Feature","geometry":{"type":"Point","coordinates":[-96.862153,42.269721]}},{"properties":{"ship_phone":"402-287-2565","city":"WAKEFIELD","name":"NORTHEAST COOPERATIVE","zip":"68784","st":"NE","comments":null,"geo_score":0.743,"id":"a63gfywc5cw3","geo_precision":"street","address":"HIGHWAY 35 NORTH"},"type":"Feature","geometry":{"type":"Point","coordinates":[-96.862153,42.269721]}},{"properties":{"ship_phone":"402-586-2272","city":"WAUSA","name":"FARMERS UNION COOPERATIVE","zip":"68786","st":"NE","comments":"OWN B/T","geo_score":0.752,"id":"a63gfz2ngc1n","geo_precision":"street","address":"800 EAST BROADWAY"},"type":"Feature","geometry":{"type":"Point","coordinates":[-97.541975,42.49921]}},{"properties":{"ship_phone":"402-586-2272","city":"WAUSA","name":"FARMERS UNION COOP ASSN","zip":"68786","st":"NE","comments":null,"geo_score":0.752,"id":"a63gfz02a9kk","geo_precision":"street","address":"800 EAST BROADWAY"},"type":"Feature","geometry":{"type":"Point","coordinates":[-97.541975,42.49921]}},{"properties":{"ship_phone":"402-375-1527","city":"WAYNE","name":"FLETCHER FARM SERVICE INC","zip":"68787","st":"NE","comments":null,"geo_score":0.919,"id":"a63gfyvw10ex","geo_precision":"range","address":"110 SOUTH WINDOM STREET"},"type":"Feature","geometry":{"type":"Point","coordinates":[-97.012938,42.229158]}},{"properties":{"ship_phone":"402-375-3510","city":"WAYNE","name":"TERRA INTERNATIONAL INC","zip":"68787","st":"NE","comments":"WAS 3565","geo_score":0.71,"id":"a63gfz16bmr6","geo_precision":"street","address":"EAST HIGHWAY 35"},"type":"Feature","geometry":{"type":"Point","coordinates":[-97.017809,42.235516]}},{"properties":{"ship_phone":null,"city":"WAYNE","name":"TERRA INT","zip":"68787","st":"NE","comments":null,"geo_score":0.518,"id":"a63gfz39xvq1","geo_precision":"street","address":"PO BOX 513 ROUTE 35"},"type":"Feature","geometry":{"type":"Point","coordinates":[-97.017809,42.235516]}},{"properties":{"ship_phone":"201-337-2255","city":"HARRINGTON","name":"TERRA INTERNATIONAL","zip":"68787","st":"NE","comments":"X-REF'D TO 786870021","geo_score":0.557,"id":"a63gfz8tfh1n","geo_precision":"street","address":"RT 15 N"},"type":"Feature","geometry":{"type":"Point","coordinates":[-97.017804,42.228646]}},{"properties":{"ship_phone":"402-375-4034","city":"WAYNE","name":"TERRA INTERNATIONAL INC","zip":"68787","st":"NE","comments":"WAS 3565","geo_score":0.613,"id":"a63gfyxasn4m","geo_precision":"street","address":"WHOLESALE DIVISION 709 CENTENNIAL ROAD"},"type":"Feature","geometry":{"type":"Point","coordinates":[-96.998374,42.233585]}},{"properties":{"ship_phone":"402-372-5588","city":"WEST POINT","name":"KAUPS PRODUCE INC","zip":"68788","st":"NE","comments":null,"geo_score":0.83,"id":"a63gfza5z3iw","geo_precision":"range","address":"133 W PARK"},"type":"Feature","geometry":{"type":"Point","coordinates":[-96.712322,41.840221]}},{"properties":{"ship_phone":"402-372-3058","city":"WEST POINT","name":"TERRA INTERNATIONAL INC","zip":"68788","st":"NE","comments":"DELETE PER REP","geo_score":0.357,"id":"a63gfz73kv5g","geo_precision":"street","address":"ROUTE 2"},"type":"Feature","geometry":{"type":"Point","coordinates":[-97.493078,42.727734]}},{"properties":{"ship_phone":"402-372-3058","city":"WEST POINT","name":"TERRA INTERNATIONAL","zip":"68788","st":"NE","comments":"DUP S/T NOW HOWELLS","geo_score":0.766,"id":"a63gfz0z8zbk","geo_precision":"street","address":"NORTHWEST HIGHWAY 275"},"type":"Feature","geometry":{"type":"Point","coordinates":[-96.710845,41.839887]}},{"properties":{"ship_phone":"402-372-5303","city":"WEST POINT","name":"NORTHEAST COOPERATIVE","zip":"68788","st":"NE","comments":"WAS FARMERS COOP  CLEAN","geo_score":0.83,"id":"a63gfz6gv3oi","geo_precision":"range","address":"445 SOUTH MAIN"},"type":"Feature","geometry":{"type":"Point","coordinates":[-96.712235,41.836719]}},{"properties":{"ship_phone":"402-847-3355","city":"WINNETOON","name":"KEHNE FERTILIZER","zip":"68789","st":"NE","comments":null,"geo_score":0.714,"id":"a63gfyuvl0lt","geo_precision":"street","address":"MAIN STREET"},"type":"Feature","geometry":{"type":"Point","coordinates":[-96.865065,42.269126]}},{"properties":{"ship_phone":"402-286-4277","city":"WINSIDE","name":"FARMERS COOPERATIVE","zip":"68790","st":"NE","comments":null,"geo_score":1.0,"id":"a63gfz6o4q23","geo_precision":"street","address":"MAIN STREET"},"type":"Feature","geometry":{"type":"Point","coordinates":[-97.179646,42.176263]}},{"properties":{"ship_phone":"402-529-3262","city":"WISNER","name":"NORTHEAST COOPERATIVE","zip":"68791","st":"NE","comments":"WAS WISNER FARM   CLEAN","geo_score":0.893,"id":"a63gfz9b9l5i","geo_precision":"street","address":"EAST HIGHWAY 275"},"type":"Feature","geometry":{"type":"Point","coordinates":[-96.961461,42.015784]}},{"properties":{"ship_phone":"402-357-2437","city":"WYNOT","name":"TERRA INTERNATIONAL INC","zip":"68792","st":"NE","comments":"NOW THRU HARTINGTON NE","geo_score":0.714,"id":"a63gfz1s31dr","geo_precision":"street","address":"MAIN STREET"},"type":"Feature","geometry":{"type":"Point","coordinates":[-96.865065,42.269126]}},{"properties":{"ship_phone":"308-382-3030","city":"GRAND ISLAND","name":"AURORA COOP ELEVATOR CO","zip":"68801","st":"NE","comments":null,"geo_score":0.831,"id":"a63gfz7b3klw","geo_precision":"range","address":"1140 SOUTH LINCOLN STREET"},"type":"Feature","geometry":{"type":"Point","coordinates":[-98.342857,40.909986]}},{"properties":{"ship_phone":"308-384-1111","city":"GRAND ISLAND","name":"CENEX/LAND O LAKES EXPRESS CENTER","zip":"68801","st":"NE","comments":"CLEAN","geo_score":0.718,"id":"a63gfz043fon","geo_precision":"street","address":"1431 SOUTH WEBB ROAD"},"type":"Feature","geometry":{"type":"Point","coordinates":[-98.378416,40.906296]}},{"properties":{"ship_phone":"308-382-0160","city":"GRAND ISLAND","name":"AGRICULTURAL SERVICES INC","zip":"68802","st":"NE","comments":"CLEAN","geo_score":0.737,"id":"a63gfz1n0cri","geo_precision":"range","address":"2777 NORTH BROADWELL"},"type":"Feature","geometry":{"type":"Point","coordinates":[-98.358887,40.955939]}},{"properties":{"ship_phone":"308-382-8662","city":"ALDA","name":"AGRICULTURAL SERVICES INC","zip":"68810","st":"NE","comments":"NOW UNDER SATELLITE","geo_score":1.0,"id":"a63gfyunkgau","geo_precision":"street","address":"US HWY 30"},"type":"Feature","geometry":{"type":"Point","coordinates":[-98.429368,40.887429]}},{"properties":{"ship_phone":"308-382-8662","city":"ALDA","name":"AGRICULTURAL SERVICES INC","zip":"68810","st":"NE","comments":null,"geo_score":0.771,"id":"a63gfzalhw11","geo_precision":"street","address":"US HWY 30 PO BOX 150"},"type":"Feature","geometry":{"type":"Point","coordinates":[-98.429368,40.887429]}},{"properties":{"ship_phone":"308-826-3285","city":"AMHERST","name":"BIG FLAG FARM SUPPLY","zip":"68812","st":"NE","comments":"CLEAN","geo_score":0.878,"id":"a63gfz71fetv","geo_precision":"street","address":"SOUTH MAIN"},"type":"Feature","geometry":{"type":"Point","coordinates":[-99.270271,40.837332]}},{"properties":{"ship_phone":"308-935-1863","city":"ANSLEY","name":"CIRCLE B AGRI SERVICES,INC.","zip":"68814","st":"NE","comments":null,"geo_score":1.0,"id":"a63gfz8jxp20","geo_precision":"zip","address":"1 BLOCK N. OF LUMBER YARD"},"type":"Feature","geometry":{"type":"Point","coordinates":[-99.381735,41.289827]}},{"properties":{"ship_phone":"308-935-1102","city":"ANSLEY","name":"TROTTER INC","zip":"68814","st":"NE","comments":null,"geo_score":0.939,"id":"a63gfz4yimou","geo_precision":"street","address":"WEST MAIN STREET"},"type":"Feature","geometry":{"type":"Point","coordinates":[-99.381739,41.287926]}},{"properties":{"ship_phone":null,"city":"ANSLEY","name":"CIRCLE B AGRI SERVICE","zip":"68814","st":"NE","comments":"PER JERRY NELSON","geo_score":0.424,"id":"a63gfz11v3og","geo_precision":"street","address":"7 MI N ANSLEY ON 183"},"type":"Feature","geometry":{"type":"Point","coordinates":[-99.38837,40.928262]}},{"properties":{"ship_phone":"308-789-6200","city":"ARCADIA","name":"TROTTER INC","zip":"68815","st":"NE","comments":"CLEAN","geo_score":0.614,"id":"a63gfz9tm3dc","geo_precision":"street","address":"RAILROAD &amp; REYNOLDS"},"type":"Feature","geometry":{"type":"Point","coordinates":[-99.125416,41.423321]}},{"properties":{"ship_phone":"308-789-6200","city":"ARCADIA","name":"RIVERSIDE FERTILIZER &amp; PROPANE INC","zip":"68815","st":"NE","comments":"BOUGHT BY TROTTER GRAIN 140","geo_score":0.464,"id":"a63gfzalqbef","geo_precision":"street","address":"RAILROAD AND RENTALS"},"type":"Feature","geometry":{"type":"Point","coordinates":[-99.373404,40.724017]}},{"properties":{"ship_phone":"308-795-2202","city":"ARCHER","name":"ARCHER GRAIN COMPANY","zip":"68816","st":"NE","comments":null,"geo_score":0.714,"id":"a63gfz56456o","geo_precision":"street","address":"MAIN STREET"},"type":"Feature","geometry":{"type":"Point","coordinates":[-99.259402,40.700708]}},{"properties":{"ship_phone":"308-738-2292","city":"ASHTON","name":"ASHTON FEED AND GRAIN","zip":"68817","st":"NE","comments":null,"geo_score":0.786,"id":"a63gfz2gmiw9","geo_precision":"street","address":"HWY 92"},"type":"Feature","geometry":{"type":"Point","coordinates":[-98.793219,41.249018]}},{"properties":{"ship_phone":"308-789-6200","city":"ASHTON","name":"ASHTON FEED AND GRAIN","zip":"68817","st":"NE","comments":"DUP S/T","geo_score":0.339,"id":"a63gfyzby852","geo_precision":"street","address":"BOX 130"},"type":"Feature","geometry":{"type":"Point","coordinates":[-98.58862,40.910247]}},{"properties":{"ship_phone":"402-694-2181","city":"AURORA","name":"CARGILL INC","zip":"68818","st":"NE","comments":"PER D.L. LOCKEN","geo_score":0.504,"id":"a63gfywkacdj","geo_precision":"street","address":"315 8TH STREET BOX 306"},"type":"Feature","geometry":{"type":"Point","coordinates":[-98.00738,40.859592]}},{"properties":{"ship_phone":"402-694-4106","city":"AURORA","name":"AURORA COOP ELEVATOR CO","zip":"68818","st":"NE","comments":null,"geo_score":0.817,"id":"a63gfz65p4wm","geo_precision":"range","address":"605 12TH STREET"},"type":"Feature","geometry":{"type":"Point","coordinates":[-98.002614,40.862869]}},{"properties":{"ship_phone":"402-694-2106","city":"AURORA","name":"FARMLAND INDUSTRIES INC","zip":"68818","st":"NE","comments":"DUPLICATE OF 054240000","geo_score":0.817,"id":"a63gfzapjcfl","geo_precision":"range","address":"605 12TH STREET"},"type":"Feature","geometry":{"type":"Point","coordinates":[-98.002614,40.862869]}},{"properties":{"ship_phone":"308-996-4406","city":"BOELUS","name":"AGRICULTURAL SERVICES INC","zip":"68820","st":"NE","comments":null,"geo_score":0.657,"id":"a63gfyz3u9lq","geo_precision":"street","address":"US HIGHWAY 58"},"type":"Feature","geometry":{"type":"Point","coordinates":[-98.711993,41.075302]}},{"properties":{"ship_phone":"402-756-8700","city":"BROKEN BOW","name":"TROTTER INC","zip":"68822","st":"NE","comments":null,"geo_score":0.791,"id":"a63gfz3c7ten","geo_precision":"range","address":"147 NORTH 5TH"},"type":"Feature","geometry":{"type":"Point","coordinates":[-99.635734,41.405933]}},{"properties":{"ship_phone":"308-872-6436","city":"BROKEN BOW","name":"RITE-WAY FERTILIZER INC","zip":"68822","st":"NE","comments":"CLEAN","geo_score":1.0,"id":"a63gfz3j09l8","geo_precision":"range","address":"1220 NORTH B STREET"},"type":"Feature","geometry":{"type":"Point","coordinates":[-99.64437,41.406452]}},{"properties":{"ship_phone":"308-346-4952","city":"BURWELL","name":"FARMERS COOP ELEVATOR CO","zip":"68823","st":"NE","comments":"WAS TOWN &amp; COUNTRY COOP INC","geo_score":0.54,"id":"a63gfz959jcn","geo_precision":"street","address":"350 SOUTH RAILROAD"},"type":"Feature","geometry":{"type":"Point","coordinates":[-99.140467,41.780643]}},{"properties":{"ship_phone":"308-346-4050","city":"BURWELL","name":"MAVERICK FERTILIZER","zip":"68823","st":"NE","comments":null,"geo_score":0.854,"id":"a63gfz3bmpmx","geo_precision":"range","address":"NORTH HWY 11 &amp; 91"},"type":"Feature","geometry":{"type":"Point","coordinates":[-99.12565,41.781146]}},{"properties":{"ship_phone":"308-485-4848","city":"CAIRO","name":"AGRICULTURAL SERVICES INC","zip":"68824","st":"NE","comments":"NOW UNDER SATELLITE","geo_score":0.805,"id":"a63gfz7sc620","geo_precision":"street","address":"NORTH HIGHWAY 11"},"type":"Feature","geometry":{"type":"Point","coordinates":[-98.607407,41.003636]}},{"properties":{"ship_phone":"308-485-4848","city":"CAIRO","name":"AGRICULTURAL SERVICES INC","zip":"68824","st":"NE","comments":null,"geo_score":0.5,"id":"a63gfz4f6sa6","geo_precision":"street","address":"NORTH HWY 10"},"type":"Feature","geometry":{"type":"Point","coordinates":[-99.083035,40.70034]}},{"properties":{"ship_phone":"308-836-2206","city":"CALLAWAY","name":"PROGRESSIVE FERT CO INC","zip":"68825","st":"NE","comments":null,"geo_score":0.387,"id":"a63gfz33mkhg","geo_precision":"street","address":"2 BLOCKS SOUTH OF MAIN"},"type":"Feature","geometry":{"type":"Point","coordinates":[-99.270227,40.838315]}},{"properties":{"ship_phone":"308-836-2231","city":"CALLAWAY","name":"FARMLAND SERVICE COOPERATIVE","zip":"68825","st":"NE","comments":"CLEAN","geo_score":0.5,"id":"a63gfz7oezlm","geo_precision":"street","address":"EAST RAILROAD AVENUE"},"type":"Feature","geometry":{"type":"Point","coordinates":[-98.575662,40.688327]}},{"properties":{"ship_phone":"308-946-3064","city":"CENTRAL CITY","name":"KOCH AGRI SERVICES INC","zip":"68826","st":"NE","comments":"CLEAN WAS PLATTE VALLEY","geo_score":0.69,"id":"a63gfz92mqdy","geo_precision":"street","address":"1561 13TH RD"},"type":"Feature","geometry":{"type":"Point","coordinates":[-98.058521,41.079691]}},{"properties":{"ship_phone":"308-946-3866","city":"CENTRAL CITY","name":"CARGILL INC","zip":"68826","st":"NE","comments":"CLEAN","geo_score":0.812,"id":"a63gfywpzr1k","geo_precision":"range","address":"1313 13TH STREET"},"type":"Feature","geometry":{"type":"Point","coordinates":[-97.995948,41.1192]}},{"properties":{"ship_phone":"308-986-2227","city":"CHAPMAN","name":"AURORA COOPERATIVE ELEVATOR COMPANY","zip":"68827","st":"NE","comments":"CLEAM","geo_score":1.0,"id":"a63gfz9ugdlt","geo_precision":"street","address":"US HWY 30"},"type":"Feature","geometry":{"type":"Point","coordinates":[-98.15592,41.023295]}},{"properties":{"ship_phone":"308-226-2361","city":"DANNEBROG","name":"FARMERS UNION COOP ASSN","zip":"68831","st":"NE","comments":null,"geo_score":0.819,"id":"a63gfyvdpmdl","geo_precision":"street","address":"DEPOT STREET"},"type":"Feature","geometry":{"type":"Point","coordinates":[-98.546185,41.116442]}},{"properties":{"ship_phone":"402-845-2779","city":"DONIPHAN","name":"AGRICULTURAL SERVICES INC","zip":"68832","st":"NE","comments":null,"geo_score":0.607,"id":"a63gfz9seym6","geo_precision":"street","address":"RAILROAD STREET"},"type":"Feature","geometry":{"type":"Point","coordinates":[-98.96398,41.272711]}},{"properties":{"ship_phone":null,"city":"DONIPHAN","name":"AURORA COOPERATIVE ELEVATOR COMPANY","zip":"68832","st":"NE","comments":"DELETE CLEAN MAKE A S/T","geo_score":0.84,"id":"a63gfyyatb14","geo_precision":"range","address":"101 E PLUM BOX 179"},"type":"Feature","geometry":{"type":"Point","coordinates":[-98.36961,40.772036]}},{"properties":{"ship_phone":"402-845-9282","city":"DONIPHAN","name":"AURORA COOP ELEVATOR CO","zip":"68832","st":"NE","comments":null,"geo_score":0.916,"id":"a63gfz1ce1wi","geo_precision":"range","address":"101 EAST PLUM"},"type":"Feature","geometry":{"type":"Point","coordinates":[-98.36961,40.772036]}},{"properties":{"ship_phone":"308-863-2360","city":"ELBA","name":"SPILINEK FERTILIZER SERVICES INC","zip":"68835","st":"NE","comments":"CLEAN","geo_score":0.49,"id":"a63gfyw4m8h3","geo_precision":"street","address":"515 W. MARKET STREET"},"type":"Feature","geometry":{"type":"Point","coordinates":[-98.565616,41.284633]}},{"properties":{"ship_phone":"308-856-4666","city":"ELM CREEK","name":"SOUTH CENTRAL CO-OP","zip":"68836","st":"NE","comments":null,"geo_score":0.878,"id":"a63gfz83hq0o","geo_precision":"street","address":"WEST HIGHWAY 30"},"type":"Feature","geometry":{"type":"Point","coordinates":[-99.400415,40.720805]}},{"properties":{"ship_phone":"308-856-4666","city":"ELM CREEK","name":"AGRI COOP","zip":"68836","st":"NE","comments":"NOW A SATELLITE 208230","geo_score":0.878,"id":"a63gfz6o4hxr","geo_precision":"street","address":"WEST HIGHWAY 30"},"type":"Feature","geometry":{"type":"Point","coordinates":[-99.400415,40.720805]}},{"properties":{"ship_phone":"308-856-4666","city":"ELM CREEK","name":"AGRI COOP","zip":"68836","st":"NE","comments":null,"geo_score":0.878,"id":"a63gfzasvj3t","geo_precision":"street","address":"WEST HIGHWAY 30"},"type":"Feature","geometry":{"type":"Point","coordinates":[-99.400415,40.720805]}},{"properties":{"ship_phone":"308-336-3232","city":"FARWELL","name":"SCOULAR GRAIN COMPANY","zip":"68838","st":"NE","comments":"PER L GEISER","geo_score":1.0,"id":"a63gfz3tvo88","geo_precision":"zip","address":"LANDERS AVENUE"},"type":"Feature","geometry":{"type":"Point","coordinates":[-98.679842,41.206635]}},{"properties":{"ship_phone":"308-336-3381","city":"FARWELL","name":"TROTTER FERTILIZER","zip":"68838","st":"NE","comments":null,"geo_score":1.0,"id":"a63gfz64dk0q","geo_precision":"zip","address":"LANDERS AVENUE"},"type":"Feature","geometry":{"type":"Point","coordinates":[-98.679842,41.206635]}},{"properties":{"ship_phone":"308-236-5919","city":"GIBBON","name":"CLEVENGER OIL COMPANY","zip":"68840","st":"NE","comments":"CLEAN","geo_score":0.482,"id":"a63gfywyev3a","geo_precision":"street","address":"RR 2 BOX 38"},"type":"Feature","geometry":{"type":"Point","coordinates":[-98.837994,40.749038]}},{"properties":{"ship_phone":"308-468-5756","city":"GIBBON","name":"BIG FLAG FARM SUPPLY","zip":"68840","st":"NE","comments":"PER REP NO SALES,KEARN B/T","geo_score":0.6,"id":"a63gfz06ucmh","geo_precision":"street","address":"WEST HIGHWAY 30 ROUTE 1"},"type":"Feature","geometry":{"type":"Point","coordinates":[-98.759937,40.773354]}},{"properties":{"ship_phone":"308-468-6361","city":"GIBBON","name":"SCOULAR GRAIN COMPANY","zip":"68840","st":"NE","comments":"PER AGRICENTER","geo_score":0.902,"id":"a63gfyuh7w45","geo_precision":"range","address":"617 FRONT STREET"},"type":"Feature","geometry":{"type":"Point","coordinates":[-98.842496,40.749801]}},{"properties":{"ship_phone":"308-468-5971","city":"GIBBON","name":"KOCH AGRI SERVICE","zip":"68840","st":"NE","comments":"S/B CLIP 408240026","geo_score":0.902,"id":"a63gfyxd4f4l","geo_precision":"range","address":"617 FRONT STREET"},"type":"Feature","geometry":{"type":"Point","coordinates":[-98.842496,40.749801]}},{"properties":{"ship_phone":"308-468-5971","city":"GIBBON","name":"KOCH AGRI SERVICES INC","zip":"68840","st":"NE","comments":"NOW A SATELLITE LOCATION","geo_score":0.902,"id":"a63gfzalli9v","geo_precision":"range","address":"617 FRONT ST"},"type":"Feature","geometry":{"type":"Point","coordinates":[-98.842496,40.749801]}},{"properties":{"ship_phone":"308-468-5971","city":"GIBBON","name":"KOCH AGRI SERVICES INC","zip":"68840","st":"NE","comments":null,"geo_score":0.746,"id":"a63gfyxyea6d","geo_precision":"range","address":"617 FRONT ST PO BOX 399"},"type":"Feature","geometry":{"type":"Point","coordinates":[-98.842496,40.749801]}},{"properties":{"ship_phone":"308-468-6371","city":"GIBBON","name":"CARGILL INC","zip":"68840","st":"NE","comments":null,"geo_score":0.49,"id":"a63gfz15ye6g","geo_precision":"street","address":"WEST"},"type":"Feature","geometry":{"type":"Point","coordinates":[-98.847834,40.74752]}},{"properties":{"ship_phone":"402-849-2211","city":"GILTNER","name":"HEARTLAND COOP","zip":"68841","st":"NE","comments":"WAS CARGILL INC","geo_score":0.786,"id":"a63gfyw0o3st","geo_precision":"street","address":"EAST RAILROAD"},"type":"Feature","geometry":{"type":"Point","coordinates":[-98.206853,40.741721]}},{"properties":{"ship_phone":"402-849-2211","city":"GILTNER","name":"HEARTLAND COOP","zip":"68841","st":"NE","comments":"WAS TRUMBULL COOP","geo_score":0.751,"id":"a63gfyx7tu6x","geo_precision":"street","address":"100 HATFIELD"},"type":"Feature","geometry":{"type":"Point","coordinates":[-98.156374,40.773892]}},{"properties":{"ship_phone":"308-246-5251","city":"GREELEY","name":"DINSDALE BROS INC","zip":"68842","st":"NE","comments":null,"geo_score":0.714,"id":"a63gfywzv3cs","geo_precision":"street","address":"MAIN STREET"},"type":"Feature","geometry":{"type":"Point","coordinates":[-99.259402,40.700708]}},{"properties":{"ship_phone":"402-725-3131","city":"HAMPTON","name":"UNITED COOPERATIVES INC","zip":"68843","st":"NE","comments":null,"geo_score":0.807,"id":"a63gfz8kx46k","geo_precision":"street","address":"211 A STREET"},"type":"Feature","geometry":{"type":"Point","coordinates":[-97.887198,40.878067]}},{"properties":{"ship_phone":"308-452-3519","city":"HAZARD","name":"TROTTER INC","zip":"68844","st":"NE","comments":"CLEAN","geo_score":0.5,"id":"a63gfyzcu3ra","geo_precision":"street","address":"NORTH HIGHWAY 10"},"type":"Feature","geometry":{"type":"Point","coordinates":[-99.083035,40.70034]}},{"properties":{"ship_phone":"402-757-3251","city":"HORDVILLE","name":"FARMERS COOPERATIVE ASSOCIATION","zip":"68846","st":"NE","comments":"DUP OF 055540000","geo_score":0.571,"id":"a63gfz4fvjjx","geo_precision":"street","address":"PO BOX 66-RAILROAD ST."},"type":"Feature","geometry":{"type":"Point","coordinates":[-97.996223,41.075362]}},{"properties":{"ship_phone":"402-757-3251","city":"HORDVILLE","name":"UNITED COOPERATIVE ASSN","zip":"68846","st":"NE","comments":null,"geo_score":0.857,"id":"a63gfyzdxfkz","geo_precision":"street","address":"1ST AVENUE"},"type":"Feature","geometry":{"type":"Point","coordinates":[-97.888463,41.077268]}},{"properties":{"ship_phone":null,"city":"GIBBON","name":"KOCH AGRI SERVICES","zip":"68846","st":"NE","comments":"DELETE CLEAN","geo_score":0.805,"id":"a63gfz2cim80","geo_precision":"range","address":"617 FRONT STREET"},"type":"Feature","geometry":{"type":"Point","coordinates":[-98.842496,40.749801]}},{"properties":{"ship_phone":"308-234-9572","city":"KEARNEY","name":"BIG FLAG FARM SUPPLY","zip":"68847","st":"NE","comments":"CLEAN WAS DOUBLE CIRCLE","geo_score":0.502,"id":"a63gfzaa9fs1","geo_precision":"street","address":"ROUTE 1 BOX 248 BUDA"},"type":"Feature","geometry":{"type":"Point","coordinates":[-99.076996,40.670719]}},{"properties":{"ship_phone":"308-237-2225","city":"KEARNEY","name":"KOCH AGRI SERVICES INC","zip":"68848","st":"NE","comments":"CLEAN WAS KEARNY AG SERV","geo_score":0.493,"id":"a63gfz7h0av6","geo_precision":"street","address":"515 EAST 20TH"},"type":"Feature","geometry":{"type":"Point","coordinates":[-97.998077,40.974364]}},{"properties":{"ship_phone":"308-237-5194","city":"KEARNEY","name":"PUEBLO CHEMICAL COMPANY","zip":"68848","st":"NE","comments":"CLEAN","geo_score":0.535,"id":"a63gfz6y1vvq","geo_precision":"street","address":"1720 WEST 16TH STREET"},"type":"Feature","geometry":{"type":"Point","coordinates":[-99.102652,40.690635]}},{"properties":{"ship_phone":"308-324-4614","city":"LEXINGTON","name":"LEXINGTON COOP OIL CO","zip":"68850","st":"NE","comments":"CLEAN","geo_score":0.929,"id":"a63gfz37v5xj","geo_precision":"street","address":"EAST HIGHWAY 30"},"type":"Feature","geometry":{"type":"Point","coordinates":[-99.755559,40.779691]}},{"properties":{"ship_phone":"308-446-2209","city":"LITCHFIELD","name":"TROTTER INC","zip":"68852","st":"NE","comments":null,"geo_score":1.0,"id":"a63gfyujlony","geo_precision":"zip","address":"GRAVEL ROAD EAST"},"type":"Feature","geometry":{"type":"Point","coordinates":[-99.153012,41.156948]}},{"properties":{"ship_phone":"308-745-0392","city":"LOUP CITY","name":"KOWALSKI FEEDERS SUPPLY INC","zip":"68853","st":"NE","comments":"CLEAN","geo_score":1.0,"id":"a63gfz7wfbl3","geo_precision":"range","address":"1122 O STREET"},"type":"Feature","geometry":{"type":"Point","coordinates":[-98.97171,41.274795]}},{"properties":{"ship_phone":"308-643-2231","city":"MERNA","name":"FARMERS COOPERATIVE GRAIN COMPANY","zip":"68856","st":"NE","comments":null,"geo_score":0.562,"id":"a63gfz3fsj4b","geo_precision":"street","address":"141 N RAILROAD ST"},"type":"Feature","geometry":{"type":"Point","coordinates":[-99.758957,41.484035]}},{"properties":{"ship_phone":"308-457-2161","city":"MILLER","name":"BOWIE FERTILIZER INC","zip":"68858","st":"NE","comments":"CLEAN","geo_score":0.714,"id":"a63gfz0obhb4","geo_precision":"street","address":"MAIN STREET"},"type":"Feature","geometry":{"type":"Point","coordinates":[-99.259402,40.700708]}},{"properties":{"ship_phone":"308-496-4121","city":"NORTH LOUP","name":"FARMERS COOP ELEVATOR CO","zip":"68859","st":"NE","comments":"CLEAN","geo_score":0.714,"id":"a63gfz5n7lmq","geo_precision":"street","address":"MAIN STREET"},"type":"Feature","geometry":{"type":"Point","coordinates":[-99.259402,40.700708]}},{"properties":{"ship_phone":"308-728-3254","city":"ORD","name":"FARMERS COOP ELEVATOR CO","zip":"68862","st":"NE","comments":"CLEAN","geo_score":0.916,"id":"a63gfz4e83a6","geo_precision":"range","address":"528 NORTH 14TH STREET"},"type":"Feature","geometry":{"type":"Point","coordinates":[-98.926829,41.6062]}},{"properties":{"ship_phone":"308-728-7722","city":"ORD","name":"TROTTER FERTILIZER","zip":"68862","st":"NE","comments":"WAS RIVERSIDE FERTILIZER","geo_score":0.567,"id":"a63gfzaa0ofy","geo_precision":"street","address":"15 STREET AND G"},"type":"Feature","geometry":{"type":"Point","coordinates":[-98.939023,41.604184]}},{"properties":{"ship_phone":"308-987-2564","city":"OVERTON","name":"LEXINGTON COOP OIL CO","zip":"68863","st":"NE","comments":"CLEAN","geo_score":0.451,"id":"a63gfz6u3ipp","geo_precision":"street","address":"505 3RD"},"type":"Feature","geometry":{"type":"Point","coordinates":[-99.536363,40.737206]}},{"properties":{"ship_phone":"308-894-2015","city":"PALMER","name":"DINSDALE BROS INC","zip":"68864","st":"NE","comments":null,"geo_score":0.893,"id":"a63gfzae2wse","geo_precision":"street","address":"ZURICH &amp; STANWYCK STREETS"},"type":"Feature","geometry":{"type":"Point","coordinates":[-98.260024,41.220045]}},{"properties":{"ship_phone":"308-388-4711","city":"PLEASANTON","name":"FARMERS UNION COOP ASSOC OF PLEASANTON","zip":"68866","st":"NE","comments":"OUT OF BUSINESS","geo_score":0.772,"id":"a63gfyw5yrnz","geo_precision":"range","address":"307 EAST CEMETARY ROAD"},"type":"Feature","geometry":{"type":"Point","coordinates":[-99.083005,40.974728]}},{"properties":{"ship_phone":"308-388-4711","city":"PLEASANTON","name":"AGRI COOP","zip":"68866","st":"NE","comments":null,"geo_score":0.82,"id":"a63gfz8ekb06","geo_precision":"range","address":"307 CEMETERY"},"type":"Feature","geometry":{"type":"Point","coordinates":[-99.083005,40.974728]}},{"properties":{"ship_phone":"308-452-3281","city":"RAVENNA","name":"CARGILL INC","zip":"68869","st":"NE","comments":null,"geo_score":0.643,"id":"a63gfywci9ao","geo_precision":"street","address":"WEST HIGHWAY 2"},"type":"Feature","geometry":{"type":"Point","coordinates":[-98.983768,41.033972]}},{"properties":{"ship_phone":"308-452-3257","city":"RAVENNA","name":"FARMERS COOPERATIVE ASSOCIATION","zip":"68869","st":"NE","comments":null,"geo_score":0.643,"id":"a63gfz1tknms","geo_precision":"street","address":"HIGHWAY 2 &amp; GRAND AVENUE"},"type":"Feature","geometry":{"type":"Point","coordinates":[-98.983768,41.033972]}},{"properties":{"ship_phone":"308-893-2771","city":"RIVERDALE","name":"SCOULAR ELEVATOR","zip":"68870","st":"NE","comments":"OUT OF BUSINESS","geo_score":0.901,"id":"a63gfz37gh8t","geo_precision":"street","address":"MAIN STREET"},"type":"Feature","geometry":{"type":"Point","coordinates":[-99.158836,40.78423]}},{"properties":{"ship_phone":"308-893-2100","city":"RIVERDALE","name":"BOWIE FERTILIZER INC.","zip":"68870","st":"NE","comments":"CLEAN","geo_score":0.901,"id":"a63gfz6qqgbb","geo_precision":"street","address":"MAIN STREET"},"type":"Feature","geometry":{"type":"Point","coordinates":[-99.158836,40.78423]}},{"properties":{"ship_phone":"308-754-4051","city":"SAINT PAUL","name":"LOUP VALLEY SUPPLY INC","zip":"68873","st":"NE","comments":"WAS RITZ FEED INC","geo_score":0.913,"id":"a63gfz4w8utk","geo_precision":"range","address":"302 HOWARD AVENUE"},"type":"Feature","geometry":{"type":"Point","coordinates":[-98.452807,41.21339]}},{"properties":{"ship_phone":"308-754-4431","city":"SAINT PAUL","name":"FARMERS UNION COOP ASSOCIATION","zip":"68873","st":"NE","comments":null,"geo_score":0.766,"id":"a63gfyuqeb6t","geo_precision":"street","address":"HIGHWAY 281"},"type":"Feature","geometry":{"type":"Point","coordinates":[-98.451465,41.208622]}},{"properties":{"ship_phone":"308-527-3629","city":"SARGENT","name":"FARMERS COOP ELEVATOR CO","zip":"68874","st":"NE","comments":"WAS TOWN &amp; COUNTRY COOP INC","geo_score":0.893,"id":"a63gfzakhf9s","geo_precision":"street","address":"NORTH HIGHWAY 183"},"type":"Feature","geometry":{"type":"Point","coordinates":[-99.365719,41.641051]}},{"properties":{"ship_phone":"308-527-3791","city":"SARGENT","name":"SARGENT FEED &amp; GRAIN COMPANY","zip":"68874","st":"NE","comments":"CLEAN","geo_score":0.841,"id":"a63gfz1vp6nb","geo_precision":"street","address":"300 EAST EDITH STREET"},"type":"Feature","geometry":{"type":"Point","coordinates":[-99.36844,41.642607]}},{"properties":{"ship_phone":"308-527-3629","city":"SARGENT","name":"MID-STATE COOP,INC.","zip":"68874","st":"NE","comments":null,"geo_score":0.571,"id":"a63gfz5fiv0z","geo_precision":"street","address":"N. HWY 183"},"type":"Feature","geometry":{"type":"Point","coordinates":[-99.365719,41.641051]}},{"properties":{"ship_phone":"308-245-4141","city":"SCOTIA","name":"FARMERS COOPERATIVE ELEVATOR","zip":"68875","st":"NE","comments":"AS PER REP.","geo_score":0.714,"id":"a63gfz3lbezd","geo_precision":"street","address":"HIGHWAY 22 &amp; MAIN"},"type":"Feature","geometry":{"type":"Point","coordinates":[-98.703037,41.466436]}},{"properties":{"ship_phone":"308-245-3395","city":"SCOTIA","name":"RIVERSIDE FERTILIZER &amp; PROPANE INC","zip":"68875","st":"NE","comments":"CLEAN","geo_score":0.482,"id":"a63gfyz5iwjv","geo_precision":"street","address":"RR 1 BOX 1B"},"type":"Feature","geometry":{"type":"Point","coordinates":[-98.704837,41.46552]}},{"properties":{"ship_phone":"308-245-4661","city":"SCOTIA","name":"RIVERSIDE FERTILIZER,INC.","zip":"68875","st":"NE","comments":"CUST REQUEST","geo_score":0.857,"id":"a63gfzame89l","geo_precision":"zip","address":"SOUTH GRAVEL RD"},"type":"Feature","geometry":{"type":"Point","coordinates":[-98.673412,41.543067]}},{"properties":{"ship_phone":"308-245-1414","city":"SCOTIA","name":"FARMERS COOPERATIVE ELEVATOR CO","zip":"68875","st":"NE","comments":null,"geo_score":0.5,"id":"a63gfz17k881","geo_precision":"street","address":"HWY 22 AND MAIN"},"type":"Feature","geometry":{"type":"Point","coordinates":[-98.703037,41.466436]}},{"properties":{"ship_phone":"308-647-5128","city":"SHELTON","name":"AGRICULTURAL SERVICES INC","zip":"68876","st":"NE","comments":"NOW UNDER SATELLITE","geo_score":0.627,"id":"a63gfz8ffn83","geo_precision":"street","address":"523 W RAILROAD ST"},"type":"Feature","geometry":{"type":"Point","coordinates":[-98.595536,40.820952]}},{"properties":{"ship_phone":"308-647-5128","city":"SHELTON","name":"AGRICULTURAL SERVICES INC","zip":"68876","st":"NE","comments":null,"geo_score":0.6,"id":"a63gfz2auf1x","geo_precision":"range","address":"523 RAILROAD PO BOX 238"},"type":"Feature","geometry":{"type":"Point","coordinates":[-98.631777,41.213247]}},{"properties":{"ship_phone":"308-752-2125","city":"SUMNER","name":"LEXINGTON COOP OIL CO","zip":"68878","st":"NE","comments":"CLEAN","geo_score":0.786,"id":"a63gfyvwhjts","geo_precision":"street","address":"HIGHWAY 40"},"type":"Feature","geometry":{"type":"Point","coordinates":[-99.609411,40.97721]}},{"properties":{"ship_phone":"308-935-1863","city":"WESTERVILLE","name":"CIRCLE B AGRISERVICES,INC.","zip":"68881","st":"NE","comments":null,"geo_score":0.683,"id":"a63gfz8moloh","geo_precision":"zip","address":"2 MILES N OF WESTERVILLE"},"type":"Feature","geometry":{"type":"Point","coordinates":[-99.728097,41.393902]}},{"properties":{"ship_phone":"308-935-1863","city":"WESTERVILLE","name":"CIRCLE B AGRI SERVICES INC","zip":"68881","st":"NE","comments":null,"geo_score":0.486,"id":"a63gfywvj4xh","geo_precision":"street","address":"1 MILE NORTH"},"type":"Feature","geometry":{"type":"Point","coordinates":[-98.547372,41.119316]}},{"properties":{"ship_phone":"308-246-5251","city":"WOLBACH","name":"DINSDALE BROS INC","zip":"68882","st":"NE","comments":"WAS 1142","geo_score":0.714,"id":"a63gfz4wss2d","geo_precision":"street","address":"MAIN STREET"},"type":"Feature","geometry":{"type":"Point","coordinates":[-99.259402,40.700708]}},{"properties":{"ship_phone":"308-583-2725","city":"WOOD RIVER","name":"AGRICULTURAL SERVICES INC","zip":"68883","st":"NE","comments":null,"geo_score":0.532,"id":"a63gfzan38fh","geo_precision":"street","address":"106 WEST RAILROAD STREET"},"type":"Feature","geometry":{"type":"Point","coordinates":[-98.575662,40.688327]}},{"properties":{"ship_phone":"308-583-2291","city":"WOODRIVER","name":"CARGILL INC","zip":"68883","st":"NE","comments":null,"geo_score":0.474,"id":"a63gfyvb1044","geo_precision":"street","address":"ROUTE #1"},"type":"Feature","geometry":{"type":"Point","coordinates":[-98.576995,40.684152]}},{"properties":{"ship_phone":"308-583-6778","city":"WOOD RIVER","name":"AURORA COOP ELEVATOR CO","zip":"68883","st":"NE","comments":null,"geo_score":0.913,"id":"a63gfz71ul0z","geo_precision":"range","address":"6236 S SCHAUPPSVILLE RD"},"type":"Feature","geometry":{"type":"Point","coordinates":[-98.531196,40.840589]}},{"properties":{"ship_phone":"308-583-2283","city":"WOOD RIVER","name":"HEARTLAND COOP","zip":"68883","st":"NE","comments":null,"geo_score":0.718,"id":"a63gfyw4oqb6","geo_precision":"range","address":"215 EAST 7TH"},"type":"Feature","geometry":{"type":"Point","coordinates":[-98.600087,40.818895]}},{"properties":{"ship_phone":"402-463-6791","city":"HASTINGS","name":"TERRA INTERNATIONAL INC","zip":"68901","st":"NE","comments":"PER T BOSSHART","geo_score":0.482,"id":"a63gfz5ig3r2","geo_precision":"street","address":"PO BOX 846,INDUSTRIAL PARK E."},"type":"Feature","geometry":{"type":"Point","coordinates":[-98.371631,40.578033]}},{"properties":{"ship_phone":"402-463-7200","city":"HASTINGS","name":"CONSUMERS SERVICE INC","zip":"68901","st":"NE","comments":null,"geo_score":0.486,"id":"a63gfz4ac5lm","geo_precision":"street","address":"RURAL ROUTE 2 BOX 131"},"type":"Feature","geometry":{"type":"Point","coordinates":[-98.378712,40.585074]}},{"properties":{"ship_phone":"402-463-6875","city":"HASTINGS","name":"COOPERATIVE PRODUCERS INC","zip":"68901","st":"NE","comments":null,"geo_score":0.714,"id":"a63gfyulk4yq","geo_precision":"street","address":"EAST HIGHWAY 6"},"type":"Feature","geometry":{"type":"Point","coordinates":[-98.373961,40.57969]}},{"properties":{"ship_phone":"800-477-4517","city":"HASTINGS","name":"WILFARM L.L.C. C/O FARMLAND FERT NITROGEN PLANT","zip":"68901","st":"NE","comments":"WAS FARMLAND 3204","geo_score":0.714,"id":"a63gfz2minio","geo_precision":"street","address":"EAST HIGHWAY 6"},"type":"Feature","geometry":{"type":"Point","coordinates":[-98.373961,40.57969]}},{"properties":{"ship_phone":"402-462-6444","city":"HASTINGS","name":"NORDER AGRI-SUPPLY INC","zip":"68901","st":"NE","comments":null,"geo_score":0.514,"id":"a63gfz3o14j9","geo_precision":"street","address":"INDUSTRIAL PARK EAST"},"type":"Feature","geometry":{"type":"Point","coordinates":[-98.378735,40.583404]}},{"properties":{"ship_phone":"0","city":"ALMA","name":"TRICO FARM SUPPLY","zip":"68920","st":"NE","comments":null,"geo_score":0.286,"id":"a63gfz5zl7r6","geo_precision":"street","address":"NO. HWY 183"},"type":"Feature","geometry":{"type":"Point","coordinates":[-99.379959,40.433776]}},{"properties":{"ship_phone":"308-928-2159","city":"ALMA","name":"TRICO FARM SERVICE INC","zip":"68920","st":"NE","comments":"CLEAN","geo_score":0.721,"id":"a63gfyz9nkgg","geo_precision":"range","address":"NORTH HIGHWAY 183 (10 MILES N)"},"type":"Feature","geometry":{"type":"Point","coordinates":[-98.271093,40.677544]}},{"properties":{"ship_phone":"308-928-2813","city":"ALMA","name":"AGRI COOP","zip":"68920","st":"NE","comments":"CLEAN","geo_score":0.659,"id":"a63gfz819lbu","geo_precision":"street","address":"603 W 10TH ST"},"type":"Feature","geometry":{"type":"Point","coordinates":[-99.366104,40.107341]}},{"properties":{"ship_phone":"308-962-5321","city":"ARAPAHOE","name":"KOCH AGRI SERVICES INC","zip":"68922","st":"NE","comments":"CLEAN ARAPAHOE AGRI SERVICES","geo_score":0.566,"id":"a63gfz5yb5df","geo_precision":"street","address":"1005 OAK"},"type":"Feature","geometry":{"type":"Point","coordinates":[-99.899104,40.300051]}},{"properties":{"ship_phone":"308-962-7965","city":"ARAPAHOE","name":"TRICO FARM SERVICE","zip":"68922","st":"NE","comments":null,"geo_score":0.476,"id":"a63gfz5it28i","geo_precision":"street","address":"RR 1 BOX 431"},"type":"Feature","geometry":{"type":"Point","coordinates":[-99.775613,40.626583]}},{"properties":{"ship_phone":"308-337-2366","city":"ATLANTA","name":"CUMPTON FLYING SERVICE","zip":"68923","st":"NE","comments":null,"geo_score":0.714,"id":"a63gfyxezsn1","geo_precision":"street","address":"MAIN ST."},"type":"Feature","geometry":{"type":"Point","coordinates":[-99.126666,40.478609]}},{"properties":{"ship_phone":"308-743-2406","city":"AXTELL","name":"TRICO FARM SERVICE","zip":"68924","st":"NE","comments":"CLEAN","geo_score":0.751,"id":"a63gfz5y5nu4","geo_precision":"range","address":"305 MAIN ST PO BOX 335"},"type":"Feature","geometry":{"type":"Point","coordinates":[-99.126666,40.47864]}},{"properties":{"ship_phone":"308-832-2380","city":"AXTELL","name":"AXTELL COOP GRAIN CO.","zip":"68924","st":"NE","comments":"DROP AS SHIP TO","geo_score":0.48,"id":"a63gfz1tubai","geo_precision":"street","address":"HWY 6 &amp; 34"},"type":"Feature","geometry":{"type":"Point","coordinates":[-99.115164,40.480477]}},{"properties":{"ship_phone":"308-743-2424","city":"AXTELL","name":"MIDLAND COOP","zip":"68924","st":"NE","comments":"CLEAN","geo_score":0.725,"id":"a63gfz0lrkt6","geo_precision":"street","address":"101 MAIN STREET"},"type":"Feature","geometry":{"type":"Point","coordinates":[-99.126666,40.478609]}},{"properties":{"ship_phone":"308-472-3415","city":"BERTRAND","name":"AGRI COOP","zip":"68927","st":"NE","comments":"NOW SATELLITE 208229","geo_score":0.806,"id":"a63gfywbnf51","geo_precision":"street","address":"801 MASON AVENUE"},"type":"Feature","geometry":{"type":"Point","coordinates":[-99.635279,40.527671]}},{"properties":{"ship_phone":"308-472-3283","city":"BERTRAND","name":"ACE AERO SPRAYING","zip":"68927","st":"NE","comments":"WAS ACE AERO SPRAYING","geo_score":0.61,"id":"a63gfz5f5sqm","geo_precision":"range","address":"3 M NORTH 1/4 W BERTRAND BLACKTOP"},"type":"Feature","geometry":{"type":"Point","coordinates":[-98.067484,40.205621]}},{"properties":{"ship_phone":"306-472-3415","city":"BERTRAND","name":"AGRI COOP","zip":"68927","st":"NE","comments":null,"geo_score":0.806,"id":"a63gfz2ccpw2","geo_precision":"street","address":"801 MASON AVE"},"type":"Feature","geometry":{"type":"Point","coordinates":[-99.635279,40.527671]}},{"properties":{"ship_phone":"308-472-3283","city":"BERTRAND","name":"FAHRENBRUCH FERTILIZER &amp; CHEMICAL INC","zip":"68927","st":"NE","comments":null,"geo_score":0.714,"id":"a63gfyz7tcth","geo_precision":"street","address":"MAIN ST"},"type":"Feature","geometry":{"type":"Point","coordinates":[-99.126666,40.478609]}},{"properties":{"ship_phone":"402-756-1331","city":"BLADEN","name":"COOP GRAIN &amp; SUPPLY CO","zip":"68928","st":"NE","comments":null,"geo_score":0.766,"id":"a63gfyyhum3i","geo_precision":"street","address":"NORTH RAILROAD STREET"},"type":"Feature","geometry":{"type":"Point","coordinates":[-98.599474,40.321152]}},{"properties":{"ship_phone":"402-756-3421","city":"BLUE HILL","name":"COOP GRAIN &amp; SUPPLY CO","zip":"68930","st":"NE","comments":null,"geo_score":0.545,"id":"a63gfz16huc5","geo_precision":"street","address":"206 W RAILWAY NORTH"},"type":"Feature","geometry":{"type":"Point","coordinates":[-98.451019,40.335643]}},{"properties":{"ship_phone":"308-756-8700","city":"CAMPBELL","name":"TROTTER INC","zip":"68932","st":"NE","comments":null,"geo_score":0.714,"id":"a63gfz6km0fl","geo_precision":"street","address":"NORTH MAIN STREET"},"type":"Feature","geometry":{"type":"Point","coordinates":[-98.067461,40.204592]}},{"properties":{"ship_phone":"402-762-3239","city":"CLAY CENTER","name":"AURORA COOP ELEVATOR CO","zip":"68933","st":"NE","comments":"WAS FARMERS UNION COOP ELEV","geo_score":0.863,"id":"a63gfz24g2sw","geo_precision":"range","address":"401 WEST FAIRFIELD"},"type":"Feature","geometry":{"type":"Point","coordinates":[-98.058521,40.521868]}},{"properties":{"ship_phone":"402-262-2255","city":"DEWEESE","name":"DEWEESE AGRI-SERVICES","zip":"68934","st":"NE","comments":null,"geo_score":0.347,"id":"a63gfz4uvwit","geo_precision":"street","address":"PO BOX 68"},"type":"Feature","geometry":{"type":"Point","coordinates":[-99.156008,40.553968]}},{"properties":{"ship_phone":"402-224-5255","city":"EDGAR","name":"SUPERIOR DESHLER CO INC","zip":"68935","st":"NE","comments":null,"geo_score":0.571,"id":"a63gfz0jahdc","geo_precision":"street","address":"ROUTE 1"},"type":"Feature","geometry":{"type":"Point","coordinates":[-97.966735,40.367812]}},{"properties":{"ship_phone":"308-927-2455","city":"EDISON","name":"EDISON NON-STOCK COOP","zip":"68936","st":"NE","comments":"CLEAN","geo_score":1.0,"id":"a63gfz1njr80","geo_precision":"street","address":"MAIN STREET"},"type":"Feature","geometry":{"type":"Point","coordinates":[-99.776735,40.27614]}},{"properties":{"ship_phone":"308-927-3681","city":"EDISON","name":"FARMLAND INDUSTRIES C/O EDISON NONSTOCK COOP","zip":"68936","st":"NE","comments":"PER T BOSSHART","geo_score":0.357,"id":"a63gfz55hijq","geo_precision":"street","address":"HIGHWAY 136 N. PO BX 68"},"type":"Feature","geometry":{"type":"Point","coordinates":[-99.156008,40.553968]}},{"properties":{"ship_phone":"308-785-3335","city":"ELWOOD","name":"TRICO FARM SERVICE","zip":"68937","st":"NE","comments":"CLEAN","geo_score":0.887,"id":"a63gfz2r71zk","geo_precision":"range","address":"101 CALVERT MAIN ST"},"type":"Feature","geometry":{"type":"Point","coordinates":[-99.859972,40.590286]}},{"properties":{"ship_phone":"402-726-2361","city":"FAIRFIELD","name":"FAIRFIELD N/S COOP FERTILIZER ASSOC","zip":"68938","st":"NE","comments":null,"geo_score":0.643,"id":"a63gfyx4ymoi","geo_precision":"street","address":"2ND &amp; D STREET"},"type":"Feature","geometry":{"type":"Point","coordinates":[-98.104452,40.428778]}},{"properties":{"ship_phone":"308-425-6211","city":"FRANKLIN","name":"KOCH AGRI SERVICES INC","zip":"68939","st":"NE","comments":null,"geo_score":0.927,"id":"a63gfz1xhz94","geo_precision":"range","address":"1795 G STREET"},"type":"Feature","geometry":{"type":"Point","coordinates":[-98.950012,40.0898]}},{"properties":{"ship_phone":"308-832-2380","city":"FUNK","name":"FUNK COOP GRAIN CO.","zip":"68940","st":"NE","comments":null,"geo_score":0.707,"id":"a63gfz4mq3co","geo_precision":"range","address":"HWY 6 &amp; 34"},"type":"Feature","geometry":{"type":"Point","coordinates":[-97.866193,40.596929]}},{"properties":{"ship_phone":"308-263-2441","city":"FUNK","name":"MIDLAND COOP","zip":"68940","st":"NE","comments":null,"geo_score":0.5,"id":"a63gfz830g6z","geo_precision":"street","address":"6 &amp; 34TH STREET"},"type":"Feature","geometry":{"type":"Point","coordinates":[-98.913389,40.350404]}},{"properties":{"ship_phone":"402-279-3515","city":"HARDY","name":"COOPERATIVE BUSINESS ASSOC","zip":"68943","st":"NE","comments":"WAS FARMERS COOP ELEV","geo_score":0.786,"id":"a63gfz4qdvga","geo_precision":"street","address":"SOUTH MAIN"},"type":"Feature","geometry":{"type":"Point","coordinates":[-97.927185,40.007922]}},{"properties":{"ship_phone":"402-772-3151","city":"HARVARD","name":"AURORA COOP ELEVATOR CO","zip":"68944","st":"NE","comments":"WAS FARMERS UNION COOP ELEV","geo_score":0.902,"id":"a63gfywoiv4t","geo_precision":"range","address":"108 NORTH ADAMS"},"type":"Feature","geometry":{"type":"Point","coordinates":[-98.095804,40.617034]}},{"properties":{"ship_phone":"402-772-5801","city":"HARVARD","name":"HARVARD CHEMICAL INC","zip":"68944","st":"NE","comments":null,"geo_score":1.0,"id":"a63gfz0e4vqh","geo_precision":"range","address":"403 WEST OAK STREET"},"type":"Feature","geometry":{"type":"Point","coordinates":[-98.101331,40.618052]}},{"properties":{"ship_phone":"308-563-2555","city":"HEARTWELL","name":"CARGILL INC","zip":"68945","st":"NE","comments":"CLEAN","geo_score":0.707,"id":"a63gfz1vvcf4","geo_precision":"street","address":"HIGHWAY 6 &amp; 34"},"type":"Feature","geometry":{"type":"Point","coordinates":[-98.792113,40.567795]}},{"properties":{"ship_phone":"308-824-3225","city":"HILDRETH","name":"FOUR SEASONS FARM SUPPLY","zip":"68947","st":"NE","comments":null,"geo_score":0.769,"id":"a63gfz7mobv2","geo_precision":"street","address":"104 COMMERCIAL AVE."},"type":"Feature","geometry":{"type":"Point","coordinates":[-99.043512,40.343181]}},{"properties":{"ship_phone":null,"city":"HILDRETH","name":"TRICO FARM SERVICE INC","zip":"68947","st":"NE","comments":null,"geo_score":0.815,"id":"a63gfyy6qnpr","geo_precision":"street","address":"101 COMMERCIAL AVE"},"type":"Feature","geometry":{"type":"Point","coordinates":[-99.043507,40.339971]}},{"properties":{"ship_phone":"308-832-2380","city":"HILDRETH","name":"FARMERS COOPERATIVE GRAIN &amp; SUPPLY CO","zip":"68947","st":"NE","comments":null,"geo_score":0.607,"id":"a63gfz2zuw44","geo_precision":"street","address":"RAILROAD STREET"},"type":"Feature","geometry":{"type":"Point","coordinates":[-99.833591,40.138551]}},{"properties":{"ship_phone":"308-995-8656","city":"HOLDREDGE","name":"TRICO FARM SERVICE","zip":"68949","st":"NE","comments":"CLEAN","geo_score":0.663,"id":"a63gfz5vijrz","geo_precision":"street","address":"RR 2 BOX 79"},"type":"Feature","geometry":{"type":"Point","coordinates":[-99.303856,40.423263]}},{"properties":{"ship_phone":"308-995-8626","city":"HOLDREGE","name":"SOUTH CENTRAL CO-OP","zip":"68949","st":"NE","comments":null,"geo_score":1.0,"id":"a63gfyxrftam","geo_precision":"range","address":"310 LOGAN STREET"},"type":"Feature","geometry":{"type":"Point","coordinates":[-99.365693,40.437482]}},{"properties":{"ship_phone":"308-995-6573","city":"HOLDREGE","name":"HARRINGTON FLYING","zip":"68949","st":"NE","comments":null,"geo_score":0.868,"id":"a63gfz0hjtdu","geo_precision":"street","address":"BREWSTER FIELD"},"type":"Feature","geometry":{"type":"Point","coordinates":[-99.34164,40.452954]}},{"properties":{"ship_phone":null,"city":"HOLDREGE","name":"FARMLAND INDUSTRIES INC","zip":"68949","st":"NE","comments":"PER T BOSSHART","geo_score":1.0,"id":"a63gfz5tyszu","geo_precision":"zip","address":"OPI WAREHOUSE 1200 FOURTH AVE"},"type":"Feature","geometry":{"type":"Point","coordinates":[-99.325955,40.429207]}},{"properties":{"ship_phone":"308-995-8626","city":"HOLDREGE","name":"AGRI COOP","zip":"68949","st":"NE","comments":"CLEAN WAS SO CENTRAL COOP","geo_score":1.0,"id":"a63gfyxz281b","geo_precision":"range","address":"310 LOGAN ST"},"type":"Feature","geometry":{"type":"Point","coordinates":[-99.365693,40.437482]}},{"properties":{"ship_phone":"308-995-4316","city":"HOLDREGE","name":"VAN DIEST SUPPLY COMPANY","zip":"68949","st":"NE","comments":"CLEAN","geo_score":0.708,"id":"a63gfyx0ea5c","geo_precision":"street","address":"915 2ND AVENUE"},"type":"Feature","geometry":{"type":"Point","coordinates":[-99.372682,40.435936]}},{"properties":{"ship_phone":"308-995-6573","city":"HOLDREGE","name":"NEBRASKALAND AG INC","zip":"68949","st":"NE","comments":null,"geo_score":0.868,"id":"a63gfz5btcsz","geo_precision":"street","address":"BREWSTER FIELD"},"type":"Feature","geometry":{"type":"Point","coordinates":[-99.34164,40.452954]}},{"properties":{"ship_phone":"402-756-5711","city":"HOLSTEIN","name":"HEARTLAND COOP","zip":"68950","st":"NE","comments":"WAS JUNIATA FARMERS","geo_score":0.755,"id":"a63gfz8d8em8","geo_precision":"street","address":"SOUTH MAIN STREET"},"type":"Feature","geometry":{"type":"Point","coordinates":[-98.652058,40.465267]}},{"properties":{"ship_phone":"402-751-2255","city":"JUNIATA","name":"HEARTLAND COOP","zip":"68955","st":"NE","comments":"WAS JUNIATA FARMERS","geo_score":0.543,"id":"a63gfz0ojd9u","geo_precision":"street","address":"SOUTH RAILROAD STREET"},"type":"Feature","geometry":{"type":"Point","coordinates":[-99.833591,40.138551]}},{"properties":{"ship_phone":"402-751-2255","city":"JUNIATA","name":"HEARTLAND COOP","zip":"68955","st":"NE","comments":"WAS JUNIATA FARMERS COOP","geo_score":0.916,"id":"a63gfz8wvaag","geo_precision":"range","address":"200 W S DEPOT STREET"},"type":"Feature","geometry":{"type":"Point","coordinates":[-98.507778,40.592787]}},{"properties":{"ship_phone":"402-752-3316","city":"KENESAW","name":"SCOULAR ELEVATOR","zip":"68956","st":"NE","comments":"PER REP","geo_score":0.597,"id":"a63gfywqo1aj","geo_precision":"street","address":"PO BOX 70 110 SOUTH SMITH"},"type":"Feature","geometry":{"type":"Point","coordinates":[-98.610123,40.654792]}},{"properties":{"ship_phone":"402-756-7252","city":"LAWRENCE","name":"POHLMEIER AG CHEM INC","zip":"68957","st":"NE","comments":null,"geo_score":0.509,"id":"a63gfz8q2aeg","geo_precision":"street","address":"RR 1 BOX 587"},"type":"Feature","geometry":{"type":"Point","coordinates":[-98.259884,40.291077]}},{"properties":{"ship_phone":"308-324-4614","city":"LOOMIS","name":"LOOMIS FARMERS COOP LUMBER DEPT.","zip":"68958","st":"NE","comments":null,"geo_score":0.807,"id":"a63gfyx3l6rl","geo_precision":"street","address":"405 COMMERCIAL ST."},"type":"Feature","geometry":{"type":"Point","coordinates":[-99.507011,40.479488]}},{"properties":{"ship_phone":"308-995-8626","city":"LOOMIS","name":"AGRI-COOP","zip":"68958","st":"NE","comments":"WAS SOUTH CENTRAL COOP","geo_score":1.0,"id":"a63gfz162zdj","geo_precision":"street","address":"PALMER STREET"},"type":"Feature","geometry":{"type":"Point","coordinates":[-99.511125,40.477436]}},{"properties":{"ship_phone":"308-876-2121","city":"LOOMIS","name":"AGRI COOP","zip":"68958","st":"NE","comments":null,"geo_score":0.927,"id":"a63gfyy56bza","geo_precision":"range","address":"102 PALMER"},"type":"Feature","geometry":{"type":"Point","coordinates":[-99.511836,40.477441]}},{"properties":{"ship_phone":"308-832-2092","city":"MINDEN","name":"HARMACK INC","zip":"68959","st":"NE","comments":"CLEAN","geo_score":0.857,"id":"a63gfz67p7ix","geo_precision":"street","address":"WEST 1ST STREET"},"type":"Feature","geometry":{"type":"Point","coordinates":[-98.952621,40.495732]}},{"properties":{"ship_phone":"308-832-2380","city":"MINDEN","name":"FARMERS COOPERATIVE GRAIN &amp; SUPPLY CO","zip":"68959","st":"NE","comments":"CLEAN","geo_score":0.902,"id":"a63gfyya8roc","geo_precision":"range","address":"815 NORTH BROWN ST"},"type":"Feature","geometry":{"type":"Point","coordinates":[-98.951826,40.50235]}},{"properties":{"ship_phone":"308-824-3225","city":"OXFORD","name":"TRICO FARM SERVICE INC","zip":"68967","st":"NE","comments":"CLEAN","geo_score":0.75,"id":"a63gfz7rkklg","geo_precision":"street","address":"EAST HIGHWAY 136"},"type":"Feature","geometry":{"type":"Point","coordinates":[-99.629196,40.248318]}},{"properties":{"ship_phone":"308-567-2241","city":"RAGAN","name":"MIDLAND COOP","zip":"68969","st":"NE","comments":"S/B CLIP 567320003","geo_score":0.403,"id":"a63gfyym71xc","geo_precision":"street","address":"ROUTE 1"},"type":"Feature","geometry":{"type":"Point","coordinates":[-98.657658,40.620121]}},{"properties":{"ship_phone":"308-567-2241","city":"RAGAN","name":"MIDLAND COOP","zip":"68969","st":"NE","comments":"AS PER REP.","geo_score":0.403,"id":"a63gfz7eyrmv","geo_precision":"street","address":"ROUTE 1"},"type":"Feature","geometry":{"type":"Point","coordinates":[-98.657658,40.620121]}},{"properties":{"ship_phone":"402-746-2263","city":"RED CLOUD","name":"FARMERS COOPERATIVE ASSOCIATION","zip":"68970","st":"NE","comments":null,"geo_score":0.893,"id":"a63gfz0znof1","geo_precision":"street","address":"SO HIGHWAY 281"},"type":"Feature","geometry":{"type":"Point","coordinates":[-98.518936,40.081713]}},{"properties":{"ship_phone":"402-746-3518","city":"RED CLOUD","name":"SIMAG GRAIN INC","zip":"68970","st":"NE","comments":null,"geo_score":0.941,"id":"a63gfz0wq7j6","geo_precision":"range","address":"522 S WEBSTER"},"type":"Feature","geometry":{"type":"Point","coordinates":[-98.518637,40.07761]}},{"properties":{"ship_phone":"308-743-2424","city":"REPUBLICAN CITY","name":"MIDLAND COOP","zip":"68971","st":"NE","comments":null,"geo_score":0.381,"id":"a63gfyya72lo","geo_precision":"street","address":"RFD 1 BOX 60"},"type":"Feature","geometry":{"type":"Point","coordinates":[-98.401805,40.437247]}},{"properties":{"ship_phone":"308-799-2623","city":"REPUBLICAN CITY","name":"MIDLAND COOP","zip":"68971","st":"NE","comments":null,"geo_score":0.381,"id":"a63gfz0cp5ps","geo_precision":"street","address":"ROUTE 1 BOX 60"},"type":"Feature","geometry":{"type":"Point","coordinates":[-98.259183,40.291081]}},{"properties":{"ship_phone":"402-756-6201","city":"ROSELAND","name":"COOP GRAIN &amp; SUPPLY CO","zip":"68973","st":"NE","comments":null,"geo_score":0.714,"id":"a63gfyzuhw7n","geo_precision":"street","address":"MAIN STREET"},"type":"Feature","geometry":{"type":"Point","coordinates":[-99.126666,40.478609]}},{"properties":{"ship_phone":"402-756-6201","city":"ROSELAND","name":"AGRI COOP","zip":"68973","st":"NE","comments":null,"geo_score":0.714,"id":"a63gfywvm1xt","geo_precision":"street","address":"MAIN ST"},"type":"Feature","geometry":{"type":"Point","coordinates":[-99.126666,40.478609]}},{"properties":{"ship_phone":null,"city":"SAPPA","name":"STAMFORD GRAIN AND FEED","zip":"68977","st":"NE","comments":"DELETE PER REP-CLEAN","geo_score":0.571,"id":"a63gfz8b8q72","geo_precision":"street","address":"RR"},"type":"Feature","geometry":{"type":"Point","coordinates":[-99.136541,40.582998]}},{"properties":{"ship_phone":"402-879-4749","city":"SUPERIOR","name":"SUPERIOR DESHLER CO INC","zip":"68978","st":"NE","comments":null,"geo_score":0.476,"id":"a63gfz5n6b4b","geo_precision":"street","address":"RURAL ROUTE 1"},"type":"Feature","geometry":{"type":"Point","coordinates":[-98.071344,40.016442]}},{"properties":{"ship_phone":"402-879-4267","city":"SUPERIOR","name":"BOETTCHER ENTERPRISES INC","zip":"68978","st":"NE","comments":"CLEAN","geo_score":0.667,"id":"a63gfz3koh63","geo_precision":"street","address":"RR 1 EAST HWY 8"},"type":"Feature","geometry":{"type":"Point","coordinates":[-98.070044,40.018865]}},{"properties":{"ship_phone":"402-773-5531","city":"SUTTON","name":"SUTTON COOPERATIVE GRAIN","zip":"68979","st":"NE","comments":null,"geo_score":0.823,"id":"a63gfyy9e03a","geo_precision":"range","address":"104 WEST ELM"},"type":"Feature","geometry":{"type":"Point","coordinates":[-97.859557,40.607573]}},{"properties":{"ship_phone":"402-773-5561","city":"SUTTON","name":"GEORGE BROS PROPANE &amp; FERTILIZER CORPORATION","zip":"68979","st":"NE","comments":null,"geo_score":0.74,"id":"a63gfz2hss5p","geo_precision":"street","address":"HIGHWAY 6 &amp; SAUNDERS AVENUE"},"type":"Feature","geometry":{"type":"Point","coordinates":[-97.867252,40.596726]}},{"properties":{"ship_phone":"402-743-2381","city":"TRUMBULL","name":"HEARTLAND COOP","zip":"68980","st":"NE","comments":"WAS TRUMBULL COOP","geo_score":0.809,"id":"a63gfyzamj6i","geo_precision":"street","address":"703 HARTFORD STREET"},"type":"Feature","geometry":{"type":"Point","coordinates":[-98.278172,40.678534]}},{"properties":{"ship_phone":null,"city":"FUNK","name":"MIDLAND COOP","zip":"68980","st":"NE","comments":null,"geo_score":0.5,"id":"a63gfz8c61hi","geo_precision":"street","address":"RR 1 BOX 98"},"type":"Feature","geometry":{"type":"Point","coordinates":[-98.241243,40.698321]}},{"properties":{"ship_phone":"402-756-0152","city":"UPLAND","name":"UPLAND FARMERS UNION COOP INC","zip":"68981","st":"NE","comments":"AS PER REP.","geo_score":0.714,"id":"a63gfz5mimgd","geo_precision":"street","address":"MAIN STREET"},"type":"Feature","geometry":{"type":"Point","coordinates":[-99.126666,40.478609]}},{"properties":{"ship_phone":"368-478-5231","city":"WILCOX","name":"MIDLAND COOP","zip":"68982","st":"NE","comments":"WAS WILCOX COOP ASSOC","geo_score":0.939,"id":"a63gfz1gu08u","geo_precision":"street","address":"MAIN STREET"},"type":"Feature","geometry":{"type":"Point","coordinates":[-99.169936,40.367002]}},{"properties":{"ship_phone":"308-478-5232","city":"WILCOX","name":"MIDLAND COOP","zip":"68982","st":"NE","comments":"CLEAN","geo_score":0.939,"id":"a63gfyy04z4j","geo_precision":"street","address":"MAIN STREET"},"type":"Feature","geometry":{"type":"Point","coordinates":[-99.169936,40.367002]}},{"properties":{"ship_phone":"0","city":"MC COOK","name":"SCOULAR GRAIN","zip":"69001","st":"NE","comments":"DOES NOT EXIST","geo_score":0.878,"id":"a63gfz4yugo3","geo_precision":"street","address":"N HIGHWAY 83"},"type":"Feature","geometry":{"type":"Point","coordinates":[-100.61772,40.191666]}},{"properties":{"ship_phone":"308-345-5057","city":"MC COOK","name":"CORNBELT CHEMICAL CO","zip":"69001","st":"NE","comments":"CLEAN","geo_score":0.878,"id":"a63gfz3nbbl4","geo_precision":"street","address":"NORTH HIGHWAY 83"},"type":"Feature","geometry":{"type":"Point","coordinates":[-100.61772,40.191666]}},{"properties":{"ship_phone":null,"city":"MC COOK","name":"KOCH AGRI SERVICES INC","zip":"69001","st":"NE","comments":null,"geo_score":1.0,"id":"a63gfz5jqz06","geo_precision":"zip","address":"BURLINGTON DRIVE"},"type":"Feature","geometry":{"type":"Point","coordinates":[-100.620628,40.207969]}},{"properties":{"ship_phone":"308-345-3615","city":"MC COOK","name":"FRENCHMAN VALLEY FARMERS COOP","zip":"69001","st":"NE","comments":"CLEAN WAS VALLEY FARMERS COOP","geo_score":1.0,"id":"a63gfyx0c89m","geo_precision":"zip","address":"BURLINGTON NORTHERN YARDS"},"type":"Feature","geometry":{"type":"Point","coordinates":[-100.620628,40.207969]}},{"properties":{"ship_phone":"308-345-2920","city":"MC COOK","name":"KOCH AGRI SERVICES INC","zip":"69001","st":"NE","comments":"CLEAN WAS MCCOOK FARM SERVICES","geo_score":1.0,"id":"a63gfz2304za","geo_precision":"zip","address":"BURLINGTON DRIVE"},"type":"Feature","geometry":{"type":"Point","coordinates":[-100.620628,40.207969]}},{"properties":{"ship_phone":"308-345-2013","city":"MC COOK","name":"KUGLER PERRY","zip":"69001","st":"NE","comments":"CLEAN/CHNG TER # PER B MCGINN","geo_score":0.71,"id":"a63gfz8c7zrx","geo_precision":"street","address":"WEST HIGHWAY 6 &amp; 34"},"type":"Feature","geometry":{"type":"Point","coordinates":[-100.625877,40.198617]}},{"properties":{"ship_phone":"308-423-2941","city":"BENKELMAN","name":"TOP CROP FERTILIZER INC","zip":"69021","st":"NE","comments":"LOCATION CLOSED","geo_score":0.592,"id":"a63gfyuhv5ck","geo_precision":"street","address":"HIGHWAY 34"},"type":"Feature","geometry":{"type":"Point","coordinates":[-100.627335,40.198647]}},{"properties":{"ship_phone":"308-423-2356","city":"BENKLEMAN","name":"SOUTHWEST FERTILIZER INC","zip":"69021","st":"NE","comments":"CLEAN","geo_score":0.661,"id":"a63gfyzrosx6","geo_precision":"zip","address":"HIGHWAY 61 &amp; 34"},"type":"Feature","geometry":{"type":"Point","coordinates":[-101.789168,40.103088]}},{"properties":{"ship_phone":"308-697-4543","city":"CAMBRIDGE","name":"CAMBRIDGE COOPERATIVE OIL COMPANY","zip":"69022","st":"NE","comments":"CLEAN","geo_score":0.857,"id":"a63gfz3ajs3x","geo_precision":"street","address":"HIGHWAY 6"},"type":"Feature","geometry":{"type":"Point","coordinates":[-100.171594,40.281926]}},{"properties":{"ship_phone":"308-882-2211","city":"LAMAR","name":"LAMAR FERTILIZER CO","zip":"69023","st":"NE","comments":"CLEAN","geo_score":0.333,"id":"a63gfzaqmnas","geo_precision":"street","address":"RURAL ROUTE 1"},"type":"Feature","geometry":{"type":"Point","coordinates":[-100.515567,40.629047]}},{"properties":{"ship_phone":"308-278-2438","city":"CULBERTON","name":"KUGLER COMPANY","zip":"69024","st":"NE","comments":null,"geo_score":0.729,"id":"a63gfz5yvrmp","geo_precision":"street","address":"RAILROAD STREET"},"type":"Feature","geometry":{"type":"Point","coordinates":[-100.830114,40.227941]}},{"properties":{"ship_phone":"308-278-2438","city":"CULBERTSON","name":"KUGLER OIL CO","zip":"69024","st":"NE","comments":"CLEAN","geo_score":0.7,"id":"a63gfz4uxlj7","geo_precision":"street","address":"RAILROAD AVE"},"type":"Feature","geometry":{"type":"Point","coordinates":[-100.830114,40.227941]}},{"properties":{"ship_phone":"308-367-5518","city":"CURTIS","name":"THOMPSON FARM SUPPLY","zip":"69025","st":"NE","comments":null,"geo_score":0.625,"id":"a63gfz5ghn1e","geo_precision":"street","address":"RR 1 BOX 53"},"type":"Feature","geometry":{"type":"Point","coordinates":[-100.515567,40.629047]}},{"properties":{"ship_phone":"308-486-3551","city":"EUSTIS","name":"FARMLAND SERVICE COOPERATIVE","zip":"69028","st":"NE","comments":"CLEAN","geo_score":0.524,"id":"a63gfyvxsds8","geo_precision":"street","address":"303 EAST RAILROAD STREET"},"type":"Feature","geometry":{"type":"Point","coordinates":[-100.027723,40.662085]}},{"properties":{"ship_phone":null,"city":"EUSTIS","name":"BELLAMY GRAIN","zip":"69028","st":"NE","comments":null,"geo_score":0.692,"id":"a63gfz6yv2f3","geo_precision":"range","address":"113 RAILROAD STREET"},"type":"Feature","geometry":{"type":"Point","coordinates":[-100.02826,40.662145]}},{"properties":{"ship_phone":"308-486-5579","city":"EUSTIS","name":"JOHNSON LAKE FLYING","zip":"69028","st":"NE","comments":"PER REQUEST B MCGINN","geo_score":0.571,"id":"a63gfz88wn8h","geo_precision":"street","address":"503 N. WRIGHT"},"type":"Feature","geometry":{"type":"Point","coordinates":[-99.981738,40.685202]}},{"properties":{"ship_phone":"0","city":"HAIGLER","name":"ST. FRANCIS MERCANTILE EXCHANGE","zip":"69030","st":"NE","comments":"DOES NOT SELL CHEMICALS","geo_score":0.755,"id":"a63gfyw5jgfr","geo_precision":"street","address":"HWY 34"},"type":"Feature","geometry":{"type":"Point","coordinates":[-101.942438,40.013857]}},{"properties":{"ship_phone":"308-882-4386","city":"IMPERIAL","name":"FRENCHMAN VALLEY FARMERS COOP","zip":"69033","st":"NE","comments":"CLEAN","geo_score":0.748,"id":"a63gfyycmzt3","geo_precision":"street","address":"143 BROADWAY"},"type":"Feature","geometry":{"type":"Point","coordinates":[-101.643097,40.513905]}},{"properties":{"ship_phone":"308-882-4308","city":"IMPERIAL","name":"KOCH AGRI SERVICES INC","zip":"69033","st":"NE","comments":"CLEAN WAS CHASE COUNTY GRAIN","geo_score":0.857,"id":"a63gfz11d57g","geo_precision":"street","address":"EAST HIGHWAY 6"},"type":"Feature","geometry":{"type":"Point","coordinates":[-101.643093,40.515938]}},{"properties":{"ship_phone":"308-882-4282","city":"IMPERIAL","name":"SCOULAR FERTILIZER","zip":"69033","st":"NE","comments":"OUT OF BUSINESS","geo_score":0.714,"id":"a63gfz6j4vh3","geo_precision":"street","address":"MAIN STREET"},"type":"Feature","geometry":{"type":"Point","coordinates":[-100.106984,40.112778]}},{"properties":{"ship_phone":"308-364-9292","city":"INDIANOLA","name":"IRW COOP","zip":"69034","st":"NE","comments":"NO CY SALES","geo_score":0.857,"id":"a63gfz7ympmc","geo_precision":"street","address":"HIGHWAY 6"},"type":"Feature","geometry":{"type":"Point","coordinates":[-100.414508,40.23421]}},{"properties":{"ship_phone":"308-364-2214","city":"INDIANOLA","name":"INDIANOLA OIL CO.","zip":"69034","st":"NE","comments":null,"geo_score":0.708,"id":"a63gfywfadnb","geo_precision":"street","address":"HWY 6 &amp; 34"},"type":"Feature","geometry":{"type":"Point","coordinates":[-100.414508,40.23421]}},{"properties":{"ship_phone":"308-364-2214","city":"INDIANOLA","name":"EDISON NON-STOCK COOP","zip":"69034","st":"NE","comments":null,"geo_score":0.755,"id":"a63gfzabwxka","geo_precision":"street","address":"5TH AND D STREET"},"type":"Feature","geometry":{"type":"Point","coordinates":[-100.414508,40.23421]}},{"properties":{"ship_phone":"308-882-2211","city":"LAMAR","name":"LAMAR FERTILIZER","zip":"69035","st":"NE","comments":"PER AG S/T SURVEY","geo_score":0.333,"id":"a63gfyx1smzd","geo_precision":"street","address":"RFD 1-BOX 62"},"type":"Feature","geometry":{"type":"Point","coordinates":[-100.515567,40.629047]}},{"properties":{"ship_phone":"308-882-2213","city":"LAMAR","name":"WENDELL'S FERTILIZER INC","zip":"69035","st":"NE","comments":"CLEAN","geo_score":0.381,"id":"a63gfyzut5rw","geo_precision":"street","address":"RT1 BOX 58A"},"type":"Feature","geometry":{"type":"Point","coordinates":[-100.035969,40.667038]}},{"properties":{"ship_phone":"308-882-2165","city":"LAMAR","name":"BIG BYRON AGRI SERVICES","zip":"69035","st":"NE","comments":"OUT OF BUSINESS","geo_score":0.571,"id":"a63gfz7agk0v","geo_precision":"street","address":"HIGHWAY 6"},"type":"Feature","geometry":{"type":"Point","coordinates":[-100.301546,40.250901]}},{"properties":{"ship_phone":"308-362-4443","city":"MAYWOOD","name":"MAYWOOD COOPERATIVE ASSOC","zip":"69038","st":"NE","comments":"CLEAN TER # CHANGED PER DM","geo_score":0.708,"id":"a63gfz6db6ae","geo_precision":"street","address":"103 SO COMMERCIAL"},"type":"Feature","geometry":{"type":"Point","coordinates":[-100.622121,40.659628]}},{"properties":{"ship_phone":"308-534-7636","city":"NORTH PLATTE","name":"MAYWOOD COOP ASSN","zip":"69038","st":"NE","comments":"DUP OF 225800004 NOW X-REF'D","geo_score":0.61,"id":"a63gfz01n1rz","geo_precision":"range","address":"402 EAST 7TH"},"type":"Feature","geometry":{"type":"Point","coordinates":[-100.511372,40.634874]}},{"properties":{"ship_phone":"308-423-2644","city":"PARKS","name":"JR SIMPLOT CO - MW958","zip":"69041","st":"NE","comments":"CLEAN","geo_score":1.0,"id":"a63gfz078nkx","geo_precision":"zip","address":"HC 69"},"type":"Feature","geometry":{"type":"Point","coordinates":[-101.687688,40.176417]}},{"properties":{"ship_phone":"308-882-5744","city":"PARKS","name":"ALSBURY FERTILIZER INC","zip":"69041","st":"NE","comments":"CLEAN","geo_score":1.0,"id":"a63gfz0f1wul","geo_precision":"zip","address":"HC 69 BOX 26"},"type":"Feature","geometry":{"type":"Point","coordinates":[-101.687688,40.176417]}},{"properties":{"ship_phone":"308-367-4176","city":"STOCKVILLE","name":"BELLAMY GRAIN","zip":"69042","st":"NE","comments":null,"geo_score":0.286,"id":"a63gfz1qw2m6","geo_precision":"street","address":"PO BOX 42"},"type":"Feature","geometry":{"type":"Point","coordinates":[-100.628534,40.212651]}},{"properties":{"ship_phone":"308-334-5435","city":"TRENTON","name":"SOUTHWEST FERTILIZER INC","zip":"69044","st":"NE","comments":"CLEAN","geo_score":0.619,"id":"a63gfz2kluko","geo_precision":"street","address":"RR 1 BOX 245"},"type":"Feature","geometry":{"type":"Point","coordinates":[-101.014489,40.174738]}},{"properties":{"ship_phone":"308-394-5630","city":"WAUNETA","name":"FRENCHMAN VALLEY FARMERS COOP","zip":"69045","st":"NE","comments":"CLEAN","geo_score":0.857,"id":"a63gfz92gn7b","geo_precision":"street","address":"EAST HIGHWAY 6"},"type":"Feature","geometry":{"type":"Point","coordinates":[-101.371279,40.411837]}},{"properties":{"ship_phone":"308-349-4401","city":"WILSONVILLE","name":"EDISON NON STOCK COOP","zip":"69046","st":"NE","comments":"CLEAN","geo_score":1.0,"id":"a63gfz0z1spe","geo_precision":"street","address":"MAIN STREET"},"type":"Feature","geometry":{"type":"Point","coordinates":[-100.106984,40.112778]}},{"properties":{"ship_phone":"308-534-6796","city":"NORTH PLATTE","name":"AERIAL AG FLYING SERVICE","zip":"69101","st":"NE","comments":null,"geo_score":0.857,"id":"a63gfz52gexu","geo_precision":"street","address":"POPLAR &amp; FRONT ST."},"type":"Feature","geometry":{"type":"Point","coordinates":[-100.756001,41.135071]}},{"properties":{"ship_phone":"308-534-6796","city":"NORTH PLATTE","name":"AERIAL AG INC","zip":"69101","st":"NE","comments":"INSUFFICIENT BUSINESS","geo_score":0.857,"id":"a63gfz4auwxz","geo_precision":"street","address":"POPLAR &amp; FRONT STREET"},"type":"Feature","geometry":{"type":"Point","coordinates":[-100.756001,41.135071]}},{"properties":{"ship_phone":"308-534-7636","city":"NORTH PLATTE","name":"MAYWOOD COOPERATIVE ASSOC","zip":"69101","st":"NE","comments":"CLEAN","geo_score":0.805,"id":"a63gfz5lv42x","geo_precision":"range","address":"402 EAST 7TH"},"type":"Feature","geometry":{"type":"Point","coordinates":[-100.758428,41.140945]}},{"properties":{"ship_phone":"308-534-7724","city":"NORTH PLATTE","name":"TERRA INTERNATIONAL","zip":"69103","st":"NE","comments":"PER T BOSSHART","geo_score":0.61,"id":"a63gfz3c4c0g","geo_precision":"range","address":"220 EAST 7TH"},"type":"Feature","geometry":{"type":"Point","coordinates":[-103.661453,41.230844]}},{"properties":{"ship_phone":"308-848-3215","city":"ARNOLD","name":"ARNOLD FEED &amp; SEED COMPANY","zip":"69120","st":"NE","comments":null,"geo_score":1.0,"id":"a63gfz5vtx3z","geo_precision":"zip","address":"RURAL ROUTE STREET"},"type":"Feature","geometry":{"type":"Point","coordinates":[-100.194253,41.423996]}},{"properties":{"ship_phone":"308-889-3461","city":"BIG SPRINGS","name":"FARMERS COOP INC","zip":"69122","st":"NE","comments":"PER REP THIS IS A DUP 1/95","geo_score":0.743,"id":"a63gfz3tpkth","geo_precision":"street","address":"RAILROAD STREET"},"type":"Feature","geometry":{"type":"Point","coordinates":[-102.069066,41.064119]}},{"properties":{"ship_phone":"308-889-3461","city":"BIG SPRINGS","name":"FARMERS COOP INC","zip":"69122","st":"NE","comments":"CLEAN","geo_score":0.878,"id":"a63gfz882gny","geo_precision":"range","address":"106 PINE ST"},"type":"Feature","geometry":{"type":"Point","coordinates":[-102.074606,41.061377]}},{"properties":{"ship_phone":"308-889-3481","city":"BIG SPRINGS","name":"MCCLUNG AERIAL SPRAYING","zip":"69122","st":"NE","comments":"CLEAN","geo_score":0.679,"id":"a63gfz848y7k","geo_precision":"street","address":"RR 2 BOX 51"},"type":"Feature","geometry":{"type":"Point","coordinates":[-102.070284,41.002416]}},{"properties":{"ship_phone":"308-489-5421","city":"BROADWATER","name":"PANHANDLE COOPERATIVE","zip":"69125","st":"NE","comments":"CLEAN","geo_score":0.78,"id":"a63gfz0uhjfq","geo_precision":"range","address":"117 EAST GUTHRIE"},"type":"Feature","geometry":{"type":"Point","coordinates":[-102.853363,41.596084]}},{"properties":{"ship_phone":"308-287-2113","city":"BRULE","name":"CENEX/LAND O LAKES AGRONOMY COMPANY","zip":"69127","st":"NE","comments":"CLEAN WAS VALLEY AG SERVICE","geo_score":0.878,"id":"a63gfz7zb4u7","geo_precision":"street","address":"HIGHWAY 30"},"type":"Feature","geometry":{"type":"Point","coordinates":[-101.806666,41.105709]}},{"properties":{"ship_phone":"308-874-2245","city":"CHAPPELL","name":"FARMERS ELEVATOR COMPANY A COOPERATIVE","zip":"69129","st":"NE","comments":"CLEAN","geo_score":0.689,"id":"a63gfyyyfhov","geo_precision":"street","address":"434 1ST STREET"},"type":"Feature","geometry":{"type":"Point","coordinates":[-102.472266,41.091541]}},{"properties":{"ship_phone":"308-784-4000","city":"COZAD","name":"BELLAMY GRAIN CORP","zip":"69130","st":"NE","comments":"CLEAN","geo_score":0.6,"id":"a63gfz5u64g9","geo_precision":"street","address":"4TH AND WILLOW"},"type":"Feature","geometry":{"type":"Point","coordinates":[-99.975718,40.856003]}},{"properties":{"ship_phone":"308-784-2508","city":"COZAD","name":"FARMLAND SERVICE COOPERATIVE","zip":"69130","st":"NE","comments":"CLEAN","geo_score":0.837,"id":"a63gfyz3peck","geo_precision":"range","address":"300 EAST MONROE"},"type":"Feature","geometry":{"type":"Point","coordinates":[-99.985508,40.852399]}},{"properties":{"ship_phone":"308-784-3868","city":"COZAD","name":"MID STATE AVIATION II INC","zip":"69130","st":"NE","comments":"PER CUST REQ/INSUFF BUS","geo_score":0.446,"id":"a63gfyxx5wzm","geo_precision":"street","address":"MUNICIPAL AIRPORT"},"type":"Feature","geometry":{"type":"Point","coordinates":[-100.695846,41.156594]}},{"properties":{"ship_phone":"308-228-2291","city":"ELSIE","name":"HI-LINE COOPERATIVE","zip":"69134","st":"NE","comments":"CLEAN/DOUBLE CIRCLE FS 2043","geo_score":0.5,"id":"a63gfz0icy4q","geo_precision":"street","address":"HWY 23"},"type":"Feature","geometry":{"type":"Point","coordinates":[-101.1612,40.835879]}},{"properties":{"ship_phone":"308-228-2202","city":"ELSIE","name":"SISCO FERTILIZER INC","zip":"69134","st":"NE","comments":"CLEAN","geo_score":0.5,"id":"a63gfz54epbd","geo_precision":"street","address":"WEST HIGHWAY 23"},"type":"Feature","geometry":{"type":"Point","coordinates":[-101.1612,40.835879]}},{"properties":{"ship_phone":"308-537-7165","city":"GOTHENBURG","name":"BELLAMY GRAIN CORPORATION","zip":"69138","st":"NE","comments":"NOW A SATELLITE","geo_score":1.0,"id":"a63gfyzduaxj","geo_precision":"range","address":"702 AVENUE G"},"type":"Feature","geometry":{"type":"Point","coordinates":[-100.161548,40.924347]}},{"properties":{"ship_phone":"308-537-7145","city":"GOTHENBURG","name":"FARMLAND SERVICE COOPERATIVE","zip":"69138","st":"NE","comments":"CLEAN","geo_score":0.707,"id":"a63gfz2eog2w","geo_precision":"range","address":"308 WEST 8TH"},"type":"Feature","geometry":{"type":"Point","coordinates":[-100.165007,40.927855]}},{"properties":{"ship_phone":"308-537-3321","city":"GOTHENBURG","name":"GOTHENBURG FLYING SERVICE","zip":"69138","st":"NE","comments":null,"geo_score":0.571,"id":"a63gfz1hiyl2","geo_precision":"street","address":"RR 1"},"type":"Feature","geometry":{"type":"Point","coordinates":[-100.170265,40.921191]}},{"properties":{"ship_phone":"308-537-7165","city":"GOTHENBURG","name":"BELLAMY GRAIN","zip":"69138","st":"NE","comments":null,"geo_score":1.0,"id":"a63gfyzq3vf1","geo_precision":"range","address":"702 AVE G"},"type":"Feature","geometry":{"type":"Point","coordinates":[-100.161548,40.924347]}},{"properties":{"ship_phone":"308-352-2333","city":"GRANT","name":"CENEX/LAND O LAKES AGRONOMY COMPANY","zip":"69140","st":"NE","comments":"CLEAN WAS BIG BYRON CUST 916","geo_score":0.659,"id":"a63gfza84eez","geo_precision":"range","address":"HWY 23 &amp; 61"},"type":"Feature","geometry":{"type":"Point","coordinates":[-100.754363,40.827109]}},{"properties":{"ship_phone":"308-352-4224","city":"GRANT","name":"WENDELL'S FERTILIZER INC","zip":"69140","st":"NE","comments":"CLEAN","geo_score":0.704,"id":"a63gfz2h5z9k","geo_precision":"street","address":"HIGHWAY 61 &amp; HIGHWAY 23"},"type":"Feature","geometry":{"type":"Point","coordinates":[-101.72536,40.846896]}},{"properties":{"ship_phone":"308-352-4295","city":"GRANT","name":"GRANT COOP EXCHANGE","zip":"69140","st":"NE","comments":"CLEAN","geo_score":0.659,"id":"a63gfz853j0w","geo_precision":"range","address":"HIGHWAY 23 &amp; 61"},"type":"Feature","geometry":{"type":"Point","coordinates":[-100.754363,40.827109]}},{"properties":{"ship_phone":"308-352-4373","city":"GRANT","name":"FARMLAND IND. C/O GRANT COOP EXCHANGE","zip":"69140","st":"NE","comments":null,"geo_score":0.576,"id":"a63gfywi7u02","geo_precision":"street","address":"HIGHWAY 23 AND 61"},"type":"Feature","geometry":{"type":"Point","coordinates":[-101.72536,40.846896]}},{"properties":{"ship_phone":"308-352-2409","city":"GRANT","name":"WILFARM L.L.C.","zip":"69140","st":"NE","comments":"CLEAN FARMLAND 3240","geo_score":0.647,"id":"a63gfyvkjook","geo_precision":"range","address":"OPI WHSE EAST HWY 23 &amp; 61"},"type":"Feature","geometry":{"type":"Point","coordinates":[-100.754363,40.827109]}},{"properties":{"ship_phone":"308-368-5651","city":"HERSHEY","name":"JR SIMPLOT CO - MW958","zip":"69143","st":"NE","comments":"CLEAN WAS PUREGRO","geo_score":0.805,"id":"a63gfyxvy3tf","geo_precision":"range","address":"401 E FRONT STREET"},"type":"Feature","geometry":{"type":"Point","coordinates":[-103.658833,41.23918]}},{"properties":{"ship_phone":"309-245-3205","city":"KIMBALL","name":"HIGH PLAINS COOPERATIVE","zip":"69145","st":"NE","comments":"AS PER REP.","geo_score":0.829,"id":"a63gfyy9ly4e","geo_precision":"street","address":"SOUTH HIGHWAY 71"},"type":"Feature","geometry":{"type":"Point","coordinates":[-103.662962,41.239644]}},{"properties":{"ship_phone":"308-284-6987","city":"OGALLALA","name":"CENEX/LAND O LAKES AGRONOMY COMPANY","zip":"69153","st":"NE","comments":"CLEAN WAS BIG BYRON AGRI","geo_score":0.714,"id":"a63gfz5uufbx","geo_precision":"street","address":"ROSCOE ROUTE"},"type":"Feature","geometry":{"type":"Point","coordinates":[-101.584405,41.130731]}},{"properties":{"ship_phone":"308-284-6308","city":"OGALLALA","name":"FARMERS COOPERATIVE ASSOCIATION","zip":"69153","st":"NE","comments":null,"geo_score":0.756,"id":"a63gfz83izbh","geo_precision":"range","address":"302 WEST RAILROAD"},"type":"Feature","geometry":{"type":"Point","coordinates":[-101.741364,41.12513]}},{"properties":{"ship_phone":"308-772-3771","city":"OSHKOSH","name":"FARM AND RANCH FERTILIZER INC","zip":"69154","st":"NE","comments":"CLEAN","geo_score":0.816,"id":"a63gfz8i2ey1","geo_precision":"street","address":"WEST AVEUE H"},"type":"Feature","geometry":{"type":"Point","coordinates":[-102.335499,41.409501]}},{"properties":{"ship_phone":"308-239-4529","city":"PAXTON","name":"PAXTON FERTILIZER INC","zip":"69155","st":"NE","comments":"CLEAN","geo_score":0.782,"id":"a63gfyuvm1n3","geo_precision":"street","address":"EAST HIGHWAY 30"},"type":"Feature","geometry":{"type":"Point","coordinates":[-101.35631,41.124116]}},{"properties":{"ship_phone":"308-254-5957","city":"SIDNEY","name":"FERTILIZER SERVICE CO INC","zip":"69162","st":"NE","comments":"AS PER REP.","geo_score":0.755,"id":"a63gfz60x9gi","geo_precision":"street","address":"EAST HIGHWAY 30"},"type":"Feature","geometry":{"type":"Point","coordinates":[-102.963568,41.144957]}},{"properties":{"ship_phone":"308-254-2563","city":"SIDNEY","name":"FAR MOR COOPERATIVE INC","zip":"69162","st":"NE","comments":"CLEAN","geo_score":0.755,"id":"a63gfz5hrwe4","geo_precision":"street","address":"EAST HWY 30"},"type":"Feature","geometry":{"type":"Point","coordinates":[-102.963568,41.144957]}},{"properties":{"ship_phone":"308-636-2253","city":"STAPLETON","name":"LOGAN COUNTY COOP ASSN.","zip":"69163","st":"NE","comments":null,"geo_score":0.512,"id":"a63gfz9gz54g","geo_precision":"range","address":"JCT.HWY 83 &amp; 92"},"type":"Feature","geometry":{"type":"Point","coordinates":[-100.76399,41.133416]}},{"properties":{"ship_phone":"308-636-2253","city":"STAPLETON","name":"LOGAN COUNTY COOP OIL ASSN","zip":"69163","st":"NE","comments":"CLEAN","geo_score":0.647,"id":"a63gfyvwtsyo","geo_precision":"range","address":"JUNCTION HIGHWAY 83 &amp; 92"},"type":"Feature","geometry":{"type":"Point","coordinates":[-100.76399,41.133416]}},{"properties":{"ship_phone":"308-386-4519","city":"SUTHERLAND","name":"HI-LINE COOPERATIVE INC","zip":"69165","st":"NE","comments":"WAS DOUBLE CIRCLE FS 2043","geo_score":0.69,"id":"a63gfz8kap6x","geo_precision":"street","address":"1000 1ST STREET"},"type":"Feature","geometry":{"type":"Point","coordinates":[-101.128939,41.156721]}},{"properties":{"ship_phone":"308-447-5736","city":"VENANGO","name":"WENDELLS FERTILIZER INC.","zip":"69168","st":"NE","comments":"CLEAN","geo_score":0.5,"id":"a63gfyxykm9s","geo_precision":"street","address":"BOX 205"},"type":"Feature","geometry":{"type":"Point","coordinates":[-102.107187,41.020818]}},{"properties":{"ship_phone":"308-447-5595","city":"VENANGO","name":"GRANT COOP EXCHANGE","zip":"69168","st":"NE","comments":"CLEAN WAS FARMERS COOP CO 694","geo_score":0.5,"id":"a63gfyz5ujon","geo_precision":"street","address":"HIGHWAY 23"},"type":"Feature","geometry":{"type":"Point","coordinates":[-101.1612,40.835879]}},{"properties":{"ship_phone":"308-387-4315","city":"WALLACE","name":"WENDELL'S FERTILIZER INC","zip":"69169","st":"NE","comments":"CLEAN","geo_score":0.661,"id":"a63gfzar9p58","geo_precision":"street","address":"HIGHWAY 23"},"type":"Feature","geometry":{"type":"Point","coordinates":[-101.1612,40.835879]}},{"properties":{"ship_phone":"308-387-4331","city":"WALLACE","name":"HI-LINE COOPERATIVE INC","zip":"69169","st":"NE","comments":"PER REP REP NOW A SATELLITE","geo_score":0.661,"id":"a63gfyw01srg","geo_precision":"street","address":"HWY 23"},"type":"Feature","geometry":{"type":"Point","coordinates":[-101.1612,40.835879]}},{"properties":{"ship_phone":"308-387-4331","city":"WALLACE","name":"HI-LINE COOPERATIVE INC","zip":"69169","st":"NE","comments":null,"geo_score":0.661,"id":"a63gfz00joub","geo_precision":"street","address":"HWY 23"},"type":"Feature","geometry":{"type":"Point","coordinates":[-101.1612,40.835879]}},{"properties":{"ship_phone":"308-387-4491","city":"WALLACE","name":"SULLIVAN EQUIPMENT INC","zip":"69169","st":"NE","comments":null,"geo_score":0.393,"id":"a63gfz9orl8n","geo_precision":"street","address":"RR1"},"type":"Feature","geometry":{"type":"Point","coordinates":[-101.741368,41.124046]}},{"properties":{"ship_phone":"402-387-2323","city":"AINSWORTH","name":"FARMERS/RANCHERS COOPERATIVE INC","zip":"69210","st":"NE","comments":null,"geo_score":0.633,"id":"a63gfz5cjw2l","geo_precision":"street","address":"HIGHWAY 20 WEST FERTILIZER PLANT"},"type":"Feature","geometry":{"type":"Point","coordinates":[-99.861189,42.549893]}},{"properties":{"ship_phone":"402-387-2870","city":"AINSWORTH","name":"MADISON GREAT WESTERN","zip":"69210","st":"NE","comments":null,"geo_score":0.878,"id":"a63gfz3x617g","geo_precision":"street","address":"WEST HIGHWAY 20"},"type":"Feature","geometry":{"type":"Point","coordinates":[-99.861189,42.549893]}},{"properties":{"ship_phone":"402-425-3372","city":"CROOKSTON","name":"CROOKSTON GRAIN &amp; FERTILIZER INC","zip":"69212","st":"NE","comments":"PER D LOCKEN","geo_score":0.939,"id":"a63gfyzh7ejx","geo_precision":"street","address":"MAIN STREET"},"type":"Feature","geometry":{"type":"Point","coordinates":[-100.753048,42.929068]}},{"properties":{"ship_phone":"402-425-3372","city":"CROOKSTON","name":"CROOKSTON GRAIN &amp; FERTILIZER INC","zip":"69212","st":"NE","comments":"CLEAN","geo_score":0.683,"id":"a63gfyv49m8x","geo_precision":"zip","address":"101 ELEVATOR STREET"},"type":"Feature","geometry":{"type":"Point","coordinates":[-101.126167,42.542631]}},{"properties":{"ship_phone":null,"city":"LONG PINE","name":"COASH INC","zip":"69217","st":"NE","comments":"DELETE CLEAN","geo_score":1.0,"id":"a63gfz6fjq74","geo_precision":"zip","address":"PO BOX 370"},"type":"Feature","geometry":{"type":"Point","coordinates":[-99.702813,42.533987]}},{"properties":{"ship_phone":"308-762-1161","city":"ALLIANCE","name":"WESTERN COOPERATIVE COMPANY","zip":"69301","st":"NE","comments":"CLEAN-WAS ALLIANCE COOP","geo_score":0.817,"id":"a63gfz97aaei","geo_precision":"range","address":"724 WEST THIRD STREET"},"type":"Feature","geometry":{"type":"Point","coordinates":[-102.879261,42.097009]}},{"properties":{"ship_phone":"308-762-1161","city":"ALLIANCE","name":"ALLIANCE COOPERATIVE ASSN.","zip":"69301","st":"NE","comments":"PER CUST DUP S/T","geo_score":0.629,"id":"a63gfz1t3773","geo_precision":"street","address":"OIL RD.-BLUE BLDG."},"type":"Feature","geometry":{"type":"Point","coordinates":[-103.675508,41.847876]}},{"properties":{"ship_phone":"307-762-3920","city":"ALLIANCE","name":"WESTERN SUGAR COMPANY","zip":"69301","st":"NE","comments":"DOES NOT HANDLE PESTICIDES","geo_score":0.835,"id":"a63gfyvay7f5","geo_precision":"range","address":"107 BOX BUTTE"},"type":"Feature","geometry":{"type":"Point","coordinates":[-102.870672,42.095239]}},{"properties":{"ship_phone":"308-762-7110","city":"ALLIANCE","name":"JR SIMPLOT CO - MW958","zip":"69301","st":"NE","comments":"WAS HEMINGFORD NE","geo_score":0.518,"id":"a63gfz703xk6","geo_precision":"street","address":"RT 1"},"type":"Feature","geometry":{"type":"Point","coordinates":[-102.869889,42.095194]}},{"properties":{"ship_phone":"308-586-1814","city":"BAYARD","name":"JR SIMPLOT CO - MW958","zip":"69334","st":"NE","comments":"WAS SIMPLOT SOILBUILDERS","geo_score":0.919,"id":"a63gfyv0mtpr","geo_precision":"range","address":"201 MAIN STREET"},"type":"Feature","geometry":{"type":"Point","coordinates":[-103.324182,41.752509]}},{"properties":{"ship_phone":"308-586-1014","city":"BAYARD","name":"PUREGRO COMPANY","zip":"69334","st":"NE","comments":"PER REP","geo_score":0.919,"id":"a63gfz8d0nuw","geo_precision":"range","address":"205 MAIN STREET"},"type":"Feature","geometry":{"type":"Point","coordinates":[-103.324182,41.75255]}},{"properties":{"ship_phone":"308-586-1511","city":"BAYARD","name":"WESTERN SUGAR COMPANY","zip":"69334","st":"NE","comments":"DOES NOT HANDLE PESTICIDES","geo_score":0.524,"id":"a63gfz680pf5","geo_precision":"street","address":"WEST 8TH STREET PO BOX 647"},"type":"Feature","geometry":{"type":"Point","coordinates":[-103.323566,41.758579]}},{"properties":{"ship_phone":"308-586-1053","city":"BAYARD","name":"PANHANDLE COOPERATIVE","zip":"69334","st":"NE","comments":"AS PER REP.","geo_score":0.821,"id":"a63gfyuvkdlr","geo_precision":"range","address":"245 MAIN"},"type":"Feature","geometry":{"type":"Point","coordinates":[-103.324185,41.752956]}},{"properties":{"ship_phone":"308-262-1253","city":"BRIDGEPORT","name":"PANHANDLE COOPERATIVE","zip":"69336","st":"NE","comments":"CLEAN","geo_score":0.649,"id":"a63gfyz94km1","geo_precision":"range","address":"1013 WEST RAILROAD"},"type":"Feature","geometry":{"type":"Point","coordinates":[-103.092745,41.665089]}},{"properties":{"ship_phone":"308-345-5057","city":"GERING","name":"CORNBELT CHEMICAL CO","zip":"69341","st":"NE","comments":null,"geo_score":0.525,"id":"a63gfz5gcy6x","geo_precision":"street","address":"GERING INDUSTRIAL PARK"},"type":"Feature","geometry":{"type":"Point","coordinates":[-103.669488,41.817744]}},{"properties":{"ship_phone":"308-436-2166","city":"GERING","name":"JIRDON AGRI CHEMICALS INC","zip":"69341","st":"NE","comments":"CLEAN","geo_score":0.778,"id":"a63gfyw3z4yz","geo_precision":"range","address":"212 D NORTH 10TH STREET"},"type":"Feature","geometry":{"type":"Point","coordinates":[-103.650097,41.81442]}},{"properties":{"ship_phone":"308-282-0638","city":"GORDON","name":"AG PRO CO-OP","zip":"69343","st":"NE","comments":null,"geo_score":0.847,"id":"a63gfz5jk62m","geo_precision":"range","address":"112 EAST ORIN"},"type":"Feature","geometry":{"type":"Point","coordinates":[-102.203193,42.802149]}},{"properties":{"ship_phone":"308-487-5219","city":"HEMINGFORD","name":"FARMERS COOPERATIVE ELEVATOR COMPANY","zip":"69348","st":"NE","comments":"CLEAN","geo_score":0.92,"id":"a63gfz3qvre4","geo_precision":"range","address":"900 BOX BUTTE"},"type":"Feature","geometry":{"type":"Point","coordinates":[-103.072846,42.322596]}},{"properties":{"ship_phone":"308-787-1285","city":"LYMAN","name":"PUREGRO COMPANY","zip":"69352","st":"NE","comments":"PER REP","geo_score":0.448,"id":"a63gfz962fa5","geo_precision":"street","address":"417 JEFFER AVENUE"},"type":"Feature","geometry":{"type":"Point","coordinates":[-103.079139,42.31555]}},{"properties":{"ship_phone":"308-247-2114","city":"MELBETA","name":"J.R. SIMPLOT COMPANY","zip":"69353","st":"NE","comments":"PER REP","geo_score":0.898,"id":"a63gfz7p1aoe","geo_precision":"street","address":"MAIN STREET"},"type":"Feature","geometry":{"type":"Point","coordinates":[-103.418368,41.746461]}},{"properties":{"ship_phone":"308-623-2717","city":"MITCHELL","name":"WESTERN SUGAR COMPANY","zip":"69357","st":"NE","comments":"DOES NOT HANDLE PESTICIDES","geo_score":0.695,"id":"a63gfz332v0v","geo_precision":"range","address":"1940 22ND AVE  PO BOX 67"},"type":"Feature","geometry":{"type":"Point","coordinates":[-103.818377,41.948546]}},{"properties":{"ship_phone":"308-247-2114","city":"MORRILL","name":"JR SIMPLOT CO - MW958","zip":"69358","st":"NE","comments":"WAS SIMPLOT SOILBUILDERS","geo_score":0.93,"id":"a63gfzapj0ep","geo_precision":"range","address":"70715 HIGHWAY 26"},"type":"Feature","geometry":{"type":"Point","coordinates":[-103.939124,41.963271]}},{"properties":{"ship_phone":"308-247-2126","city":"MORRILL","name":"JIRDON AGRI CHEMICALS INC","zip":"69358","st":"NE","comments":"CLEAN","geo_score":0.93,"id":"a63gfz1b8093","geo_precision":"range","address":"70927 HIGHWAY 26"},"type":"Feature","geometry":{"type":"Point","coordinates":[-103.941829,41.963291]}},{"properties":{"ship_phone":"308-632-5305","city":"SCOTTSBLUFF","name":"PANHANDLE COOP ASSN","zip":"69361","st":"NE","comments":"CLEAN","geo_score":0.735,"id":"a63gfyvdegzs","geo_precision":"range","address":"1017 WEST 25TH"},"type":"Feature","geometry":{"type":"Point","coordinates":[-103.676384,41.871676]}},{"properties":{"ship_phone":"308-632-5841","city":"SCOTTSBLUFF","name":"JR SIMPLOT CO - MW958","zip":"69361","st":"NE","comments":"WAS SIMPLOT SOILBUILDERS","geo_score":0.819,"id":"a63gfz4clgof","geo_precision":"range","address":"1018 W 26TH ST"},"type":"Feature","geometry":{"type":"Point","coordinates":[-103.676416,41.87276]}},{"properties":{"ship_phone":"308-623-1771","city":"MITCHELL","name":"PUREGRO COMPANY","zip":"69361","st":"NE","comments":"PER REP","geo_score":0.492,"id":"a63gfz1hnev2","geo_precision":"street","address":"RT 1 BOX 219"},"type":"Feature","geometry":{"type":"Point","coordinates":[-103.661301,41.860293]}},{"properties":{"ship_phone":"308-632-2224","city":"SCOTTSBLUFF","name":"ENGSTROMS FERT.","zip":"69361","st":"NE","comments":"PER D LOCKEN","geo_score":0.514,"id":"a63gfz7lwoh4","geo_precision":"street","address":"1115 W. 26TH S."},"type":"Feature","geometry":{"type":"Point","coordinates":[-103.735133,41.910979]}},{"properties":{"ship_phone":"308-632-3414","city":"SCOTTSBLUFF","name":"WESTERN SUGAR COMPANY","zip":"69361","st":"NE","comments":null,"geo_score":0.756,"id":"a63gfyymtfob","geo_precision":"range","address":"2100 EAST OVERLAND PO BOX 1768"},"type":"Feature","geometry":{"type":"Point","coordinates":[-103.636332,41.859604]}},{"properties":{"ship_phone":"308-632-2712","city":"SCOTTSBLUFF","name":"F H SCHAFER ELEVATOR INC","zip":"69361","st":"NE","comments":"CLEAN","geo_score":0.87,"id":"a63gfyyyi4i0","geo_precision":"range","address":"909 SOUTH BROADWAY"},"type":"Feature","geometry":{"type":"Point","coordinates":[-103.662628,41.856026]}},{"properties":{"ship_phone":"308-630-5289","city":"SCOTTSBLUFF","name":"WILFARM L.L.C. C/O PANDHANDLE COOPERATIVE","zip":"69361","st":"NE","comments":"WAS FARMLAND 3204","geo_score":0.735,"id":"a63gfz0uoift","geo_precision":"range","address":"17 WEST 12TH"},"type":"Feature","geometry":{"type":"Point","coordinates":[-103.662932,41.85827]}},{"properties":{"ship_phone":"308-632-3041","city":"SCOTTSBLUFF","name":"PUEBLO CHEMICAL &amp; SUPPLY CO","zip":"69361","st":"NE","comments":"CLEAN","geo_score":0.585,"id":"a63gfyxueap6","geo_precision":"zip","address":"3010 IMIGRANT DRIVE"},"type":"Feature","geometry":{"type":"Point","coordinates":[-103.603554,41.861634]}}],"is_temporal":false,"author":{"url":"","metadata":"","contact_name":"","contact_address":"","source":"","contact_phone":""},"source":"","pagination":{"sort":null,"start":0,"total":313,"limit":1000000},"state":"complete","tags":"","published":"2014-08-10T21:39:25-04:00","id":87544}