{"type":"FeatureCollection","data_type":"Dataset","url_type":null,"permissions":[{"permissions":{"download":true,"view":true},"group_id":"everyone"}],"classification":null,"title":"western fertlizer plant data3","count":98,"stream_id":87551,"contributor":{"url":"http://geocommons.com/users/14766","name":"dpkennedy"},"data_attributes":null,"calculation_params":null,"icon_link":null,"link":"http://geocommons.com/overlays/87551.json","extent":[-97.8118,40.0075,-95.5172,42.177],"geometry_types":["point"],"unique_name":null,"name":"western fertlizer plant data3","feature_count":98,"description":"","next_feature":null,"is_raster":false,"short_classification":"Y","stats":{"id":{"max":2915,"mean":2866.5,"variance":808.5,"stdev":28.4341344162259,"min":2818,"median":2867}},"features":[{"properties":{"ship_phone":"402-988-3385","city":"ADAMS","name":"AF AGRONOMY SERVICE","zip":"68301","st":"NE","comments":"CLEAN","geo_score":0.614,"id":"a6awecwvnvsx","geo_precision":"street","address":"RT 1 BOX 181A"},"type":"Feature","geometry":{"type":"Point","coordinates":[-96.51592,40.595651]}},{"properties":{"ship_phone":"402-944-2436","city":"ASHLAND","name":"CEDAR RIDGE SPRAYING SERVICE INC.","zip":"68003","st":"NE","comments":null,"geo_score":0.457,"id":"a6awecssq9eg","geo_precision":"street","address":"RT 2"},"type":"Feature","geometry":{"type":"Point","coordinates":[-96.438811,41.68364]}},{"properties":{"ship_phone":"402-274-4417","city":"AUBURN","name":"DETTMER FARM SERVICE INC","zip":"68305","st":"NE","comments":null,"geo_score":0.919,"id":"a6awectiqa4z","geo_precision":"range","address":"905 CENTRAL AVENUE"},"type":"Feature","geometry":{"type":"Point","coordinates":[-95.837483,40.392812]}},{"properties":{"ship_phone":"402-274-3123","city":"AUBURN","name":"FARMERS COOPERATIVE OIL ASSOCIATION","zip":"68305","st":"NE","comments":null,"geo_score":0.919,"id":"a6awed078lt4","geo_precision":"range","address":"922 J STREET"},"type":"Feature","geometry":{"type":"Point","coordinates":[-95.8388,40.395695]}},{"properties":{"ship_phone":"402-275-3219","city":"AVOCA","name":"FLETCHER AGRI-SERVICE INC","zip":"68307","st":"NE","comments":"CLEAN/CUST","geo_score":0.408,"id":"a6awecx105k6","geo_precision":"street","address":"RURAL ROUTE 1 BOX 10"},"type":"Feature","geometry":{"type":"Point","coordinates":[-96.293726,40.841083]}},{"properties":{"ship_phone":"402-275-3746","city":"AVOCA","name":"HAUSCHILD FEED AND CONSTRUCTION","zip":"68307","st":"NE","comments":"PER SALES REP","geo_score":1.0,"id":"a6awed3c0una","geo_precision":"street","address":"MAIN STREET, BOX 695"},"type":"Feature","geometry":{"type":"Point","coordinates":[-96.117613,40.794765]}},{"properties":{"ship_phone":"402-787-3290","city":"AVOCA","name":"HALLAM GRAIN CO.","zip":"68368","st":"NE","comments":"DUPE OF 336580000","geo_score":0.881,"id":"a6awed6rgxi3","geo_precision":"street","address":"MAIN STREET"},"type":"Feature","geometry":{"type":"Point","coordinates":[-96.787577,40.537637]}},{"properties":{"ship_phone":"402-648-3346","city":"BANCROFT","name":"TERRA INTERNATIONAL INC","zip":"68004","st":"NE","comments":"PER M FRERICHS","geo_score":0.786,"id":"a6awecwqsd1w","geo_precision":"street","address":"HIGHWAY 16"},"type":"Feature","geometry":{"type":"Point","coordinates":[-96.559948,42.005174]}},{"properties":{"ship_phone":null,"city":"BEATRICE","name":"FARMERS COOP ELEVATOR","zip":"68310","st":"NE","comments":"PER REP DELETE   CLEAN","geo_score":0.693,"id":"a6awed241esx","geo_precision":"range","address":"RT. 3 BOX 61"},"type":"Feature","geometry":{"type":"Point","coordinates":[-96.784122,40.265529]}},{"properties":{"ship_phone":"402-228-3458","city":"BEATRICE","name":"SE NEBRASKA COOPERATIVE","zip":"68310","st":"NE","comments":"OWN BILL TO","geo_score":0.707,"id":"a6aweczlsk1e","geo_precision":"range","address":"403 SOUTH 3RD"},"type":"Feature","geometry":{"type":"Point","coordinates":[-96.750824,40.261932]}},{"properties":{"ship_phone":"402-228-3458","city":"BEATRICE","name":"SOUTHEAST NEBRASKA COOP CO","zip":"68310","st":"NE","comments":"CLEAN","geo_score":0.707,"id":"a6awed0bc9rv","geo_precision":"range","address":"403 SOUTH 3RD"},"type":"Feature","geometry":{"type":"Point","coordinates":[-96.750824,40.261932]}},{"properties":{"ship_phone":"402-732-6622","city":"BENEDICT","name":"UNITED COOPERATIVES INC","zip":"68316","st":"NE","comments":"WAS CUST 151","geo_score":0.754,"id":"a6awed5kz4zm","geo_precision":"street","address":"312 CROWNOVER"},"type":"Feature","geometry":{"type":"Point","coordinates":[-97.604879,41.006858]}},{"properties":{"ship_phone":"402-426-4241","city":"BLAIR","name":"P &amp; W INC","zip":"68008","st":"NE","comments":null,"geo_score":0.902,"id":"a6awecxespyt","geo_precision":"range","address":"1541 NEBRASKA STREET"},"type":"Feature","geometry":{"type":"Point","coordinates":[-96.134938,41.546873]}},{"properties":{"ship_phone":"402-362-6691","city":"BRADSHAW","name":"FARMERS COOPERATIVE ASSOCIATION","zip":"68319","st":"NE","comments":"PER BARB MCGINN","geo_score":0.854,"id":"a6awecuyiy1p","geo_precision":"range","address":"145 WEST RAILWAY"},"type":"Feature","geometry":{"type":"Point","coordinates":[-97.748037,40.882059]}},{"properties":{"ship_phone":"402-736-4333","city":"BRADSHAW","name":"CARGILL INC","zip":"68319","st":"NE","comments":"CLEAN","geo_score":0.912,"id":"a6awed16x4ih","geo_precision":"range","address":"340 EAST RAILWAY STREET"},"type":"Feature","geometry":{"type":"Point","coordinates":[-97.74406,40.882046]}},{"properties":{"ship_phone":"402-353-6175","city":"BRUNING","name":"NORDER AGRI-SUPPLY INC","zip":"68322","st":"NE","comments":"CLEAN","geo_score":0.902,"id":"a6awecrqjfmo","geo_precision":"range","address":"117 MAIN"},"type":"Feature","geometry":{"type":"Point","coordinates":[-97.572026,40.336196]}},{"properties":{"ship_phone":"402-848-2383","city":"BURR","name":"FARMERS COOP ELEVATOR CO","zip":"68324","st":"NE","comments":null,"geo_score":0.807,"id":"a6awed4euc54","geo_precision":"street","address":"300 MAIN ST"},"type":"Feature","geometry":{"type":"Point","coordinates":[-96.300035,40.535537]}},{"properties":{"ship_phone":"402-236-8611","city":"BYRON","name":"BIG BYRON AGRI SERVICES","zip":"68325","st":"NE","comments":"DELETE PER REP","geo_score":0.714,"id":"a6awed7f0zk4","geo_precision":"street","address":"EAST MAIN STREET"},"type":"Feature","geometry":{"type":"Point","coordinates":[-97.589394,40.636081]}},{"properties":{"ship_phone":"402-628-3065","city":"CEDAR BLUFFS","name":"FARMERS UNION COOP ASSOCIATION","zip":"68015","st":"NE","comments":null,"geo_score":0.723,"id":"a6aweczuok9i","geo_precision":"street","address":"205 S PARK"},"type":"Feature","geometry":{"type":"Point","coordinates":[-96.609179,41.393467]}},{"properties":{"ship_phone":"402-665-3451","city":"CERESCO","name":"JOHNSON FARM SERVICE INC","zip":"68017","st":"NE","comments":null,"geo_score":0.659,"id":"a6awecrqhvoo","geo_precision":"street","address":"216 EAST ELM"},"type":"Feature","geometry":{"type":"Point","coordinates":[-96.651421,41.057283]}},{"properties":{"ship_phone":"402-665-3101","city":"CERESCO","name":"FARMERS COOP ASSOCIATION","zip":"68017","st":"NE","comments":"INSUFFICIENT BUSINESS","geo_score":0.462,"id":"a6awecvybnsc","geo_precision":"street","address":"321 SOUTH 1ST"},"type":"Feature","geometry":{"type":"Point","coordinates":[-96.643188,41.057241]}},{"properties":{"ship_phone":"402-324-5771","city":"CHESTER","name":"BOETTCHER ENTERPRISES INC","zip":"68327","st":"NE","comments":null,"geo_score":0.916,"id":"a6awecws74zb","geo_precision":"range","address":"421 CROOP"},"type":"Feature","geometry":{"type":"Point","coordinates":[-97.616105,40.007457]}},{"properties":{"ship_phone":"402-377-2222","city":"CRAIG","name":"AGLAND COOPERATIVE","zip":"68019","st":"NE","comments":"NO NOT HANDLE CHEMICALS","geo_score":1.0,"id":"a6awed0zpkol","geo_precision":"street","address":"MAIN STREET"},"type":"Feature","geometry":{"type":"Point","coordinates":[-96.364076,41.786378]}},{"properties":{"ship_phone":"402-364-2125","city":"DAVENPORT","name":"SUPERIOR DESHLER CO INC","zip":"68335","st":"NE","comments":"CLEAN","geo_score":0.714,"id":"a6awed1f3kf2","geo_precision":"street","address":"MAIN STREET"},"type":"Feature","geometry":{"type":"Point","coordinates":[-96.387565,40.870892]}},{"properties":{"ship_phone":"402-785-2365","city":"DAVEY","name":"OTTE OIL &amp; CHEMICAL CO","zip":"68336","st":"NE","comments":null,"geo_score":0.805,"id":"a6awed4kivsw","geo_precision":"street","address":"3435 DAVEY ROAD"},"type":"Feature","geometry":{"type":"Point","coordinates":[-96.681361,40.987528]}},{"properties":{"ship_phone":"402-855-3895","city":"DAWSON","name":"WITTWER FERTILIZER SERVICE INC","zip":"68337","st":"NE","comments":"CLEAN","geo_score":0.816,"id":"a6awecv98qnb","geo_precision":"street","address":"HIGHWAY 75 SOUTH"},"type":"Feature","geometry":{"type":"Point","coordinates":[-95.830643,40.128615]}},{"properties":{"ship_phone":null,"city":"DAYKIN","name":"FARMERS COOP ELEVATOR","zip":"68338","st":"NE","comments":"CLEAN","geo_score":0.429,"id":"a6awecrwwb7d","geo_precision":"street","address":"P.O. BOX 128"},"type":"Feature","geometry":{"type":"Point","coordinates":[-96.444788,40.566457]}},{"properties":{"ship_phone":"402-349-5477","city":"DECATUR","name":"P &amp; W INC","zip":"68020","st":"NE","comments":null,"geo_score":0.619,"id":"a6awed12oy51","geo_precision":"street","address":"RURAL ROUTE 1"},"type":"Feature","geometry":{"type":"Point","coordinates":[-96.253836,42.013788]}},{"properties":{"ship_phone":"402-797-2525","city":"DENTON","name":"TED DEHASS &amp; SONS","zip":"68339","st":"NE","comments":"PER REP","geo_score":0.683,"id":"a6awecwoyk7y","geo_precision":"zip","address":"7030 SW 90TH STREET"},"type":"Feature","geometry":{"type":"Point","coordinates":[-96.850518,40.719464]}},{"properties":{"ship_phone":"402-365-7216","city":"DESHLER","name":"SUPERIOR DESHLER CO INC","zip":"68340","st":"NE","comments":null,"geo_score":0.607,"id":"a6awed2fab40","geo_precision":"street","address":"HIGHWAY 136"},"type":"Feature","geometry":{"type":"Point","coordinates":[-96.753475,40.26586]}},{"properties":{"ship_phone":"402-683-2075","city":"DEWITT","name":"TRI-COUNTY ELEVATOR","zip":"68341","st":"NE","comments":"PER REP DELETE","geo_score":0.586,"id":"a6awed2uahkf","geo_precision":"street","address":"102 NW RAILROAD"},"type":"Feature","geometry":{"type":"Point","coordinates":[-96.920311,40.397693]}},{"properties":{"ship_phone":"402-683-2075","city":"DEWITT","name":"TRI-COUNTY ELEVATOR","zip":"68341","st":"NE","comments":"PER BARB DUP S/T","geo_score":0.586,"id":"a6awectvx89m","geo_precision":"street","address":"102 NW RAILROAD"},"type":"Feature","geometry":{"type":"Point","coordinates":[-96.920311,40.397693]}},{"properties":{"ship_phone":"402-946-2211","city":"DORCHESTER","name":"DORCHESTER FARMERS COOPERATIVE","zip":"68343","st":"NE","comments":"CLEAN","geo_score":0.911,"id":"a6aweczn527u","geo_precision":"range","address":"208 N DEPOT STREET"},"type":"Feature","geometry":{"type":"Point","coordinates":[-97.111816,40.645134]}},{"properties":{"ship_phone":"402-781-2305","city":"EAGLE","name":"GREENWOOD FARMERS COOPERATIVE","zip":"68347","st":"NE","comments":"WAS FARMERS UNION COOP 4334","geo_score":0.837,"id":"a6awed0pbm9o","geo_precision":"range","address":"400 RAILWAY"},"type":"Feature","geometry":{"type":"Point","coordinates":[-96.430523,40.817833]}},{"properties":{"ship_phone":"402-877-2475","city":"ELK CREEK","name":"DILLER GRAIN CO INC DBA SEARCY GRAIN CO","zip":"68348","st":"NE","comments":"CLEAN","geo_score":0.878,"id":"a6awed07ldmk","geo_precision":"range","address":"425 ELK ST"},"type":"Feature","geometry":{"type":"Point","coordinates":[-96.128857,40.285539]}},{"properties":{"ship_phone":"402-994-2585","city":"ELMWOOD","name":"FARMERS COOPERATIVE ASSN","zip":"68349","st":"NE","comments":null,"geo_score":0.619,"id":"a6awecrubup6","geo_precision":"street","address":"RURAL ROUTE 1"},"type":"Feature","geometry":{"type":"Point","coordinates":[-96.298375,40.841581]}},{"properties":{"ship_phone":null,"city":"ELMWWOD","name":"FARMERS COOP ASSOC ELMWOOD","zip":"68349","st":"NE","comments":null,"geo_score":0.437,"id":"a6awecz8gvoe","geo_precision":"street","address":"304 S 3RD"},"type":"Feature","geometry":{"type":"Point","coordinates":[-96.295262,40.839237]}},{"properties":{"ship_phone":"402-266-5951","city":"EXETER","name":"DORCHESTER FARMERS COOPERATIVE","zip":"68351","st":"NE","comments":null,"geo_score":1.0,"id":"a6awecyq0ru9","geo_precision":"range","address":"134 SOUTH BURLINGTON AVENUE"},"type":"Feature","geometry":{"type":"Point","coordinates":[-97.448824,40.644867]}},{"properties":{"ship_phone":null,"city":"FAIRBURY","name":"FARMERS COOP ELEVATOR","zip":"68352","st":"NE","comments":"CLEAN","geo_score":0.514,"id":"a6awect3pz0q","geo_precision":"street","address":"5TH &amp; E"},"type":"Feature","geometry":{"type":"Point","coordinates":[-97.184007,40.136193]}},{"properties":{"ship_phone":null,"city":"FAIRBURY","name":"HALLAM GRAIN COMPANY","zip":"68352","st":"NE","comments":"OUT OF BUSINESS PER REP","geo_score":0.75,"id":"a6aweculaj38","geo_precision":"street","address":"SOUTH K STREET"},"type":"Feature","geometry":{"type":"Point","coordinates":[-97.171043,40.134091]}},{"properties":{"ship_phone":"402-729-3650","city":"FAIRBURY","name":"LAND O LAKES AG CENTER","zip":"68352","st":"NE","comments":null,"geo_score":0.5,"id":"a6awecudvaov","geo_precision":"street","address":"S HIGHWAY 15 BOX 536"},"type":"Feature","geometry":{"type":"Point","coordinates":[-97.171043,40.134091]}},{"properties":{"ship_phone":"402-245-4455","city":"FALLS CITY","name":"SUR-GRO FINANCE INC","zip":"68355","st":"NE","comments":"PER REP","geo_score":0.5,"id":"a6awecsx75y5","geo_precision":"street","address":"ROUTE 1"},"type":"Feature","geometry":{"type":"Point","coordinates":[-97.691381,40.698617]}},{"properties":{"ship_phone":"402-245-3435","city":"FALLS CITY","name":"SCHOLL FERTILIZER INC","zip":"68355","st":"NE","comments":null,"geo_score":0.73,"id":"a6awed4k1ixh","geo_precision":"street","address":"5TH AND WILSON STREET"},"type":"Feature","geometry":{"type":"Point","coordinates":[-95.597961,40.049661]}},{"properties":{"ship_phone":"402-245-4455","city":"FALLS CITY","name":"SUR-GRO FINANCE INC","zip":"68355","st":"NE","comments":"ENTERED IN ERROR","geo_score":0.873,"id":"a6aweczkwfwo","geo_precision":"zip","address":"GENERAL DELIVERY"},"type":"Feature","geometry":{"type":"Point","coordinates":[-95.517205,40.034447]}},{"properties":{"ship_phone":"402-245-4455","city":"FALLS CITY","name":"SUR-GRO FINANCE CO","zip":"68355","st":"NE","comments":null,"geo_score":0.825,"id":"a6awed4p6efg","geo_precision":"street","address":"SOUTH FULTON ST"},"type":"Feature","geometry":{"type":"Point","coordinates":[-95.595619,40.049217]}},{"properties":{"ship_phone":"402-721-7601","city":"FREMONT","name":"RAWHIDE CHEMOIL","zip":"68025","st":"NE","comments":"CLEAN","geo_score":0.648,"id":"a6awecsqgr5r","geo_precision":"street","address":"RURAL ROUTE 1 RIDGE ROAD"},"type":"Feature","geometry":{"type":"Point","coordinates":[-96.52153,41.422816]}},{"properties":{"ship_phone":"402-721-5164","city":"FREMONT","name":"FREMONT FARMERS UNION COOP ASSN","zip":"68025","st":"NE","comments":"CLEAN","geo_score":0.866,"id":"a6awecren7xb","geo_precision":"range","address":"209 EAST JACKSON"},"type":"Feature","geometry":{"type":"Point","coordinates":[-96.496488,41.427067]}},{"properties":{"ship_phone":"402-727-9177","city":"FREMONT","name":"HELENA CHEMICAL / MIDWEST DIVISION","zip":"68025","st":"NE","comments":"CLEAN","geo_score":0.782,"id":"a6awecuka1sw","geo_precision":"street","address":"EAST HIGHWAY 275"},"type":"Feature","geometry":{"type":"Point","coordinates":[-96.483508,41.428396]}},{"properties":{"ship_phone":"402-727-5550","city":"FREMONT","name":"MIDWEST VALLEY CHEMICAL CO","zip":"68025","st":"NE","comments":"CLEAN","geo_score":0.844,"id":"a6awed6bzgxi","geo_precision":"range","address":"725 SOUTH SCHNEIDER"},"type":"Feature","geometry":{"type":"Point","coordinates":[-96.490133,41.423887]}},{"properties":{"ship_phone":"402-947-2681","city":"FRIEND","name":"FRIEND FERTILIZER INC","zip":"68359","st":"NE","comments":null,"geo_score":0.571,"id":"a6awed71uiuy","geo_precision":"street","address":"RR 1"},"type":"Feature","geometry":{"type":"Point","coordinates":[-97.292667,40.654441]}},{"properties":{"ship_phone":"402-947-4211","city":"FRIEND","name":"FARMERS COOP GAS &amp; OIL CO","zip":"68359","st":"NE","comments":null,"geo_score":0.633,"id":"a6awed3v28n2","geo_precision":"street","address":"RR 1 BOX 2"},"type":"Feature","geometry":{"type":"Point","coordinates":[-97.292667,40.654441]}},{"properties":{"ship_phone":"402-947-2681","city":"FRIEND","name":"FRIEND FERTILIZER INC","zip":"68359","st":"NE","comments":"CUSTOMER REQUEST","geo_score":0.947,"id":"a6aweczdnb6t","geo_precision":"range","address":"102 NORTH CHESTNUT"},"type":"Feature","geometry":{"type":"Point","coordinates":[-97.28495,40.655592]}},{"properties":{"ship_phone":"402-759-4386","city":"GENEVA","name":"CHANEY CHEMICAL INC","zip":"68361","st":"NE","comments":null,"geo_score":0.592,"id":"a6awecsb6y0p","geo_precision":"street","address":"NORTH HIGHWAY 81"},"type":"Feature","geometry":{"type":"Point","coordinates":[-97.595898,40.669188]}},{"properties":{"ship_phone":"402-759-3131","city":"GENEVA","name":"B H &amp; L","zip":"68361","st":"NE","comments":"WAS GRAFTON,NE","geo_score":1.0,"id":"a6awecucfc88","geo_precision":"range","address":"703 G STREET"},"type":"Feature","geometry":{"type":"Point","coordinates":[-97.606178,40.525706]}},{"properties":{"ship_phone":"402-789-2335","city":"GREENWOOD","name":"GREENWOOD FARMERS COOPERATIVE","zip":"68366","st":"NE","comments":null,"geo_score":0.857,"id":"a6awed7boncg","geo_precision":"street","address":"HIGHWAY 6 &amp; MAIN"},"type":"Feature","geometry":{"type":"Point","coordinates":[-96.446337,40.962759]}},{"properties":{"ship_phone":"402-735-7266","city":"GRESHAM","name":"SHELBY COOPERATIVE","zip":"68367","st":"NE","comments":"PER CUSTOMER","geo_score":0.805,"id":"a6awecx9k9lm","geo_precision":"range","address":"200 NORTH MAIN STREET"},"type":"Feature","geometry":{"type":"Point","coordinates":[-97.28768,40.656772]}},{"properties":{"ship_phone":"402-332-3284","city":"GRETNA","name":"COCKERILL FERTILIZER","zip":"68028","st":"NE","comments":"LOCATION CLOSED","geo_score":1.0,"id":"a6awecx598k9","geo_precision":"range","address":"820 BURNS PLACE"},"type":"Feature","geometry":{"type":"Point","coordinates":[-96.249455,41.141857]}},{"properties":{"ship_phone":"402-332-3315","city":"GRETNA","name":"FARMERS UNION COOP ASSOC","zip":"68028","st":"NE","comments":null,"geo_score":0.481,"id":"a6awed4wg85d","geo_precision":"street","address":"RAILROAD AVENUE"},"type":"Feature","geometry":{"type":"Point","coordinates":[-96.237119,41.282374]}},{"properties":{"ship_phone":"402-787-3290","city":"HALLAM","name":"HALLAM GRAIN COMPANY","zip":"68368","st":"NE","comments":null,"geo_score":0.902,"id":"a6aweczhqc6j","geo_precision":"street","address":"400 MAIN STREET"},"type":"Feature","geometry":{"type":"Point","coordinates":[-96.787532,40.537637]}},{"properties":{"ship_phone":"402-787-2121","city":"HALLAM","name":"CORNBELT CHEMICAL CORPORATION","zip":"68368","st":"NE","comments":"PER AGENT MGR","geo_score":1.0,"id":"a6awecvgr6dg","geo_precision":"street","address":"MAIN STREET"},"type":"Feature","geometry":{"type":"Point","coordinates":[-96.787577,40.537637]}},{"properties":{"ship_phone":null,"city":"HEBRON","name":"NORDER AGRI-GRAIN INC","zip":"68370","st":"NE","comments":null,"geo_score":0.347,"id":"a6awecw9g9s8","geo_precision":"street","address":"BOX 143"},"type":"Feature","geometry":{"type":"Point","coordinates":[-97.331235,40.059763]}},{"properties":{"ship_phone":"402-723-5744","city":"HENDERSON","name":"HENDERSON COMMUNITY COOP","zip":"68371","st":"NE","comments":null,"geo_score":0.705,"id":"a6aweczvke5v","geo_precision":"range","address":"1101 14TH STREET"},"type":"Feature","geometry":{"type":"Point","coordinates":[-97.811156,40.780986]}},{"properties":{"ship_phone":"402-723-4651","city":"HENDERSON","name":"WESTERN PV &amp; GAS INC","zip":"68371","st":"NE","comments":"D LOCKEN/SOLD BUSINESS","geo_score":0.744,"id":"a6awed256xej","geo_precision":"range","address":"400 SOUTH MAIN PO BOX 444"},"type":"Feature","geometry":{"type":"Point","coordinates":[-97.811798,40.775115]}},{"properties":{"ship_phone":"402-723-5824","city":"HENDERSON","name":"CENTRAL IRRIGATION &amp; FERTILIZER CORP.","zip":"68371","st":"NE","comments":null,"geo_score":0.632,"id":"a6awecy0ibyy","geo_precision":"street","address":"W OAK"},"type":"Feature","geometry":{"type":"Point","coordinates":[-97.808219,40.785472]}},{"properties":{"ship_phone":"402-456-7707","city":"HERMAN","name":"SCOULAR ELEVATOR","zip":"68029","st":"NE","comments":null,"geo_score":0.878,"id":"a6awed3h60mn","geo_precision":"street","address":"HIGHWAY 75"},"type":"Feature","geometry":{"type":"Point","coordinates":[-96.214472,41.672602]}},{"properties":{"ship_phone":"402-456-7716","city":"HERMAN","name":"P &amp; W INC","zip":"68029","st":"NE","comments":null,"geo_score":1.0,"id":"a6awecufxckh","geo_precision":"street","address":"MAIN STREET"},"type":"Feature","geometry":{"type":"Point","coordinates":[-96.216977,41.675891]}},{"properties":{"ship_phone":"402-654-3323","city":"HOOPER","name":"ELKHORN VALLEY COOPERATIVE","zip":"68031","st":"NE","comments":"CLEAN","geo_score":0.935,"id":"a6awecutrhcn","geo_precision":"range","address":"204 WEST FULTON"},"type":"Feature","geometry":{"type":"Point","coordinates":[-96.548962,41.610994]}},{"properties":{"ship_phone":null,"city":"HUBBEL","name":"HUBBEL FARMERS ELEVATOR CO","zip":"68375","st":"NE","comments":null,"geo_score":0.5,"id":"a6awecvbhkxf","geo_precision":"street","address":"BOX 26"},"type":"Feature","geometry":{"type":"Point","coordinates":[-96.217565,40.533667]}},{"properties":{"ship_phone":null,"city":"HUBBEL","name":"HUBBEL FARMERS ELEVATOR CO","zip":"68375","st":"NE","comments":"DUP OF 150234","geo_score":0.5,"id":"a6awecr36cyd","geo_precision":"street","address":"BOX 26"},"type":"Feature","geometry":{"type":"Point","coordinates":[-96.217565,40.533667]}},{"properties":{"ship_phone":"402-862-2025","city":"HUMBOLDT","name":"HUMBOLDT FARM SERVICE INC","zip":"68376","st":"NE","comments":null,"geo_score":0.967,"id":"a6awecyoau6s","geo_precision":"range","address":"221 SOUTH NEMAHA ST"},"type":"Feature","geometry":{"type":"Point","coordinates":[-95.944873,40.162255]}},{"properties":{"ship_phone":null,"city":"JANSEN","name":"FARMERS ELEVATOR COOPERATIVE COMPANY","zip":"68377","st":"NE","comments":null,"geo_score":0.898,"id":"a6aweczp55yy","geo_precision":"street","address":"MAIN STREET"},"type":"Feature","geometry":{"type":"Point","coordinates":[-96.975772,40.19114]}},{"properties":{"ship_phone":"402-687-2648","city":"LYONS","name":"LOGAN VALLEY FERTILIZER COMPANY","zip":"68038","st":"NE","comments":null,"geo_score":0.902,"id":"a6awecyzul5x","geo_precision":"range","address":"515 SOUTH 2ND STREET"},"type":"Feature","geometry":{"type":"Point","coordinates":[-96.477293,41.933432]}},{"properties":{"ship_phone":"402-721-5164","city":"MEAD","name":"FREMONT FARMERS COOPERATIVE ASSOCIATION","zip":"68044","st":"NE","comments":"PER CUSTOMER","geo_score":0.571,"id":"a6awectxpn4o","geo_precision":"street","address":"RR 1"},"type":"Feature","geometry":{"type":"Point","coordinates":[-96.743378,41.989112]}},{"properties":{"ship_phone":null,"city":"NEHAWKA","name":"FARMLAND INDUSTRIES INC","zip":"68143","st":"NE","comments":"PER CUSTOMER REQUEST","geo_score":0.429,"id":"a6awecz069rf","geo_precision":"street","address":"OPI WAREHOUSE MAIN STREET"},"type":"Feature","geometry":{"type":"Point","coordinates":[-96.025393,41.20202]}},{"properties":{"ship_phone":"402-721-5164","city":"NICKERSON","name":"FREMONT FARMERS COOPERATIVE ASSOCIATION","zip":"68044","st":"NE","comments":"PER CUSTOMER","geo_score":0.571,"id":"a6awed3v4j5g","geo_precision":"street","address":"RR 1"},"type":"Feature","geometry":{"type":"Point","coordinates":[-96.743378,41.989112]}},{"properties":{"ship_phone":"402-685-5665","city":"OAKLAND","name":"AGLAND COOPERATIVE","zip":"68045","st":"NE","comments":"CLEAN","geo_score":0.902,"id":"a6awecuubme8","geo_precision":"range","address":"611 NORTH LOGAN"},"type":"Feature","geometry":{"type":"Point","coordinates":[-96.468973,41.838849]}},{"properties":{"ship_phone":"402-685-6206","city":"OAKLAND","name":"LARSON FARM SERVICES","zip":"68045","st":"NE","comments":null,"geo_score":0.805,"id":"a6awecuho0am","geo_precision":"range","address":"100 EAST 9TH"},"type":"Feature","geometry":{"type":"Point","coordinates":[-96.466685,41.843267]}},{"properties":{"ship_phone":"402-342-3500","city":"OMAHA","name":"SCOULAR GRAIN COMPANY","zip":"68102","st":"NE","comments":"PER REP/GAIL DELETE","geo_score":1.0,"id":"a6awed75h5uk","geo_precision":"range","address":"2027 DODGE STREET"},"type":"Feature","geometry":{"type":"Point","coordinates":[-95.94248,41.25975]}},{"properties":{"ship_phone":"402-339-6900","city":"OMAHA","name":"MILLER CHEMICAL","zip":"68127","st":"NE","comments":"PER REP","geo_score":0.902,"id":"a6awecx5wotz","geo_precision":"range","address":"10325 J ST."},"type":"Feature","geometry":{"type":"Point","coordinates":[-96.073669,41.214213]}},{"properties":{"ship_phone":"402-339-4471","city":"PAPILLION","name":"K &amp; M AGRI SUPPLY","zip":"68128","st":"NE","comments":null,"geo_score":0.562,"id":"a6awecu8ch1x","geo_precision":"street","address":"13712 S 84TH"},"type":"Feature","geometry":{"type":"Point","coordinates":[-96.042992,41.176327]}},{"properties":{"ship_phone":"402-385-3003","city":"PENDER","name":"HEESE PRODUCE COMPANY","zip":"68047","st":"NE","comments":"PLACED FOR COLLECTION","geo_score":0.702,"id":"a6awecw25q1r","geo_precision":"range","address":"112 NORTH 4TH STREET"},"type":"Feature","geometry":{"type":"Point","coordinates":[-96.707127,42.113943]}},{"properties":{"ship_phone":"402-385-2206","city":"PENDER","name":"KRUSEMARK AG INC","zip":"68047","st":"NE","comments":"CLEAN","geo_score":0.667,"id":"a6awecv01njn","geo_precision":"street","address":"RURAL ROUTE 3"},"type":"Feature","geometry":{"type":"Point","coordinates":[-96.705779,42.114073]}},{"properties":{"ship_phone":"402-298-8550","city":"PLATTSMOUTH","name":"WILES BROS INC","zip":"68048","st":"NE","comments":null,"geo_score":0.866,"id":"a6awed60vtx8","geo_precision":"range","address":"606 WILES ROAD"},"type":"Feature","geometry":{"type":"Point","coordinates":[-95.902709,40.985179]}},{"properties":{"ship_phone":"402-664-2501","city":"SCRIBNER","name":"SCRIBNER GRAIN AND LUMBER CO","zip":"68057","st":"NE","comments":"CLEAN","geo_score":0.786,"id":"a6awecwndce0","geo_precision":"street","address":"HIGHWAY 275"},"type":"Feature","geometry":{"type":"Point","coordinates":[-96.670323,41.667705]}},{"properties":{"ship_phone":"402-374-2180","city":"TEKAMAH","name":"AGLAND COOPERATIVE","zip":"68061","st":"NE","comments":"WAS 2903 DOUBLE CIRCLE","geo_score":1.0,"id":"a6awed4tw4kh","geo_precision":"street","address":"B STREET"},"type":"Feature","geometry":{"type":"Point","coordinates":[-96.221904,41.767103]}},{"properties":{"ship_phone":"402-374-2275","city":"TEKAMAH","name":"GREAT PLAINS SERVICE INC DBA MIDWEST SERVICE CO","zip":"68061","st":"NE","comments":"CLEAN","geo_score":0.916,"id":"a6awecw36q7a","geo_precision":"range","address":"620 SOUTH 13TH ST"},"type":"Feature","geometry":{"type":"Point","coordinates":[-96.221339,41.772473]}},{"properties":{"ship_phone":"402-374-1344","city":"TEKAMAH","name":"P &amp; W INC","zip":"68061","st":"NE","comments":null,"geo_score":0.667,"id":"a6awed5ckb46","geo_precision":"street","address":"RURAL ROUTE 1"},"type":"Feature","geometry":{"type":"Point","coordinates":[-96.086781,41.713553]}},{"properties":{"ship_phone":"402-385-3025","city":"THURSTON","name":"KOCH AGRI SERVICES INC","zip":"68062","st":"NE","comments":"WAS THURSTON AGRI   CLEAN","geo_score":0.521,"id":"a6awecv3yxls","geo_precision":"street","address":"605 W LEMON"},"type":"Feature","geometry":{"type":"Point","coordinates":[-96.69956,42.17704]}},{"properties":{"ship_phone":"402-567-2323","city":"UEHLING","name":"TERRA INTERNATIONAL INC","zip":"68063","st":"NE","comments":"WAS 3565","geo_score":1.0,"id":"a6awed331j0q","geo_precision":"street","address":"MAIN STREET"},"type":"Feature","geometry":{"type":"Point","coordinates":[-96.50511,41.733084]}},{"properties":{"ship_phone":"402-567-2253","city":"UEHLING","name":"AGLAND COOPERATIVE","zip":"68063","st":"NE","comments":null,"geo_score":1.0,"id":"a6awed15xpeb","geo_precision":"street","address":"MAIN STREET"},"type":"Feature","geometry":{"type":"Point","coordinates":[-96.50511,41.733084]}},{"properties":{"ship_phone":"402-784-3581","city":"VALPARAISO","name":"BENES SERVICE COMPANY INC","zip":"68065","st":"NE","comments":"DELETE PER CUST REQ/PER REP","geo_score":0.468,"id":"a6awectd6b94","geo_precision":"street","address":"4 MILES W OF VALPARAISO ON 66"},"type":"Feature","geometry":{"type":"Point","coordinates":[-96.947049,41.075137]}},{"properties":{"ship_phone":"402-443-3112","city":"WAHOO","name":"FARMERS COOP ASSN. OF SAUNDERS COUNTY","zip":"68066","st":"NE","comments":null,"geo_score":0.825,"id":"a6awecrxvsmj","geo_precision":"street","address":"ORANGE ST"},"type":"Feature","geometry":{"type":"Point","coordinates":[-96.614928,41.206029]}},{"properties":{"ship_phone":"402-443-4522","city":"WAHOO","name":"OTTE OIL &amp; CHEMICAL CO","zip":"68066","st":"NE","comments":null,"geo_score":0.86,"id":"a6awed55rwon","geo_precision":"range","address":"1490 NORTH CHESTNUT"},"type":"Feature","geometry":{"type":"Point","coordinates":[-96.621666,41.219479]}},{"properties":{"ship_phone":"402-443-4255","city":"WAHOO","name":"KRUMEL GRAIN","zip":"68066","st":"NE","comments":"LOST LEASE PER REP","geo_score":0.516,"id":"a6awed2tkhrl","geo_precision":"street","address":"ROUTE 1"},"type":"Feature","geometry":{"type":"Point","coordinates":[-96.621292,41.206151]}},{"properties":{"ship_phone":"402-846-5969","city":"WALTHILL","name":"COONEY FERTILIZER INC","zip":"68067","st":"NE","comments":null,"geo_score":0.571,"id":"a6awecvi06cg","geo_precision":"street","address":"RR 1"},"type":"Feature","geometry":{"type":"Point","coordinates":[-96.493166,42.146913]}},{"properties":{"ship_phone":"402-846-5969","city":"WALTHILL","name":"COONEY FERTILIZER INC","zip":"68067","st":"NE","comments":"CLEAN","geo_score":0.619,"id":"a6awecxl4fcv","geo_precision":"street","address":"RR 1 BOX 165"},"type":"Feature","geometry":{"type":"Point","coordinates":[-96.493166,42.146913]}},{"properties":{"ship_phone":"402-779-2929","city":"WATERLOO","name":"MONKE BROTHERS FERT CO","zip":"68069","st":"NE","comments":null,"geo_score":0.915,"id":"a6awed33jyz4","geo_precision":"range","address":"301 N FRONT STREET"},"type":"Feature","geometry":{"type":"Point","coordinates":[-96.285685,41.28713]}},{"properties":{"ship_phone":null,"city":"WILBUR","name":"FARMERS ELEVATOR COOPERATIVE COMPANY","zip":"68328","st":"NE","comments":null,"geo_score":0.714,"id":"a6awecwd3qi2","geo_precision":"street","address":"MAIN STREET"},"type":"Feature","geometry":{"type":"Point","coordinates":[-96.387565,40.870892]}}],"is_temporal":false,"author":{"url":"","metadata":"","contact_name":"","contact_address":"","source":"","contact_phone":""},"source":"","pagination":{"sort":null,"start":0,"total":98,"limit":1000000},"state":"complete","tags":"","published":"2014-08-10T21:40:35-04:00","id":87551}