{"type":"FeatureCollection","data_type":"Dataset","url_type":null,"permissions":[{"permissions":{"download":true,"view":true},"group_id":"everyone"}],"classification":null,"title":"publiclibraries.com, Colorado Public Libraries, Colorado, 1.2008","count":247,"stream_id":878,"contributor":{"url":"http://geocommons.com/users/2","name":"data"},"data_attributes":null,"calculation_params":null,"icon_link":null,"link":"http://geocommons.com/overlays/878.json","extent":[-109.014,37.1165,-102.122,40.9885],"geometry_types":["point"],"unique_name":null,"name":"publiclibraries.com, Colorado Public Libraries, Colorado, 1.2008","feature_count":247,"description":"This dataset displays the locations of all the public libraries in the state of Colorado. The data included is the name of the library, name of the library system, library's address, phone, and lat/lon coordinates. The data came from publiclibraries.com which is a updated directory of all the public libraries throughout the United States.\n","next_feature":null,"is_raster":false,"short_classification":"Y","stats":{"lon":{"max":-102.122363,"mean":-105.533817574899,"variance":2.45341944747971,"stdev":1.56633950581594,"min":-109.013704,"median":-105.051692},"lat":{"max":40.988519,"mean":39.2377215910931,"variance":0.864453592459925,"stdev":0.929759964969414,"min":37.11649,"median":39.571549}},"features":[{"properties":{"city":"Westminster","lon":-105.025912,"zip":"","librarysystem":"Westminster Public Library","id":"a62g1f1fzoi5","address":"3031 West 76th Avenue","lat":39.834642,"libraryname":"76th Avenue Branch","state":"CO"},"type":"Feature","geometry":{"type":"Point","coordinates":[-105.025912,39.834642]}},{"properties":{"city":"Dove Creek","lon":-108.904166,"zip":"","librarysystem":"Dolores County School/Public Library","id":"a62g1f0gussx","address":"457 Main","lat":37.76587,"libraryname":"Adult/High School Branch","state":"CO"},"type":"Feature","geometry":{"type":"Point","coordinates":[-108.904166,37.76587]}},{"properties":{"city":"Aguilar","lon":-104.643019,"zip":"","librarysystem":"Aguilar Public Library","id":"a62g1eqze7as","address":"146 W. Main Street","lat":37.40039,"libraryname":"Aguilar Public Library","state":"CO"},"type":"Feature","geometry":{"type":"Point","coordinates":[-104.643019,37.40039]}},{"properties":{"city":"Akron","lon":-103.212679,"zip":"","librarysystem":"Akron Public Library","id":"a62g1ev4obh8","address":"302 Main Street","lat":40.161238,"libraryname":"Akron Public Library","state":"CO"},"type":"Feature","geometry":{"type":"Point","coordinates":[-103.212679,40.161238]}},{"properties":{"city":"Englewood","lon":-104.839828,"zip":"","librarysystem":"Arapahoe Library District","id":"a62g1f319csz","address":"12855 East Adam Aircraft Circle","lat":39.577829,"libraryname":"Arapahoe Library District","state":"CO"},"type":"Feature","geometry":{"type":"Point","coordinates":[-104.839828,39.577829]}},{"properties":{"city":"Arvada","lon":-105.080511,"zip":"","librarysystem":"Jefferson County Public Library","id":"a62g1eq67axe","address":"7525 W. 57th Avenue","lat":39.800315,"libraryname":"Arvada Library","state":"CO"},"type":"Feature","geometry":{"type":"Point","coordinates":[-105.080511,39.800315]}},{"properties":{"city":"Denver","lon":-105.0129,"zip":"","librarysystem":"Denver Public Library","id":"a62g1eoqpd0a","address":"1055 S. Tejon Street","lat":39.697472,"libraryname":"Athmar Park Branch","state":"CO"},"type":"Feature","geometry":{"type":"Point","coordinates":[-105.0129,39.697472]}},{"properties":{"city":"Aurora","lon":-104.814916,"zip":"","librarysystem":"Aurora Public Library","id":"a62g1es3kokd","address":"14949 East Alameda Parkway","lat":39.709788,"libraryname":"Aurora Public Library","state":"CO"},"type":"Feature","geometry":{"type":"Point","coordinates":[-104.814916,39.709788]}},{"properties":{"city":"Avon","lon":-106.525308,"zip":"","librarysystem":"Eagle Valley Library District","id":"a62g1ezpgj1b","address":"0200 Benchmark Rd","lat":39.637109,"libraryname":"Avon Branch Library","state":"CO"},"type":"Feature","geometry":{"type":"Point","coordinates":[-106.525308,39.637109]}},{"properties":{"city":"Springfield","lon":-102.616694,"zip":"","librarysystem":"Baca County Public Library","id":"a62g1eto40df","address":"733 Main Street","lat":37.406785,"libraryname":"Baca County Public Library","state":"CO"},"type":"Feature","geometry":{"type":"Point","coordinates":[-102.616694,37.406785]}},{"properties":{"city":"Pueblo","lon":-104.59508,"zip":"","librarysystem":"Pueblo City-County Library District","id":"a62g1eoa15d0","address":"1300 Jerry Murphy Road","lat":38.28992,"libraryname":"Barkman Branch Library","state":"CO"},"type":"Feature","geometry":{"type":"Point","coordinates":[-104.59508,38.28992]}},{"properties":{"city":"Basalt","lon":-107.034436,"zip":"","librarysystem":"Basalt Regional Library District","id":"a62g1enpug6c","address":"99 Midland Avenue","lat":39.368887,"libraryname":"Basalt Regional Library District","state":"CO"},"type":"Feature","geometry":{"type":"Point","coordinates":[-107.034436,39.368887]}},{"properties":{"city":"Denver","lon":-105.051692,"zip":"","librarysystem":"Denver Public Library","id":"a62g1esntj2i","address":"5171 West Dartmouth Avenue","lat":39.656296,"libraryname":"Bear Valley Branch","state":"CO"},"type":"Feature","geometry":{"type":"Point","coordinates":[-105.051692,39.656296]}},{"properties":{"city":"Lakewood","lon":-105.083376,"zip":"","librarysystem":"Jefferson County Public Library","id":"a62g1eyjendd","address":"555 South Allison Parkway","lat":39.706828,"libraryname":"Belmar Library","state":"CO"},"type":"Feature","geometry":{"type":"Point","coordinates":[-105.083376,39.706828]}},{"properties":{"city":"Littleton","lon":-105.004264,"zip":"","librarysystem":"Bemis Public Library","id":"a62g1eppx7r9","address":"6014 South Datura Street","lat":39.607508,"libraryname":"Bemis Public Library","state":"CO"},"type":"Feature","geometry":{"type":"Point","coordinates":[-105.004264,39.607508]}},{"properties":{"city":"Bennett","lon":-104.425564,"zip":"","librarysystem":"Rangeview Library District","id":"a62g1eurkgan","address":"495 7th Street","lat":39.759339,"libraryname":"Bennett Branch Library","state":"CO"},"type":"Feature","geometry":{"type":"Point","coordinates":[-104.425564,39.759339]}},{"properties":{"city":"Las Animas","lon":-103.220163,"zip":"","librarysystem":"Bent County Library District","id":"a62g1etfbn6g","address":"306 Fifth Street","lat":38.067794,"libraryname":"Bent County Library District","state":"CO"},"type":"Feature","geometry":{"type":"Point","coordinates":[-103.220163,38.067794]}},{"properties":{"city":"Berthoud","lon":-105.077342,"zip":"","librarysystem":"Berthoud Public Library","id":"a62g1f21iygq","address":"236 Welch Avenue","lat":40.304321,"libraryname":"Berthoud Public Library","state":"CO"},"type":"Feature","geometry":{"type":"Point","coordinates":[-105.077342,40.304321]}},{"properties":{"city":"Denver","lon":-104.981643,"zip":"","librarysystem":"Denver Public Library","id":"a62g1eo4e3a6","address":"2401 Welton Street","lat":39.752189,"libraryname":"Blair-Caldwell Library","state":"CO"},"type":"Feature","geometry":{"type":"Point","coordinates":[-104.981643,39.752189]}},{"properties":{"city":"Boulder","lon":-105.281859,"zip":"","librarysystem":"Boulder Public Library","id":"a62g1eyk500u","address":"1000 Canyon Boulevard","lat":40.015162,"libraryname":"Boulder Public Library","state":"CO"},"type":"Feature","geometry":{"type":"Point","coordinates":[-105.281859,40.015162]}},{"properties":{"city":"Brighton","lon":-104.812684,"zip":"","librarysystem":"Rangeview Library District","id":"a62g1etttyy4","address":"575 South 8th Avenue","lat":39.978011,"libraryname":"Brighton Branch Library","state":"CO"},"type":"Feature","geometry":{"type":"Point","coordinates":[-104.812684,39.978011]}},{"properties":{"city":"Steamboat Springs","lon":-106.840451,"zip":"","librarysystem":"Bud Werner Memorial Library","id":"a62g1eqcjfki","address":"1289 Lincoln Avenue","lat":40.489471,"libraryname":"Bud Werner Memorial Library","state":"CO"},"type":"Feature","geometry":{"type":"Point","coordinates":[-106.840451,40.489471]}},{"properties":{"city":"Burlington","lon":-102.268164,"zip":"","librarysystem":"Burlington Public Library","id":"a62g1er21zva","address":"321 14th Street","lat":39.303744,"libraryname":"Burlington Public Library","state":"CO"},"type":"Feature","geometry":{"type":"Point","coordinates":[-102.268164,39.303744]}},{"properties":{"city":"Denver","lon":-104.998778,"zip":"","librarysystem":"Denver Public Library","id":"a62g1epde8rp","address":"675 Santa Fe Drive","lat":39.726833,"libraryname":"Byers Library","state":"CO"},"type":"Feature","geometry":{"type":"Point","coordinates":[-104.998778,39.726833]}},{"properties":{"city":"Canon City","lon":-105.240901,"zip":"","librarysystem":"Canon City public Library","id":"a62g1f3aju9w","address":"516 Macon Avenue","lat":38.441349,"libraryname":"Canon City public Library","state":"CO"},"type":"Feature","geometry":{"type":"Point","coordinates":[-105.240901,38.441349]}},{"properties":{"city":"Frederick","lon":-104.933204,"zip":"","librarysystem":"Weld Library District","id":"a62g1ex83qfj","address":"320 Maple St. #B","lat":40.100168,"libraryname":"Carbon Valley Branch Library","state":"CO"},"type":"Feature","geometry":{"type":"Point","coordinates":[-104.933204,40.100168]}},{"properties":{"city":"Boulder","lon":-105.413671,"zip":"","librarysystem":"Boulder Public Library","id":"a62g1f41u705","address":"1125 Pine Street","lat":40.063495,"libraryname":"Carnegie Branch For Local History","state":"CO"},"type":"Feature","geometry":{"type":"Point","coordinates":[-105.413671,40.063495]}},{"properties":{"city":"Centennial","lon":-104.893584,"zip":"","librarysystem":"Arapahoe Library District","id":"a62g1eya9kjh","address":"6739 South Uinta Street","lat":39.594753,"libraryname":"Castlewood Library","state":"CO"},"type":"Feature","geometry":{"type":"Point","coordinates":[-104.893584,39.594753]}},{"properties":{"city":"Cedaredge","lon":-107.925132,"zip":"","librarysystem":"Delta County Public Library District","id":"a62g1ez2z88n","address":"140 North East Second Street","lat":38.90124,"libraryname":"Cedaredge Public Library","state":"CO"},"type":"Feature","geometry":{"type":"Point","coordinates":[-107.925132,38.90124]}},{"properties":{"city":"Greeley","lon":-104.716026,"zip":"","librarysystem":"Weld Library District","id":"a62g1eojx6e9","address":"2227 23rd Avenue","lat":40.402131,"libraryname":"Centennial Park Branch","state":"CO"},"type":"Feature","geometry":{"type":"Point","coordinates":[-104.716026,40.402131]}},{"properties":{"city":"Center","lon":-106.108273,"zip":"","librarysystem":"Saguache County Public Library","id":"a62g1eqnj0gt","address":"400 South Worth","lat":37.752231,"libraryname":"Center Public Library","state":"CO"},"type":"Feature","geometry":{"type":"Point","coordinates":[-106.108273,37.752231]}},{"properties":{"city":"Aurora","lon":-104.813269,"zip":"","librarysystem":"Aurora Public Library","id":"a62g1f19x2ln","address":"15057 Colfax Avenue","lat":39.740285,"libraryname":"Chambers Plaza Library","state":"CO"},"type":"Feature","geometry":{"type":"Point","coordinates":[-104.813269,39.740285]}},{"properties":{"city":"Colorado Springs","lon":-104.840675,"zip":"","librarysystem":"Pikes Peak Library District","id":"a62g1evdj6yx","address":"1785 South 8th Street, Suite 100","lat":38.804737,"libraryname":"Cheyenne Mountain Branch","state":"CO"},"type":"Feature","geometry":{"type":"Point","coordinates":[-104.840675,38.804737]}},{"properties":{"city":"Dove Creek","lon":-108.903771,"zip":"","librarysystem":"Dolores County School/Public Library","id":"a62g1euhkb0s","address":"720 Main","lat":37.768923,"libraryname":"Children/Elementary School Branch","state":"CO"},"type":"Feature","geometry":{"type":"Point","coordinates":[-108.903771,37.768923]}},{"properties":{"city":"Clifton","lon":-108.456517,"zip":"","librarysystem":"Mesa County Public Library District","id":"a62g1ez30jpt","address":"3225 I-70 Business Loop, A-1","lat":39.088893,"libraryname":"Clifton Branch","state":"CO"},"type":"Feature","geometry":{"type":"Point","coordinates":[-108.456517,39.088893]}},{"properties":{"city":"Collbran","lon":-107.960773,"zip":"","librarysystem":"Mesa County Public Library District","id":"a62g1ewwcr5u","address":"111 Main Street","lat":39.238904,"libraryname":"Collbran Branch Library","state":"CO"},"type":"Feature","geometry":{"type":"Point","coordinates":[-107.960773,39.238904]}},{"properties":{"city":"Westminster","lon":-105.039862,"zip":"","librarysystem":"Westminster Public Library","id":"a62g1f0p7n0j","address":"3705 W 112th Ave","lat":39.899768,"libraryname":"College Hill Library","state":"CO"},"type":"Feature","geometry":{"type":"Point","coordinates":[-105.039862,39.899768]}},{"properties":{"city":"Littleton","lon":-105.081642,"zip":"","librarysystem":"Jefferson County Public Library","id":"a62g1f0vcv6u","address":"7706 West Bowles Avenue","lat":39.609531,"libraryname":"Columbine Library","state":"CO"},"type":"Feature","geometry":{"type":"Point","coordinates":[-105.081642,39.609531]}},{"properties":{"city":"Commerce City","lon":-104.912851,"zip":"","librarysystem":"Rangeview Library District","id":"a62g1et3zvwt","address":"7185 Monaco","lat":39.826881,"libraryname":"Commerce City Branch Library","state":"CO"},"type":"Feature","geometry":{"type":"Point","coordinates":[-104.912851,39.826881]}},{"properties":{"city":"La Jara","lon":-105.958619,"zip":"","librarysystem":"Conejos County Library District","id":"a62g1exlxxm0","address":"Highway 285","lat":37.284535,"libraryname":"Conejos Public Library District","state":"CO"},"type":"Feature","geometry":{"type":"Point","coordinates":[-105.958619,37.284535]}},{"properties":{"city":"Conifer","lon":-105.309153,"zip":"","librarysystem":"Jefferson County Public Library","id":"a62g1epoic17","address":"10441 Highway 73","lat":39.527378,"libraryname":"Conifer Library","state":"CO"},"type":"Feature","geometry":{"type":"Point","coordinates":[-105.309153,39.527378]}},{"properties":{"city":"Cortez","lon":-108.574808,"zip":"","librarysystem":"Cortez Public Library","id":"a62g1exxi3hn","address":"202 North Park","lat":37.351042,"libraryname":"Cortez Public Library","state":"CO"},"type":"Feature","geometry":{"type":"Point","coordinates":[-108.574808,37.351042]}},{"properties":{"city":"San Luis","lon":-105.425939,"zip":"","librarysystem":"Costilla County Public Library","id":"a62g1eny51s4","address":"418 Gasper Street","lat":37.19939,"libraryname":"Costilla County Public Library","state":"CO"},"type":"Feature","geometry":{"type":"Point","coordinates":[-105.425939,37.19939]}},{"properties":{"city":"Cotopaxi","lon":-105.620966,"zip":"","librarysystem":"Cotopaxi School/Community Library","id":"a62g1es2ib0b","address":"0345 County Road 51","lat":38.393445,"libraryname":"Cotopaxi School/Community Library","state":"CO"},"type":"Feature","geometry":{"type":"Point","coordinates":[-105.620966,38.393445]}},{"properties":{"city":"Crawford","lon":-107.610489,"zip":"","librarysystem":"Delta County Public Library District","id":"a62g1f000l64","address":"425 Highway 92","lat":38.703788,"libraryname":"Crawford Community Library","state":"CO"},"type":"Feature","geometry":{"type":"Point","coordinates":[-107.610489,38.703788]}},{"properties":{"city":"Crested Butte","lon":-106.97874,"zip":"","librarysystem":"Gunnison County Public Library","id":"a62g1esvtf5u","address":"728 Elk Avenue","lat":38.869599,"libraryname":"Crested Butte Branch Library","state":"CO"},"type":"Feature","geometry":{"type":"Point","coordinates":[-106.97874,38.869599]}},{"properties":{"city":"Dacono","lon":-104.937141,"zip":"","librarysystem":"Dacono Public Library","id":"a62g1f1o75uc","address":"512 Cherry Street","lat":40.085217,"libraryname":"Dacono Public Library","state":"CO"},"type":"Feature","geometry":{"type":"Point","coordinates":[-104.937141,40.085217]}},{"properties":{"city":"Deer Trail","lon":-104.042198,"zip":"","librarysystem":"Arapahoe Library District","id":"a62g1exrm7e2","address":"303 Third Avenue","lat":39.611155,"libraryname":"Davies Library","state":"CO"},"type":"Feature","geometry":{"type":"Point","coordinates":[-104.042198,39.611155]}},{"properties":{"city":"Debeque","lon":-108.213602,"zip":"","librarysystem":"Mesa County Public Library District","id":"a62g1es1cvo3","address":"730 Minter Avenue","lat":39.336835,"libraryname":"Debeque Branch Library","state":"CO"},"type":"Feature","geometry":{"type":"Point","coordinates":[-108.213602,39.336835]}},{"properties":{"city":"Denver","lon":-104.982966,"zip":"","librarysystem":"Denver Public Library","id":"a62g1f2jza0z","address":"1501 South Logan Street","lat":39.689202,"libraryname":"Decker Branch","state":"CO"},"type":"Feature","geometry":{"type":"Point","coordinates":[-104.982966,39.689202]}},{"properties":{"city":"Del Norte","lon":-106.352112,"zip":"","librarysystem":"Rio Grande Library District","id":"a62g1etr47ii","address":"790 Grande Avenue","lat":37.678793,"libraryname":"Del Norte Public Library","state":"CO"},"type":"Feature","geometry":{"type":"Point","coordinates":[-106.352112,37.678793]}},{"properties":{"city":"Delta","lon":-108.072372,"zip":"","librarysystem":"Delta County Public Library District","id":"a62g1ese9pr1","address":"211 West Sixth Street","lat":38.739193,"libraryname":"Delta Public Library","state":"CO"},"type":"Feature","geometry":{"type":"Point","coordinates":[-108.072372,38.739193]}},{"properties":{"city":"Denver","lon":-104.987802,"zip":"","librarysystem":"Denver Public Library","id":"a62g1ephfhi0","address":"10 West 14th Avenue Parkway","lat":39.738271,"libraryname":"Denver Public Library","state":"CO"},"type":"Feature","geometry":{"type":"Point","coordinates":[-104.987802,39.738271]}},{"properties":{"city":"Dinosaur","lon":-109.013704,"zip":"","librarysystem":"Moffat County Library","id":"a62g1ep7vfgj","address":"200 7th Street","lat":40.23876,"libraryname":"Dinosaur Branch Library","state":"CO"},"type":"Feature","geometry":{"type":"Point","coordinates":[-109.013704,40.23876]}},{"properties":{"city":"Dove Creek","lon":-108.903822,"zip":"","librarysystem":"Dolores County School/Public Library","id":"a62g1f093yyl","address":"470 Main Street","lat":37.766003,"libraryname":"Dolores County School/Public Library","state":"CO"},"type":"Feature","geometry":{"type":"Point","coordinates":[-108.903822,37.766003]}},{"properties":{"city":"Dolores","lon":-108.504165,"zip":"","librarysystem":"Dolores Public Library","id":"a62g1etjuucc","address":"420 Railroad Avenue","lat":37.473152,"libraryname":"Dolores Public Library","state":"CO"},"type":"Feature","geometry":{"type":"Point","coordinates":[-108.504165,37.473152]}},{"properties":{"city":"Durango","lon":-107.878321,"zip":"","librarysystem":"Durango Public Library","id":"a62g1evt7hkc","address":"1188 East Second Avenue","lat":37.276135,"libraryname":"Durango Public Library","state":"CO"},"type":"Feature","geometry":{"type":"Point","coordinates":[-107.878321,37.276135]}},{"properties":{"city":"Durango","lon":-107.862785,"zip":"","librarysystem":"Durango Public Library","id":"a62g1euz33b1","address":"75 Cr 218","lat":37.122117,"libraryname":"Durango-Sunnyside Branch","state":"CO"},"type":"Feature","geometry":{"type":"Point","coordinates":[-107.862785,37.122117]}},{"properties":{"city":"Eagle","lon":-106.826715,"zip":"","librarysystem":"Eagle Valley Library District","id":"a62g1eo4dmup","address":"601 Capitol Street","lat":39.650834,"libraryname":"Eagle Public Library","state":"CO"},"type":"Feature","geometry":{"type":"Point","coordinates":[-106.826715,39.650834]}},{"properties":{"city":"Cheyenne Wells","lon":-102.347681,"zip":"","librarysystem":"East Cheyenne County Library District","id":"a62g1ew7i444","address":"151 S. 1st Street","lat":38.820847,"libraryname":"East Cheyenne County Library District","state":"CO"},"type":"Feature","geometry":{"type":"Point","coordinates":[-102.347681,38.820847]}},{"properties":{"city":"Colorado Springs","lon":-104.775188,"zip":"","librarysystem":"Pikes Peak Library District","id":"a62g1exbzsua","address":"5550 North Union Boulevard","lat":38.911889,"libraryname":"East Library","state":"CO"},"type":"Feature","geometry":{"type":"Point","coordinates":[-104.775188,38.911889]}},{"properties":{"city":"Brush","lon":-103.623334,"zip":"","librarysystem":"East Morgan County Library District","id":"a62g1f3zh3ge","address":"500 Clayton Street","lat":40.258458,"libraryname":"East Morgan County Library District","state":"CO"},"type":"Feature","geometry":{"type":"Point","coordinates":[-103.623334,40.258458]}},{"properties":{"city":"Eaton","lon":-104.714565,"zip":"","librarysystem":"Weld Library District","id":"a62g1esafzui","address":"132 Maple Avenue","lat":40.526531,"libraryname":"Eaton Public Library","state":"CO"},"type":"Feature","geometry":{"type":"Point","coordinates":[-104.714565,40.526531]}},{"properties":{"city":"Edgewater","lon":-105.060764,"zip":"","librarysystem":"Jefferson County Public Library","id":"a62g1evn2gz3","address":"5843 West 25th Avenue","lat":39.753185,"libraryname":"Edgewater Library","state":"CO"},"type":"Feature","geometry":{"type":"Point","coordinates":[-105.060764,39.753185]}},{"properties":{"city":"Kiowa","lon":-104.465221,"zip":"","librarysystem":"Elbert County Library","id":"a62g1ev5eg28","address":"331 Comanche Street","lat":39.346708,"libraryname":"Elbert County Library","state":"CO"},"type":"Feature","geometry":{"type":"Point","coordinates":[-104.465221,39.346708]}},{"properties":{"city":"Elizabeth","lon":-104.595523,"zip":"","librarysystem":"Elbert County Library","id":"a62g1eua9t8f","address":"207 Main","lat":39.360569,"libraryname":"Elizabeth Branch Library","state":"CO"},"type":"Feature","geometry":{"type":"Point","coordinates":[-104.595523,39.360569]}},{"properties":{"city":"Englewood","lon":-104.998447,"zip":"","librarysystem":"Englewood Public Library","id":"a62g1erbcqp4","address":"1000 Englewood Parkway","lat":39.655302,"libraryname":"Englewood Public Library","state":"CO"},"type":"Feature","geometry":{"type":"Point","coordinates":[-104.998447,39.655302]}},{"properties":{"city":"Estes Park","lon":-105.519203,"zip":"","librarysystem":"Estes Park Public Library","id":"a62g1evflpk2","address":"335 East Elkhorn Avenue","lat":40.377316,"libraryname":"Estes Park Public Library","state":"CO"},"type":"Feature","geometry":{"type":"Point","coordinates":[-105.519203,40.377316]}},{"properties":{"city":"Denver","lon":-104.959184,"zip":"","librarysystem":"Denver Public Library","id":"a62g1evi43cd","address":"810 South University Boulevard","lat":39.701684,"libraryname":"Eugene Field Library","state":"CO"},"type":"Feature","geometry":{"type":"Point","coordinates":[-104.959184,39.701684]}},{"properties":{"city":"Evergreen","lon":-105.323959,"zip":"","librarysystem":"Jefferson County Public Library","id":"a62g1exo29qc","address":"5000 Highway 73","lat":39.62504,"libraryname":"Evergreen Library","state":"CO"},"type":"Feature","geometry":{"type":"Point","coordinates":[-105.323959,39.62504]}},{"properties":{"city":"Fairplay","lon":-105.999859,"zip":"","librarysystem":"Park County Public Library","id":"a62g1f1pq481","address":"Old Park County Courthouse","lat":39.223505,"libraryname":"Fairplay Branch Library","state":"CO"},"type":"Feature","geometry":{"type":"Point","coordinates":[-105.999859,39.223505]}},{"properties":{"city":"Greeley","lon":-104.778314,"zip":"","librarysystem":"Weld Library District","id":"a62g1eplke3s","address":"1939 61st Avenue","lat":40.409116,"libraryname":"Farr Branch","state":"CO"},"type":"Feature","geometry":{"type":"Point","coordinates":[-104.778314,40.409116]}},{"properties":{"city":"Flagler","lon":-103.067783,"zip":"","librarysystem":"Flagler Community Library","id":"a62g1eue75vi","address":"311 Main Ave","lat":39.291937,"libraryname":"Flagler Community Library","state":"CO"},"type":"Feature","geometry":{"type":"Point","coordinates":[-103.067783,39.291937]}},{"properties":{"city":"Fleming","lon":-102.841075,"zip":"","librarysystem":"Fleming Community Library","id":"a62g1f1mxqel","address":"506 Fremont Street","lat":40.684628,"libraryname":"Fleming Community Library","state":"CO"},"type":"Feature","geometry":{"type":"Point","coordinates":[-102.841075,40.684628]}},{"properties":{"city":"Florence","lon":-105.117479,"zip":"","librarysystem":"Florence Public Library","id":"a62g1ezuao04","address":"Second Street And Pikes Peak Street","lat":38.39098,"libraryname":"Florence Public Library","state":"CO"},"type":"Feature","geometry":{"type":"Point","coordinates":[-105.117479,38.39098]}},{"properties":{"city":"Florissant","lon":-105.294119,"zip":"","librarysystem":"Rampart Library District","id":"a62g1f3rxoi8","address":"2001teller County Rd 31","lat":38.94781,"libraryname":"Florissant Branch","state":"CO"},"type":"Feature","geometry":{"type":"Point","coordinates":[-105.294119,38.94781]}},{"properties":{"city":"Denver","lon":-104.964887,"zip":"","librarysystem":"Denver Public Library","id":"a62g1es5gu46","address":"2825 High Street","lat":39.757344,"libraryname":"Ford Warren Library","state":"CO"},"type":"Feature","geometry":{"type":"Point","coordinates":[-104.964887,39.757344]}},{"properties":{"city":"Fort Collins","lon":-105.072089,"zip":"","librarysystem":"Fort Collins Public Library","id":"a62g1ey9ccog","address":"201 Peterson Street","lat":40.585453,"libraryname":"Fort Collins Public Library","state":"CO"},"type":"Feature","geometry":{"type":"Point","coordinates":[-105.072089,40.585453]}},{"properties":{"city":"Hesperus","lon":-108.113441,"zip":"","librarysystem":"Durango Public Library","id":"a62g1ewh0zdw","address":"11274 Highway 140","lat":37.15751,"libraryname":"Fort Lewis Mesa Branch","state":"CO"},"type":"Feature","geometry":{"type":"Point","coordinates":[-108.113441,37.15751]}},{"properties":{"city":"Fort Lupton","lon":-104.810682,"zip":"","librarysystem":"Weld Library District","id":"a62g1f23k9sp","address":"425 South Denver Avenue","lat":40.076195,"libraryname":"Fort Lupton Public &amp; School Library","state":"CO"},"type":"Feature","geometry":{"type":"Point","coordinates":[-104.810682,40.076195]}},{"properties":{"city":"Fort Morgan","lon":-103.801305,"zip":"","librarysystem":"Fort Morgan Public Library","id":"a62g1f3709zp","address":"414 Main Street","lat":40.251543,"libraryname":"Fort Morgan Public Library","state":"CO"},"type":"Feature","geometry":{"type":"Point","coordinates":[-103.801305,40.251543]}},{"properties":{"city":"Fountain","lon":-104.700494,"zip":"","librarysystem":"Pikes Peak Library District","id":"a62g1ev3u5qx","address":"230 South Main Street","lat":38.681821,"libraryname":"Fountain Branch Library","state":"CO"},"type":"Feature","geometry":{"type":"Point","coordinates":[-104.700494,38.681821]}},{"properties":{"city":"Fowler","lon":-104.023458,"zip":"","librarysystem":"Fowler Public Library","id":"a62g1eyryrip","address":"114 East Cranston Avenue","lat":38.130624,"libraryname":"Fowler Public Library","state":"CO"},"type":"Feature","geometry":{"type":"Point","coordinates":[-104.023458,38.130624]}},{"properties":{"city":"Cripple Creek","lon":-105.184282,"zip":"","librarysystem":"Southern Teller County School/Public Library District","id":"a62g1eu33vg3","address":"410 B Street","lat":38.746366,"libraryname":"Franklin Ferguson Memorial Library","state":"CO"},"type":"Feature","geometry":{"type":"Point","coordinates":[-105.184282,38.746366]}},{"properties":{"city":"Fraser","lon":-105.819079,"zip":"","librarysystem":"Grand County Library District","id":"a62g1f2bszsp","address":"241 Norgen Rd","lat":39.947595,"libraryname":"Fraser Valley Library","state":"CO"},"type":"Feature","geometry":{"type":"Point","coordinates":[-105.819079,39.947595]}},{"properties":{"city":"Fruita","lon":-108.731012,"zip":"","librarysystem":"Mesa County Public Library District","id":"a62g1f238twk","address":"325 East Aspen Avenue","lat":39.159028,"libraryname":"Fruita Branch Library","state":"CO"},"type":"Feature","geometry":{"type":"Point","coordinates":[-108.731012,39.159028]}},{"properties":{"city":"Gateway","lon":-108.972755,"zip":"","librarysystem":"Mesa County Public Library District","id":"a62g1f1z4lk8","address":"42700 Highway 141","lat":38.683269,"libraryname":"Gateway Branch Library","state":"CO"},"type":"Feature","geometry":{"type":"Point","coordinates":[-108.972755,38.683269]}},{"properties":{"city":"Boulder","lon":-105.251041,"zip":"","librarysystem":"Boulder Public Library","id":"a62g1eo09v4c","address":"3595 Table Mesa Drive","lat":39.985145,"libraryname":"George Reynolds Branch","state":"CO"},"type":"Feature","geometry":{"type":"Point","coordinates":[-105.251041,39.985145]}},{"properties":{"city":"Golden","lon":-105.465755,"zip":"","librarysystem":"Gilpin County Library District","id":"a62g1eopvbrg","address":"15093 Highway 119","lat":39.868045,"libraryname":"Gilpin County Library District","state":"CO"},"type":"Feature","geometry":{"type":"Point","coordinates":[-105.465755,39.868045]}},{"properties":{"city":"Glendale","lon":-104.934996,"zip":"","librarysystem":"Arapahoe Library District","id":"a62g1eot89pu","address":"999 South Clermont","lat":39.700022,"libraryname":"Glendale Library","state":"CO"},"type":"Feature","geometry":{"type":"Point","coordinates":[-104.934996,39.700022]}},{"properties":{"city":"Johnstown","lon":-104.90629,"zip":"","librarysystem":"Weld Library District","id":"a62g1er8f0bd","address":"400 S. Parish Avenue","lat":40.331838,"libraryname":"Glenn A. Jones, M.D. Memorial Library","state":"CO"},"type":"Feature","geometry":{"type":"Point","coordinates":[-104.90629,40.331838]}},{"properties":{"city":"Glenwood Springs","lon":-107.323445,"zip":"","librarysystem":"Garfield County Public Library District","id":"a62g1esx9ohg","address":"413 9th Street","lat":39.545506,"libraryname":"Glenwood Springs Branch Library","state":"CO"},"type":"Feature","geometry":{"type":"Point","coordinates":[-107.323445,39.545506]}},{"properties":{"city":"Golden","lon":-105.225645,"zip":"","librarysystem":"Jefferson County Public Library","id":"a62g1evgg440","address":"1019 Tenth Street","lat":39.756104,"libraryname":"Golden Library","state":"CO"},"type":"Feature","geometry":{"type":"Point","coordinates":[-105.225645,39.756104]}},{"properties":{"city":"Carbondale","lon":-107.211011,"zip":"","librarysystem":"Garfield County Public Library District","id":"a62g1epnsvhh","address":"76 South 4th Street","lat":39.399946,"libraryname":"Gordon Cooper Branch Library","state":"CO"},"type":"Feature","geometry":{"type":"Point","coordinates":[-107.211011,39.399946]}},{"properties":{"city":"Granby","lon":-105.941826,"zip":"","librarysystem":"Grand County Library District","id":"a62g1ev59b9k","address":"13 East Jasper Avenue","lat":40.086824,"libraryname":"Granby Branch Library","state":"CO"},"type":"Feature","geometry":{"type":"Point","coordinates":[-105.941826,40.086824]}},{"properties":{"city":"Guffey","lon":-105.5202,"zip":"","librarysystem":"Park County Public Library","id":"a62g1ev19769","address":"1625 B. County Rd 102","lat":38.755984,"libraryname":"Guffey Branch Library","state":"CO"},"type":"Feature","geometry":{"type":"Point","coordinates":[-105.5202,38.755984]}},{"properties":{"city":"Gunnison","lon":-106.928333,"zip":"","librarysystem":"Gunnison County Public Library","id":"a62g1eo0nbpx","address":"307 North Wisconsin Street","lat":38.546742,"libraryname":"Gunnison Co Public Library","state":"CO"},"type":"Feature","geometry":{"type":"Point","coordinates":[-106.928333,38.546742]}},{"properties":{"city":"Gypsum","lon":-106.948907,"zip":"","librarysystem":"Eagle Valley Library District","id":"a62g1evmy5sg","address":"743 Valley Road","lat":39.640533,"libraryname":"Gypsum Public Library","state":"CO"},"type":"Feature","geometry":{"type":"Point","coordinates":[-106.948907,39.640533]}},{"properties":{"city":"Denver","lon":-105.026026,"zip":"","librarysystem":"Denver Public Library","id":"a62g1eozensl","address":"1890 South Grove Street","lat":39.682564,"libraryname":"Hadley Branch","state":"CO"},"type":"Feature","geometry":{"type":"Point","coordinates":[-105.026026,39.682564]}},{"properties":{"city":"Denver","lon":-104.874794,"zip":"","librarysystem":"Denver Public Library","id":"a62g1eupgybp","address":"9755 East Girard Avenue","lat":39.65445,"libraryname":"Hampden Branch","state":"CO"},"type":"Feature","geometry":{"type":"Point","coordinates":[-104.874794,39.65445]}},{"properties":{"city":"Fort Collins","lon":-105.095975,"zip":"","librarysystem":"Fort Collins Public Library","id":"a62g1f2d9v2f","address":"4616 South Shields Street","lat":40.52311,"libraryname":"Harmony Library","state":"CO"},"type":"Feature","geometry":{"type":"Point","coordinates":[-105.095975,40.52311]}},{"properties":{"city":"Haxtun","lon":-102.628702,"zip":"","librarysystem":"Haxtun Public Library","id":"a62g1f3lgu2p","address":"141 South Colorado Avenue","lat":40.64194,"libraryname":"Haxtun Public Library","state":"CO"},"type":"Feature","geometry":{"type":"Point","coordinates":[-102.628702,40.64194]}},{"properties":{"city":"Highlands Ranch","lon":-104.996342,"zip":"","librarysystem":"Douglas Public Library District","id":"a62g1f3njpiw","address":"9292 Ridgeline Blvd","lat":39.546829,"libraryname":"Highlands Ranch Library","state":"CO"},"type":"Feature","geometry":{"type":"Point","coordinates":[-104.996342,39.546829]}},{"properties":{"city":"Lake City","lon":-107.317739,"zip":"","librarysystem":"Hinsdale Library District","id":"a62g1f073yi4","address":"221 Silver Street","lat":38.028149,"libraryname":"Hinsdale Library District","state":"CO"},"type":"Feature","geometry":{"type":"Point","coordinates":[-107.317739,38.028149]}},{"properties":{"city":"Holly","lon":-102.122363,"zip":"","librarysystem":"Holly Public Library","id":"a62g1eszgtlz","address":"119 East Cheyenne Street","lat":38.052137,"libraryname":"Holly Public Library","state":"CO"},"type":"Feature","geometry":{"type":"Point","coordinates":[-102.122363,38.052137]}},{"properties":{"city":"Holyoke","lon":-102.303444,"zip":"","librarysystem":"Holyoke/Heginbotham Library","id":"a62g1f38813u","address":"539 South Baxter Street","lat":40.581178,"libraryname":"Holyoke/Heginbotham L","state":"CO"},"type":"Feature","geometry":{"type":"Point","coordinates":[-102.303444,40.581178]}},{"properties":{"city":"Hot Sulphur Springs","lon":-106.098059,"zip":"","librarysystem":"Grand County Library District","id":"a62g1f43pmgg","address":"105 Moffat","lat":40.07177,"libraryname":"Hot Sulphur Springs Library","state":"CO"},"type":"Feature","geometry":{"type":"Point","coordinates":[-106.098059,40.07177]}},{"properties":{"city":"Hotchkiss","lon":-107.720949,"zip":"","librarysystem":"Delta County Public Library District","id":"a62g1esfguj8","address":"First Street And Main Street","lat":38.79988,"libraryname":"Hotchkiss Public Library","state":"CO"},"type":"Feature","geometry":{"type":"Point","coordinates":[-107.720949,38.79988]}},{"properties":{"city":"Hudson","lon":-104.644595,"zip":"","librarysystem":"Weld Library District","id":"a62g1eu4w216","address":"555 Main Street","lat":40.073396,"libraryname":"Hudson Public Library","state":"CO"},"type":"Feature","geometry":{"type":"Point","coordinates":[-104.644595,40.073396]}},{"properties":{"city":"Walsenburg","lon":-104.782381,"zip":"","librarysystem":"Spanish Peaks Library District","id":"a62g1eqfrxc0","address":"323 Main Street","lat":37.626208,"libraryname":"Huerfano County Public Library","state":"CO"},"type":"Feature","geometry":{"type":"Point","coordinates":[-104.782381,37.626208]}},{"properties":{"city":"Hugo","lon":-103.46834,"zip":"","librarysystem":"Hugo Public Library","id":"a62g1ezydaqx","address":"522 Second Avenue","lat":39.131,"libraryname":"Hugo Public Library","state":"CO"},"type":"Feature","geometry":{"type":"Point","coordinates":[-103.46834,39.131]}},{"properties":{"city":"Idaho Springs","lon":-105.51816,"zip":"","librarysystem":"Clear Creek County Library District","id":"a62g1ewwpeh3","address":"219 14th Avenue","lat":39.741709,"libraryname":"Idaho Springs Public Library","state":"CO"},"type":"Feature","geometry":{"type":"Point","coordinates":[-105.51816,39.741709]}},{"properties":{"city":"Aurora","lon":-104.847538,"zip":"","librarysystem":"Aurora Public Library","id":"a62g1ezub26d","address":"2245 South Peoria Street","lat":39.675773,"libraryname":"Iliff Square Library","state":"CO"},"type":"Feature","geometry":{"type":"Point","coordinates":[-104.847538,39.675773]}},{"properties":{"city":"Walden","lon":-106.278239,"zip":"","librarysystem":"Jackson County Public Library","id":"a62g1et6nbhu","address":"412 Fourth Street","lat":40.73146,"libraryname":"Jackson County Public Library","state":"CO"},"type":"Feature","geometry":{"type":"Point","coordinates":[-106.278239,40.73146]}},{"properties":{"city":"Georgetown","lon":-105.69716,"zip":"","librarysystem":"Clear Creek County Library District","id":"a62g1ep0y88b","address":"605 Sixth Street","lat":39.706217,"libraryname":"John Tomay Memorial Library","state":"CO"},"type":"Feature","geometry":{"type":"Point","coordinates":[-105.69716,39.706217]}},{"properties":{"city":"Julesburg","lon":-102.263994,"zip":"","librarysystem":"Julesburg Public Library","id":"a62g1esycdu4","address":"320 Cedar Street","lat":40.988519,"libraryname":"Julesburg Public Library","state":"CO"},"type":"Feature","geometry":{"type":"Point","coordinates":[-102.263994,40.988519]}},{"properties":{"city":"Grand Lake","lon":-105.819294,"zip":"","librarysystem":"Grand County Library District","id":"a62g1esojl0i","address":"316 Garfield Street","lat":40.25288,"libraryname":"Juniper Library","state":"CO"},"type":"Feature","geometry":{"type":"Point","coordinates":[-105.819294,40.25288]}},{"properties":{"city":"Byers","lon":-104.217902,"zip":"","librarysystem":"Arapahoe Library District","id":"a62g1f0q8iiy","address":"404 East Front Street","lat":39.708316,"libraryname":"Kelver Library","state":"CO"},"type":"Feature","geometry":{"type":"Point","coordinates":[-104.217902,39.708316]}},{"properties":{"city":"Eads","lon":-102.780296,"zip":"","librarysystem":"Kiowa County Public Library District","id":"a62g1ewmouku","address":"1305 Goff Street","lat":38.479748,"libraryname":"Kiowa County Public Library District","state":"CO"},"type":"Feature","geometry":{"type":"Point","coordinates":[-102.780296,38.479748]}},{"properties":{"city":"Centennial","lon":-104.922974,"zip":"","librarysystem":"Arapahoe Library District","id":"a62g1f3rja3j","address":"5955 South Holly Street","lat":39.6083,"libraryname":"Koelbel Library","state":"CO"},"type":"Feature","geometry":{"type":"Point","coordinates":[-104.922974,39.6083]}},{"properties":{"city":"Littleton","lon":-104.922974,"zip":"","librarysystem":"Arapahoe Library District","id":"a62g1f07bkoz","address":"5955 South Holly Street","lat":39.6083,"libraryname":"Koelbel Public Library","state":"CO"},"type":"Feature","geometry":{"type":"Point","coordinates":[-104.922974,39.6083]}},{"properties":{"city":"Kremmling","lon":-106.38625,"zip":"","librarysystem":"Grand County Library District","id":"a62g1es93s86","address":"300 South 8th Street","lat":40.056811,"libraryname":"Kremmling Library","state":"CO"},"type":"Feature","geometry":{"type":"Point","coordinates":[-106.38625,40.056811]}},{"properties":{"city":"La Junta","lon":-103.543247,"zip":"","librarysystem":"La Junta/Woodruff Memorial Library","id":"a62g1ewlixgk","address":"522 Colorado Avenue","lat":37.983598,"libraryname":"La Junta/Woodruff Memorial Library","state":"CO"},"type":"Feature","geometry":{"type":"Point","coordinates":[-103.543247,37.983598]}},{"properties":{"city":"La Veta","lon":-105.00921,"zip":"","librarysystem":"La Veta Public Library District","id":"a62g1ep9zxmk","address":"310 Main Street","lat":37.507891,"libraryname":"La Veta Public Library District","state":"CO"},"type":"Feature","geometry":{"type":"Point","coordinates":[-105.00921,37.507891]}},{"properties":{"city":"Lafayette","lon":-105.100134,"zip":"","librarysystem":"Lafayette Public Library","id":"a62g1eqp27gl","address":"775 W. Baseline Rd","lat":40.000396,"libraryname":"Lafayette Public Library","state":"CO"},"type":"Feature","geometry":{"type":"Point","coordinates":[-105.100134,40.000396]}},{"properties":{"city":"Leadville","lon":-106.293489,"zip":"","librarysystem":"Lake County Public Library","id":"a62g1ett1wms","address":"1115 Harrison Avenue","lat":39.252818,"libraryname":"Lake Co Public Library","state":"CO"},"type":"Feature","geometry":{"type":"Point","coordinates":[-106.293489,39.252818]}},{"properties":{"city":"Lake George","lon":-105.218985,"zip":"","librarysystem":"Park County Public Library","id":"a62g1f3yaz7o","address":"Box 3","lat":39.068058,"libraryname":"Lake George Branch Library","state":"CO"},"type":"Feature","geometry":{"type":"Point","coordinates":[-105.218985,39.068058]}},{"properties":{"city":"Lakewood","lon":-105.111882,"zip":"","librarysystem":"Jefferson County Public Library","id":"a62g1ewrmr15","address":"10200 West 20th Avenue","lat":39.747364,"libraryname":"Lakewood Library","state":"CO"},"type":"Feature","geometry":{"type":"Point","coordinates":[-105.111882,39.747364]}},{"properties":{"city":"Lamar","lon":-102.618769,"zip":"","librarysystem":"Lamar Public Library","id":"a62g1ex8avq8","address":"104 East Parmenter Street","lat":38.08492,"libraryname":"Lamar Public Library","state":"CO"},"type":"Feature","geometry":{"type":"Point","coordinates":[-102.618769,38.08492]}},{"properties":{"city":"Pueblo","lon":-104.66203,"zip":"","librarysystem":"Pueblo City-County Library District","id":"a62g1esoye89","address":"2525 South Pueblo Boulevard","lat":38.224955,"libraryname":"Lamb Branch Library","state":"CO"},"type":"Feature","geometry":{"type":"Point","coordinates":[-104.66203,38.224955]}},{"properties":{"city":"Limon","lon":-103.688023,"zip":"","librarysystem":"Limon Memorial Library","id":"a62g1euirgff","address":"205 E Avenue","lat":39.263078,"libraryname":"Limon Memorial L","state":"CO"},"type":"Feature","geometry":{"type":"Point","coordinates":[-103.688023,39.263078]}},{"properties":{"city":"Greeley","lon":-104.69305,"zip":"","librarysystem":"Weld Library District","id":"a62g1enp9q1u","address":"919 7th Street","lat":40.426077,"libraryname":"Lincoln Park Branch","state":"CO"},"type":"Feature","geometry":{"type":"Point","coordinates":[-104.69305,40.426077]}},{"properties":{"city":"Longmont","lon":-105.100069,"zip":"","librarysystem":"Longmont Public Library","id":"a62g1f1b7pv6","address":"409 Fourth Avenue","lat":40.165544,"libraryname":"Longmont Public Library","state":"CO"},"type":"Feature","geometry":{"type":"Point","coordinates":[-105.100069,40.165544]}},{"properties":{"city":"Louisville","lon":-105.131432,"zip":"","librarysystem":"Louisville Public Library","id":"a62g1etk8xqw","address":"950 Spruce Street","lat":39.977631,"libraryname":"Louisville Public Library","state":"CO"},"type":"Feature","geometry":{"type":"Point","coordinates":[-105.131432,39.977631]}},{"properties":{"city":"Louviers","lon":-105.006414,"zip":"","librarysystem":"Douglas Public Library District","id":"a62g1eru55ru","address":"7885 Louviers Blvd","lat":39.476274,"libraryname":"Louviers Library","state":"CO"},"type":"Feature","geometry":{"type":"Point","coordinates":[-105.006414,39.476274]}},{"properties":{"city":"Loveland","lon":-105.069149,"zip":"","librarysystem":"Loveland Public Library","id":"a62g1erc6jqx","address":"300 North Adams Avenue","lat":40.395175,"libraryname":"Loveland Public Library","state":"CO"},"type":"Feature","geometry":{"type":"Point","coordinates":[-105.069149,40.395175]}},{"properties":{"city":"Lyons","lon":-105.271579,"zip":"","librarysystem":"Lyons Depot Library","id":"a62g1f1zjpkv","address":"Fifth Street And Broadway","lat":40.22401,"libraryname":"Lyons Depot Library","state":"CO"},"type":"Feature","geometry":{"type":"Point","coordinates":[-105.271579,40.22401]}},{"properties":{"city":"Broomfield","lon":-105.071344,"zip":"","librarysystem":"Mamie Doud Eisenhower Public Library","id":"a62g1epg4r7a","address":"3 Community Park Road","lat":39.918426,"libraryname":"Mamie Doud Eisenhower Public Library","state":"CO"},"type":"Feature","geometry":{"type":"Point","coordinates":[-105.071344,39.918426]}},{"properties":{"city":"Mancos","lon":-108.288934,"zip":"","librarysystem":"Mancos Public Library District","id":"a62g1eqwwif0","address":"113 North Main Street","lat":37.345354,"libraryname":"Mancos Public Library District","state":"CO"},"type":"Feature","geometry":{"type":"Point","coordinates":[-108.288934,37.345354]}},{"properties":{"city":"Manitou Springs","lon":-104.914593,"zip":"","librarysystem":"Manitou Springs Public Library","id":"a62g1ephowuj","address":"701 Manitou Avenue","lat":38.856987,"libraryname":"Manitou Springs Public Library","state":"CO"},"type":"Feature","geometry":{"type":"Point","coordinates":[-104.914593,38.856987]}},{"properties":{"city":"Manzanola","lon":-103.866369,"zip":"","librarysystem":"Manzanola School/Public Library","id":"a62g1ert5z2q","address":"301 S. Catalpa","lat":38.10521,"libraryname":"Manzanola School/Public Library","state":"CO"},"type":"Feature","geometry":{"type":"Point","coordinates":[-103.866369,38.10521]}},{"properties":{"city":"Aurora","lon":-104.872819,"zip":"","librarysystem":"Aurora Public Library","id":"a62g1eo151dg","address":"9901 East 16th Avenue","lat":39.742008,"libraryname":"Martin Luther King Jr. Branch Library","state":"CO"},"type":"Feature","geometry":{"type":"Point","coordinates":[-104.872819,39.742008]}},{"properties":{"city":"Maybell","lon":-108.085585,"zip":"","librarysystem":"Moffat County Library","id":"a62g1esv52sx","address":"202 Collom St.","lat":40.51454,"libraryname":"Maybell Branch Library","state":"CO"},"type":"Feature","geometry":{"type":"Point","coordinates":[-108.085585,40.51454]}},{"properties":{"city":"Ignacio","lon":-107.632994,"zip":"","librarysystem":"Ignacio Library District","id":"a62g1esfsfnc","address":"470 Goddard Avenue","lat":37.11649,"libraryname":"McClanahan Memorial Library","state":"CO"},"type":"Feature","geometry":{"type":"Point","coordinates":[-107.632994,37.11649]}},{"properties":{"city":"Boulder","lon":-105.234434,"zip":"","librarysystem":"Boulder Public Library","id":"a62g1ezkxobt","address":"4800 Baseline Road","lat":39.999886,"libraryname":"Meadows Branch Library","state":"CO"},"type":"Feature","geometry":{"type":"Point","coordinates":[-105.234434,39.999886]}},{"properties":{"city":"Meeker","lon":-107.908262,"zip":"","librarysystem":"Meeker Regional Library District","id":"a62g1ezbp1rj","address":"200 Main Street","lat":40.038179,"libraryname":"Meeker Regional Library District","state":"CO"},"type":"Feature","geometry":{"type":"Point","coordinates":[-107.908262,40.038179]}},{"properties":{"city":"Grand Junction","lon":-108.56386,"zip":"","librarysystem":"Mesa County Public Library District","id":"a62g1f3nrbpu","address":"530 Grand Avenue","lat":39.070471,"libraryname":"Mesa County Public Library District","state":"CO"},"type":"Feature","geometry":{"type":"Point","coordinates":[-108.56386,39.070471]}},{"properties":{"city":"Creede","lon":-106.925654,"zip":"","librarysystem":"Mineral County School/Regional Public Library","id":"a62g1er492i3","address":"380 La Garita Street","lat":37.852654,"libraryname":"Mineral County School/Regional Public Library","state":"CO"},"type":"Feature","geometry":{"type":"Point","coordinates":[-106.925654,37.852654]}},{"properties":{"city":"Craig","lon":-107.555799,"zip":"","librarysystem":"Moffat County Library","id":"a62g1ey23337","address":"570 Green Street","lat":40.515423,"libraryname":"Moffat County Library","state":"CO"},"type":"Feature","geometry":{"type":"Point","coordinates":[-107.555799,40.515423]}},{"properties":{"city":"Denver","lon":-104.840516,"zip":"","librarysystem":"Denver Public Library","id":"a62g1errmqnw","address":"12955 Albrook Drive","lat":39.77997,"libraryname":"Montbello Branch","state":"CO"},"type":"Feature","geometry":{"type":"Point","coordinates":[-104.840516,39.77997]}},{"properties":{"city":"Montrose","lon":-107.875633,"zip":"","librarysystem":"Montrose Regional Library District","id":"a62g1es5xctf","address":"320 South Second Street","lat":38.477325,"libraryname":"Montrose Regional Library District","state":"CO"},"type":"Feature","geometry":{"type":"Point","coordinates":[-107.875633,38.477325]}},{"properties":{"city":"Monument","lon":-104.857464,"zip":"","librarysystem":"Pikes Peak Library District","id":"a62g1ex8eqdu","address":"1706 Lake Woodmoor Dr","lat":39.096582,"libraryname":"Monument Library","state":"CO"},"type":"Feature","geometry":{"type":"Point","coordinates":[-104.857464,39.096582]}},{"properties":{"city":"Aurora","lon":-104.865644,"zip":"","librarysystem":"Aurora Public Library","id":"a62g1eq2zjp2","address":"2390 Havana Street","lat":39.75255,"libraryname":"Moorhead Branch","state":"CO"},"type":"Feature","geometry":{"type":"Point","coordinates":[-104.865644,39.75255]}},{"properties":{"city":"Naturita","lon":-108.571642,"zip":"","librarysystem":"Montrose Regional Library District","id":"a62g1f0i97sy","address":"411 W. Second Ave","lat":38.220226,"libraryname":"Naturita Library","state":"CO"},"type":"Feature","geometry":{"type":"Point","coordinates":[-108.571642,38.220226]}},{"properties":{"city":"Nederland","lon":-105.509842,"zip":"","librarysystem":"Nederland Community Library","id":"a62g1f21hmc6","address":"20 Lakeview Drive","lat":39.960526,"libraryname":"Nederland Community Library","state":"CO"},"type":"Feature","geometry":{"type":"Point","coordinates":[-105.509842,39.960526]}},{"properties":{"city":"Lone Tree","lon":-104.886516,"zip":"","librarysystem":"Douglas Public Library District","id":"a62g1eughohl","address":"8827 Lone Tree Pkwy","lat":39.547078,"libraryname":"Neighborhood Library at Lone Tree","state":"CO"},"type":"Feature","geometry":{"type":"Point","coordinates":[-104.886516,39.547078]}},{"properties":{"city":"Littleton","lon":-105.073393,"zip":"","librarysystem":"Douglas Public Library District","id":"a62g1eudcyuf","address":"8357 N. Rampart Range Rd. Suite 200","lat":39.484457,"libraryname":"Neighborhood Library at Roxborough","state":"CO"},"type":"Feature","geometry":{"type":"Point","coordinates":[-105.073393,39.484457]}},{"properties":{"city":"New Castle","lon":-107.53449,"zip":"","librarysystem":"Garfield County Public Library District","id":"a62g1eqihgmb","address":"402 West Main Street","lat":39.571549,"libraryname":"New Castle Branch","state":"CO"},"type":"Feature","geometry":{"type":"Point","coordinates":[-107.53449,39.571549]}},{"properties":{"city":"Silverthorne","lon":-106.073969,"zip":"","librarysystem":"Summit County Library","id":"a62g1f2dgdhj","address":"651 Center Circle","lat":39.636577,"libraryname":"North Branch Library","state":"CO"},"type":"Feature","geometry":{"type":"Point","coordinates":[-106.073969,39.636577]}},{"properties":{"city":"Aurora","lon":-104.846961,"zip":"","librarysystem":"Aurora Public Library","id":"a62g1f1m7svr","address":"1298 Peoria Street","lat":39.73581,"libraryname":"North Branch Library","state":"CO"},"type":"Feature","geometry":{"type":"Point","coordinates":[-104.846961,39.73581]}},{"properties":{"city":"Buena Vista","lon":-106.132199,"zip":"","librarysystem":"Northern Chaffee County Library District","id":"a62g1ezy715r","address":"131 Linderman Avenue","lat":38.840477,"libraryname":"Northern Chaffee County Library District","state":"CO"},"type":"Feature","geometry":{"type":"Point","coordinates":[-106.132199,38.840477]}},{"properties":{"city":"Ault","lon":-104.732428,"zip":"","librarysystem":"Weld Library District","id":"a62g1erhb42o","address":"216 2nd Street","lat":40.583317,"libraryname":"Northern Plains Public Library","state":"CO"},"type":"Feature","geometry":{"type":"Point","coordinates":[-104.732428,40.583317]}},{"properties":{"city":"Northglenn","lon":-104.996534,"zip":"","librarysystem":"Rangeview Library District","id":"a62g1esxq5pi","address":"10530 North Huron Street","lat":39.886998,"libraryname":"Northglenn Branch Library","state":"CO"},"type":"Feature","geometry":{"type":"Point","coordinates":[-104.996534,39.886998]}},{"properties":{"city":"Nucla","lon":-108.545975,"zip":"","librarysystem":"Nucla Public Library","id":"a62g1erzfupr","address":"544 Main Street","lat":38.268328,"libraryname":"Nucla Public Library","state":"CO"},"type":"Feature","geometry":{"type":"Point","coordinates":[-108.545975,38.268328]}},{"properties":{"city":"Oak Creek","lon":-106.954041,"zip":"","librarysystem":"South Routt Library District","id":"a62g1exjcrw0","address":"227 Dodge Avenue","lat":40.275262,"libraryname":"Oak Creek Library","state":"CO"},"type":"Feature","geometry":{"type":"Point","coordinates":[-106.954041,40.275262]}},{"properties":{"city":"Colorado Springs","lon":-104.860974,"zip":"","librarysystem":"Pikes Peak Library District","id":"a62g1exdnmn6","address":"2418 West Pikes Peak Avenue","lat":38.847432,"libraryname":"Old Colorado City Branch Library","state":"CO"},"type":"Feature","geometry":{"type":"Point","coordinates":[-104.860974,38.847432]}},{"properties":{"city":"Grand Junction","lon":-108.545664,"zip":"","librarysystem":"Mesa County Public Library District","id":"a62g1ey9tpdo","address":"2736 Unaweep Avenue","lat":39.048552,"libraryname":"Orchard Mesa Branch","state":"CO"},"type":"Feature","geometry":{"type":"Point","coordinates":[-108.545664,39.048552]}},{"properties":{"city":"Ordway","lon":-103.756513,"zip":"","librarysystem":"Ordway Public Library","id":"a62g1eyfu8kg","address":"105 East Fourth Street","lat":38.218779,"libraryname":"Ordway Public Library","state":"CO"},"type":"Feature","geometry":{"type":"Point","coordinates":[-103.756513,38.218779]}},{"properties":{"city":"Ouray","lon":-107.671096,"zip":"","librarysystem":"Ouray Library District","id":"a62g1f2u7a08","address":"320 Sixth Avenue","lat":38.022961,"libraryname":"Ouray Library District","state":"CO"},"type":"Feature","geometry":{"type":"Point","coordinates":[-107.671096,38.022961]}},{"properties":{"city":"Palisade","lon":-108.355504,"zip":"","librarysystem":"Mesa County Public Library District","id":"a62g1f2jnhqm","address":"711 Iowa Street","lat":39.106606,"libraryname":"Palisade Branch Library","state":"CO"},"type":"Feature","geometry":{"type":"Point","coordinates":[-108.355504,39.106606]}},{"properties":{"city":"Palmer Lake","lon":-104.915347,"zip":"","librarysystem":"Pikes Peak Library District","id":"a62g1es6f054","address":"66 Lower Glenway","lat":39.119863,"libraryname":"Palmer Lake Branch Library","state":"CO"},"type":"Feature","geometry":{"type":"Point","coordinates":[-104.915347,39.119863]}},{"properties":{"city":"Paonia","lon":-107.597839,"zip":"","librarysystem":"Delta County Public Library District","id":"a62g1eqwfd3p","address":"Second Street And Grand Street","lat":38.86698,"libraryname":"Paonia Public Library","state":"CO"},"type":"Feature","geometry":{"type":"Point","coordinates":[-107.597839,38.86698]}},{"properties":{"city":"Parachute","lon":-108.04386,"zip":"","librarysystem":"Garfield County Public Library District","id":"a62g1eyqlj29","address":"244 Grand Valley Way","lat":39.452549,"libraryname":"Parachute Branch Library","state":"CO"},"type":"Feature","geometry":{"type":"Point","coordinates":[-108.04386,39.452549]}},{"properties":{"city":"Paradox","lon":-108.963634,"zip":"","librarysystem":"Montrose Regional Library District","id":"a62g1evxal3c","address":"21501 Six Mile Road","lat":38.368315,"libraryname":"Paradox Branch","state":"CO"},"type":"Feature","geometry":{"type":"Point","coordinates":[-108.963634,38.368315]}},{"properties":{"city":"Bailey","lon":-105.452097,"zip":"","librarysystem":"Park County Public Library","id":"a62g1f1d5dvi","address":"350 Bulldogger Road","lat":39.44136,"libraryname":"Park County Public Library","state":"CO"},"type":"Feature","geometry":{"type":"Point","coordinates":[-105.452097,39.44136]}},{"properties":{"city":"Denver","lon":-104.932656,"zip":"","librarysystem":"Denver Public Library","id":"a62g1eppn67m","address":"4705 Montview Boulevard","lat":39.74748,"libraryname":"Park Hill Branch","state":"CO"},"type":"Feature","geometry":{"type":"Point","coordinates":[-104.932656,39.74748]}},{"properties":{"city":"Parker","lon":-104.766536,"zip":"","librarysystem":"Douglas Public Library District","id":"a62g1f14xds3","address":"10851 So. Crossroads Dr.","lat":39.520028,"libraryname":"Parker Library","state":"CO"},"type":"Feature","geometry":{"type":"Point","coordinates":[-104.766536,39.520028]}},{"properties":{"city":"Denver","lon":-104.922815,"zip":"","librarysystem":"Denver Public Library","id":"a62g1eugikyv","address":"5575 E 33rd Ave","lat":39.763939,"libraryname":"Pauline Robinson Branch","state":"CO"},"type":"Feature","geometry":{"type":"Point","coordinates":[-104.922815,39.763939]}},{"properties":{"city":"Penrose","lon":-105.020489,"zip":"","librarysystem":"Penrose Library District","id":"a62g1f26o1dn","address":"555 Fourth Avenue","lat":38.427703,"libraryname":"Penrose Library District","state":"CO"},"type":"Feature","geometry":{"type":"Point","coordinates":[-105.020489,38.427703]}},{"properties":{"city":"Colorado Springs","lon":-104.825486,"zip":"","librarysystem":"Pikes Peak Library District","id":"a62g1f04n5z2","address":"20 North Cascade Avenue","lat":38.8347,"libraryname":"Penrose Public Library","state":"CO"},"type":"Feature","geometry":{"type":"Point","coordinates":[-104.825486,38.8347]}},{"properties":{"city":"Denver","lon":-105.001426,"zip":"","librarysystem":"Rangeview Library District","id":"a62g1f0efi0d","address":"7611 Hilltop Circle","lat":39.833466,"libraryname":"Perl Mack Branch Library","state":"CO"},"type":"Feature","geometry":{"type":"Point","coordinates":[-105.001426,39.833466]}},{"properties":{"city":"Castle Rock","lon":-104.860622,"zip":"","librarysystem":"Douglas Public Library District","id":"a62g1f2dfmsi","address":"100 South Wilcox","lat":39.367927,"libraryname":"Philip S. Miller Library","state":"CO"},"type":"Feature","geometry":{"type":"Point","coordinates":[-104.860622,39.367927]}},{"properties":{"city":"Bayfield","lon":-107.600315,"zip":"","librarysystem":"Pine River Public Library District/Bayfield","id":"a62g1euukt3m","address":"15 East Mill Street","lat":37.22545,"libraryname":"Pine River Public Library District/Bayfield","state":"CO"},"type":"Feature","geometry":{"type":"Point","coordinates":[-107.600315,37.22545]}},{"properties":{"city":"Aspen","lon":-106.818971,"zip":"","librarysystem":"Pitkin County Library","id":"a62g1epmedgd","address":"120 North Mill Street","lat":39.190855,"libraryname":"Pitkin County Library","state":"CO"},"type":"Feature","geometry":{"type":"Point","coordinates":[-106.818971,39.190855]}},{"properties":{"city":"Platteville","lon":-104.825084,"zip":"","librarysystem":"Weld Library District","id":"a62g1etj1fwv","address":"504 Marion Avenue","lat":40.214991,"libraryname":"Platteville Public Library","state":"CO"},"type":"Feature","geometry":{"type":"Point","coordinates":[-104.825084,40.214991]}},{"properties":{"city":"Rangely","lon":-108.803463,"zip":"","librarysystem":"Rangely Regional Library District","id":"a62g1erqxdpa","address":"109 East Main Street","lat":40.087354,"libraryname":"Rangely Regional Library District","state":"CO"},"type":"Feature","geometry":{"type":"Point","coordinates":[-108.803463,40.087354]}},{"properties":{"city":"Red Feather Lakes","lon":-105.589404,"zip":"","librarysystem":"Red Feather Lakes Library District","id":"a62g1epz5qnz","address":"71 Firehouse Lane","lat":40.801757,"libraryname":"Red Feather Lakes Community Library","state":"CO"},"type":"Feature","geometry":{"type":"Point","coordinates":[-105.589404,40.801757]}},{"properties":{"city":"Rico","lon":-108.030439,"zip":"","librarysystem":"Dolores County School/Public Library","id":"a62g1erlrwtr","address":"2 N. Commercial St.","lat":37.69268,"libraryname":"Rico Public Library","state":"CO"},"type":"Feature","geometry":{"type":"Point","coordinates":[-108.030439,37.69268]}},{"properties":{"city":"Ridgway","lon":-107.754849,"zip":"","librarysystem":"Ridgway Library District","id":"a62g1f1vlla6","address":"300 Charles Street","lat":38.15344,"libraryname":"Ridgway Library District","state":"CO"},"type":"Feature","geometry":{"type":"Point","coordinates":[-107.754849,38.15344]}},{"properties":{"city":"Rifle","lon":-107.783053,"zip":"","librarysystem":"Garfield County Public Library District","id":"a62g1excxlx6","address":"107 East 2nd Street","lat":39.530495,"libraryname":"Rifle Branch Library","state":"CO"},"type":"Feature","geometry":{"type":"Point","coordinates":[-107.783053,39.530495]}},{"properties":{"city":"Monte Vista","lon":-106.145224,"zip":"","librarysystem":"Rio Grande Library District","id":"a62g1etpffo7","address":"120 Jefferson Street","lat":37.580214,"libraryname":"Rio Grande Library District","state":"CO"},"type":"Feature","geometry":{"type":"Point","coordinates":[-106.145224,37.580214]}},{"properties":{"city":"Pueblo","lon":-104.621017,"zip":"","librarysystem":"Pueblo City-County Library District","id":"a62g1evdau8r","address":"100 East Abriendo Avenue","lat":38.259784,"libraryname":"Robert Hoag Rawlings Public Library","state":"CO"},"type":"Feature","geometry":{"type":"Point","coordinates":[-104.621017,38.259784]}},{"properties":{"city":"Colorado Springs","lon":-104.843454,"zip":"","librarysystem":"Pikes Peak Library District","id":"a62g1euolj7i","address":"832 Village Center Drive","lat":38.922729,"libraryname":"Rockrimmon Branch","state":"CO"},"type":"Feature","geometry":{"type":"Point","coordinates":[-104.843454,38.922729]}},{"properties":{"city":"Rocky Ford","lon":-103.719478,"zip":"","librarysystem":"Rocky Ford Public Library","id":"a62g1etp4919","address":"400 South Tenth Street","lat":38.050485,"libraryname":"Rocky Ford Public Library","state":"CO"},"type":"Feature","geometry":{"type":"Point","coordinates":[-103.719478,38.050485]}},{"properties":{"city":"Denver","lon":-105.034507,"zip":"","librarysystem":"Denver Public Library","id":"a62g1esg33im","address":"3570 West 1st Avenue","lat":39.717965,"libraryname":"Ross-Barnum Branch","state":"CO"},"type":"Feature","geometry":{"type":"Point","coordinates":[-105.034507,39.717965]}},{"properties":{"city":"Denver","lon":-104.987084,"zip":"","librarysystem":"Denver Public Library","id":"a62g1f0sp192","address":"33 East Bayaud Avenue","lat":39.714887,"libraryname":"Ross-Broadway Branch","state":"CO"},"type":"Feature","geometry":{"type":"Point","coordinates":[-104.987084,39.714887]}},{"properties":{"city":"Denver","lon":-104.952375,"zip":"","librarysystem":"Denver Public Library","id":"a62g1enzfdup","address":"305 Milwaukee Street","lat":39.721189,"libraryname":"Ross-Cherry Creek Branch","state":"CO"},"type":"Feature","geometry":{"type":"Point","coordinates":[-104.952375,39.721189]}},{"properties":{"city":"Denver","lon":-104.937662,"zip":"","librarysystem":"Denver Public Library","id":"a62g1enrz28i","address":"4310 East Amherst Avenue","lat":39.665235,"libraryname":"Ross-University Hills Branch","state":"CO"},"type":"Feature","geometry":{"type":"Point","coordinates":[-104.937662,39.665235]}},{"properties":{"city":"Pagosa Springs","lon":-107.017578,"zip":"","librarysystem":"Upper San Juan Library District","id":"a62g1eq2a2h9","address":"811 San Juan Street","lat":37.266587,"libraryname":"Ruby M. Sisson Memorial Public Library","state":"CO"},"type":"Feature","geometry":{"type":"Point","coordinates":[-107.017578,37.266587]}},{"properties":{"city":"Colorado Springs","lon":-104.747934,"zip":"","librarysystem":"Pikes Peak Library District","id":"a62g1ezouww7","address":"685 North Murray Boulevard","lat":38.842953,"libraryname":"Ruth Holly Branch","state":"CO"},"type":"Feature","geometry":{"type":"Point","coordinates":[-104.747934,38.842953]}},{"properties":{"city":"South Fork","lon":-106.721607,"zip":"","librarysystem":"Rio Grande Library District","id":"a62g1evtnqi5","address":"Vista Road And W Hwy 149","lat":37.731868,"libraryname":"Ruth Tabor Memorial Library","state":"CO"},"type":"Feature","geometry":{"type":"Point","coordinates":[-106.721607,37.731868]}},{"properties":{"city":"Saguache","lon":-106.140946,"zip":"","librarysystem":"Saguache County Public Library","id":"a62g1evaq1ao","address":"702 Pitkin Street","lat":38.084638,"libraryname":"Saguache Co Public Library","state":"CO"},"type":"Feature","geometry":{"type":"Point","coordinates":[-106.140946,38.084638]}},{"properties":{"city":"Salida","lon":-105.993218,"zip":"","librarysystem":"Salida Regional Library","id":"a62g1f0dd2m5","address":"405 E Street","lat":38.532917,"libraryname":"Salida Regional Library","state":"CO"},"type":"Feature","geometry":{"type":"Point","coordinates":[-105.993218,38.532917]}},{"properties":{"city":"Norwood","lon":-108.289574,"zip":"","librarysystem":"San Miguel Library District # 2/Norwood Public Library","id":"a62g1exxg0ut","address":"1110 Lucerne Street","lat":38.130265,"libraryname":"San Miguel Library District # 2/Norwood Public Library","state":"CO"},"type":"Feature","geometry":{"type":"Point","coordinates":[-108.289574,38.130265]}},{"properties":{"city":"Colorado Springs","lon":-104.757314,"zip":"","librarysystem":"Pikes Peak Library District","id":"a62g1esdqrea","address":"1821 South Academy Boulevard","lat":38.805995,"libraryname":"Sand Creek Branch","state":"CO"},"type":"Feature","geometry":{"type":"Point","coordinates":[-104.757314,38.805995]}},{"properties":{"city":"Denver","lon":-104.904217,"zip":"","librarysystem":"Denver Public Library","id":"a62g1eo28496","address":"100 South Poplar Street","lat":39.714305,"libraryname":"Schlessman Family Branch","state":"CO"},"type":"Feature","geometry":{"type":"Point","coordinates":[-104.904217,39.714305]}},{"properties":{"city":"Colorado Springs","lon":-104.731434,"zip":"","librarysystem":"Security Public Library","id":"a62g1eod285u","address":"715 Aspen Drive","lat":38.752014,"libraryname":"Security Public Library","state":"CO"},"type":"Feature","geometry":{"type":"Point","coordinates":[-104.731434,38.752014]}},{"properties":{"city":"Sheridan","lon":-105.029036,"zip":"","librarysystem":"Arapahoe Library District","id":"a62g1f0z8ku1","address":"3201 West Oxford Avenue","lat":39.642318,"libraryname":"Sheridan Library","state":"CO"},"type":"Feature","geometry":{"type":"Point","coordinates":[-105.029036,39.642318]}},{"properties":{"city":"Silt","lon":-107.656768,"zip":"","librarysystem":"Garfield County Public Library District","id":"a62g1eu8tflz","address":"600 Home Avenue","lat":39.547927,"libraryname":"Silt Branch Library","state":"CO"},"type":"Feature","geometry":{"type":"Point","coordinates":[-107.656768,39.547927]}},{"properties":{"city":"Silverton","lon":-107.665974,"zip":"","librarysystem":"Silverton Public Library","id":"a62g1ewmk82r","address":"1117 Reese Street","lat":37.811574,"libraryname":"Silverton Public Library","state":"CO"},"type":"Feature","geometry":{"type":"Point","coordinates":[-107.665974,37.811574]}},{"properties":{"city":"Simla","lon":-104.087799,"zip":"","librarysystem":"Elbert County Library","id":"a62g1erjd92r","address":"504 Washingtion","lat":39.139906,"libraryname":"Simla Branch Library","state":"CO"},"type":"Feature","geometry":{"type":"Point","coordinates":[-104.087799,39.139906]}},{"properties":{"city":"Denver","lon":-105.045234,"zip":"","librarysystem":"Denver Public Library","id":"a62g1eus1jk8","address":"4501 West 46th Avenue","lat":39.780299,"libraryname":"Smiley Branch","state":"CO"},"type":"Feature","geometry":{"type":"Point","coordinates":[-105.045234,39.780299]}},{"properties":{"city":"Centennial","lon":-104.768067,"zip":"","librarysystem":"Arapahoe Library District","id":"a62g1ep9ehot","address":"5430 South Biscay Circle","lat":39.618835,"libraryname":"Smoky Hill Public Library","state":"CO"},"type":"Feature","geometry":{"type":"Point","coordinates":[-104.768067,39.618835]}},{"properties":{"city":"Aurora","lon":-104.809403,"zip":"","librarysystem":"Aurora Public Library","id":"a62g1f2cd8jm","address":"15324 East Hampden Circle","lat":39.651215,"libraryname":"South Branch Library","state":"CO"},"type":"Feature","geometry":{"type":"Point","coordinates":[-104.809403,39.651215]}},{"properties":{"city":"Breckenridge","lon":-106.047402,"zip":"","librarysystem":"Summit County Library","id":"a62g1ety4xxk","address":"504 Airport Road","lat":39.490632,"libraryname":"South Branch Library","state":"CO"},"type":"Feature","geometry":{"type":"Point","coordinates":[-106.047402,39.490632]}},{"properties":{"city":"Alamosa","lon":-105.862404,"zip":"","librarysystem":"Southern Peaks Public Library","id":"a62g1ezsyjw6","address":"423 Fourth Street","lat":37.46943,"libraryname":"Southern Peaks Public Library","state":"CO"},"type":"Feature","geometry":{"type":"Point","coordinates":[-105.862404,37.46943]}},{"properties":{"city":"Centennial","lon":-104.960177,"zip":"","librarysystem":"Arapahoe Library District","id":"a62g1evmq1w6","address":"7500 South University Blvd, #101","lat":39.580328,"libraryname":"Southglenn Library","state":"CO"},"type":"Feature","geometry":{"type":"Point","coordinates":[-104.960177,39.580328]}},{"properties":{"city":"Littleton","lon":-104.960177,"zip":"","librarysystem":"Arapahoe Library District","id":"a62g1exqflki","address":"7500 South University Blvd., #101","lat":39.580328,"libraryname":"Southglenn Public Library","state":"CO"},"type":"Feature","geometry":{"type":"Point","coordinates":[-104.960177,39.580328]}},{"properties":{"city":"Arvada","lon":-105.110284,"zip":"","librarysystem":"Jefferson County Public Library","id":"a62g1ezlv4qu","address":"8485 Kipling Street","lat":39.850867,"libraryname":"Standley Lake Library","state":"CO"},"type":"Feature","geometry":{"type":"Point","coordinates":[-105.110284,39.850867]}},{"properties":{"city":"Sterling","lon":-103.208737,"zip":"","librarysystem":"Sterling Public Library","id":"a62g1eqamc9n","address":"421 North Fifth Street","lat":40.629033,"libraryname":"Sterling Public Library","state":"CO"},"type":"Feature","geometry":{"type":"Point","coordinates":[-103.208737,40.629033]}},{"properties":{"city":"Stratton","lon":-102.603509,"zip":"","librarysystem":"Stratton Public Library","id":"a62g1ety207w","address":"331 New York Avenue","lat":39.303175,"libraryname":"Stratton Public Library","state":"CO"},"type":"Feature","geometry":{"type":"Point","coordinates":[-102.603509,39.303175]}},{"properties":{"city":"Frisco","lon":-106.081593,"zip":"","librarysystem":"Summit County Library","id":"a62g1f0nxt96","address":"0037 County Road 1005","lat":39.571312,"libraryname":"Summit Co Public Library","state":"CO"},"type":"Feature","geometry":{"type":"Point","coordinates":[-106.081593,39.571312]}},{"properties":{"city":"Swink","lon":-103.628748,"zip":"","librarysystem":"Swink School/Public Library","id":"a62g1epiv5bq","address":"610 Columbia Ave","lat":38.011377,"libraryname":"Swink School/Public Library","state":"CO"},"type":"Feature","geometry":{"type":"Point","coordinates":[-103.628748,38.011377]}},{"properties":{"city":"Thornton","lon":-104.977712,"zip":"","librarysystem":"Rangeview Library District","id":"a62g1ez66cr6","address":"8992 North Washington","lat":39.859111,"libraryname":"Thornton Branch Library","state":"CO"},"type":"Feature","geometry":{"type":"Point","coordinates":[-104.977712,39.859111]}},{"properties":{"city":"Toponas","lon":-106.801074,"zip":"","librarysystem":"South Routt Library District","id":"a62g1f22p6w1","address":"33650 Road #134","lat":40.05775,"libraryname":"Toponas Public Library","state":"CO"},"type":"Feature","geometry":{"type":"Point","coordinates":[-106.801074,40.05775]}},{"properties":{"city":"Trinidad","lon":-104.508416,"zip":"","librarysystem":"Trinidad/Carnegie Public Library","id":"a62g1eufocjp","address":"202 North Animas Street","lat":37.168172,"libraryname":"Trinidad/Carnegie Public Library","state":"CO"},"type":"Feature","geometry":{"type":"Point","coordinates":[-104.508416,37.168172]}},{"properties":{"city":"Two Buttes","lon":-102.397161,"zip":"","librarysystem":"Baca County Public Library","id":"a62g1epfhil5","address":"440 Main St.","lat":37.566006,"libraryname":"Two Buttes Branch Library","state":"CO"},"type":"Feature","geometry":{"type":"Point","coordinates":[-102.397161,37.566006]}},{"properties":{"city":"Cascade","lon":-104.970244,"zip":"","librarysystem":"Pikes Peak Library District","id":"a62g1er9mw20","address":"8010 Severy","lat":38.896606,"libraryname":"Ute Pass Branch","state":"CO"},"type":"Feature","geometry":{"type":"Point","coordinates":[-104.970244,38.896606]}},{"properties":{"city":"Vail","lon":-106.383345,"zip":"","librarysystem":"Vail Public Library","id":"a62g1ezyq71l","address":"292 West Meadow Drive","lat":39.643055,"libraryname":"Vail Public Library","state":"CO"},"type":"Feature","geometry":{"type":"Point","coordinates":[-106.383345,39.643055]}},{"properties":{"city":"Denver","lon":-104.962232,"zip":"","librarysystem":"Denver Public Library","id":"a62g1et6n48c","address":"4690 Vine Street","lat":39.781681,"libraryname":"Valdez-Perry","state":"CO"},"type":"Feature","geometry":{"type":"Point","coordinates":[-104.962232,39.781681]}},{"properties":{"city":"Victor","lon":-105.14007,"zip":"","librarysystem":"Southern Teller County School/Public Library District","id":"a62g1f1duurb","address":"124 South 3rd Street","lat":38.709743,"libraryname":"Victor Public Library","state":"CO"},"type":"Feature","geometry":{"type":"Point","coordinates":[-105.14007,38.709743]}},{"properties":{"city":"Denver","lon":-104.931547,"zip":"","librarysystem":"Denver Public Library","id":"a62g1euyetiz","address":"1500 South Dahlia Street","lat":39.689188,"libraryname":"Virginia Village Branch","state":"CO"},"type":"Feature","geometry":{"type":"Point","coordinates":[-104.931547,39.689188]}},{"properties":{"city":"Walsh","lon":-102.278297,"zip":"","librarysystem":"Baca County Public Library","id":"a62g1esmhjr5","address":"403 N. Colorado","lat":37.387153,"libraryname":"Walsh Public Library","state":"CO"},"type":"Feature","geometry":{"type":"Point","coordinates":[-102.278297,37.387153]}},{"properties":{"city":"Wellington","lon":-105.004892,"zip":"","librarysystem":"Wellington Public Library","id":"a62g1f0odusa","address":"3800 Wilson Avenue","lat":40.70955,"libraryname":"Wellington Public Library","state":"CO"},"type":"Feature","geometry":{"type":"Point","coordinates":[-105.004892,40.70955]}},{"properties":{"city":"Westcliffe","lon":-105.46839,"zip":"","librarysystem":"West Custer County Library District","id":"a62g1et0adyj","address":"209 Main Street","lat":38.136222,"libraryname":"West Custer Co Ld","state":"CO"},"type":"Feature","geometry":{"type":"Point","coordinates":[-105.46839,38.136222]}},{"properties":{"city":"Hayden","lon":-107.255999,"zip":"","librarysystem":"West Routt Library District","id":"a62g1ewrg2sn","address":"220 East Jefferson Street","lat":40.495996,"libraryname":"West Routt Library District","state":"CO"},"type":"Feature","geometry":{"type":"Point","coordinates":[-107.255999,40.495996]}},{"properties":{"city":"Denver","lon":-105.034337,"zip":"","librarysystem":"Denver Public Library","id":"a62g1evqssj5","address":"1000 South Lowell Boulevard","lat":39.698457,"libraryname":"Westwood Branch","state":"CO"},"type":"Feature","geometry":{"type":"Point","coordinates":[-105.034337,39.698457]}},{"properties":{"city":"Wetmore","lon":-105.085675,"zip":"","librarysystem":"Wetmore Community Library","id":"a62g1f1js6kl","address":"95 County Road 393","lat":38.237534,"libraryname":"Wetmore Community Library","state":"CO"},"type":"Feature","geometry":{"type":"Point","coordinates":[-105.085675,38.237534]}},{"properties":{"city":"Wheat Ridge","lon":-105.057173,"zip":"","librarysystem":"Jefferson County Public Library","id":"a62g1etzk9fc","address":"5475 West 32nd Avenue","lat":39.762228,"libraryname":"Wheat Ridge Library","state":"CO"},"type":"Feature","geometry":{"type":"Point","coordinates":[-105.057173,39.762228]}},{"properties":{"city":"Pueblo West","lon":-104.727782,"zip":"","librarysystem":"Pueblo City-County Library District","id":"a62g1eq1t9cb","address":"298 S Joe Martinez Blvd","lat":38.308233,"libraryname":"White Branch","state":"CO"},"type":"Feature","geometry":{"type":"Point","coordinates":[-104.727782,38.308233]}},{"properties":{"city":"Telluride","lon":-107.811185,"zip":"","librarysystem":"San Miguel County Public Library District # 1","id":"a62g1excefx7","address":"100 W Pacific Ave","lat":37.93628,"libraryname":"Wilkinson Public Library","state":"CO"},"type":"Feature","geometry":{"type":"Point","coordinates":[-107.811185,37.93628]}},{"properties":{"city":"Windsor","lon":-104.904115,"zip":"","librarysystem":"Windsor Severance Library District","id":"a62g1f06domh","address":"214 Fifth Street","lat":40.479624,"libraryname":"Windsor Severance Library District","state":"CO"},"type":"Feature","geometry":{"type":"Point","coordinates":[-104.904115,40.479624]}},{"properties":{"city":"Denver","lon":-105.025459,"zip":"","librarysystem":"Denver Public Library","id":"a62g1f2ma95j","address":"3265 Federal Boulevard","lat":39.762518,"libraryname":"Woodbury Branch","state":"CO"},"type":"Feature","geometry":{"type":"Point","coordinates":[-105.025459,39.762518]}},{"properties":{"city":"Woodland Park","lon":-105.051379,"zip":"","librarysystem":"Rampart Library District","id":"a62g1f08uxc7","address":"218 East Midland","lat":38.994545,"libraryname":"Woodland Park Public Library","state":"CO"},"type":"Feature","geometry":{"type":"Point","coordinates":[-105.051379,38.994545]}},{"properties":{"city":"Wray","lon":-102.224918,"zip":"","librarysystem":"Wray Public Library","id":"a62g1ex838ic","address":"621 Blake Street","lat":40.075789,"libraryname":"Wray Public Library","state":"CO"},"type":"Feature","geometry":{"type":"Point","coordinates":[-102.224918,40.075789]}},{"properties":{"city":"Yampa","lon":-106.908883,"zip":"","librarysystem":"South Routt Library District","id":"a62g1f0tu2yi","address":"310 Main St.","lat":40.154206,"libraryname":"Yampa Public Library","state":"CO"},"type":"Feature","geometry":{"type":"Point","coordinates":[-106.908883,40.154206]}},{"properties":{"city":"Yuma","lon":-102.724109,"zip":"","librarysystem":"Yuma Public Library","id":"a62g1euz75it","address":"114 West Third Avenue","lat":40.123429,"libraryname":"Yuma Public Library","state":"CO"},"type":"Feature","geometry":{"type":"Point","coordinates":[-102.724109,40.123429]}}],"is_temporal":false,"author":{"url":"http://www.publiclibraries.com/colorado.htm","metadata":"","contact_name":"","contact_address":"","source":"publiclibrairies.com","contact_phone":""},"source":"http://www.publiclibraries.com/colorado.htm","pagination":{"sort":null,"start":0,"total":247,"limit":1000000},"state":"complete","tags":"books,colorado,education,libraries,library,public","published":"2008-05-09T12:00:00Z","id":878}