{"type":"FeatureCollection","data_type":"Dataset","url_type":null,"permissions":[{"permissions":{"download":true,"view":true},"group_id":"everyone"}],"classification":null,"title":"AllTest500plus","count":695,"stream_id":8850,"contributor":{"url":"http://geocommons.com/users/4048","name":"cskelton"},"data_attributes":null,"calculation_params":null,"icon_link":null,"link":"http://geocommons.com/overlays/8850.json","extent":[-123.76,49.2043,-123.025,49.47],"geometry_types":["point"],"unique_name":null,"name":"AllTest500plus","feature_count":695,"description":"","next_feature":null,"is_raster":false,"short_classification":"Y","stats":{"tickets":{"max":17899,"mean":1889.65035971223,"variance":3472884.20178301,"stdev":1863.56760054016,"min":500,"median":1207},"lat":{"max":49.470036,"mean":49.2720292187051,"variance":0.000256307491926162,"stdev":0.016009606238948,"min":49.204285,"median":49.274521},"long":{"max":-123.024681,"mean":-123.122462971223,"variance":0.00114513876869945,"stdev":0.0338398990645576,"min":-123.760406,"median":-123.123215}},"features":[{"properties":{"tickets":500,"id":"a62pigykkc3l","address":"2950 Pine St.","lat":49.25943,"long":-123.143539},"type":"Feature","geometry":{"type":"Point","coordinates":[-123.143539,49.25943]}},{"properties":{"tickets":500,"id":"a62pih6qxudx","address":"50 2nd Ave E.","lat":49.26918,"long":-123.103691},"type":"Feature","geometry":{"type":"Point","coordinates":[-123.103691,49.26918]}},{"properties":{"tickets":500,"id":"a62piharqxna","address":"2650 Hastings St. E.","lat":49.281158,"long":-123.050629},"type":"Feature","geometry":{"type":"Point","coordinates":[-123.050629,49.281158]}},{"properties":{"tickets":501,"id":"a62pih6lclxl","address":"3250 Findlay St.","lat":49.255836,"long":-123.067902},"type":"Feature","geometry":{"type":"Point","coordinates":[-123.067902,49.255836]}},{"properties":{"tickets":501,"id":"a62pih3kd1ec","address":"1550 16th Ave W.","lat":49.257076,"long":-123.140053},"type":"Feature","geometry":{"type":"Point","coordinates":[-123.140053,49.257076]}},{"properties":{"tickets":501,"id":"a62pigxl5u6u","address":"650 Abbott St.","lat":49.279167,"long":-123.107635},"type":"Feature","geometry":{"type":"Point","coordinates":[-123.107635,49.279167]}},{"properties":{"tickets":503,"id":"a62pih9kuu11","address":"1250 Pacific St.","lat":49.280182,"long":-123.13736},"type":"Feature","geometry":{"type":"Point","coordinates":[-123.13736,49.280182]}},{"properties":{"tickets":503,"id":"a62pih9nz8kt","address":"2050 Barclay St.","lat":49.292465,"long":-123.141182},"type":"Feature","geometry":{"type":"Point","coordinates":[-123.141182,49.292465]}},{"properties":{"tickets":504,"id":"a62pih7hg3dj","address":"650 Stamp's Landing","lat":49.268726,"long":-123.11805},"type":"Feature","geometry":{"type":"Point","coordinates":[-123.11805,49.268726]}},{"properties":{"tickets":504,"id":"a62pih68vxbb","address":"50 Pacific Blvd.","lat":49.277065,"long":-123.104614},"type":"Feature","geometry":{"type":"Point","coordinates":[-123.104614,49.277065]}},{"properties":{"tickets":505,"id":"a62pih1kkidw","address":"6450 Main St.","lat":49.226143,"long":-123.101601},"type":"Feature","geometry":{"type":"Point","coordinates":[-123.101601,49.226143]}},{"properties":{"tickets":505,"id":"a62pih3pgnhh","address":"3650 Broadway St. W.","lat":49.264305,"long":-123.184845},"type":"Feature","geometry":{"type":"Point","coordinates":[-123.184845,49.264305]}},{"properties":{"tickets":505,"id":"a62pigz0itbe","address":"1350 Harwood St.","lat":49.28183,"long":-123.137733},"type":"Feature","geometry":{"type":"Point","coordinates":[-123.137733,49.28183]}},{"properties":{"tickets":506,"id":"a62pih4sfn42","address":"750 13th Ave W.","lat":49.259541,"long":-123.12101},"type":"Feature","geometry":{"type":"Point","coordinates":[-123.12101,49.259541]}},{"properties":{"tickets":506,"id":"a62pih8evcot","address":"2850 Hemlock St.","lat":49.260258,"long":-123.13623},"type":"Feature","geometry":{"type":"Point","coordinates":[-123.13623,49.260258]}},{"properties":{"tickets":506,"id":"a62pihbpp4w2","address":"550 Dunsmuir St.","lat":49.282681,"long":-123.114937},"type":"Feature","geometry":{"type":"Point","coordinates":[-123.114937,49.282681]}},{"properties":{"tickets":507,"id":"a62pih18bbil","address":"1650 Kitchener St.","lat":49.272144,"long":-123.070549},"type":"Feature","geometry":{"type":"Point","coordinates":[-123.070549,49.272144]}},{"properties":{"tickets":508,"id":"a62pigw3sse8","address":"2450 Quebec St.","lat":49.263237,"long":-123.102951},"type":"Feature","geometry":{"type":"Point","coordinates":[-123.102951,49.263237]}},{"properties":{"tickets":508,"id":"a62pigxqyoyi","address":"1950 1st Ave W.","lat":49.270725,"long":-123.149124},"type":"Feature","geometry":{"type":"Point","coordinates":[-123.149124,49.270725]}},{"properties":{"tickets":509,"id":"a62pih43h4r2","address":"2450 Cypress St","lat":49.264236,"long":-123.148117},"type":"Feature","geometry":{"type":"Point","coordinates":[-123.148117,49.264236]}},{"properties":{"tickets":512,"id":"a62pih2mgan5","address":"650 Carrall St.","lat":49.278851,"long":-123.104721},"type":"Feature","geometry":{"type":"Point","coordinates":[-123.104721,49.278851]}},{"properties":{"tickets":513,"id":"a62pihb44kcx","address":"4250 Willow St.","lat":49.247597,"long":-123.122391},"type":"Feature","geometry":{"type":"Point","coordinates":[-123.122391,49.247597]}},{"properties":{"tickets":517,"id":"a62pih751y8w","address":"2650 Birch St.","lat":49.262081,"long":-123.133774},"type":"Feature","geometry":{"type":"Point","coordinates":[-123.133774,49.262081]}},{"properties":{"tickets":518,"id":"a62pih630tas","address":"250 14th Ave E.","lat":49.258377,"long":-123.099709},"type":"Feature","geometry":{"type":"Point","coordinates":[-123.099709,49.258377]}},{"properties":{"tickets":518,"id":"a62pih2d2w1n","address":"2050 11th Ave W.","lat":49.261921,"long":-123.151619},"type":"Feature","geometry":{"type":"Point","coordinates":[-123.151619,49.261921]}},{"properties":{"tickets":518,"id":"a62pih78zadw","address":"350 Thurlow St.","lat":49.288055,"long":-123.119576},"type":"Feature","geometry":{"type":"Point","coordinates":[-123.119576,49.288055]}},{"properties":{"tickets":518,"id":"a62pih0jaacg","address":"750 Broughton St.","lat":49.288284,"long":-123.129356},"type":"Feature","geometry":{"type":"Point","coordinates":[-123.129356,49.288284]}},{"properties":{"tickets":518,"id":"a62pihavbu1a","address":"1950 Pendrell St.","lat":49.289444,"long":-123.143021},"type":"Feature","geometry":{"type":"Point","coordinates":[-123.143021,49.289444]}},{"properties":{"tickets":521,"id":"a62pih8f620k","address":"1750 11th Ave E.","lat":49.260445,"long":-123.069206},"type":"Feature","geometry":{"type":"Point","coordinates":[-123.069206,49.260445]}},{"properties":{"tickets":522,"id":"a62pigy4bch7","address":"650 Pender St. W.","lat":49.284336,"long":-123.114342},"type":"Feature","geometry":{"type":"Point","coordinates":[-123.114342,49.284336]}},{"properties":{"tickets":523,"id":"a62pih28eljy","address":"1750 Kingsway","lat":49.246746,"long":-123.068588},"type":"Feature","geometry":{"type":"Point","coordinates":[-123.068588,49.246746]}},{"properties":{"tickets":523,"id":"a62pih62a2dq","address":"1050 15th Ave W.","lat":49.257832,"long":-123.128128},"type":"Feature","geometry":{"type":"Point","coordinates":[-123.128128,49.257832]}},{"properties":{"tickets":523,"id":"a62pih4ml1sg","address":"2550 Ontario St.","lat":49.262558,"long":-123.104897},"type":"Feature","geometry":{"type":"Point","coordinates":[-123.104897,49.262558]}},{"properties":{"tickets":523,"id":"a62pih1xxbua","address":"2050 8th Ave W.","lat":49.26474,"long":-123.151825},"type":"Feature","geometry":{"type":"Point","coordinates":[-123.151825,49.26474]}},{"properties":{"tickets":523,"id":"a62pih7cvpl6","address":"750 Nicola St.","lat":49.289043,"long":-123.130531},"type":"Feature","geometry":{"type":"Point","coordinates":[-123.130531,49.289043]}},{"properties":{"tickets":524,"id":"a62pigzi38ta","address":"3650 4th Ave W.","lat":49.268597,"long":-123.184677},"type":"Feature","geometry":{"type":"Point","coordinates":[-123.184677,49.268597]}},{"properties":{"tickets":525,"id":"a62pigwe1b4n","address":"1550 Haro St.","lat":49.288338,"long":-123.132759},"type":"Feature","geometry":{"type":"Point","coordinates":[-123.132759,49.288338]}},{"properties":{"tickets":526,"id":"a62pigx9jypx","address":"150 6th Ave W.","lat":49.265625,"long":-123.108131},"type":"Feature","geometry":{"type":"Point","coordinates":[-123.108131,49.265625]}},{"properties":{"tickets":527,"id":"a62pih5fzu5r","address":"650 14th Ave W.","lat":49.258812,"long":-123.118904},"type":"Feature","geometry":{"type":"Point","coordinates":[-123.118904,49.258812]}},{"properties":{"tickets":528,"id":"a62pih439wpf","address":"550 Smithe St.","lat":49.279354,"long":-123.119957},"type":"Feature","geometry":{"type":"Point","coordinates":[-123.119957,49.279354]}},{"properties":{"tickets":528,"id":"a62pigxjuknt","address":"1350 Comox St.","lat":49.284653,"long":-123.133514},"type":"Feature","geometry":{"type":"Point","coordinates":[-123.133514,49.284653]}},{"properties":{"tickets":532,"id":"a62pigw4bc32","address":"2550 Trafalgar St.","lat":49.263546,"long":-123.164665},"type":"Feature","geometry":{"type":"Point","coordinates":[-123.164665,49.263546]}},{"properties":{"tickets":532,"id":"a62pihb4jlp0","address":"2450 Trafalgar St.","lat":49.264503,"long":-123.164642},"type":"Feature","geometry":{"type":"Point","coordinates":[-123.164642,49.264503]}},{"properties":{"tickets":533,"id":"a62pigzmvdqz","address":"2750 Arbutus St.","lat":49.261467,"long":-123.153046},"type":"Feature","geometry":{"type":"Point","coordinates":[-123.153046,49.261467]}},{"properties":{"tickets":533,"id":"a62pih7u9ags","address":"350 7th Ave W.","lat":49.264797,"long":-123.111885},"type":"Feature","geometry":{"type":"Point","coordinates":[-123.111885,49.264797]}},{"properties":{"tickets":535,"id":"a62pigz7uz7y","address":"1750 3rd Ave W.","lat":49.268875,"long":-123.144386},"type":"Feature","geometry":{"type":"Point","coordinates":[-123.144386,49.268875]}},{"properties":{"tickets":536,"id":"a62pigxutjrz","address":"1650 8th Ave E.","lat":49.263214,"long":-123.070648},"type":"Feature","geometry":{"type":"Point","coordinates":[-123.070648,49.263214]}},{"properties":{"tickets":538,"id":"a62pih6kz503","address":"1850 2nd Ave W.","lat":49.269817,"long":-123.146782},"type":"Feature","geometry":{"type":"Point","coordinates":[-123.146782,49.269817]}},{"properties":{"tickets":540,"id":"a62pih2y76ol","address":"250 Dunsmuir St.","lat":49.280796,"long":-123.112038},"type":"Feature","geometry":{"type":"Point","coordinates":[-123.112038,49.280796]}},{"properties":{"tickets":540,"id":"a62pihacroit","address":"650 Thurlow St.","lat":49.286087,"long":-123.122566},"type":"Feature","geometry":{"type":"Point","coordinates":[-123.122566,49.286087]}},{"properties":{"tickets":545,"id":"a62pih3rq6aq","address":"2450 Glen Dr.","lat":49.262882,"long":-123.08136},"type":"Feature","geometry":{"type":"Point","coordinates":[-123.08136,49.262882]}},{"properties":{"tickets":545,"id":"a62pih3ik20l","address":"650 Nelson St.","lat":49.278934,"long":-123.122536},"type":"Feature","geometry":{"type":"Point","coordinates":[-123.122536,49.278934]}},{"properties":{"tickets":547,"id":"a62pigwu954n","address":"2950 Hemlock St.","lat":49.259319,"long":-123.136261},"type":"Feature","geometry":{"type":"Point","coordinates":[-123.136261,49.259319]}},{"properties":{"tickets":547,"id":"a62pih3iowjp","address":"1750 Napier St.","lat":49.27486,"long":-123.068542},"type":"Feature","geometry":{"type":"Point","coordinates":[-123.068542,49.27486]}},{"properties":{"tickets":549,"id":"a62pih2707al","address":"750 14th Ave W.","lat":49.258621,"long":-123.121063},"type":"Feature","geometry":{"type":"Point","coordinates":[-123.121063,49.258621]}},{"properties":{"tickets":549,"id":"a62pigxb5lxu","address":"1650 4th Ave W.","lat":49.267944,"long":-123.142143},"type":"Feature","geometry":{"type":"Point","coordinates":[-123.142143,49.267944]}},{"properties":{"tickets":550,"id":"a62pih2aunpg","address":"1350 Pender St. W.","lat":49.289303,"long":-123.126526},"type":"Feature","geometry":{"type":"Point","coordinates":[-123.126526,49.289303]}},{"properties":{"tickets":553,"id":"a62pih8p35ul","address":"2650 Heather St.","lat":49.261852,"long":-123.119926},"type":"Feature","geometry":{"type":"Point","coordinates":[-123.119926,49.261852]}},{"properties":{"tickets":554,"id":"a62pih9u6p6n","address":"6250 Fraser St.","lat":49.22781,"long":-123.090607},"type":"Feature","geometry":{"type":"Point","coordinates":[-123.090607,49.22781]}},{"properties":{"tickets":554,"id":"a62pigw12mdg","address":"1850 Alberni St.","lat":49.292698,"long":-123.135201},"type":"Feature","geometry":{"type":"Point","coordinates":[-123.135201,49.292698]}},{"properties":{"tickets":555,"id":"a62pih7pno2n","address":"2550 Stephens St.","lat":49.263615,"long":-123.166382},"type":"Feature","geometry":{"type":"Point","coordinates":[-123.166382,49.263615]}},{"properties":{"tickets":557,"id":"a62pih0si00m","address":"1750 7th Ave E.","lat":49.264164,"long":-123.068764},"type":"Feature","geometry":{"type":"Point","coordinates":[-123.068764,49.264164]}},{"properties":{"tickets":559,"id":"a62pih67pkfm","address":"550 Hastings St. W.","lat":49.284363,"long":-123.112389},"type":"Feature","geometry":{"type":"Point","coordinates":[-123.112389,49.284363]}},{"properties":{"tickets":564,"id":"a62pih3nogan","address":"2050 5th Ave W.","lat":49.267231,"long":-123.151642},"type":"Feature","geometry":{"type":"Point","coordinates":[-123.151642,49.267231]}},{"properties":{"tickets":566,"id":"a62pihbc753c","address":"3050 Laurel St.","lat":49.258217,"long":-123.124359},"type":"Feature","geometry":{"type":"Point","coordinates":[-123.124359,49.258217]}},{"properties":{"tickets":566,"id":"a62pih63dthv","address":"450 Thurlow St.","lat":49.287716,"long":-123.120094},"type":"Feature","geometry":{"type":"Point","coordinates":[-123.120094,49.287716]}},{"properties":{"tickets":567,"id":"a62pihat8cdi","address":"3550 Vanness Ave.","lat":49.236458,"long":-123.027962},"type":"Feature","geometry":{"type":"Point","coordinates":[-123.027962,49.236458]}},{"properties":{"tickets":569,"id":"a62pihbtzmzj","address":"1750 Fir St.","lat":49.270149,"long":-123.140793},"type":"Feature","geometry":{"type":"Point","coordinates":[-123.140793,49.270149]}},{"properties":{"tickets":571,"id":"a62pigwzj7fl","address":"350 4th Ave W.","lat":49.267483,"long":-123.111443},"type":"Feature","geometry":{"type":"Point","coordinates":[-123.111443,49.267483]}},{"properties":{"tickets":575,"id":"a62pih1dk90g","address":"2750 Hemlock St.","lat":49.261196,"long":-123.136192},"type":"Feature","geometry":{"type":"Point","coordinates":[-123.136192,49.261196]}},{"properties":{"tickets":576,"id":"a62pih0q7pxj","address":"1950 Barclay St.","lat":49.291538,"long":-123.139832},"type":"Feature","geometry":{"type":"Point","coordinates":[-123.139832,49.291538]}},{"properties":{"tickets":577,"id":"a62pih3b29py","address":"2350 Quebec St.","lat":49.264175,"long":-123.102913},"type":"Feature","geometry":{"type":"Point","coordinates":[-123.102913,49.264175]}},{"properties":{"tickets":578,"id":"a62pigyeu3a4","address":"750 Drake St.","lat":49.276501,"long":-123.128387},"type":"Feature","geometry":{"type":"Point","coordinates":[-123.128387,49.276501]}},{"properties":{"tickets":580,"id":"a62piha9k22p","address":"1150 Denman St.","lat":49.287945,"long":-123.140793},"type":"Feature","geometry":{"type":"Point","coordinates":[-123.140793,49.287945]}},{"properties":{"tickets":582,"id":"a62pih8c3snd","address":"2050 Broadway St. W.","lat":49.263783,"long":-123.152344},"type":"Feature","geometry":{"type":"Point","coordinates":[-123.152344,49.263783]}},{"properties":{"tickets":583,"id":"a62pih4bez0z","address":"2150 42nd Ave W.","lat":49.23362,"long":-123.157082},"type":"Feature","geometry":{"type":"Point","coordinates":[-123.157082,49.23362]}},{"properties":{"tickets":583,"id":"a62pigvggtft","address":"2150 Yukon St.","lat":49.266365,"long":-123.112755},"type":"Feature","geometry":{"type":"Point","coordinates":[-123.112755,49.266365]}},{"properties":{"tickets":583,"id":"a62pih2x8k65","address":"1250 Harwood St.","lat":49.280888,"long":-123.136284},"type":"Feature","geometry":{"type":"Point","coordinates":[-123.136284,49.280888]}},{"properties":{"tickets":585,"id":"a62pih5h7wk2","address":"2250 Kingsway","lat":49.242687,"long":-123.059929},"type":"Feature","geometry":{"type":"Point","coordinates":[-123.059929,49.242687]}},{"properties":{"tickets":585,"id":"a62pigyq9r01","address":"150 Carrall St.","lat":49.283627,"long":-123.104294},"type":"Feature","geometry":{"type":"Point","coordinates":[-123.104294,49.283627]}},{"properties":{"tickets":588,"id":"a62pih456m37","address":"1650 Grant St.","lat":49.2714,"long":-123.070564},"type":"Feature","geometry":{"type":"Point","coordinates":[-123.070564,49.2714]}},{"properties":{"tickets":589,"id":"a62pih40vgml","address":"250 8th Ave W.","lat":49.263863,"long":-123.110214},"type":"Feature","geometry":{"type":"Point","coordinates":[-123.110214,49.263863]}},{"properties":{"tickets":589,"id":"a62pih4rell5","address":"1650 Barclay St.","lat":49.288548,"long":-123.135193},"type":"Feature","geometry":{"type":"Point","coordinates":[-123.135193,49.288548]}},{"properties":{"tickets":593,"id":"a62pigx3p5lf","address":"450 Broadway St. W.","lat":49.263191,"long":-123.113853},"type":"Feature","geometry":{"type":"Point","coordinates":[-123.113853,49.263191]}},{"properties":{"tickets":596,"id":"a62pih0mgzh9","address":"1450 Walnut St.","lat":49.27298,"long":-123.148956},"type":"Feature","geometry":{"type":"Point","coordinates":[-123.148956,49.27298]}},{"properties":{"tickets":600,"id":"a62pih8689qx","address":"750 Abbott St.","lat":49.278419,"long":-123.107635},"type":"Feature","geometry":{"type":"Point","coordinates":[-123.107635,49.278419]}},{"properties":{"tickets":602,"id":"a62pih4f3ij5","address":"950 15th Ave W.","lat":49.257793,"long":-123.125725},"type":"Feature","geometry":{"type":"Point","coordinates":[-123.125725,49.257793]}},{"properties":{"tickets":604,"id":"a62pih381ltn","address":"150 3rd Ave W.","lat":49.268368,"long":-123.108055},"type":"Feature","geometry":{"type":"Point","coordinates":[-123.108055,49.268368]}},{"properties":{"tickets":608,"id":"a62pih5jof0e","address":"2650 Ash St.","lat":49.26181,"long":-123.117584},"type":"Feature","geometry":{"type":"Point","coordinates":[-123.117584,49.26181]}},{"properties":{"tickets":608,"id":"a62pih3qqost","address":"650 Citadel Parade","lat":49.278665,"long":-123.110985},"type":"Feature","geometry":{"type":"Point","coordinates":[-123.110985,49.278665]}},{"properties":{"tickets":610,"id":"a62pih6j9orh","address":"2650 Pine St.","lat":49.26223,"long":-123.143456},"type":"Feature","geometry":{"type":"Point","coordinates":[-123.143456,49.26223]}},{"properties":{"tickets":611,"id":"a62pih5qf0gx","address":"1450 Howe St.","lat":49.2752,"long":-123.131157},"type":"Feature","geometry":{"type":"Point","coordinates":[-123.131157,49.2752]}},{"properties":{"tickets":612,"id":"a62pih5est50","address":"1750 Comox St.","lat":49.288158,"long":-123.138924},"type":"Feature","geometry":{"type":"Point","coordinates":[-123.138924,49.288158]}},{"properties":{"tickets":613,"id":"a62pih7c3pvl","address":"950 13th Ave W.","lat":49.259617,"long":-123.125557},"type":"Feature","geometry":{"type":"Point","coordinates":[-123.125557,49.259617]}},{"properties":{"tickets":614,"id":"a62pih7cme71","address":"1050 13th Ave W.","lat":49.259655,"long":-123.127953},"type":"Feature","geometry":{"type":"Point","coordinates":[-123.127953,49.259655]}},{"properties":{"tickets":616,"id":"a62pih7glfvt","address":"1650 10th Ave E.","lat":49.261402,"long":-123.070618},"type":"Feature","geometry":{"type":"Point","coordinates":[-123.070618,49.261402]}},{"properties":{"tickets":624,"id":"a62pih514zcz","address":"450 Nelson St.","lat":49.277672,"long":-123.120598},"type":"Feature","geometry":{"type":"Point","coordinates":[-123.120598,49.277672]}},{"properties":{"tickets":624,"id":"a62pih5dilgi","address":"650 Burrard St.","lat":49.285275,"long":-123.11985},"type":"Feature","geometry":{"type":"Point","coordinates":[-123.11985,49.285275]}},{"properties":{"tickets":627,"id":"a62pih3dowsc","address":"2050 Yukon St.","lat":49.267113,"long":-123.112724},"type":"Feature","geometry":{"type":"Point","coordinates":[-123.112724,49.267113]}},{"properties":{"tickets":629,"id":"a62pih74vaxw","address":"2450 Manitoba St.","lat":49.263454,"long":-123.106819},"type":"Feature","geometry":{"type":"Point","coordinates":[-123.106819,49.263454]}},{"properties":{"tickets":630,"id":"a62pih3jz2y2","address":"150 4th Ave E.","lat":49.26733,"long":-123.101562},"type":"Feature","geometry":{"type":"Point","coordinates":[-123.101562,49.26733]}},{"properties":{"tickets":632,"id":"a62pih9k48il","address":"2850 Cambie St.","lat":49.259911,"long":-123.114891},"type":"Feature","geometry":{"type":"Point","coordinates":[-123.114891,49.259911]}},{"properties":{"tickets":632,"id":"a62pigxcdjpw","address":"1850 6th Ave W.","lat":49.266323,"long":-123.146873},"type":"Feature","geometry":{"type":"Point","coordinates":[-123.146873,49.266323]}},{"properties":{"tickets":637,"id":"a62pigzoy718","address":"1850 8th Ave W.","lat":49.264656,"long":-123.146896},"type":"Feature","geometry":{"type":"Point","coordinates":[-123.146896,49.264656]}},{"properties":{"tickets":637,"id":"a62pigxryc94","address":"350 5th Ave W.","lat":49.266617,"long":-123.111794},"type":"Feature","geometry":{"type":"Point","coordinates":[-123.111794,49.266617]}},{"properties":{"tickets":639,"id":"a62pih2z7n7e","address":"2250 1st Ave W.","lat":49.27084,"long":-123.15625},"type":"Feature","geometry":{"type":"Point","coordinates":[-123.15625,49.27084]}},{"properties":{"tickets":640,"id":"a62pigx1ejlm","address":"1750 Charles St.","lat":49.273033,"long":-123.068626},"type":"Feature","geometry":{"type":"Point","coordinates":[-123.068626,49.273033]}},{"properties":{"tickets":640,"id":"a62pih4g646n","address":"1850 Nelson St.","lat":49.28989,"long":-123.13942},"type":"Feature","geometry":{"type":"Point","coordinates":[-123.13942,49.28989]}},{"properties":{"tickets":642,"id":"a62pih9ob0r5","address":"5650 Ormidale St.","lat":49.23278,"long":-123.024803},"type":"Feature","geometry":{"type":"Point","coordinates":[-123.024803,49.23278]}},{"properties":{"tickets":643,"id":"a62pihb8sqkx","address":"950 Georgia St. W.","lat":49.284088,"long":-123.120605},"type":"Feature","geometry":{"type":"Point","coordinates":[-123.120605,49.284088]}},{"properties":{"tickets":649,"id":"a62pih3fidsx","address":"4250 Dunbar St.","lat":49.248837,"long":-123.185226},"type":"Feature","geometry":{"type":"Point","coordinates":[-123.185226,49.248837]}},{"properties":{"tickets":650,"id":"a62pigysnk3e","address":"250 10th Ave E.","lat":49.262009,"long":-123.099594},"type":"Feature","geometry":{"type":"Point","coordinates":[-123.099594,49.262009]}},{"properties":{"tickets":651,"id":"a62piha00oph","address":"1950 3rd Ave W.","lat":49.26897,"long":-123.149178},"type":"Feature","geometry":{"type":"Point","coordinates":[-123.149178,49.26897]}},{"properties":{"tickets":656,"id":"a62pigvfdk5x","address":"5350 Boulevard W.","lat":49.236427,"long":-123.110619},"type":"Feature","geometry":{"type":"Point","coordinates":[-123.110619,49.236427]}},{"properties":{"tickets":665,"id":"a62pigvqx77u","address":"5450 Boulevard W.","lat":49.235935,"long":-123.110641},"type":"Feature","geometry":{"type":"Point","coordinates":[-123.110641,49.235935]}},{"properties":{"tickets":669,"id":"a62pih2tqhjo","address":"1350 10th Ave W.","lat":49.262573,"long":-123.134972},"type":"Feature","geometry":{"type":"Point","coordinates":[-123.134972,49.262573]}},{"properties":{"tickets":673,"id":"a62pih8hv35m","address":"550 17th Ave W.","lat":49.256031,"long":-123.116051},"type":"Feature","geometry":{"type":"Point","coordinates":[-123.116051,49.256031]}},{"properties":{"tickets":673,"id":"a62pih7ay12y","address":"1850 3rd Ave W.","lat":49.268932,"long":-123.146835},"type":"Feature","geometry":{"type":"Point","coordinates":[-123.146835,49.268932]}},{"properties":{"tickets":673,"id":"a62pigvvinwe","address":"950 Chilco St.","lat":49.291962,"long":-123.140526},"type":"Feature","geometry":{"type":"Point","coordinates":[-123.140526,49.291962]}},{"properties":{"tickets":675,"id":"a62pih3w969h","address":"850 13th Ave W.","lat":49.259575,"long":-123.123184},"type":"Feature","geometry":{"type":"Point","coordinates":[-123.123184,49.259575]}},{"properties":{"tickets":675,"id":"a62pih1aqvhj","address":"650 Beatty St.","lat":49.279263,"long":-123.111412},"type":"Feature","geometry":{"type":"Point","coordinates":[-123.111412,49.279263]}},{"properties":{"tickets":677,"id":"a62pigymc3v1","address":"750 Gore Ave.","lat":49.278065,"long":-123.097015},"type":"Feature","geometry":{"type":"Point","coordinates":[-123.097015,49.278065]}},{"properties":{"tickets":677,"id":"a62pih9wdkmy","address":"650 Gore Ave.","lat":49.278973,"long":-123.097122},"type":"Feature","geometry":{"type":"Point","coordinates":[-123.097122,49.278973]}},{"properties":{"tickets":678,"id":"a62pih94xlp8","address":"450 17th Ave W.","lat":49.255833,"long":-123.113808},"type":"Feature","geometry":{"type":"Point","coordinates":[-123.113808,49.255833]}},{"properties":{"tickets":679,"id":"a62pih0wzq9h","address":"1750 Grant St.","lat":49.271267,"long":-123.068672},"type":"Feature","geometry":{"type":"Point","coordinates":[-123.068672,49.271267]}},{"properties":{"tickets":679,"id":"a62pih9zkm9o","address":"550 Bute St.","lat":49.288105,"long":-123.123795},"type":"Feature","geometry":{"type":"Point","coordinates":[-123.123795,49.288105]}},{"properties":{"tickets":690,"id":"a62pih1h4esg","address":"2750 Laurel St.","lat":49.261051,"long":-123.12542},"type":"Feature","geometry":{"type":"Point","coordinates":[-123.12542,49.261051]}},{"properties":{"tickets":691,"id":"a62pihbibgro","address":"850 Denman St.","lat":49.290768,"long":-123.136536},"type":"Feature","geometry":{"type":"Point","coordinates":[-123.136536,49.290768]}},{"properties":{"tickets":692,"id":"a62pihbku7va","address":"950 Pender St. W.","lat":49.28624,"long":-123.117386},"type":"Feature","geometry":{"type":"Point","coordinates":[-123.117386,49.28624]}},{"properties":{"tickets":695,"id":"a62pih9zxbk9","address":"2250 Pine St.","lat":49.265831,"long":-123.143318},"type":"Feature","geometry":{"type":"Point","coordinates":[-123.143318,49.265831]}},{"properties":{"tickets":695,"id":"a62pigylgto9","address":"450 Carrall St.","lat":49.280979,"long":-123.104355},"type":"Feature","geometry":{"type":"Point","coordinates":[-123.104355,49.280979]}},{"properties":{"tickets":696,"id":"a62pigw9se49","address":"50 50th Ave E.","lat":49.224762,"long":-123.104874},"type":"Feature","geometry":{"type":"Point","coordinates":[-123.104874,49.224762]}},{"properties":{"tickets":701,"id":"a62piha8purq","address":"2050 Kingsway","lat":49.244785,"long":-123.064415},"type":"Feature","geometry":{"type":"Point","coordinates":[-123.064415,49.244785]}},{"properties":{"tickets":705,"id":"a62pigwkrh25","address":"4650 Sidney St.","lat":49.244099,"long":-123.06414},"type":"Feature","geometry":{"type":"Point","coordinates":[-123.06414,49.244099]}},{"properties":{"tickets":705,"id":"a62pigy6vp16","address":"750 Jervis St.","lat":49.287395,"long":-123.127953},"type":"Feature","geometry":{"type":"Point","coordinates":[-123.127953,49.287395]}},{"properties":{"tickets":706,"id":"a62pigyrzoi4","address":"1250 73rd Ave W.","lat":49.204285,"long":-123.134125},"type":"Feature","geometry":{"type":"Point","coordinates":[-123.134125,49.204285]}},{"properties":{"tickets":707,"id":"a62pih5srzxi","address":"2050 Pine St.","lat":49.267555,"long":-123.143257},"type":"Feature","geometry":{"type":"Point","coordinates":[-123.143257,49.267555]}},{"properties":{"tickets":707,"id":"a62pih7dkuyk","address":"1650 2nd Ave E.","lat":49.268707,"long":-123.07061},"type":"Feature","geometry":{"type":"Point","coordinates":[-123.07061,49.268707]}},{"properties":{"tickets":708,"id":"a62pigvk7iwa","address":"2250 Yukon St.","lat":49.265255,"long":-123.112823},"type":"Feature","geometry":{"type":"Point","coordinates":[-123.112823,49.265255]}},{"properties":{"tickets":709,"id":"a62pih6mb3fd","address":"2550 Hemlock St.","lat":49.263054,"long":-123.136101},"type":"Feature","geometry":{"type":"Point","coordinates":[-123.136101,49.263054]}},{"properties":{"tickets":710,"id":"a62pih2fyuyu","address":"5750 Balsam St.","lat":49.2342,"long":-123.161362},"type":"Feature","geometry":{"type":"Point","coordinates":[-123.161362,49.2342]}},{"properties":{"tickets":711,"id":"a62pigzdoivs","address":"1650 11th Ave W.","lat":49.261749,"long":-123.142303},"type":"Feature","geometry":{"type":"Point","coordinates":[-123.142303,49.261749]}},{"properties":{"tickets":712,"id":"a62pih1gbnum","address":"2550 Granville St.","lat":49.263103,"long":-123.138573},"type":"Feature","geometry":{"type":"Point","coordinates":[-123.138573,49.263103]}},{"properties":{"tickets":715,"id":"a62pih92marl","address":"1750 6th Ave W.","lat":49.266285,"long":-123.144508},"type":"Feature","geometry":{"type":"Point","coordinates":[-123.144508,49.266285]}},{"properties":{"tickets":716,"id":"a62pigzug023","address":"2650 Oak St.","lat":49.261974,"long":-123.126663},"type":"Feature","geometry":{"type":"Point","coordinates":[-123.126663,49.261974]}},{"properties":{"tickets":720,"id":"a62pigvjpuuy","address":"1850 Pine St.","lat":49.269302,"long":-123.143188},"type":"Feature","geometry":{"type":"Point","coordinates":[-123.143188,49.269302]}},{"properties":{"tickets":724,"id":"a62pihb6ru85","address":"1150 Station St.","lat":49.274162,"long":-123.098564},"type":"Feature","geometry":{"type":"Point","coordinates":[-123.098564,49.274162]}},{"properties":{"tickets":725,"id":"a62pih0k1ntc","address":"2950 Willow St.","lat":49.259083,"long":-123.122002},"type":"Feature","geometry":{"type":"Point","coordinates":[-123.122002,49.259083]}},{"properties":{"tickets":725,"id":"a62pigz06fp8","address":"450 Columbia St.","lat":49.280922,"long":-123.102264},"type":"Feature","geometry":{"type":"Point","coordinates":[-123.102264,49.280922]}},{"properties":{"tickets":725,"id":"a62pih0thjxm","address":"150 Hastings St. E.","lat":49.281376,"long":-123.100952},"type":"Feature","geometry":{"type":"Point","coordinates":[-123.100952,49.281376]}},{"properties":{"tickets":729,"id":"a62pih7anfkq","address":"1050 Bute St.","lat":49.283188,"long":-123.131256},"type":"Feature","geometry":{"type":"Point","coordinates":[-123.131256,49.283188]}},{"properties":{"tickets":731,"id":"a62pih4ezkad","address":"250 Hastings St. E.","lat":49.28133,"long":-123.098557},"type":"Feature","geometry":{"type":"Point","coordinates":[-123.098557,49.28133]}},{"properties":{"tickets":735,"id":"a62pih25gdcw","address":"6550 Fraser St.","lat":49.224983,"long":-123.090668},"type":"Feature","geometry":{"type":"Point","coordinates":[-123.090668,49.224983]}},{"properties":{"tickets":735,"id":"a62pigx4y6dh","address":"1650 3rd Ave W.","lat":49.268845,"long":-123.142029},"type":"Feature","geometry":{"type":"Point","coordinates":[-123.142029,49.268845]}},{"properties":{"tickets":736,"id":"a62pih6susld","address":"450 8th Ave W.","lat":49.263935,"long":-123.113831},"type":"Feature","geometry":{"type":"Point","coordinates":[-123.113831,49.263935]}},{"properties":{"tickets":736,"id":"a62pih91cfkr","address":"1850 7th Ave W.","lat":49.265476,"long":-123.146881},"type":"Feature","geometry":{"type":"Point","coordinates":[-123.146881,49.265476]}},{"properties":{"tickets":736,"id":"a62pihaayb07","address":"2450 Hastings St. E.","lat":49.281166,"long":-123.055496},"type":"Feature","geometry":{"type":"Point","coordinates":[-123.055496,49.281166]}},{"properties":{"tickets":737,"id":"a62pigwyd5ql","address":"6650 Fraser St.","lat":49.224037,"long":-123.090706},"type":"Feature","geometry":{"type":"Point","coordinates":[-123.090706,49.224037]}},{"properties":{"tickets":740,"id":"a62pigyiiaym","address":"250 Drake St.","lat":49.273659,"long":-123.124008},"type":"Feature","geometry":{"type":"Point","coordinates":[-123.124008,49.273659]}},{"properties":{"tickets":741,"id":"a62pigw451yi","address":"850 Bidwell St.","lat":49.290108,"long":-123.134415},"type":"Feature","geometry":{"type":"Point","coordinates":[-123.134415,49.290108]}},{"properties":{"tickets":743,"id":"a62pihay6d8n","address":"950 Granville St.","lat":49.279778,"long":-123.122231},"type":"Feature","geometry":{"type":"Point","coordinates":[-123.122231,49.279778]}},{"properties":{"tickets":747,"id":"a62pigzepq29","address":"50 Dunlevy Ave.","lat":49.284889,"long":-123.095245},"type":"Feature","geometry":{"type":"Point","coordinates":[-123.095245,49.284889]}},{"properties":{"tickets":750,"id":"a62pigz6tsew","address":"750 7th Ave W.","lat":49.265072,"long":-123.120811},"type":"Feature","geometry":{"type":"Point","coordinates":[-123.120811,49.265072]}},{"properties":{"tickets":750,"id":"a62pih995e6b","address":"1450 6th Ave W.","lat":49.266167,"long":-123.137306},"type":"Feature","geometry":{"type":"Point","coordinates":[-123.137306,49.266167]}},{"properties":{"tickets":750,"id":"a62pih7jzukf","address":"1650 5th Ave W.","lat":49.267113,"long":-123.142113},"type":"Feature","geometry":{"type":"Point","coordinates":[-123.142113,49.267113]}},{"properties":{"tickets":752,"id":"a62pih1zqj7l","address":"1750 Bayshore Dr.","lat":49.292591,"long":-123.132362},"type":"Feature","geometry":{"type":"Point","coordinates":[-123.132362,49.292591]}},{"properties":{"tickets":754,"id":"a62pigwo0icd","address":"350 Broadway St. E.","lat":49.263161,"long":-123.111938},"type":"Feature","geometry":{"type":"Point","coordinates":[-123.111938,49.263161]}},{"properties":{"tickets":755,"id":"a62pih2xjg4l","address":"2450 Yukon St.","lat":49.263535,"long":-123.112885},"type":"Feature","geometry":{"type":"Point","coordinates":[-123.112885,49.263535]}},{"properties":{"tickets":755,"id":"a62pihb0txpy","address":"350 Bute St.","lat":49.289005,"long":-123.122421},"type":"Feature","geometry":{"type":"Point","coordinates":[-123.122421,49.289005]}},{"properties":{"tickets":756,"id":"a62pihaoonam","address":"250 Alexander St.","lat":49.284084,"long":-123.098648},"type":"Feature","geometry":{"type":"Point","coordinates":[-123.098648,49.284084]}},{"properties":{"tickets":761,"id":"a62pih9fhtqc","address":"50 8th Ave W.","lat":49.263783,"long":-123.105827},"type":"Feature","geometry":{"type":"Point","coordinates":[-123.105827,49.263783]}},{"properties":{"tickets":765,"id":"a62pigx5od7x","address":"1150 7th Ave W.","lat":49.265213,"long":-123.130135},"type":"Feature","geometry":{"type":"Point","coordinates":[-123.130135,49.265213]}},{"properties":{"tickets":765,"id":"a62pigzp611f","address":"1150 Quebec St.","lat":49.274536,"long":-123.10183},"type":"Feature","geometry":{"type":"Point","coordinates":[-123.10183,49.274536]}},{"properties":{"tickets":766,"id":"a62pih3ptuut","address":"250 Main St.","lat":49.28273,"long":-123.099594},"type":"Feature","geometry":{"type":"Point","coordinates":[-123.099594,49.28273]}},{"properties":{"tickets":768,"id":"a62pigzdwgh7","address":"2350 Cornwall Ave.","lat":49.27264,"long":-123.158554},"type":"Feature","geometry":{"type":"Point","coordinates":[-123.158554,49.27264]}},{"properties":{"tickets":770,"id":"a62pih7fitfo","address":"1950 York Ave.","lat":49.271591,"long":-123.149094},"type":"Feature","geometry":{"type":"Point","coordinates":[-123.149094,49.271591]}},{"properties":{"tickets":770,"id":"a62pih1c7sdf","address":"750 Cardero St.","lat":49.289814,"long":-123.131706},"type":"Feature","geometry":{"type":"Point","coordinates":[-123.131706,49.289814]}},{"properties":{"tickets":773,"id":"a62pih3g5pqv","address":"850 15th Ave W.","lat":49.257751,"long":-123.12323},"type":"Feature","geometry":{"type":"Point","coordinates":[-123.12323,49.257751]}},{"properties":{"tickets":775,"id":"a62pih3yfxtj","address":"1050 11th Ave W.","lat":49.261547,"long":-123.127899},"type":"Feature","geometry":{"type":"Point","coordinates":[-123.127899,49.261547]}},{"properties":{"tickets":775,"id":"a62pih7mtrtr","address":"550 Nelson St.","lat":49.278297,"long":-123.121552},"type":"Feature","geometry":{"type":"Point","coordinates":[-123.121552,49.278297]}},{"properties":{"tickets":775,"id":"a62piha32tbg","address":"1250 Thurlow St.","lat":49.280045,"long":-123.131691},"type":"Feature","geometry":{"type":"Point","coordinates":[-123.131691,49.280045]}},{"properties":{"tickets":776,"id":"a62pih8qls58","address":"1050 8th Ave E.","lat":49.263367,"long":-123.082291},"type":"Feature","geometry":{"type":"Point","coordinates":[-123.082291,49.263367]}},{"properties":{"tickets":777,"id":"a62piha8v1oa","address":"2150 York Ave.","lat":49.271667,"long":-123.153847},"type":"Feature","geometry":{"type":"Point","coordinates":[-123.153847,49.271667]}},{"properties":{"tickets":780,"id":"a62pih02gh4d","address":"650 13th Ave W.","lat":49.25951,"long":-123.118851},"type":"Feature","geometry":{"type":"Point","coordinates":[-123.118851,49.25951]}},{"properties":{"tickets":781,"id":"a62pigwqc0ws","address":"2550 Commercial Dr.","lat":49.261852,"long":-123.069801},"type":"Feature","geometry":{"type":"Point","coordinates":[-123.069801,49.261852]}},{"properties":{"tickets":787,"id":"a62pih6jer21","address":"850 Drake St.","lat":49.277061,"long":-123.129265},"type":"Feature","geometry":{"type":"Point","coordinates":[-123.129265,49.277061]}},{"properties":{"tickets":789,"id":"a62pih2x5q3b","address":"1050 7th Ave W.","lat":49.265175,"long":-123.127769},"type":"Feature","geometry":{"type":"Point","coordinates":[-123.127769,49.265175]}},{"properties":{"tickets":789,"id":"a62pih3ub9oa","address":"950 Hastings St. W.","lat":49.286934,"long":-123.116356},"type":"Feature","geometry":{"type":"Point","coordinates":[-123.116356,49.286934]}},{"properties":{"tickets":793,"id":"a62pih4xmmxm","address":"2150 Cornwall Ave.","lat":49.272568,"long":-123.153816},"type":"Feature","geometry":{"type":"Point","coordinates":[-123.153816,49.272568]}},{"properties":{"tickets":798,"id":"a62pih7sfqn5","address":"550 Carrall St.","lat":49.279846,"long":-123.104424},"type":"Feature","geometry":{"type":"Point","coordinates":[-123.104424,49.279846]}},{"properties":{"tickets":799,"id":"a62pih2ax242","address":"1250 7th Ave W.","lat":49.265251,"long":-123.132492},"type":"Feature","geometry":{"type":"Point","coordinates":[-123.132492,49.265251]}},{"properties":{"tickets":800,"id":"a62pihb07aci","address":"2150 10th Ave W.","lat":49.262871,"long":-123.153725},"type":"Feature","geometry":{"type":"Point","coordinates":[-123.153725,49.262871]}},{"properties":{"tickets":805,"id":"a62pih1ql28o","address":"750 Howe St.","lat":49.282566,"long":-123.12001},"type":"Feature","geometry":{"type":"Point","coordinates":[-123.12001,49.282566]}},{"properties":{"tickets":807,"id":"a62pigvo4jhk","address":"850 28th Ave W.","lat":49.246246,"long":-123.123772},"type":"Feature","geometry":{"type":"Point","coordinates":[-123.123772,49.246246]}},{"properties":{"tickets":808,"id":"a62pigxlhcfc","address":"2650 Arbutus St.","lat":49.262402,"long":-123.153015},"type":"Feature","geometry":{"type":"Point","coordinates":[-123.153015,49.262402]}},{"properties":{"tickets":810,"id":"a62pih2k1r60","address":"1850 Morton Ave.","lat":49.287979,"long":-123.141975},"type":"Feature","geometry":{"type":"Point","coordinates":[-123.141975,49.287979]}},{"properties":{"tickets":811,"id":"a62pihayp8f4","address":"1650 Yew St.","lat":49.271248,"long":-123.155029},"type":"Feature","geometry":{"type":"Point","coordinates":[-123.155029,49.271248]}},{"properties":{"tickets":811,"id":"a62pih243lu3","address":"250 Columbia St.","lat":49.282784,"long":-123.102203},"type":"Feature","geometry":{"type":"Point","coordinates":[-123.102203,49.282784]}},{"properties":{"tickets":813,"id":"a62pigw9tqqp","address":"1250 Marinaside Cr.","lat":49.272465,"long":-123.120682},"type":"Feature","geometry":{"type":"Point","coordinates":[-123.120682,49.272465]}},{"properties":{"tickets":814,"id":"a62pih4bxzuh","address":"3650 Glen Dr.","lat":49.252224,"long":-123.081818},"type":"Feature","geometry":{"type":"Point","coordinates":[-123.081818,49.252224]}},{"properties":{"tickets":818,"id":"a62pih5esvu2","address":"4450 10th Ave W.","lat":49.263813,"long":-123.207634},"type":"Feature","geometry":{"type":"Point","coordinates":[-123.207634,49.263813]}},{"properties":{"tickets":819,"id":"a62pigz056tc","address":"950 Beach Ave.","lat":49.275684,"long":-123.13327},"type":"Feature","geometry":{"type":"Point","coordinates":[-123.13327,49.275684]}},{"properties":{"tickets":819,"id":"a62pih67n8ag","address":"450 Seymour St.","lat":49.284336,"long":-123.11335},"type":"Feature","geometry":{"type":"Point","coordinates":[-123.11335,49.284336]}},{"properties":{"tickets":819,"id":"a62pih20486d","address":"550 Thurlow St.","lat":49.286919,"long":-123.1213},"type":"Feature","geometry":{"type":"Point","coordinates":[-123.1213,49.286919]}},{"properties":{"tickets":822,"id":"a62pih8o8b8t","address":"2550 Columbia St.","lat":49.262608,"long":-123.109489},"type":"Feature","geometry":{"type":"Point","coordinates":[-123.109489,49.262608]}},{"properties":{"tickets":823,"id":"a62pigz7mu4a","address":"1350 Arbutus St.","lat":49.273937,"long":-123.15255},"type":"Feature","geometry":{"type":"Point","coordinates":[-123.15255,49.273937]}},{"properties":{"tickets":824,"id":"a62pih3do80s","address":"1150 Bidwell St.","lat":49.286919,"long":-123.139206},"type":"Feature","geometry":{"type":"Point","coordinates":[-123.139206,49.286919]}},{"properties":{"tickets":827,"id":"a62pih7sqdeu","address":"1250 Georgia St. W.","lat":49.287647,"long":-123.126114},"type":"Feature","geometry":{"type":"Point","coordinates":[-123.126114,49.287647]}},{"properties":{"tickets":829,"id":"a62pih65cl9e","address":"150 Main St.","lat":49.283638,"long":-123.099525},"type":"Feature","geometry":{"type":"Point","coordinates":[-123.099525,49.283638]}},{"properties":{"tickets":833,"id":"a62pihaxqbo7","address":"5750 Boulevard W.","lat":49.470036,"long":-123.760406},"type":"Feature","geometry":{"type":"Point","coordinates":[-123.760406,49.470036]}},{"properties":{"tickets":835,"id":"a62pih1k1oz3","address":"1450 Hastings St. W.","lat":49.290234,"long":-123.127609},"type":"Feature","geometry":{"type":"Point","coordinates":[-123.127609,49.290234]}},{"properties":{"tickets":838,"id":"a62pih543i3k","address":"2150 39th Ave W.","lat":49.236465,"long":-123.157745},"type":"Feature","geometry":{"type":"Point","coordinates":[-123.157745,49.236465]}},{"properties":{"tickets":839,"id":"a62pigw9a2mz","address":"1250 8th Ave W.","lat":49.264412,"long":-123.132523},"type":"Feature","geometry":{"type":"Point","coordinates":[-123.132523,49.264412]}},{"properties":{"tickets":840,"id":"a62pih2ta66d","address":"350 Seymour St.","lat":49.284988,"long":-123.112366},"type":"Feature","geometry":{"type":"Point","coordinates":[-123.112366,49.284988]}},{"properties":{"tickets":841,"id":"a62pih5thjvy","address":"350 8th Ave W.","lat":49.263893,"long":-123.111916},"type":"Feature","geometry":{"type":"Point","coordinates":[-123.111916,49.263893]}},{"properties":{"tickets":842,"id":"a62pih4kvfj9","address":"550 14th Ave W.","lat":49.258759,"long":-123.116089},"type":"Feature","geometry":{"type":"Point","coordinates":[-123.116089,49.258759]}},{"properties":{"tickets":842,"id":"a62pih0om22t","address":"1950 Haro St.","lat":49.29221,"long":-123.138725},"type":"Feature","geometry":{"type":"Point","coordinates":[-123.138725,49.29221]}},{"properties":{"tickets":843,"id":"a62pih9ysdxd","address":"450 Hastings St. W.","lat":49.283733,"long":-123.111435},"type":"Feature","geometry":{"type":"Point","coordinates":[-123.111435,49.283733]}},{"properties":{"tickets":847,"id":"a62pih5z7d8h","address":"50 Hastings St. E.","lat":49.281422,"long":-123.103294},"type":"Feature","geometry":{"type":"Point","coordinates":[-123.103294,49.281422]}},{"properties":{"tickets":850,"id":"a62pigwgeup5","address":"2550 Yew St.","lat":49.263371,"long":-123.155312},"type":"Feature","geometry":{"type":"Point","coordinates":[-123.155312,49.263371]}},{"properties":{"tickets":850,"id":"a62pigzp8in7","address":"1450 Homer St.","lat":49.272213,"long":-123.126076},"type":"Feature","geometry":{"type":"Point","coordinates":[-123.126076,49.272213]}},{"properties":{"tickets":852,"id":"a62pih2a8svu","address":"1550 Davie St.","lat":49.284843,"long":-123.138084},"type":"Feature","geometry":{"type":"Point","coordinates":[-123.138084,49.284843]}},{"properties":{"tickets":858,"id":"a62pihbqvqpf","address":"2850 Laurel St.","lat":49.260075,"long":-123.124321},"type":"Feature","geometry":{"type":"Point","coordinates":[-123.124321,49.260075]}},{"properties":{"tickets":860,"id":"a62pigvjzxez","address":"350 Keefer St.","lat":49.279415,"long":-123.096252},"type":"Feature","geometry":{"type":"Point","coordinates":[-123.096252,49.279415]}},{"properties":{"tickets":861,"id":"a62pigx1tl69","address":"750 Robson St.","lat":49.281704,"long":-123.120346},"type":"Feature","geometry":{"type":"Point","coordinates":[-123.120346,49.281704]}},{"properties":{"tickets":863,"id":"a62pih7pl7th","address":"1650 Beach Ave.","lat":49.28381,"long":-123.14238},"type":"Feature","geometry":{"type":"Point","coordinates":[-123.14238,49.28381]}},{"properties":{"tickets":866,"id":"a62pih94is1h","address":"5750 Vine St.","lat":49.233482,"long":-123.159973},"type":"Feature","geometry":{"type":"Point","coordinates":[-123.159973,49.233482]}},{"properties":{"tickets":867,"id":"a62pih246b99","address":"8850 Selkirk St.","lat":49.204964,"long":-123.13343},"type":"Feature","geometry":{"type":"Point","coordinates":[-123.13343,49.204964]}},{"properties":{"tickets":871,"id":"a62pih86er41","address":"150 Cambie St.","lat":49.245171,"long":-123.115379},"type":"Feature","geometry":{"type":"Point","coordinates":[-123.115379,49.245171]}},{"properties":{"tickets":871,"id":"a62pih98qunx","address":"750 Cambie St.","lat":49.278793,"long":-123.114082},"type":"Feature","geometry":{"type":"Point","coordinates":[-123.114082,49.278793]}},{"properties":{"tickets":871,"id":"a62pih3fkgmn","address":"1350 Barclay St.","lat":49.286072,"long":-123.131355},"type":"Feature","geometry":{"type":"Point","coordinates":[-123.131355,49.286072]}},{"properties":{"tickets":872,"id":"a62pigwy0a52","address":"5850 Victoria Dr.","lat":49.230869,"long":-123.065552},"type":"Feature","geometry":{"type":"Point","coordinates":[-123.065552,49.230869]}},{"properties":{"tickets":876,"id":"a62pih8d49ix","address":"750 Hastings St. W.","lat":49.285648,"long":-123.114365},"type":"Feature","geometry":{"type":"Point","coordinates":[-123.114365,49.285648]}},{"properties":{"tickets":878,"id":"a62pihai4t42","address":"1550 2nd Ave W.","lat":49.269695,"long":-123.139832},"type":"Feature","geometry":{"type":"Point","coordinates":[-123.139832,49.269695]}},{"properties":{"tickets":884,"id":"a62pih65rd7k","address":"3350 Cambie St.","lat":49.255375,"long":-123.115135},"type":"Feature","geometry":{"type":"Point","coordinates":[-123.115135,49.255375]}},{"properties":{"tickets":884,"id":"a62pigvtvarn","address":"250 Broadway St. W.","lat":49.26313,"long":-123.110229},"type":"Feature","geometry":{"type":"Point","coordinates":[-123.110229,49.26313]}},{"properties":{"tickets":884,"id":"a62pigxqvah7","address":"250 Union St.","lat":49.277649,"long":-123.098312},"type":"Feature","geometry":{"type":"Point","coordinates":[-123.098312,49.277649]}},{"properties":{"tickets":885,"id":"a62pih141uct","address":"1850 Comox St.","lat":49.289192,"long":-123.140495},"type":"Feature","geometry":{"type":"Point","coordinates":[-123.140495,49.289192]}},{"properties":{"tickets":886,"id":"a62pih6xafmq","address":"950 Drake St.","lat":49.277702,"long":-123.130264},"type":"Feature","geometry":{"type":"Point","coordinates":[-123.130264,49.277702]}},{"properties":{"tickets":886,"id":"a62pigxr5hp6","address":"1150 Beach Ave.","lat":49.278454,"long":-123.136292},"type":"Feature","geometry":{"type":"Point","coordinates":[-123.136292,49.278454]}},{"properties":{"tickets":891,"id":"a62pih3lyzoh","address":"2250 Commercial Dr.","lat":49.264614,"long":-123.069748},"type":"Feature","geometry":{"type":"Point","coordinates":[-123.069748,49.264614]}},{"properties":{"tickets":892,"id":"a62pih7bpfe3","address":"1250 Pendrell St.","lat":49.28302,"long":-123.133141},"type":"Feature","geometry":{"type":"Point","coordinates":[-123.133141,49.28302]}},{"properties":{"tickets":893,"id":"a62pihaskdw0","address":"3650 Kingsway","lat":49.232193,"long":-123.024681},"type":"Feature","geometry":{"type":"Point","coordinates":[-123.024681,49.232193]}},{"properties":{"tickets":893,"id":"a62pigzfusje","address":"2450 41st Ave W.","lat":49.23468,"long":-123.162064},"type":"Feature","geometry":{"type":"Point","coordinates":[-123.162064,49.23468]}},{"properties":{"tickets":898,"id":"a62pih5yaj9w","address":"1250 Cordova St. W.","lat":49.289616,"long":-123.123055},"type":"Feature","geometry":{"type":"Point","coordinates":[-123.123055,49.289616]}},{"properties":{"tickets":901,"id":"a62pih0opqau","address":"250 Robson St.","lat":49.27853,"long":-123.115463},"type":"Feature","geometry":{"type":"Point","coordinates":[-123.115463,49.27853]}},{"properties":{"tickets":904,"id":"a62pih43s67t","address":"750 Beach Ave.","lat":49.27446,"long":-123.131355},"type":"Feature","geometry":{"type":"Point","coordinates":[-123.131355,49.27446]}},{"properties":{"tickets":904,"id":"a62pigxs3mrp","address":"350 Columbia St.","lat":49.281864,"long":-123.102242},"type":"Feature","geometry":{"type":"Point","coordinates":[-123.102242,49.281864]}},{"properties":{"tickets":913,"id":"a62pigx3t0md","address":"150 National Ave.","lat":49.274899,"long":-123.100998},"type":"Feature","geometry":{"type":"Point","coordinates":[-123.100998,49.274899]}},{"properties":{"tickets":915,"id":"a62pih1wirvj","address":"750 Smithe St.","lat":49.280655,"long":-123.121918},"type":"Feature","geometry":{"type":"Point","coordinates":[-123.121918,49.280655]}},{"properties":{"tickets":916,"id":"a62pih9y5yan","address":"1650 11th Ave E.","lat":49.260456,"long":-123.070755},"type":"Feature","geometry":{"type":"Point","coordinates":[-123.070755,49.260456]}},{"properties":{"tickets":916,"id":"a62pigyf8kxs","address":"850 Thurlow St.","lat":49.284241,"long":-123.125389},"type":"Feature","geometry":{"type":"Point","coordinates":[-123.125389,49.284241]}},{"properties":{"tickets":917,"id":"a62pih7wvzhj","address":"3450 Kingsway","lat":49.231979,"long":-123.031281},"type":"Feature","geometry":{"type":"Point","coordinates":[-123.031281,49.231979]}},{"properties":{"tickets":922,"id":"a62pigzcdobx","address":"250 Carrall St.","lat":49.282948,"long":-123.104248},"type":"Feature","geometry":{"type":"Point","coordinates":[-123.104248,49.282948]}},{"properties":{"tickets":924,"id":"a62pigxszwmx","address":"2650 Main St.","lat":49.261555,"long":-123.100929},"type":"Feature","geometry":{"type":"Point","coordinates":[-123.100929,49.261555]}},{"properties":{"tickets":924,"id":"a62pih6zuujv","address":"1050 10th Ave W.","lat":49.262463,"long":-123.127869},"type":"Feature","geometry":{"type":"Point","coordinates":[-123.127869,49.262463]}},{"properties":{"tickets":925,"id":"a62pigy2i0qg","address":"1650 6th Ave W.","lat":49.266243,"long":-123.142143},"type":"Feature","geometry":{"type":"Point","coordinates":[-123.142143,49.266243]}},{"properties":{"tickets":929,"id":"a62pih8mq2bx","address":"1950 Maple St.","lat":49.268524,"long":-123.150375},"type":"Feature","geometry":{"type":"Point","coordinates":[-123.150375,49.268524]}},{"properties":{"tickets":932,"id":"a62pih9ttruu","address":"350 Terminal Ave.","lat":49.272194,"long":-123.096725},"type":"Feature","geometry":{"type":"Point","coordinates":[-123.096725,49.272194]}},{"properties":{"tickets":933,"id":"a62pih72ujj8","address":"2250 Granville St.","lat":49.265755,"long":-123.138481},"type":"Feature","geometry":{"type":"Point","coordinates":[-123.138481,49.265755]}},{"properties":{"tickets":933,"id":"a62pih0m93dt","address":"50 Expo Boulevard","lat":49.278194,"long":-123.106628},"type":"Feature","geometry":{"type":"Point","coordinates":[-123.106628,49.278194]}},{"properties":{"tickets":933,"id":"a62pih2wnnp0","address":"950 Dunsmuir St.","lat":49.285255,"long":-123.118881},"type":"Feature","geometry":{"type":"Point","coordinates":[-123.118881,49.285255]}},{"properties":{"tickets":940,"id":"a62pigwooh4n","address":"850 14th Ave W.","lat":49.258656,"long":-123.123215},"type":"Feature","geometry":{"type":"Point","coordinates":[-123.123215,49.258656]}},{"properties":{"tickets":940,"id":"a62pigvzocsf","address":"950 14th Ave W.","lat":49.258698,"long":-123.125587},"type":"Feature","geometry":{"type":"Point","coordinates":[-123.125587,49.258698]}},{"properties":{"tickets":940,"id":"a62pih4a75ix","address":"2350 Ash St.","lat":49.264587,"long":-123.117455},"type":"Feature","geometry":{"type":"Point","coordinates":[-123.117455,49.264587]}},{"properties":{"tickets":944,"id":"a62pih3ku1k6","address":"1550 Howe St.","lat":49.274628,"long":-123.132011},"type":"Feature","geometry":{"type":"Point","coordinates":[-123.132011,49.274628]}},{"properties":{"tickets":946,"id":"a62pigyae6wp","address":"1150 Pacific St.","lat":49.278973,"long":-123.135521},"type":"Feature","geometry":{"type":"Point","coordinates":[-123.135521,49.278973]}},{"properties":{"tickets":949,"id":"a62pih2lweh2","address":"250 Davie St.","lat":49.274357,"long":-123.121841},"type":"Feature","geometry":{"type":"Point","coordinates":[-123.121841,49.274357]}},{"properties":{"tickets":950,"id":"a62pih3pq27v","address":"850 Dunsmuir St.","lat":49.284592,"long":-123.117867},"type":"Feature","geometry":{"type":"Point","coordinates":[-123.117867,49.284592]}},{"properties":{"tickets":950,"id":"a62pigxqg6ex","address":"950 Denman St.","lat":49.289944,"long":-123.137749},"type":"Feature","geometry":{"type":"Point","coordinates":[-123.137749,49.289944]}},{"properties":{"tickets":954,"id":"a62pih22wkt4","address":"6350 Fraser St.","lat":49.226936,"long":-123.090622},"type":"Feature","geometry":{"type":"Point","coordinates":[-123.090622,49.226936]}},{"properties":{"tickets":954,"id":"a62pih1l70lc","address":"650 Hamilton St.","lat":49.280502,"long":-123.113396},"type":"Feature","geometry":{"type":"Point","coordinates":[-123.113396,49.280502]}},{"properties":{"tickets":956,"id":"a62pihb6g88k","address":"2050 Commercial Dr.","lat":49.266544,"long":-123.06971},"type":"Feature","geometry":{"type":"Point","coordinates":[-123.06971,49.266544]}},{"properties":{"tickets":957,"id":"a62pigzvo1tn","address":"5550 Boulevard W.","lat":49.235237,"long":-123.110672},"type":"Feature","geometry":{"type":"Point","coordinates":[-123.110672,49.235237]}},{"properties":{"tickets":961,"id":"a62pihakzcsi","address":"3450 Cambie St.","lat":49.254433,"long":-123.115189},"type":"Feature","geometry":{"type":"Point","coordinates":[-123.115189,49.254433]}},{"properties":{"tickets":968,"id":"a62pigyn3mli","address":"1250 10th Ave W.","lat":49.262539,"long":-123.132607},"type":"Feature","geometry":{"type":"Point","coordinates":[-123.132607,49.262539]}},{"properties":{"tickets":968,"id":"a62pih5304cb","address":"950 7th Ave W.","lat":49.265141,"long":-123.125351},"type":"Feature","geometry":{"type":"Point","coordinates":[-123.125351,49.265141]}},{"properties":{"tickets":972,"id":"a62pih76grp2","address":"1650 7th Ave W.","lat":49.2654,"long":-123.142189},"type":"Feature","geometry":{"type":"Point","coordinates":[-123.142189,49.2654]}},{"properties":{"tickets":973,"id":"a62piha8rk52","address":"650 Moberly Rd.","lat":49.266735,"long":-123.119209},"type":"Feature","geometry":{"type":"Point","coordinates":[-123.119209,49.266735]}},{"properties":{"tickets":976,"id":"a62pih82whwz","address":"950 Beatty St.","lat":49.276199,"long":-123.116074},"type":"Feature","geometry":{"type":"Point","coordinates":[-123.116074,49.276199]}},{"properties":{"tickets":977,"id":"a62pih0qpijg","address":"3550 Crowley Dr.","lat":49.235844,"long":-123.028854},"type":"Feature","geometry":{"type":"Point","coordinates":[-123.028854,49.235844]}},{"properties":{"tickets":977,"id":"a62pihaoy7iw","address":"2550 Ash St.","lat":49.262756,"long":-123.117546},"type":"Feature","geometry":{"type":"Point","coordinates":[-123.117546,49.262756]}},{"properties":{"tickets":977,"id":"a62pih9kdfev","address":"1450 Davie St.","lat":49.284088,"long":-123.136902},"type":"Feature","geometry":{"type":"Point","coordinates":[-123.136902,49.284088]}},{"properties":{"tickets":982,"id":"a62pihbf290k","address":"550 Robson St.","lat":49.280422,"long":-123.11834},"type":"Feature","geometry":{"type":"Point","coordinates":[-123.11834,49.280422]}},{"properties":{"tickets":987,"id":"a62pih3378j7","address":"2650 Hemlock St.","lat":49.262115,"long":-123.136162},"type":"Feature","geometry":{"type":"Point","coordinates":[-123.136162,49.262115]}},{"properties":{"tickets":989,"id":"a62pih1buwaw","address":"150 2nd Ave W.","lat":49.269299,"long":-123.10804},"type":"Feature","geometry":{"type":"Point","coordinates":[-123.10804,49.269299]}},{"properties":{"tickets":997,"id":"a62pih4ybmn2","address":"1250 Burnaby St.","lat":49.281601,"long":-123.135246},"type":"Feature","geometry":{"type":"Point","coordinates":[-123.135246,49.281601]}},{"properties":{"tickets":1003,"id":"a62pigvmlgae","address":"2150 Kingsway","lat":49.243999,"long":-123.062752},"type":"Feature","geometry":{"type":"Point","coordinates":[-123.062752,49.243999]}},{"properties":{"tickets":1009,"id":"a62pih0q2twl","address":"1850 5th Ave W.","lat":49.267174,"long":-123.146851},"type":"Feature","geometry":{"type":"Point","coordinates":[-123.146851,49.267174]}},{"properties":{"tickets":1014,"id":"a62pigxo871l","address":"250 Powell St.","lat":49.283173,"long":-123.098618},"type":"Feature","geometry":{"type":"Point","coordinates":[-123.098618,49.283173]}},{"properties":{"tickets":1016,"id":"a62pigzz124y","address":"2150 Broadway St. W.","lat":49.263824,"long":-123.154121},"type":"Feature","geometry":{"type":"Point","coordinates":[-123.154121,49.263824]}},{"properties":{"tickets":1018,"id":"a62pih4yli84","address":"1450 Robson St.","lat":49.288296,"long":-123.130547},"type":"Feature","geometry":{"type":"Point","coordinates":[-123.130547,49.288296]}},{"properties":{"tickets":1025,"id":"a62pih9yy7yl","address":"1750 10th Ave W.","lat":49.262733,"long":-123.144653},"type":"Feature","geometry":{"type":"Point","coordinates":[-123.144653,49.262733]}},{"properties":{"tickets":1034,"id":"a62pih6hbd8h","address":"950 Smithe St.","lat":49.281906,"long":-123.123909},"type":"Feature","geometry":{"type":"Point","coordinates":[-123.123909,49.281906]}},{"properties":{"tickets":1037,"id":"a62pigw9bg7b","address":"2450 Granville St.","lat":49.26408,"long":-123.138542},"type":"Feature","geometry":{"type":"Point","coordinates":[-123.138542,49.26408]}},{"properties":{"tickets":1038,"id":"a62pih7v4ajv","address":"1950 Pine St.","lat":49.268406,"long":-123.143227},"type":"Feature","geometry":{"type":"Point","coordinates":[-123.143227,49.268406]}},{"properties":{"tickets":1038,"id":"a62pihac28m7","address":"1050 Beach Ave.","lat":49.276806,"long":-123.134666},"type":"Feature","geometry":{"type":"Point","coordinates":[-123.134666,49.276806]}},{"properties":{"tickets":1038,"id":"a62pih9z6f57","address":"1650 Bayshore Dr.","lat":49.292088,"long":-123.130791},"type":"Feature","geometry":{"type":"Point","coordinates":[-123.130791,49.292088]}},{"properties":{"tickets":1047,"id":"a62pigx4wi1g","address":"550 Gore Ave.","lat":49.279877,"long":-123.097244},"type":"Feature","geometry":{"type":"Point","coordinates":[-123.097244,49.279877]}},{"properties":{"tickets":1051,"id":"a62pih8h1vdi","address":"1750 Kitchener St.","lat":49.272133,"long":-123.068642},"type":"Feature","geometry":{"type":"Point","coordinates":[-123.068642,49.272133]}},{"properties":{"tickets":1052,"id":"a62pihb9xmxm","address":"550 Davie St.","lat":49.276203,"long":-123.124733},"type":"Feature","geometry":{"type":"Point","coordinates":[-123.124733,49.276203]}},{"properties":{"tickets":1052,"id":"a62pigwyhito","address":"750 Davie St.","lat":49.277485,"long":-123.126701},"type":"Feature","geometry":{"type":"Point","coordinates":[-123.126701,49.277485]}},{"properties":{"tickets":1055,"id":"a62pih3k20ez","address":"2550 Alder St.","lat":49.262978,"long":-123.131386},"type":"Feature","geometry":{"type":"Point","coordinates":[-123.131386,49.262978]}},{"properties":{"tickets":1057,"id":"a62pih87tj53","address":"150 Keefer St.","lat":49.279491,"long":-123.100945},"type":"Feature","geometry":{"type":"Point","coordinates":[-123.100945,49.279491]}},{"properties":{"tickets":1058,"id":"a62pihbaz222","address":"50 Broadway St. W.","lat":49.263031,"long":-123.105858},"type":"Feature","geometry":{"type":"Point","coordinates":[-123.105858,49.263031]}},{"properties":{"tickets":1058,"id":"a62pigyn8z6l","address":"1650 Cypress St","lat":49.27116,"long":-123.147865},"type":"Feature","geometry":{"type":"Point","coordinates":[-123.147865,49.27116]}},{"properties":{"tickets":1058,"id":"a62pigz5r5ep","address":"350 Dunsmuir St.","lat":49.281414,"long":-123.112999},"type":"Feature","geometry":{"type":"Point","coordinates":[-123.112999,49.281414]}},{"properties":{"tickets":1058,"id":"a62pih0tymqk","address":"350 Carrall St.","lat":49.28194,"long":-123.104301},"type":"Feature","geometry":{"type":"Point","coordinates":[-123.104301,49.28194]}},{"properties":{"tickets":1059,"id":"a62pih3u9su2","address":"1150 Marinaside Cr.","lat":49.273277,"long":-123.119247},"type":"Feature","geometry":{"type":"Point","coordinates":[-123.119247,49.273277]}},{"properties":{"tickets":1061,"id":"a62pigwxdf6h","address":"1650 Broadway St. E.","lat":49.263695,"long":-123.142235},"type":"Feature","geometry":{"type":"Point","coordinates":[-123.142235,49.263695]}},{"properties":{"tickets":1063,"id":"a62pihas7i8w","address":"350 Burrard St.","lat":49.287415,"long":-123.116585},"type":"Feature","geometry":{"type":"Point","coordinates":[-123.116585,49.287415]}},{"properties":{"tickets":1065,"id":"a62pih7yp12k","address":"850 Beach Ave.","lat":49.275066,"long":-123.132294},"type":"Feature","geometry":{"type":"Point","coordinates":[-123.132294,49.275066]}},{"properties":{"tickets":1068,"id":"a62pih2nbk9y","address":"150 Gore Ave.","lat":49.283604,"long":-123.097771},"type":"Feature","geometry":{"type":"Point","coordinates":[-123.097771,49.283604]}},{"properties":{"tickets":1071,"id":"a62pih7ur1n2","address":"1750 Haro St.","lat":49.290279,"long":-123.135742},"type":"Feature","geometry":{"type":"Point","coordinates":[-123.135742,49.290279]}},{"properties":{"tickets":1089,"id":"a62pih60w5hv","address":"1550 Hornby St.","lat":49.27523,"long":-123.13295},"type":"Feature","geometry":{"type":"Point","coordinates":[-123.13295,49.27523]}},{"properties":{"tickets":1091,"id":"a62pih29at80","address":"2250 Broadway St. W.","lat":49.263882,"long":-123.156509},"type":"Feature","geometry":{"type":"Point","coordinates":[-123.156509,49.263882]}},{"properties":{"tickets":1091,"id":"a62pih9hm4tt","address":"1050 Denman St.","lat":49.288666,"long":-123.139709},"type":"Feature","geometry":{"type":"Point","coordinates":[-123.139709,49.288666]}},{"properties":{"tickets":1095,"id":"a62pigxskr19","address":"650 Main St.","lat":49.279015,"long":-123.099754},"type":"Feature","geometry":{"type":"Point","coordinates":[-123.099754,49.279015]}},{"properties":{"tickets":1099,"id":"a62pigyvk263","address":"1550 3rd Ave W.","lat":49.268814,"long":-123.140358},"type":"Feature","geometry":{"type":"Point","coordinates":[-123.140358,49.268814]}},{"properties":{"tickets":1099,"id":"a62pih784vys","address":"1050 Harwood St.","lat":49.278339,"long":-123.132355},"type":"Feature","geometry":{"type":"Point","coordinates":[-123.132355,49.278339]}},{"properties":{"tickets":1102,"id":"a62pih0bu4a1","address":"150 5th Ave W.","lat":49.266556,"long":-123.108093},"type":"Feature","geometry":{"type":"Point","coordinates":[-123.108093,49.266556]}},{"properties":{"tickets":1104,"id":"a62pih5c7f0g","address":"1050 Eveleigh St.","lat":49.286716,"long":-123.120117},"type":"Feature","geometry":{"type":"Point","coordinates":[-123.120117,49.286716]}},{"properties":{"tickets":1107,"id":"a62pih8h4kaq","address":"750 10th Ave W.","lat":49.262348,"long":-123.12085},"type":"Feature","geometry":{"type":"Point","coordinates":[-123.12085,49.262348]}},{"properties":{"tickets":1109,"id":"a62pih4p31u7","address":"4250 Main St.","lat":49.247128,"long":-123.101158},"type":"Feature","geometry":{"type":"Point","coordinates":[-123.101158,49.247128]}},{"properties":{"tickets":1109,"id":"a62pigzl7qi7","address":"1650 Chestnut St.","lat":49.271099,"long":-123.1464},"type":"Feature","geometry":{"type":"Point","coordinates":[-123.1464,49.271099]}},{"properties":{"tickets":1112,"id":"a62pigw1s2z7","address":"1150 Pendrell St.","lat":49.281796,"long":-123.131218},"type":"Feature","geometry":{"type":"Point","coordinates":[-123.131218,49.281796]}},{"properties":{"tickets":1113,"id":"a62pih52ttyz","address":"150 Robson St.","lat":49.277969,"long":-123.114578},"type":"Feature","geometry":{"type":"Point","coordinates":[-123.114578,49.277969]}},{"properties":{"tickets":1115,"id":"a62pih8jso4m","address":"1650 Comox St.","lat":49.287128,"long":-123.137344},"type":"Feature","geometry":{"type":"Point","coordinates":[-123.137344,49.287128]}},{"properties":{"tickets":1117,"id":"a62pih3nxeh7","address":"2450 Trutch St.","lat":49.264664,"long":-123.175903},"type":"Feature","geometry":{"type":"Point","coordinates":[-123.175903,49.264664]}},{"properties":{"tickets":1122,"id":"a62pih1wauef","address":"1550 12th Ave W.","lat":49.260822,"long":-123.139961},"type":"Feature","geometry":{"type":"Point","coordinates":[-123.139961,49.260822]}},{"properties":{"tickets":1125,"id":"a62pihau89kq","address":"2550 Main St.","lat":49.262451,"long":-123.100899},"type":"Feature","geometry":{"type":"Point","coordinates":[-123.100899,49.262451]}},{"properties":{"tickets":1135,"id":"a62pigvyil9w","address":"850 Bute St.","lat":49.285309,"long":-123.128067},"type":"Feature","geometry":{"type":"Point","coordinates":[-123.128067,49.285309]}},{"properties":{"tickets":1142,"id":"a62pih82ox83","address":"2450 Bayswater St.","lat":49.264614,"long":-123.171219},"type":"Feature","geometry":{"type":"Point","coordinates":[-123.171219,49.264614]}},{"properties":{"tickets":1143,"id":"a62pih7m9mut","address":"1850 Commercial Dr.","lat":49.268238,"long":-123.069679},"type":"Feature","geometry":{"type":"Point","coordinates":[-123.069679,49.268238]}},{"properties":{"tickets":1144,"id":"a62pigwyzea4","address":"2250 York Ave.","lat":49.271706,"long":-123.156219},"type":"Feature","geometry":{"type":"Point","coordinates":[-123.156219,49.271706]}},{"properties":{"tickets":1149,"id":"a62pigvls1kz","address":"2550 Birch St.","lat":49.263004,"long":-123.133728},"type":"Feature","geometry":{"type":"Point","coordinates":[-123.133728,49.263004]}},{"properties":{"tickets":1153,"id":"a62pihacyz2y","address":"50 Broadway St. E.","lat":49.263031,"long":-123.105858},"type":"Feature","geometry":{"type":"Point","coordinates":[-123.105858,49.263031]}},{"properties":{"tickets":1160,"id":"a62pih8y95q8","address":"850 Hastings St. W.","lat":49.286293,"long":-123.115349},"type":"Feature","geometry":{"type":"Point","coordinates":[-123.115349,49.286293]}},{"properties":{"tickets":1164,"id":"a62pih9131id","address":"750 Pender St. W.","lat":49.284973,"long":-123.115356},"type":"Feature","geometry":{"type":"Point","coordinates":[-123.115356,49.284973]}},{"properties":{"tickets":1169,"id":"a62pih9bsz3b","address":"850 7th Ave W.","lat":49.265102,"long":-123.122963},"type":"Feature","geometry":{"type":"Point","coordinates":[-123.122963,49.265102]}},{"properties":{"tickets":1175,"id":"a62pih7sv8rs","address":"350 Powell St.","lat":49.283134,"long":-123.096497},"type":"Feature","geometry":{"type":"Point","coordinates":[-123.096497,49.283134]}},{"properties":{"tickets":1178,"id":"a62pih4tukuz","address":"2550 Hastings St. E.","lat":49.281162,"long":-123.053253},"type":"Feature","geometry":{"type":"Point","coordinates":[-123.053253,49.281162]}},{"properties":{"tickets":1180,"id":"a62pih10yl3k","address":"550 Cambie St.","lat":49.280602,"long":-123.111389},"type":"Feature","geometry":{"type":"Point","coordinates":[-123.111389,49.280602]}},{"properties":{"tickets":1184,"id":"a62pih57fnkd","address":"1350 7th Ave W.","lat":49.265285,"long":-123.134857},"type":"Feature","geometry":{"type":"Point","coordinates":[-123.134857,49.265285]}},{"properties":{"tickets":1184,"id":"a62pih14coxg","address":"1850 York Ave.","lat":49.271561,"long":-123.147133},"type":"Feature","geometry":{"type":"Point","coordinates":[-123.147133,49.271561]}},{"properties":{"tickets":1197,"id":"a62pigyiu2te","address":"1650 10th Ave W.","lat":49.262695,"long":-123.142288},"type":"Feature","geometry":{"type":"Point","coordinates":[-123.142288,49.262695]}},{"properties":{"tickets":1203,"id":"a62pihaxxtrr","address":"1250 Barclay St.","lat":49.285137,"long":-123.129883},"type":"Feature","geometry":{"type":"Point","coordinates":[-123.129883,49.285137]}},{"properties":{"tickets":1207,"id":"a62pih7plmq0","address":"950 Commercial Dr.","lat":49.276199,"long":-123.069504},"type":"Feature","geometry":{"type":"Point","coordinates":[-123.069504,49.276199]}},{"properties":{"tickets":1217,"id":"a62pigvx05hy","address":"650 Jervis St.","lat":49.288502,"long":-123.126343},"type":"Feature","geometry":{"type":"Point","coordinates":[-123.126343,49.288502]}},{"properties":{"tickets":1218,"id":"a62pigvzwdwv","address":"350 Water St.","lat":49.284512,"long":-123.109894},"type":"Feature","geometry":{"type":"Point","coordinates":[-123.109894,49.284512]}},{"properties":{"tickets":1221,"id":"a62pih37oyu6","address":"250 Gore Ave.","lat":49.282696,"long":-123.097649},"type":"Feature","geometry":{"type":"Point","coordinates":[-123.097649,49.282696]}},{"properties":{"tickets":1226,"id":"a62pih0m7h6u","address":"4450 Main St.","lat":49.245079,"long":-123.101288},"type":"Feature","geometry":{"type":"Point","coordinates":[-123.101288,49.245079]}},{"properties":{"tickets":1228,"id":"a62pigzuibt0","address":"1250 Pender St. W.","lat":49.288704,"long":-123.124496},"type":"Feature","geometry":{"type":"Point","coordinates":[-123.124496,49.288704]}},{"properties":{"tickets":1230,"id":"a62pihb50ucv","address":"450 6th Ave W.","lat":49.265755,"long":-123.113716},"type":"Feature","geometry":{"type":"Point","coordinates":[-123.113716,49.265755]}},{"properties":{"tickets":1234,"id":"a62pih5jvtww","address":"1050 Barclay St.","lat":49.282562,"long":-123.125969},"type":"Feature","geometry":{"type":"Point","coordinates":[-123.125969,49.282562]}},{"properties":{"tickets":1239,"id":"a62pigvfopc1","address":"5750 Victoria Dr.","lat":49.232162,"long":-123.065514},"type":"Feature","geometry":{"type":"Point","coordinates":[-123.065514,49.232162]}},{"properties":{"tickets":1244,"id":"a62pigwzr5y1","address":"1850 Fir St.","lat":49.269306,"long":-123.1408},"type":"Feature","geometry":{"type":"Point","coordinates":[-123.1408,49.269306]}},{"properties":{"tickets":1248,"id":"a62pigxjjio6","address":"2550 Fir St.","lat":49.263138,"long":-123.141037},"type":"Feature","geometry":{"type":"Point","coordinates":[-123.141037,49.263138]}},{"properties":{"tickets":1260,"id":"a62pih77640e","address":"150 Cordova St. W.","lat":49.283035,"long":-123.10743},"type":"Feature","geometry":{"type":"Point","coordinates":[-123.10743,49.283035]}},{"properties":{"tickets":1279,"id":"a62pih73ytg9","address":"250 Howe St.","lat":49.286766,"long":-123.113686},"type":"Feature","geometry":{"type":"Point","coordinates":[-123.113686,49.286766]}},{"properties":{"tickets":1282,"id":"a62pih0bo0xb","address":"550 13th Ave W.","lat":49.259464,"long":-123.116386},"type":"Feature","geometry":{"type":"Point","coordinates":[-123.116386,49.259464]}},{"properties":{"tickets":1284,"id":"a62pih96dc59","address":"2550 Yukon St.","lat":49.262691,"long":-123.1129},"type":"Feature","geometry":{"type":"Point","coordinates":[-123.1129,49.262691]}},{"properties":{"tickets":1292,"id":"a62pih7dpg8x","address":"2050 Yew St.","lat":49.267712,"long":-123.155167},"type":"Feature","geometry":{"type":"Point","coordinates":[-123.155167,49.267712]}},{"properties":{"tickets":1295,"id":"a62pigvfb39r","address":"950 Thurlow St.","lat":49.283203,"long":-123.126961},"type":"Feature","geometry":{"type":"Point","coordinates":[-123.126961,49.283203]}},{"properties":{"tickets":1297,"id":"a62pih61miwk","address":"1250 Bidwell St.","lat":49.285583,"long":-123.141212},"type":"Feature","geometry":{"type":"Point","coordinates":[-123.141212,49.285583]}},{"properties":{"tickets":1300,"id":"a62pih1uzxxu","address":"3250 Kingsway","lat":49.234604,"long":-123.03685},"type":"Feature","geometry":{"type":"Point","coordinates":[-123.03685,49.234604]}},{"properties":{"tickets":1311,"id":"a62pih2ovtby","address":"1450 Alberni St.","lat":49.288986,"long":-123.129456},"type":"Feature","geometry":{"type":"Point","coordinates":[-123.129456,49.288986]}},{"properties":{"tickets":1312,"id":"a62pih7f8wfg","address":"1450 Hornby St.","lat":49.27581,"long":-123.13208},"type":"Feature","geometry":{"type":"Point","coordinates":[-123.13208,49.27581]}},{"properties":{"tickets":1312,"id":"a62pih3bfdt1","address":"1350 Hastings St. W.","lat":49.289722,"long":-123.125862},"type":"Feature","geometry":{"type":"Point","coordinates":[-123.125862,49.289722]}},{"properties":{"tickets":1315,"id":"a62pigxtzgga","address":"850 Pender St. W.","lat":49.285603,"long":-123.116364},"type":"Feature","geometry":{"type":"Point","coordinates":[-123.116364,49.285603]}},{"properties":{"tickets":1318,"id":"a62pih1ez4gy","address":"1650 Graveley St.","lat":49.270504,"long":-123.070587},"type":"Feature","geometry":{"type":"Point","coordinates":[-123.070587,49.270504]}},{"properties":{"tickets":1320,"id":"a62pigvrkcpn","address":"1850 Haro St.","lat":49.29126,"long":-123.137268},"type":"Feature","geometry":{"type":"Point","coordinates":[-123.137268,49.29126]}},{"properties":{"tickets":1323,"id":"a62pigzyyli6","address":"1950 Vine St.","lat":49.268631,"long":-123.157486},"type":"Feature","geometry":{"type":"Point","coordinates":[-123.157486,49.268631]}},{"properties":{"tickets":1327,"id":"a62pih7sm8h6","address":"1350 Kingsway","lat":49.250618,"long":-123.077026},"type":"Feature","geometry":{"type":"Point","coordinates":[-123.077026,49.250618]}},{"properties":{"tickets":1341,"id":"a62pihbssdkn","address":"1350 Burrard St.","lat":49.27766,"long":-123.131363},"type":"Feature","geometry":{"type":"Point","coordinates":[-123.131363,49.27766]}},{"properties":{"tickets":1343,"id":"a62pihbfxo4t","address":"650 Davie St.","lat":49.276833,"long":-123.125694},"type":"Feature","geometry":{"type":"Point","coordinates":[-123.125694,49.276833]}},{"properties":{"tickets":1349,"id":"a62pih9jxzcp","address":"3150 Broadway St. W.","lat":49.264179,"long":-123.174973},"type":"Feature","geometry":{"type":"Point","coordinates":[-123.174973,49.264179]}},{"properties":{"tickets":1351,"id":"a62pih0xuvmg","address":"2450 Main St.","lat":49.263306,"long":-123.100876},"type":"Feature","geometry":{"type":"Point","coordinates":[-123.100876,49.263306]}},{"properties":{"tickets":1354,"id":"a62pih0d6w90","address":"2050 Maple St.","lat":49.267609,"long":-123.150406},"type":"Feature","geometry":{"type":"Point","coordinates":[-123.150406,49.267609]}},{"properties":{"tickets":1356,"id":"a62pigzlmbw6","address":"50 Hastings St. W.","lat":49.281738,"long":-123.105759},"type":"Feature","geometry":{"type":"Point","coordinates":[-123.105759,49.281738]}},{"properties":{"tickets":1358,"id":"a62pigwq03pr","address":"5650 Boulevard W.","lat":49.234322,"long":-123.11071},"type":"Feature","geometry":{"type":"Point","coordinates":[-123.11071,49.234322]}},{"properties":{"tickets":1360,"id":"a62pih578hwd","address":"850 27th Ave W.","lat":49.247162,"long":-123.123619},"type":"Feature","geometry":{"type":"Point","coordinates":[-123.123619,49.247162]}},{"properties":{"tickets":1374,"id":"a62pih9k4qyt","address":"1150 Haro St.","lat":49.284622,"long":-123.126999},"type":"Feature","geometry":{"type":"Point","coordinates":[-123.126999,49.284622]}},{"properties":{"tickets":1376,"id":"a62pih0xm4ri","address":"450 Robson St.","lat":49.279797,"long":-123.117386},"type":"Feature","geometry":{"type":"Point","coordinates":[-123.117386,49.279797]}},{"properties":{"tickets":1376,"id":"a62pih0yvfsv","address":"750 Georgia St. W.","lat":49.28281,"long":-123.118652},"type":"Feature","geometry":{"type":"Point","coordinates":[-123.118652,49.28281]}},{"properties":{"tickets":1389,"id":"a62pih4ofv7q","address":"1250 Seymour St.","lat":49.275967,"long":-123.125999},"type":"Feature","geometry":{"type":"Point","coordinates":[-123.125999,49.275967]}},{"properties":{"tickets":1389,"id":"a62piha0sv4z","address":"950 Nelson St.","lat":49.280872,"long":-123.125519},"type":"Feature","geometry":{"type":"Point","coordinates":[-123.125519,49.280872]}},{"properties":{"tickets":1392,"id":"a62pigx7feku","address":"3250 Broadway St. W.","lat":49.264202,"long":-123.176872},"type":"Feature","geometry":{"type":"Point","coordinates":[-123.176872,49.264202]}},{"properties":{"tickets":1392,"id":"a62pih5gaxkt","address":"1050 Thurlow St.","lat":49.281788,"long":-123.129105},"type":"Feature","geometry":{"type":"Point","coordinates":[-123.129105,49.281788]}},{"properties":{"tickets":1394,"id":"a62pih5w9xk6","address":"1550 15th Ave W.","lat":49.258022,"long":-123.140015},"type":"Feature","geometry":{"type":"Point","coordinates":[-123.140015,49.258022]}},{"properties":{"tickets":1400,"id":"a62pigyoyvqi","address":"1850 Pendrell St.","lat":49.288475,"long":-123.141548},"type":"Feature","geometry":{"type":"Point","coordinates":[-123.141548,49.288475]}},{"properties":{"tickets":1402,"id":"a62pih1bmkr8","address":"1750 5th Ave W.","lat":49.267136,"long":-123.144485},"type":"Feature","geometry":{"type":"Point","coordinates":[-123.144485,49.267136]}},{"properties":{"tickets":1404,"id":"a62pih8lc1dl","address":"1150 8th Ave W.","lat":49.264378,"long":-123.130157},"type":"Feature","geometry":{"type":"Point","coordinates":[-123.130157,49.264378]}},{"properties":{"tickets":1410,"id":"a62pigyhy3zq","address":"550 Cardero St.","lat":49.291466,"long":-123.129227},"type":"Feature","geometry":{"type":"Point","coordinates":[-123.129227,49.291466]}},{"properties":{"tickets":1412,"id":"a62piharo5oj","address":"1650 Commercial Dr.","lat":49.270035,"long":-123.069664},"type":"Feature","geometry":{"type":"Point","coordinates":[-123.069664,49.270035]}},{"properties":{"tickets":1416,"id":"a62pih7ocelz","address":"4150 Main St.","lat":49.24826,"long":-123.101105},"type":"Feature","geometry":{"type":"Point","coordinates":[-123.101105,49.24826]}},{"properties":{"tickets":1418,"id":"a62pih66u972","address":"2950 Broadway St. W.","lat":49.264126,"long":-123.171257},"type":"Feature","geometry":{"type":"Point","coordinates":[-123.171257,49.264126]}},{"properties":{"tickets":1418,"id":"a62pigwby5qh","address":"350 Davie St.","lat":49.274879,"long":-123.122673},"type":"Feature","geometry":{"type":"Point","coordinates":[-123.122673,49.274879]}},{"properties":{"tickets":1424,"id":"a62pih5x8dcb","address":"650 Terminal Ave.","lat":49.271057,"long":-123.09021},"type":"Feature","geometry":{"type":"Point","coordinates":[-123.09021,49.271057]}},{"properties":{"tickets":1426,"id":"a62pih4mx0gv","address":"650 Howe St.","lat":49.283691,"long":-123.118279},"type":"Feature","geometry":{"type":"Point","coordinates":[-123.118279,49.283691]}},{"properties":{"tickets":1429,"id":"a62pih94p729","address":"1550 Yew St.","lat":49.272125,"long":-123.154999},"type":"Feature","geometry":{"type":"Point","coordinates":[-123.154999,49.272125]}},{"properties":{"tickets":1444,"id":"a62pih6uza69","address":"550 10th Ave W.","lat":49.262264,"long":-123.116524},"type":"Feature","geometry":{"type":"Point","coordinates":[-123.116524,49.262264]}},{"properties":{"tickets":1445,"id":"a62pih66ab4s","address":"1150 Harwood St.","lat":49.279694,"long":-123.13443},"type":"Feature","geometry":{"type":"Point","coordinates":[-123.13443,49.279694]}},{"properties":{"tickets":1451,"id":"a62pih5ukugx","address":"150 Broadway St. E.","lat":49.263084,"long":-123.108185},"type":"Feature","geometry":{"type":"Point","coordinates":[-123.108185,49.263084]}},{"properties":{"tickets":1451,"id":"a62pih3kg08g","address":"350 Railway St.","lat":49.284603,"long":-123.096542},"type":"Feature","geometry":{"type":"Point","coordinates":[-123.096542,49.284603]}},{"properties":{"tickets":1451,"id":"a62pihbjk0rn","address":"1650 Alberni St.","lat":49.290665,"long":-123.132034},"type":"Feature","geometry":{"type":"Point","coordinates":[-123.132034,49.290665]}},{"properties":{"tickets":1459,"id":"a62pigxehlsz","address":"250 Cambie St.","lat":49.28384,"long":-123.109024},"type":"Feature","geometry":{"type":"Point","coordinates":[-123.109024,49.28384]}},{"properties":{"tickets":1459,"id":"a62pigw5xaz8","address":"350 Richards St.","lat":49.28437,"long":-123.11142},"type":"Feature","geometry":{"type":"Point","coordinates":[-123.11142,49.28437]}},{"properties":{"tickets":1467,"id":"a62pih276xyo","address":"2550 Willow St.","lat":49.262829,"long":-123.121834},"type":"Feature","geometry":{"type":"Point","coordinates":[-123.121834,49.262829]}},{"properties":{"tickets":1471,"id":"a62pih9eubmt","address":"2450 Alder St.","lat":49.263962,"long":-123.131332},"type":"Feature","geometry":{"type":"Point","coordinates":[-123.131332,49.263962]}},{"properties":{"tickets":1473,"id":"a62pih0qwh3l","address":"1850 Barclay St.","lat":49.290585,"long":-123.138351},"type":"Feature","geometry":{"type":"Point","coordinates":[-123.138351,49.290585]}},{"properties":{"tickets":1477,"id":"a62pih45mb0k","address":"350 Drake St.","lat":49.274017,"long":-123.124573},"type":"Feature","geometry":{"type":"Point","coordinates":[-123.124573,49.274017]}},{"properties":{"tickets":1480,"id":"a62pihaw4ze8","address":"5750 Yew St.","lat":49.234135,"long":-123.158516},"type":"Feature","geometry":{"type":"Point","coordinates":[-123.158516,49.234135]}},{"properties":{"tickets":1483,"id":"a62piha62ima","address":"4350 Main St.","lat":49.246231,"long":-123.101227},"type":"Feature","geometry":{"type":"Point","coordinates":[-123.101227,49.246231]}},{"properties":{"tickets":1484,"id":"a62pigvpzve9","address":"1550 Commercial Dr.","lat":49.271317,"long":-123.069626},"type":"Feature","geometry":{"type":"Point","coordinates":[-123.069626,49.271317]}},{"properties":{"tickets":1511,"id":"a62pih3jdya2","address":"550 Granville St.","lat":49.284138,"long":-123.115623},"type":"Feature","geometry":{"type":"Point","coordinates":[-123.115623,49.284138]}},{"properties":{"tickets":1514,"id":"a62pih6c8p40","address":"150 Keefer Pl.","lat":49.279781,"long":-123.108017},"type":"Feature","geometry":{"type":"Point","coordinates":[-123.108017,49.279781]}},{"properties":{"tickets":1516,"id":"a62pigzbhi2b","address":"150 Alexander St.","lat":49.284019,"long":-123.100815},"type":"Feature","geometry":{"type":"Point","coordinates":[-123.100815,49.284019]}},{"properties":{"tickets":1524,"id":"a62pih80wvp7","address":"350 Georgia St. W.","lat":49.280262,"long":-123.114738},"type":"Feature","geometry":{"type":"Point","coordinates":[-123.114738,49.280262]}},{"properties":{"tickets":1525,"id":"a62pih1omii8","address":"1050 Seymour St.","lat":49.278053,"long":-123.122826},"type":"Feature","geometry":{"type":"Point","coordinates":[-123.122826,49.278053]}},{"properties":{"tickets":1532,"id":"a62pih6pxcrm","address":"1650 1st Ave W.","lat":49.270603,"long":-123.142181},"type":"Feature","geometry":{"type":"Point","coordinates":[-123.142181,49.270603]}},{"properties":{"tickets":1533,"id":"a62pigwmlfeu","address":"3050 Broadway St. W.","lat":49.264153,"long":-123.173042},"type":"Feature","geometry":{"type":"Point","coordinates":[-123.173042,49.264153]}},{"properties":{"tickets":1537,"id":"a62piha7jh8m","address":"1250 Melville St.","lat":49.288376,"long":-123.125015},"type":"Feature","geometry":{"type":"Point","coordinates":[-123.125015,49.288376]}},{"properties":{"tickets":1542,"id":"a62pihbl6ndh","address":"350 Broadway St. W.","lat":49.263161,"long":-123.111938},"type":"Feature","geometry":{"type":"Point","coordinates":[-123.111938,49.263161]}},{"properties":{"tickets":1549,"id":"a62pih8hd3ad","address":"1050 Nelson St.","lat":49.281857,"long":-123.12706},"type":"Feature","geometry":{"type":"Point","coordinates":[-123.12706,49.281857]}},{"properties":{"tickets":1549,"id":"a62pih28tv5y","address":"450 Cambie St.","lat":49.282047,"long":-123.10984},"type":"Feature","geometry":{"type":"Point","coordinates":[-123.10984,49.282047]}},{"properties":{"tickets":1549,"id":"a62pih3yzcw3","address":"1150 Barclay St.","lat":49.283943,"long":-123.128036},"type":"Feature","geometry":{"type":"Point","coordinates":[-123.128036,49.283943]}},{"properties":{"tickets":1556,"id":"a62pih68k58x","address":"1450 13th Ave W.","lat":49.2598,"long":-123.137512},"type":"Feature","geometry":{"type":"Point","coordinates":[-123.137512,49.2598]}},{"properties":{"tickets":1567,"id":"a62pih8pk5ee","address":"450 Drake St.","lat":49.274521,"long":-123.125351},"type":"Feature","geometry":{"type":"Point","coordinates":[-123.125351,49.274521]}},{"properties":{"tickets":1571,"id":"a62pihb5cs0i","address":"1750 Commercial Dr.","lat":49.269135,"long":-123.069672},"type":"Feature","geometry":{"type":"Point","coordinates":[-123.069672,49.269135]}},{"properties":{"tickets":1571,"id":"a62pih93v1mj","address":"650 Drake St.","lat":49.275822,"long":-123.12735},"type":"Feature","geometry":{"type":"Point","coordinates":[-123.12735,49.275822]}},{"properties":{"tickets":1577,"id":"a62pih69uonm","address":"1250 Haro St.","lat":49.28582,"long":-123.128822},"type":"Feature","geometry":{"type":"Point","coordinates":[-123.128822,49.28582]}},{"properties":{"tickets":1587,"id":"a62pih0ab145","address":"350 Main St.","lat":49.281807,"long":-123.099663},"type":"Feature","geometry":{"type":"Point","coordinates":[-123.099663,49.281807]}},{"properties":{"tickets":1588,"id":"a62pigynah2c","address":"2150 40th Ave W.","lat":49.235577,"long":-123.156662},"type":"Feature","geometry":{"type":"Point","coordinates":[-123.156662,49.235577]}},{"properties":{"tickets":1601,"id":"a62pih7is2xl","address":"450 Abbott St.","lat":49.281525,"long":-123.107391},"type":"Feature","geometry":{"type":"Point","coordinates":[-123.107391,49.281525]}},{"properties":{"tickets":1616,"id":"a62pih28zesg","address":"3450 Crowley Dr.","lat":49.236931,"long":-123.031334},"type":"Feature","geometry":{"type":"Point","coordinates":[-123.031334,49.236931]}},{"properties":{"tickets":1620,"id":"a62pigvigln6","address":"650 7th Ave W.","lat":49.265038,"long":-123.118652},"type":"Feature","geometry":{"type":"Point","coordinates":[-123.118652,49.265038]}},{"properties":{"tickets":1624,"id":"a62pihbozzu8","address":"1150 Burnaby St.","lat":49.280376,"long":-123.133369},"type":"Feature","geometry":{"type":"Point","coordinates":[-123.133369,49.280376]}},{"properties":{"tickets":1628,"id":"a62pih66amyv","address":"650 Granville St.","lat":49.283043,"long":-123.117279},"type":"Feature","geometry":{"type":"Point","coordinates":[-123.117279,49.283043]}},{"properties":{"tickets":1629,"id":"a62pih2y40oo","address":"2650 Broadway St. W.","lat":49.264046,"long":-123.165581},"type":"Feature","geometry":{"type":"Point","coordinates":[-123.165581,49.264046]}},{"properties":{"tickets":1629,"id":"a62pih79epad","address":"1750 Burnaby St.","lat":49.285904,"long":-123.141922},"type":"Feature","geometry":{"type":"Point","coordinates":[-123.141922,49.285904]}},{"properties":{"tickets":1631,"id":"a62pihbijzqw","address":"2450 Fir St.","lat":49.263779,"long":-123.140999},"type":"Feature","geometry":{"type":"Point","coordinates":[-123.140999,49.263779]}},{"properties":{"tickets":1644,"id":"a62pih8c5n2c","address":"2550 Heather St.","lat":49.262802,"long":-123.119911},"type":"Feature","geometry":{"type":"Point","coordinates":[-123.119911,49.262802]}},{"properties":{"tickets":1645,"id":"a62pih1bmg9d","address":"350 Abbott St.","lat":49.282455,"long":-123.106995},"type":"Feature","geometry":{"type":"Point","coordinates":[-123.106995,49.282455]}},{"properties":{"tickets":1665,"id":"a62pigvusaos","address":"150 10th Ave E.","lat":49.262028,"long":-123.102264},"type":"Feature","geometry":{"type":"Point","coordinates":[-123.102264,49.262028]}},{"properties":{"tickets":1667,"id":"a62pigvliyux","address":"150 Abbott St.","lat":49.284084,"long":-123.106354},"type":"Feature","geometry":{"type":"Point","coordinates":[-123.106354,49.284084]}},{"properties":{"tickets":1669,"id":"a62pih3mws8d","address":"1950 Yew St.","lat":49.268597,"long":-123.155121},"type":"Feature","geometry":{"type":"Point","coordinates":[-123.155121,49.268597]}},{"properties":{"tickets":1669,"id":"a62pigyuws2s","address":"550 Helmcken St.","lat":49.277241,"long":-123.123146},"type":"Feature","geometry":{"type":"Point","coordinates":[-123.123146,49.277241]}},{"properties":{"tickets":1684,"id":"a62pigxtgw80","address":"2450 Willow St.","lat":49.263763,"long":-123.121803},"type":"Feature","geometry":{"type":"Point","coordinates":[-123.121803,49.263763]}},{"properties":{"tickets":1687,"id":"a62pih1fj0rz","address":"350 6th Ave W.","lat":49.265697,"long":-123.111832},"type":"Feature","geometry":{"type":"Point","coordinates":[-123.111832,49.265697]}},{"properties":{"tickets":1689,"id":"a62pihb1pk2v","address":"650 Hastings St. W.","lat":49.284996,"long":-123.113358},"type":"Feature","geometry":{"type":"Point","coordinates":[-123.113358,49.284996]}},{"properties":{"tickets":1692,"id":"a62pigvb1d9m","address":"1850 Robson St.","lat":49.291985,"long":-123.136269},"type":"Feature","geometry":{"type":"Point","coordinates":[-123.136269,49.291985]}},{"properties":{"tickets":1724,"id":"a62pih4mjka5","address":"1750 Pendrell St.","lat":49.287464,"long":-123.140007},"type":"Feature","geometry":{"type":"Point","coordinates":[-123.140007,49.287464]}},{"properties":{"tickets":1742,"id":"a62pih2lbafx","address":"1650 2nd Ave W.","lat":49.26973,"long":-123.142006},"type":"Feature","geometry":{"type":"Point","coordinates":[-123.142006,49.26973]}},{"properties":{"tickets":1755,"id":"a62pigzwgr6t","address":"1450 Commercial Dr.","lat":49.271748,"long":-123.069618},"type":"Feature","geometry":{"type":"Point","coordinates":[-123.069618,49.271748]}},{"properties":{"tickets":1764,"id":"a62pih6ja1f6","address":"2650 Laurel St.","lat":49.261955,"long":-123.125381},"type":"Feature","geometry":{"type":"Point","coordinates":[-123.125381,49.261955]}},{"properties":{"tickets":1769,"id":"a62pih5zgu5w","address":"750 Beatty St.","lat":49.278137,"long":-123.113129},"type":"Feature","geometry":{"type":"Point","coordinates":[-123.113129,49.278137]}},{"properties":{"tickets":1773,"id":"a62pih12jllq","address":"850 10th Ave W.","lat":49.262379,"long":-123.123055},"type":"Feature","geometry":{"type":"Point","coordinates":[-123.123055,49.262379]}},{"properties":{"tickets":1780,"id":"a62pihbdh4xg","address":"2050 Vine St.","lat":49.267754,"long":-123.157524},"type":"Feature","geometry":{"type":"Point","coordinates":[-123.157524,49.267754]}},{"properties":{"tickets":1785,"id":"a62pigzhs1b8","address":"2350 41st Ave W.","lat":49.234665,"long":-123.160652},"type":"Feature","geometry":{"type":"Point","coordinates":[-123.160652,49.234665]}},{"properties":{"tickets":1790,"id":"a62piha9ml13","address":"2450 Spruce St.","lat":49.263927,"long":-123.128967},"type":"Feature","geometry":{"type":"Point","coordinates":[-123.128967,49.263927]}},{"properties":{"tickets":1792,"id":"a62pih1riyrz","address":"1750 7th Ave W.","lat":49.26543,"long":-123.144241},"type":"Feature","geometry":{"type":"Point","coordinates":[-123.144241,49.26543]}},{"properties":{"tickets":1794,"id":"a62pih1079x7","address":"550 7th Ave W.","lat":49.264992,"long":-123.11618},"type":"Feature","geometry":{"type":"Point","coordinates":[-123.11618,49.264992]}},{"properties":{"tickets":1796,"id":"a62pih9oilnz","address":"50 Pender St. E.","lat":49.280468,"long":-123.103325},"type":"Feature","geometry":{"type":"Point","coordinates":[-123.103325,49.280468]}},{"properties":{"tickets":1798,"id":"a62pigvfmqxv","address":"2350 Granville St.","lat":49.264915,"long":-123.138512},"type":"Feature","geometry":{"type":"Point","coordinates":[-123.138512,49.264915]}},{"properties":{"tickets":1799,"id":"a62pih4xi8pj","address":"2250 Cornwall Ave.","lat":49.272606,"long":-123.156197},"type":"Feature","geometry":{"type":"Point","coordinates":[-123.156197,49.272606]}},{"properties":{"tickets":1807,"id":"a62pih8qd3ph","address":"150 8th Ave E.","lat":49.263714,"long":-123.101982},"type":"Feature","geometry":{"type":"Point","coordinates":[-123.101982,49.263714]}},{"properties":{"tickets":1814,"id":"a62pih6jqxui","address":"1750 Nelson St.","lat":49.288864,"long":-123.137856},"type":"Feature","geometry":{"type":"Point","coordinates":[-123.137856,49.288864]}},{"properties":{"tickets":1824,"id":"a62pihb6h4tg","address":"950 Cambie St.","lat":49.276611,"long":-123.117348},"type":"Feature","geometry":{"type":"Point","coordinates":[-123.117348,49.276611]}},{"properties":{"tickets":1825,"id":"a62pih9oa7rd","address":"1150 Thurlow St.","lat":49.281086,"long":-123.130173},"type":"Feature","geometry":{"type":"Point","coordinates":[-123.130173,49.281086]}},{"properties":{"tickets":1832,"id":"a62pih5cv4gn","address":"1850 Broadway St. W.","lat":49.263721,"long":-123.146973},"type":"Feature","geometry":{"type":"Point","coordinates":[-123.146973,49.263721]}},{"properties":{"tickets":1837,"id":"a62pih5wu2og","address":"350 Hastings St. W.","lat":49.283096,"long":-123.110458},"type":"Feature","geometry":{"type":"Point","coordinates":[-123.110458,49.283096]}},{"properties":{"tickets":1850,"id":"a62pih79fi9w","address":"150 Cordova St. E.","lat":49.282314,"long":-123.100899},"type":"Feature","geometry":{"type":"Point","coordinates":[-123.100899,49.282314]}},{"properties":{"tickets":1854,"id":"a62pih0k72jb","address":"450 Main St.","lat":49.280861,"long":-123.099693},"type":"Feature","geometry":{"type":"Point","coordinates":[-123.099693,49.280861]}},{"properties":{"tickets":1858,"id":"a62pigx0girc","address":"650 10th Ave W.","lat":49.262306,"long":-123.118767},"type":"Feature","geometry":{"type":"Point","coordinates":[-123.118767,49.262306]}},{"properties":{"tickets":1860,"id":"a62pigx4xp7i","address":"350 Helmcken St.","lat":49.275932,"long":-123.121078},"type":"Feature","geometry":{"type":"Point","coordinates":[-123.121078,49.275932]}},{"properties":{"tickets":1862,"id":"a62pigxry2nh","address":"750 Cordova St. W.","lat":49.286293,"long":-123.113373},"type":"Feature","geometry":{"type":"Point","coordinates":[-123.113373,49.286293]}},{"properties":{"tickets":1866,"id":"a62pih5ox6m0","address":"550 Drake St.","lat":49.275146,"long":-123.126312},"type":"Feature","geometry":{"type":"Point","coordinates":[-123.126312,49.275146]}},{"properties":{"tickets":1869,"id":"a62pih2597fp","address":"550 Nicola St.","lat":49.290638,"long":-123.128151},"type":"Feature","geometry":{"type":"Point","coordinates":[-123.128151,49.290638]}},{"properties":{"tickets":1881,"id":"a62pih4wb9jo","address":"150 Water St.","lat":49.284,"long":-123.107025},"type":"Feature","geometry":{"type":"Point","coordinates":[-123.107025,49.284]}},{"properties":{"tickets":1890,"id":"a62pih2u2lq0","address":"1650 8th Ave W.","lat":49.264568,"long":-123.142235},"type":"Feature","geometry":{"type":"Point","coordinates":[-123.142235,49.264568]}},{"properties":{"tickets":1903,"id":"a62pih7pe3jh","address":"1550 13th Ave W.","lat":49.259834,"long":-123.139984},"type":"Feature","geometry":{"type":"Point","coordinates":[-123.139984,49.259834]}},{"properties":{"tickets":1908,"id":"a62piha53rzu","address":"1150 Granville St.","lat":49.277668,"long":-123.125412},"type":"Feature","geometry":{"type":"Point","coordinates":[-123.125412,49.277668]}},{"properties":{"tickets":1930,"id":"a62pigwov3kc","address":"1050 Georgia St. W.","lat":49.284943,"long":-123.121918},"type":"Feature","geometry":{"type":"Point","coordinates":[-123.121918,49.284943]}},{"properties":{"tickets":1937,"id":"a62pigxx1a6w","address":"1350 8th Ave W.","lat":49.264442,"long":-123.13488},"type":"Feature","geometry":{"type":"Point","coordinates":[-123.13488,49.264442]}},{"properties":{"tickets":1952,"id":"a62pigvqkyf3","address":"950 Burrard St.","lat":49.281754,"long":-123.12516},"type":"Feature","geometry":{"type":"Point","coordinates":[-123.12516,49.281754]}},{"properties":{"tickets":1956,"id":"a62pigzbki0f","address":"450 Richards St.","lat":49.283726,"long":-123.112396},"type":"Feature","geometry":{"type":"Point","coordinates":[-123.112396,49.283726]}},{"properties":{"tickets":1965,"id":"a62pigxs4nt1","address":"6450 Fraser St.","lat":49.225983,"long":-123.09063},"type":"Feature","geometry":{"type":"Point","coordinates":[-123.09063,49.225983]}},{"properties":{"tickets":1977,"id":"a62pigvqivsh","address":"50 Powell St.","lat":49.283257,"long":-123.10305},"type":"Feature","geometry":{"type":"Point","coordinates":[-123.10305,49.283257]}},{"properties":{"tickets":1984,"id":"a62pigwnpse5","address":"850 Nelson St.","lat":49.280228,"long":-123.124519},"type":"Feature","geometry":{"type":"Point","coordinates":[-123.124519,49.280228]}},{"properties":{"tickets":1988,"id":"a62pigxmozfu","address":"950 8th Ave W.","lat":49.264305,"long":-123.125374},"type":"Feature","geometry":{"type":"Point","coordinates":[-123.125374,49.264305]}},{"properties":{"tickets":1993,"id":"a62pihato3ur","address":"1050 Melville St.","lat":49.285652,"long":-123.120796},"type":"Feature","geometry":{"type":"Point","coordinates":[-123.120796,49.285652]}},{"properties":{"tickets":1995,"id":"a62pih2mg51a","address":"1050 Commercial Dr.","lat":49.275303,"long":-123.069534},"type":"Feature","geometry":{"type":"Point","coordinates":[-123.069534,49.275303]}},{"properties":{"tickets":1995,"id":"a62pigvcgeit","address":"1350 Davie St.","lat":49.283272,"long":-123.135628},"type":"Feature","geometry":{"type":"Point","coordinates":[-123.135628,49.283272]}},{"properties":{"tickets":1998,"id":"a62pih89k1g0","address":"2850 Broadway St. W.","lat":49.264095,"long":-123.169189},"type":"Feature","geometry":{"type":"Point","coordinates":[-123.169189,49.264095]}},{"properties":{"tickets":2001,"id":"a62pih637m2q","address":"1250 Commercial Dr.","lat":49.273487,"long":-123.069572},"type":"Feature","geometry":{"type":"Point","coordinates":[-123.069572,49.273487]}},{"properties":{"tickets":2005,"id":"a62pih0tth8j","address":"1550 Coal Harbour Quay","lat":49.291485,"long":-123.128059},"type":"Feature","geometry":{"type":"Point","coordinates":[-123.128059,49.291485]}},{"properties":{"tickets":2022,"id":"a62pih8ockz9","address":"550 Taylor St.","lat":49.280083,"long":-123.10585},"type":"Feature","geometry":{"type":"Point","coordinates":[-123.10585,49.280083]}},{"properties":{"tickets":2032,"id":"a62pih8chqbe","address":"950 10th Ave W.","lat":49.262413,"long":-123.125381},"type":"Feature","geometry":{"type":"Point","coordinates":[-123.125381,49.262413]}},{"properties":{"tickets":2036,"id":"a62pih7zmzgy","address":"1750 2nd Ave W.","lat":49.269775,"long":-123.144341},"type":"Feature","geometry":{"type":"Point","coordinates":[-123.144341,49.269775]}},{"properties":{"tickets":2062,"id":"a62pih026qy5","address":"650 Helmcken St.","lat":49.27787,"long":-123.124115},"type":"Feature","geometry":{"type":"Point","coordinates":[-123.124115,49.27787]}},{"properties":{"tickets":2066,"id":"a62pigvxuxy4","address":"1750 Graveley St.","lat":49.2705,"long":-123.068695},"type":"Feature","geometry":{"type":"Point","coordinates":[-123.068695,49.2705]}},{"properties":{"tickets":2068,"id":"a62pigzykwev","address":"2450 Birch St.","lat":49.263992,"long":-123.133698},"type":"Feature","geometry":{"type":"Point","coordinates":[-123.133698,49.263992]}},{"properties":{"tickets":2076,"id":"a62piha2fcyz","address":"1950 Broadway St. W.","lat":49.263794,"long":-123.149368},"type":"Feature","geometry":{"type":"Point","coordinates":[-123.149368,49.263794]}},{"properties":{"tickets":2118,"id":"a62pih00ch32","address":"1050 8th Ave W.","lat":49.264328,"long":-123.127792},"type":"Feature","geometry":{"type":"Point","coordinates":[-123.127792,49.264328]}},{"properties":{"tickets":2121,"id":"a62pigz5r6sw","address":"450 Hornby St.","lat":49.286255,"long":-123.116356},"type":"Feature","geometry":{"type":"Point","coordinates":[-123.116356,49.286255]}},{"properties":{"tickets":2124,"id":"a62pigxzed44","address":"1750 Alberni St.","lat":49.291687,"long":-123.133621},"type":"Feature","geometry":{"type":"Point","coordinates":[-123.133621,49.291687]}},{"properties":{"tickets":2133,"id":"a62pihbmx6h9","address":"450 Burrard St.","lat":49.286858,"long":-123.117432},"type":"Feature","geometry":{"type":"Point","coordinates":[-123.117432,49.286858]}},{"properties":{"tickets":2137,"id":"a62pih1juk03","address":"1450 10th Ave W.","lat":49.262615,"long":-123.137383},"type":"Feature","geometry":{"type":"Point","coordinates":[-123.137383,49.262615]}},{"properties":{"tickets":2177,"id":"a62pigy7kyov","address":"850 Cambie St.","lat":49.277679,"long":-123.115791},"type":"Feature","geometry":{"type":"Point","coordinates":[-123.115791,49.277679]}},{"properties":{"tickets":2179,"id":"a62pih7xozzg","address":"150 Powell St.","lat":49.283215,"long":-123.100845},"type":"Feature","geometry":{"type":"Point","coordinates":[-123.100845,49.283215]}},{"properties":{"tickets":2184,"id":"a62pigyaneqj","address":"1050 Burrard St.","lat":49.280472,"long":-123.12709},"type":"Feature","geometry":{"type":"Point","coordinates":[-123.12709,49.280472]}},{"properties":{"tickets":2190,"id":"a62pih966yui","address":"1350 Richards St.","lat":49.274307,"long":-123.126633},"type":"Feature","geometry":{"type":"Point","coordinates":[-123.126633,49.274307]}},{"properties":{"tickets":2209,"id":"a62pih2zu5ue","address":"450 Homer St.","lat":49.283085,"long":-123.111435},"type":"Feature","geometry":{"type":"Point","coordinates":[-123.111435,49.283085]}},{"properties":{"tickets":2217,"id":"a62pih32mlja","address":"1250 Burrard St.","lat":49.278458,"long":-123.130135},"type":"Feature","geometry":{"type":"Point","coordinates":[-123.130135,49.278458]}},{"properties":{"tickets":2227,"id":"a62pih1ji81t","address":"50 Water St.","lat":49.283695,"long":-123.105286},"type":"Feature","geometry":{"type":"Point","coordinates":[-123.105286,49.283695]}},{"properties":{"tickets":2237,"id":"a62pih3yt53s","address":"750 Hamilton St.","lat":49.279377,"long":-123.11512},"type":"Feature","geometry":{"type":"Point","coordinates":[-123.11512,49.279377]}},{"properties":{"tickets":2238,"id":"a62pih6y0xta","address":"1050 Burnaby St.","lat":49.279022,"long":-123.131287},"type":"Feature","geometry":{"type":"Point","coordinates":[-123.131287,49.279022]}},{"properties":{"tickets":2243,"id":"a62pigwnv7sp","address":"750 8th Ave W.","lat":49.264225,"long":-123.120827},"type":"Feature","geometry":{"type":"Point","coordinates":[-123.120827,49.264225]}},{"properties":{"tickets":2266,"id":"a62pih6347r3","address":"2450 Laurel St.","lat":49.263828,"long":-123.124168},"type":"Feature","geometry":{"type":"Point","coordinates":[-123.124168,49.263828]}},{"properties":{"tickets":2286,"id":"a62pigw1kxhe","address":"50 Pender St. W.","lat":49.280716,"long":-123.105637},"type":"Feature","geometry":{"type":"Point","coordinates":[-123.105637,49.280716]}},{"properties":{"tickets":2291,"id":"a62pih1c12yh","address":"1250 Hornby St.","lat":49.27787,"long":-123.128944},"type":"Feature","geometry":{"type":"Point","coordinates":[-123.128944,49.27787]}},{"properties":{"tickets":2303,"id":"a62pih0de5t0","address":"650 Richards St.","lat":49.281776,"long":-123.115341},"type":"Feature","geometry":{"type":"Point","coordinates":[-123.115341,49.281776]}},{"properties":{"tickets":2314,"id":"a62pih205ywn","address":"1450 7th Ave W.","lat":49.26532,"long":-123.137192},"type":"Feature","geometry":{"type":"Point","coordinates":[-123.137192,49.26532]}},{"properties":{"tickets":2329,"id":"a62pigyh6abx","address":"250 Pender St. E.","lat":49.280357,"long":-123.09848},"type":"Feature","geometry":{"type":"Point","coordinates":[-123.09848,49.280357]}},{"properties":{"tickets":2338,"id":"a62pihai8478","address":"1250 Pacific Blvd.","lat":49.273636,"long":-123.122688},"type":"Feature","geometry":{"type":"Point","coordinates":[-123.122688,49.273636]}},{"properties":{"tickets":2348,"id":"a62pigxy841v","address":"2450 Pine St.","lat":49.264164,"long":-123.143379},"type":"Feature","geometry":{"type":"Point","coordinates":[-123.143379,49.264164]}},{"properties":{"tickets":2361,"id":"a62pigxrt3j6","address":"1050 Haro St.","lat":49.283455,"long":-123.125229},"type":"Feature","geometry":{"type":"Point","coordinates":[-123.125229,49.283455]}},{"properties":{"tickets":2373,"id":"a62pih935sud","address":"1050 Richards St.","lat":49.277451,"long":-123.121887},"type":"Feature","geometry":{"type":"Point","coordinates":[-123.121887,49.277451]}},{"properties":{"tickets":2378,"id":"a62pih5l9p2w","address":"1150 Cordova St. W.","lat":49.288559,"long":-123.119766},"type":"Feature","geometry":{"type":"Point","coordinates":[-123.119766,49.288559]}},{"properties":{"tickets":2387,"id":"a62pihbdrzsb","address":"1450 14th Ave W.","lat":49.258896,"long":-123.137512},"type":"Feature","geometry":{"type":"Point","coordinates":[-123.137512,49.258896]}},{"properties":{"tickets":2390,"id":"a62pihbbgnwq","address":"1550 Alberni St.","lat":49.289761,"long":-123.130646},"type":"Feature","geometry":{"type":"Point","coordinates":[-123.130646,49.289761]}},{"properties":{"tickets":2407,"id":"a62pih4vo4m0","address":"1150 Hastings St. W.","lat":49.28838,"long":-123.121277},"type":"Feature","geometry":{"type":"Point","coordinates":[-123.121277,49.28838]}},{"properties":{"tickets":2421,"id":"a62pih9iu60l","address":"450 Howe St.","lat":49.285618,"long":-123.115356},"type":"Feature","geometry":{"type":"Point","coordinates":[-123.115356,49.285618]}},{"properties":{"tickets":2422,"id":"a62pih0xhsqw","address":"1750 Davie St.","lat":49.286766,"long":-123.141045},"type":"Feature","geometry":{"type":"Point","coordinates":[-123.141045,49.286766]}},{"properties":{"tickets":2432,"id":"a62pih4ayqbe","address":"650 Bute St.","lat":49.287491,"long":-123.124771},"type":"Feature","geometry":{"type":"Point","coordinates":[-123.124771,49.287491]}},{"properties":{"tickets":2441,"id":"a62pih4i83p8","address":"650 Homer St.","lat":49.281139,"long":-123.114357},"type":"Feature","geometry":{"type":"Point","coordinates":[-123.114357,49.281139]}},{"properties":{"tickets":2454,"id":"a62pigzfy1ew","address":"850 8th Ave W.","lat":49.264259,"long":-123.122986},"type":"Feature","geometry":{"type":"Point","coordinates":[-123.122986,49.264259]}},{"properties":{"tickets":2455,"id":"a62pigxuzchr","address":"1050 Marinaside Cr.","lat":49.273201,"long":-123.116692},"type":"Feature","geometry":{"type":"Point","coordinates":[-123.116692,49.273201]}},{"properties":{"tickets":2485,"id":"a62pigzz4827","address":"150 Drake St.","lat":49.272594,"long":-123.122322},"type":"Feature","geometry":{"type":"Point","coordinates":[-123.122322,49.272594]}},{"properties":{"tickets":2511,"id":"a62pih91sdkg","address":"350 Robson St.","lat":49.279163,"long":-123.116425},"type":"Feature","geometry":{"type":"Point","coordinates":[-123.116425,49.279163]}},{"properties":{"tickets":2518,"id":"a62pih2kjfpm","address":"1150 Commercial Dr.","lat":49.274399,"long":-123.06955},"type":"Feature","geometry":{"type":"Point","coordinates":[-123.06955,49.274399]}},{"properties":{"tickets":2549,"id":"a62pigy8n8nj","address":"2550 Laurel St.","lat":49.26284,"long":-123.124214},"type":"Feature","geometry":{"type":"Point","coordinates":[-123.124214,49.26284]}},{"properties":{"tickets":2588,"id":"a62pih1p331x","address":"550 Richards St.","lat":49.282898,"long":-123.113647},"type":"Feature","geometry":{"type":"Point","coordinates":[-123.113647,49.282898]}},{"properties":{"tickets":2596,"id":"a62pih6fmtxc","address":"1450 11th Ave W.","lat":49.261684,"long":-123.137383},"type":"Feature","geometry":{"type":"Point","coordinates":[-123.137383,49.261684]}},{"properties":{"tickets":2597,"id":"a62pih0e60ke","address":"2050 42nd Ave W.","lat":49.233574,"long":-123.15358},"type":"Feature","geometry":{"type":"Point","coordinates":[-123.15358,49.233574]}},{"properties":{"tickets":2612,"id":"a62pih6004aj","address":"1350 Alberni St.","lat":49.28817,"long":-123.128181},"type":"Feature","geometry":{"type":"Point","coordinates":[-123.128181,49.28817]}},{"properties":{"tickets":2617,"id":"a62pih8bnn49","address":"550 Homer St.","lat":49.281792,"long":-123.113373},"type":"Feature","geometry":{"type":"Point","coordinates":[-123.113373,49.281792]}},{"properties":{"tickets":2621,"id":"a62pigxclt9y","address":"1150 Burrard St.","lat":49.279587,"long":-123.128418},"type":"Feature","geometry":{"type":"Point","coordinates":[-123.128418,49.279587]}},{"properties":{"tickets":2623,"id":"a62pih8p00zx","address":"250 Keefer St.","lat":49.279457,"long":-123.098434},"type":"Feature","geometry":{"type":"Point","coordinates":[-123.098434,49.279457]}},{"properties":{"tickets":2631,"id":"a62pigvi19s6","address":"5650 Yew St.","lat":49.235092,"long":-123.157738},"type":"Feature","geometry":{"type":"Point","coordinates":[-123.157738,49.235092]}},{"properties":{"tickets":2654,"id":"a62pih040rrw","address":"850 Richards St.","lat":49.279568,"long":-123.11869},"type":"Feature","geometry":{"type":"Point","coordinates":[-123.11869,49.279568]}},{"properties":{"tickets":2660,"id":"a62pih11fgx8","address":"1650 Robson St.","lat":49.289951,"long":-123.133095},"type":"Feature","geometry":{"type":"Point","coordinates":[-123.133095,49.289951]}},{"properties":{"tickets":2669,"id":"a62pigy831dv","address":"1350 Commercial Dr.","lat":49.272579,"long":-123.069595},"type":"Feature","geometry":{"type":"Point","coordinates":[-123.069595,49.272579]}},{"properties":{"tickets":2684,"id":"a62pigzwtd5o","address":"1250 Howe St.","lat":49.277267,"long":-123.128006},"type":"Feature","geometry":{"type":"Point","coordinates":[-123.128006,49.277267]}},{"properties":{"tickets":2695,"id":"a62pih4h78cp","address":"750 Burrard St.","lat":49.28368,"long":-123.122185},"type":"Feature","geometry":{"type":"Point","coordinates":[-123.122185,49.28368]}},{"properties":{"tickets":2702,"id":"a62pih2jpvpq","address":"250 Abbott St.","lat":49.28339,"long":-123.106613},"type":"Feature","geometry":{"type":"Point","coordinates":[-123.106613,49.28339]}},{"properties":{"tickets":2704,"id":"a62pih27s7s5","address":"1550 Robson St.","lat":49.289047,"long":-123.131714},"type":"Feature","geometry":{"type":"Point","coordinates":[-123.131714,49.289047]}},{"properties":{"tickets":2724,"id":"a62pih858aba","address":"550 Burrard St.","lat":49.285641,"long":-123.119324},"type":"Feature","geometry":{"type":"Point","coordinates":[-123.119324,49.285641]}},{"properties":{"tickets":2730,"id":"a62pih7gz3x3","address":"1250 Hastings St. W.","lat":49.289124,"long":-123.123848},"type":"Feature","geometry":{"type":"Point","coordinates":[-123.123848,49.289124]}},{"properties":{"tickets":2731,"id":"a62pihahpi3w","address":"50 Keefer Pl.","lat":49.279533,"long":-123.106567},"type":"Feature","geometry":{"type":"Point","coordinates":[-123.106567,49.279533]}},{"properties":{"tickets":2753,"id":"a62pigypxl34","address":"1050 Cambie St.","lat":49.275555,"long":-123.118484},"type":"Feature","geometry":{"type":"Point","coordinates":[-123.118484,49.275555]}},{"properties":{"tickets":2754,"id":"a62pih68prho","address":"1050 Haro Div.","lat":49.283455,"long":-123.125229},"type":"Feature","geometry":{"type":"Point","coordinates":[-123.125229,49.283455]}},{"properties":{"tickets":2782,"id":"a62pih5cmgyd","address":"1150 Pacific Blvd.","lat":49.274364,"long":-123.119949},"type":"Feature","geometry":{"type":"Point","coordinates":[-123.119949,49.274364]}},{"properties":{"tickets":2783,"id":"a62pigyyiek8","address":"1050 Pender St. W.","lat":49.287041,"long":-123.119003},"type":"Feature","geometry":{"type":"Point","coordinates":[-123.119003,49.287041]}},{"properties":{"tickets":2811,"id":"a62pih6vcplj","address":"750 Nelson St.","lat":49.279587,"long":-123.12355},"type":"Feature","geometry":{"type":"Point","coordinates":[-123.12355,49.279587]}},{"properties":{"tickets":2820,"id":"a62pigzi6s2u","address":"1250 Richards St.","lat":49.275349,"long":-123.125061},"type":"Feature","geometry":{"type":"Point","coordinates":[-123.125061,49.275349]}},{"properties":{"tickets":2824,"id":"a62pih5l2h1v","address":"50 Cordova St. E.","lat":49.282349,"long":-123.103249},"type":"Feature","geometry":{"type":"Point","coordinates":[-123.103249,49.282349]}},{"properties":{"tickets":2832,"id":"a62pih27xjju","address":"650 Seymour St.","lat":49.282394,"long":-123.116287},"type":"Feature","geometry":{"type":"Point","coordinates":[-123.116287,49.282394]}},{"properties":{"tickets":2842,"id":"a62pih6j3ctw","address":"2450 Ash St.","lat":49.263702,"long":-123.117493},"type":"Feature","geometry":{"type":"Point","coordinates":[-123.117493,49.263702]}},{"properties":{"tickets":2867,"id":"a62pih02wzv3","address":"850 Granville St.","lat":49.280834,"long":-123.120621},"type":"Feature","geometry":{"type":"Point","coordinates":[-123.120621,49.280834]}},{"properties":{"tickets":2883,"id":"a62pih6742ar","address":"950 Helmcken St.","lat":49.279793,"long":-123.127113},"type":"Feature","geometry":{"type":"Point","coordinates":[-123.127113,49.279793]}},{"properties":{"tickets":2908,"id":"a62pihb2e8ll","address":"350 Cambie St.","lat":49.283035,"long":-123.109383},"type":"Feature","geometry":{"type":"Point","coordinates":[-123.109383,49.283035]}},{"properties":{"tickets":2942,"id":"a62pigz283ol","address":"1250 Granville St.","lat":49.276615,"long":-123.126991},"type":"Feature","geometry":{"type":"Point","coordinates":[-123.126991,49.276615]}},{"properties":{"tickets":2944,"id":"a62pih4dqrct","address":"650 8th Ave W.","lat":49.264194,"long":-123.118668},"type":"Feature","geometry":{"type":"Point","coordinates":[-123.118668,49.264194]}},{"properties":{"tickets":2945,"id":"a62pih6d48o7","address":"450 Cordova St. W.","lat":49.284393,"long":-123.110443},"type":"Feature","geometry":{"type":"Point","coordinates":[-123.110443,49.284393]}},{"properties":{"tickets":2948,"id":"a62pih97axga","address":"1350 Homer St.","lat":49.273731,"long":-123.125496},"type":"Feature","geometry":{"type":"Point","coordinates":[-123.125496,49.273731]}},{"properties":{"tickets":2966,"id":"a62pigzskctn","address":"550 Hamilton St.","lat":49.281185,"long":-123.112366},"type":"Feature","geometry":{"type":"Point","coordinates":[-123.112366,49.281185]}},{"properties":{"tickets":2983,"id":"a62pih2v5up6","address":"1350 Hornby St.","lat":49.276806,"long":-123.130569},"type":"Feature","geometry":{"type":"Point","coordinates":[-123.130569,49.276806]}},{"properties":{"tickets":2991,"id":"a62pih99j80s","address":"550 Seymour St.","lat":49.283531,"long":-123.114571},"type":"Feature","geometry":{"type":"Point","coordinates":[-123.114571,49.283531]}},{"properties":{"tickets":2997,"id":"a62pih84tfsg","address":"1150 Seymour St.","lat":49.277004,"long":-123.12442},"type":"Feature","geometry":{"type":"Point","coordinates":[-123.12442,49.277004]}},{"properties":{"tickets":3002,"id":"a62pigz5pa31","address":"350 Cordova St. W.","lat":49.283806,"long":-123.109558},"type":"Feature","geometry":{"type":"Point","coordinates":[-123.109558,49.283806]}},{"properties":{"tickets":3017,"id":"a62pih3q6swv","address":"950 Mainland St","lat":49.277176,"long":-123.118217},"type":"Feature","geometry":{"type":"Point","coordinates":[-123.118217,49.277176]}},{"properties":{"tickets":3036,"id":"a62pih5cx1ak","address":"350 Homer St.","lat":49.283733,"long":-123.110451},"type":"Feature","geometry":{"type":"Point","coordinates":[-123.110451,49.283733]}},{"properties":{"tickets":3068,"id":"a62pihablx2o","address":"2450 Heather St.","lat":49.263744,"long":-123.119858},"type":"Feature","geometry":{"type":"Point","coordinates":[-123.119858,49.263744]}},{"properties":{"tickets":3080,"id":"a62pih8za0t6","address":"1050 Comox St.","lat":49.281151,"long":-123.128105},"type":"Feature","geometry":{"type":"Point","coordinates":[-123.128105,49.281151]}},{"properties":{"tickets":3090,"id":"a62pigw9wd54","address":"1750 4th Ave W.","lat":49.267994,"long":-123.144424},"type":"Feature","geometry":{"type":"Point","coordinates":[-123.144424,49.267994]}},{"properties":{"tickets":3096,"id":"a62pih6dab6n","address":"2750 Granville St.","lat":49.261246,"long":-123.138634},"type":"Feature","geometry":{"type":"Point","coordinates":[-123.138634,49.261246]}},{"properties":{"tickets":3126,"id":"a62pigx84yz1","address":"750 Homer St.","lat":49.280014,"long":-123.116058},"type":"Feature","geometry":{"type":"Point","coordinates":[-123.116058,49.280014]}},{"properties":{"tickets":3137,"id":"a62pih3wgpj2","address":"450 Hamilton St.","lat":49.28244,"long":-123.110466},"type":"Feature","geometry":{"type":"Point","coordinates":[-123.110466,49.28244]}},{"properties":{"tickets":3228,"id":"a62pih2q9ou3","address":"750 Helmcken St.","lat":49.27853,"long":-123.125122},"type":"Feature","geometry":{"type":"Point","coordinates":[-123.125122,49.27853]}},{"properties":{"tickets":3230,"id":"a62pigz02y4r","address":"1650 Davie St.","lat":49.285744,"long":-123.139465},"type":"Feature","geometry":{"type":"Point","coordinates":[-123.139465,49.285744]}},{"properties":{"tickets":3273,"id":"a62pigzewn9e","address":"850 Beatty St.","lat":49.277054,"long":-123.114784},"type":"Feature","geometry":{"type":"Point","coordinates":[-123.114784,49.277054]}},{"properties":{"tickets":3281,"id":"a62pih1lb3vr","address":"1250 Alberni St.","lat":49.287247,"long":-123.126709},"type":"Feature","geometry":{"type":"Point","coordinates":[-123.126709,49.287247]}},{"properties":{"tickets":3283,"id":"a62pih4a64gd","address":"1550 14th Ave W.","lat":49.258938,"long":-123.139992},"type":"Feature","geometry":{"type":"Point","coordinates":[-123.139992,49.258938]}},{"properties":{"tickets":3284,"id":"a62pih22fi2h","address":"3350 Kingsway","lat":49.233284,"long":-123.034241},"type":"Feature","geometry":{"type":"Point","coordinates":[-123.034241,49.233284]}},{"properties":{"tickets":3313,"id":"a62pih25zsqn","address":"1550 11th Ave W.","lat":49.261723,"long":-123.139854},"type":"Feature","geometry":{"type":"Point","coordinates":[-123.139854,49.261723]}},{"properties":{"tickets":3335,"id":"a62pih8xam6h","address":"1150 Georgia St. W.","lat":49.286442,"long":-123.124252},"type":"Feature","geometry":{"type":"Point","coordinates":[-123.124252,49.286442]}},{"properties":{"tickets":3336,"id":"a62pih8y9l1m","address":"450 Helmcken St.","lat":49.276623,"long":-123.122177},"type":"Feature","geometry":{"type":"Point","coordinates":[-123.122177,49.276623]}},{"properties":{"tickets":3369,"id":"a62pih1daai3","address":"550 Main St.","lat":49.279922,"long":-123.099716},"type":"Feature","geometry":{"type":"Point","coordinates":[-123.099716,49.279922]}},{"properties":{"tickets":3421,"id":"a62pih62ysyu","address":"250 Georgia St. E.","lat":49.278549,"long":-123.098389},"type":"Feature","geometry":{"type":"Point","coordinates":[-123.098389,49.278549]}},{"properties":{"tickets":3424,"id":"a62pigyov6ss","address":"750 Richards St.","lat":49.280651,"long":-123.11705},"type":"Feature","geometry":{"type":"Point","coordinates":[-123.11705,49.280651]}},{"properties":{"tickets":3430,"id":"a62pih16lefa","address":"50 Alexander St.","lat":49.283607,"long":-123.103104},"type":"Feature","geometry":{"type":"Point","coordinates":[-123.103104,49.283607]}},{"properties":{"tickets":3441,"id":"a62pihayqy4l","address":"950 Seymour St.","lat":49.279114,"long":-123.121231},"type":"Feature","geometry":{"type":"Point","coordinates":[-123.121231,49.279114]}},{"properties":{"tickets":3462,"id":"a62pih5j4fes","address":"1550 6th Ave W.","lat":49.266201,"long":-123.139862},"type":"Feature","geometry":{"type":"Point","coordinates":[-123.139862,49.266201]}},{"properties":{"tickets":3468,"id":"a62pih3kgsq5","address":"850 Hamilton St.","lat":49.278301,"long":-123.116745},"type":"Feature","geometry":{"type":"Point","coordinates":[-123.116745,49.278301]}},{"properties":{"tickets":3474,"id":"a62pih4kj4nj","address":"350 Howe St.","lat":49.286285,"long":-123.114372},"type":"Feature","geometry":{"type":"Point","coordinates":[-123.114372,49.286285]}},{"properties":{"tickets":3475,"id":"a62pigwl5p95","address":"1750 8th Ave W.","lat":49.26461,"long":-123.144562},"type":"Feature","geometry":{"type":"Point","coordinates":[-123.144562,49.26461]}},{"properties":{"tickets":3485,"id":"a62pih4pmxwi","address":"2050 41st Ave W.","lat":49.234539,"long":-123.15255},"type":"Feature","geometry":{"type":"Point","coordinates":[-123.15255,49.234539]}},{"properties":{"tickets":3490,"id":"a62pih4nrog2","address":"550 Beatty St.","lat":49.28054,"long":-123.109482},"type":"Feature","geometry":{"type":"Point","coordinates":[-123.109482,49.28054]}},{"properties":{"tickets":3503,"id":"a62pih4uekmr","address":"1050 Granville St.","lat":49.278717,"long":-123.12384},"type":"Feature","geometry":{"type":"Point","coordinates":[-123.12384,49.278717]}},{"properties":{"tickets":3614,"id":"a62pih4rgjzs","address":"550 Abbott St.","lat":49.280373,"long":-123.107605},"type":"Feature","geometry":{"type":"Point","coordinates":[-123.107605,49.280373]}},{"properties":{"tickets":3636,"id":"a62pih1oerdm","address":"1050 Dunsmuir St.","lat":49.285927,"long":-123.120216},"type":"Feature","geometry":{"type":"Point","coordinates":[-123.120216,49.285927]}},{"properties":{"tickets":3659,"id":"a62pih1bs5h6","address":"550 Broadway St. W.","lat":49.263229,"long":-123.116249},"type":"Feature","geometry":{"type":"Point","coordinates":[-123.116249,49.263229]}},{"properties":{"tickets":3700,"id":"a62pih4ekfrj","address":"1550 7th Ave W.","lat":49.265362,"long":-123.139816},"type":"Feature","geometry":{"type":"Point","coordinates":[-123.139816,49.265362]}},{"properties":{"tickets":3710,"id":"a62pih4rbxgd","address":"50 Cordova St. W.","lat":49.282677,"long":-123.10553},"type":"Feature","geometry":{"type":"Point","coordinates":[-123.10553,49.282677]}},{"properties":{"tickets":3716,"id":"a62pih80iden","address":"1150 Howe St.","lat":49.278313,"long":-123.126427},"type":"Feature","geometry":{"type":"Point","coordinates":[-123.126427,49.278313]}},{"properties":{"tickets":3762,"id":"a62pih2yvezs","address":"2250 41st Ave W.","lat":49.234642,"long":-123.159233},"type":"Feature","geometry":{"type":"Point","coordinates":[-123.159233,49.234642]}},{"properties":{"tickets":3804,"id":"a62pigw0n6tl","address":"1550 8th Ave W.","lat":49.264526,"long":-123.139801},"type":"Feature","geometry":{"type":"Point","coordinates":[-123.139801,49.264526]}},{"properties":{"tickets":3819,"id":"a62pih4r2usg","address":"2950 Granville St.","lat":49.259357,"long":-123.138725},"type":"Feature","geometry":{"type":"Point","coordinates":[-123.138725,49.259357]}},{"properties":{"tickets":3879,"id":"a62pih77l7ev","address":"450 Davie St.","lat":49.275574,"long":-123.123772},"type":"Feature","geometry":{"type":"Point","coordinates":[-123.123772,49.275574]}},{"properties":{"tickets":3898,"id":"a62pigzwwhvr","address":"1050 Cordova St. W.","lat":49.288067,"long":-123.117821},"type":"Feature","geometry":{"type":"Point","coordinates":[-123.117821,49.288067]}},{"properties":{"tickets":3937,"id":"a62pih90kjq2","address":"550 8th Ave W.","lat":49.264145,"long":-123.116196},"type":"Feature","geometry":{"type":"Point","coordinates":[-123.116196,49.264145]}},{"properties":{"tickets":3948,"id":"a62pigy5ltum","address":"1150 Hornby St.","lat":49.278919,"long":-123.12738},"type":"Feature","geometry":{"type":"Point","coordinates":[-123.12738,49.278919]}},{"properties":{"tickets":4055,"id":"a62pigz07gr1","address":"1750 Robson St.","lat":49.290981,"long":-123.134697},"type":"Feature","geometry":{"type":"Point","coordinates":[-123.134697,49.290981]}},{"properties":{"tickets":4093,"id":"a62pih3c1dl4","address":"1050 Howe St.","lat":49.279366,"long":-123.124847},"type":"Feature","geometry":{"type":"Point","coordinates":[-123.124847,49.279366]}},{"properties":{"tickets":4141,"id":"a62pigvkcz7z","address":"950 Richards St.","lat":49.278503,"long":-123.120293},"type":"Feature","geometry":{"type":"Point","coordinates":[-123.120293,49.278503]}},{"properties":{"tickets":4257,"id":"a62pihapjpw6","address":"750 Bute St.","lat":49.286396,"long":-123.126396},"type":"Feature","geometry":{"type":"Point","coordinates":[-123.126396,49.286396]}},{"properties":{"tickets":4318,"id":"a62pih32043j","address":"2850 Granville St.","lat":49.2603,"long":-123.138718},"type":"Feature","geometry":{"type":"Point","coordinates":[-123.138718,49.2603]}},{"properties":{"tickets":4358,"id":"a62pih339rk8","address":"1350 Robson St.","lat":49.287468,"long":-123.129257},"type":"Feature","geometry":{"type":"Point","coordinates":[-123.129257,49.287468]}},{"properties":{"tickets":4368,"id":"a62pih5bwrg6","address":"2350 4th Ave W.","lat":49.268219,"long":-123.158699},"type":"Feature","geometry":{"type":"Point","coordinates":[-123.158699,49.268219]}},{"properties":{"tickets":4473,"id":"a62pih5asq9m","address":"550 Hornby St.","lat":49.285408,"long":-123.117599},"type":"Feature","geometry":{"type":"Point","coordinates":[-123.117599,49.285408]}},{"properties":{"tickets":4474,"id":"a62pihb5a6cb","address":"1850 4th Ave W.","lat":49.268024,"long":-123.146866},"type":"Feature","geometry":{"type":"Point","coordinates":[-123.146866,49.268024]}},{"properties":{"tickets":4477,"id":"a62pihanelzt","address":"850 Cordova St. W.","lat":49.286942,"long":-123.114388},"type":"Feature","geometry":{"type":"Point","coordinates":[-123.114388,49.286942]}},{"properties":{"tickets":4483,"id":"a62pigywktf2","address":"1450 Broadway St. W.","lat":49.263569,"long":-123.13723},"type":"Feature","geometry":{"type":"Point","coordinates":[-123.13723,49.263569]}},{"properties":{"tickets":4522,"id":"a62pih5w7i04","address":"2550 Pine St.","lat":49.26318,"long":-123.14344},"type":"Feature","geometry":{"type":"Point","coordinates":[-123.14344,49.26318]}},{"properties":{"tickets":4524,"id":"a62pihbfqrdf","address":"1050 Broadway St. W.","lat":49.263367,"long":-123.127747},"type":"Feature","geometry":{"type":"Point","coordinates":[-123.127747,49.263367]}},{"properties":{"tickets":4568,"id":"a62pih4r8eqj","address":"1250 Broadway St. W.","lat":49.263504,"long":-123.132553},"type":"Feature","geometry":{"type":"Point","coordinates":[-123.132553,49.263504]}},{"properties":{"tickets":4583,"id":"a62pih1vp79i","address":"1250 Robson St.","lat":49.286495,"long":-123.127762},"type":"Feature","geometry":{"type":"Point","coordinates":[-123.127762,49.286495]}},{"properties":{"tickets":4588,"id":"a62pih4osjkr","address":"1850 1st Ave W.","lat":49.270683,"long":-123.146675},"type":"Feature","geometry":{"type":"Point","coordinates":[-123.146675,49.270683]}},{"properties":{"tickets":4594,"id":"a62pih9euw5e","address":"850 Helmcken St.","lat":49.27916,"long":-123.126114},"type":"Feature","geometry":{"type":"Point","coordinates":[-123.126114,49.27916]}},{"properties":{"tickets":4654,"id":"a62pih9807lh","address":"3050 Granville St.","lat":49.258457,"long":-123.138733},"type":"Feature","geometry":{"type":"Point","coordinates":[-123.138733,49.258457]}},{"properties":{"tickets":4700,"id":"a62pih9csicd","address":"750 Thurlow St.","lat":49.285007,"long":-123.124222},"type":"Feature","geometry":{"type":"Point","coordinates":[-123.124222,49.285007]}},{"properties":{"tickets":4717,"id":"a62pigzuqads","address":"2150 41st Ave W.","lat":49.234608,"long":-123.157143},"type":"Feature","geometry":{"type":"Point","coordinates":[-123.157143,49.234608]}},{"properties":{"tickets":4724,"id":"a62pigyz69ru","address":"1150 Richards St.","lat":49.276405,"long":-123.123474},"type":"Feature","geometry":{"type":"Point","coordinates":[-123.123474,49.276405]}},{"properties":{"tickets":4726,"id":"a62pih2o42ro","address":"1250 Davie St.","lat":49.282318,"long":-123.134148},"type":"Feature","geometry":{"type":"Point","coordinates":[-123.134148,49.282318]}},{"properties":{"tickets":4731,"id":"a62pih3tx5fg","address":"850 Burrard St.","lat":49.282742,"long":-123.123627},"type":"Feature","geometry":{"type":"Point","coordinates":[-123.123627,49.282742]}},{"properties":{"tickets":4822,"id":"a62pigxwbdgw","address":"150 Broadway St. W.","lat":49.263084,"long":-123.108185},"type":"Feature","geometry":{"type":"Point","coordinates":[-123.108185,49.263084]}},{"properties":{"tickets":4837,"id":"a62pih98x2ht","address":"1450 8th Ave W.","lat":49.264481,"long":-123.137222},"type":"Feature","geometry":{"type":"Point","coordinates":[-123.137222,49.264481]}},{"properties":{"tickets":4952,"id":"a62pih7oulb1","address":"1250 Homer St.","lat":49.274715,"long":-123.124077},"type":"Feature","geometry":{"type":"Point","coordinates":[-123.124077,49.274715]}},{"properties":{"tickets":4968,"id":"a62pih1i25p4","address":"1150 Pender St. W.","lat":49.287937,"long":-123.121941},"type":"Feature","geometry":{"type":"Point","coordinates":[-123.121941,49.287937]}},{"properties":{"tickets":4972,"id":"a62pih6rgin4","address":"750 Hornby St.","lat":49.283184,"long":-123.120949},"type":"Feature","geometry":{"type":"Point","coordinates":[-123.120949,49.283184]}},{"properties":{"tickets":5015,"id":"a62pih76c5gx","address":"1150 Melville St.","lat":49.287174,"long":-123.123108},"type":"Feature","geometry":{"type":"Point","coordinates":[-123.123108,49.287174]}},{"properties":{"tickets":5187,"id":"a62pih08fnxf","address":"850 Homer St.","lat":49.278946,"long":-123.117683},"type":"Feature","geometry":{"type":"Point","coordinates":[-123.117683,49.278946]}},{"properties":{"tickets":5194,"id":"a62pih9v19aq","address":"950 Cordova St. W.","lat":49.287437,"long":-123.115585},"type":"Feature","geometry":{"type":"Point","coordinates":[-123.115585,49.287437]}},{"properties":{"tickets":5248,"id":"a62pih4ku5sw","address":"550 Howe St.","lat":49.284374,"long":-123.117226},"type":"Feature","geometry":{"type":"Point","coordinates":[-123.117226,49.284374]}},{"properties":{"tickets":5399,"id":"a62piha9vcrf","address":"1050 Hastings St. W.","lat":49.287525,"long":-123.118217},"type":"Feature","geometry":{"type":"Point","coordinates":[-123.118217,49.287525]}},{"properties":{"tickets":5487,"id":"a62pigx981w2","address":"150 Pender St. E.","lat":49.280411,"long":-123.10096},"type":"Feature","geometry":{"type":"Point","coordinates":[-123.10096,49.280411]}},{"properties":{"tickets":5601,"id":"a62pigw460jg","address":"950 Canada Pl.","lat":49.287926,"long":-123.114876},"type":"Feature","geometry":{"type":"Point","coordinates":[-123.114876,49.287926]}},{"properties":{"tickets":5612,"id":"a62pih97dnti","address":"1550 Broadway St. W.","lat":49.263603,"long":-123.139824},"type":"Feature","geometry":{"type":"Point","coordinates":[-123.139824,49.263603]}},{"properties":{"tickets":5731,"id":"a62pih52beqp","address":"2150 4th Ave W.","lat":49.268135,"long":-123.153984},"type":"Feature","geometry":{"type":"Point","coordinates":[-123.153984,49.268135]}},{"properties":{"tickets":5970,"id":"a62piha3vomc","address":"950 Howe St.","lat":49.280437,"long":-123.123253},"type":"Feature","geometry":{"type":"Point","coordinates":[-123.123253,49.280437]}},{"properties":{"tickets":6029,"id":"a62pih1offw8","address":"2050 4th Ave W.","lat":49.268101,"long":-123.151604},"type":"Feature","geometry":{"type":"Point","coordinates":[-123.151604,49.268101]}},{"properties":{"tickets":6126,"id":"a62pih5clw2p","address":"1250 Hamilton St.","lat":49.274334,"long":-123.123482},"type":"Feature","geometry":{"type":"Point","coordinates":[-123.123482,49.274334]}},{"properties":{"tickets":6158,"id":"a62pih3nh3dl","address":"1550 10th Ave W.","lat":49.262657,"long":-123.139847},"type":"Feature","geometry":{"type":"Point","coordinates":[-123.139847,49.262657]}},{"properties":{"tickets":6202,"id":"a62pih0bfr11","address":"1050 Davie St.","lat":49.279743,"long":-123.130219},"type":"Feature","geometry":{"type":"Point","coordinates":[-123.130219,49.279743]}},{"properties":{"tickets":6386,"id":"a62pih7ilo8z","address":"1150 Alberni St.","lat":49.286064,"long":-123.124832},"type":"Feature","geometry":{"type":"Point","coordinates":[-123.124832,49.286064]}},{"properties":{"tickets":6461,"id":"a62pih4bc6l2","address":"1150 Davie St.","lat":49.281109,"long":-123.132301},"type":"Feature","geometry":{"type":"Point","coordinates":[-123.132301,49.281109]}},{"properties":{"tickets":6504,"id":"a62pih26enso","address":"950 Homer St.","lat":49.277882,"long":-123.119286},"type":"Feature","geometry":{"type":"Point","coordinates":[-123.119286,49.277882]}},{"properties":{"tickets":6553,"id":"a62pigwwd6ip","address":"750 Broadway St. W.","lat":49.263306,"long":-123.120872},"type":"Feature","geometry":{"type":"Point","coordinates":[-123.120872,49.263306]}},{"properties":{"tickets":6562,"id":"a62pih5cshpa","address":"1150 Mainland St","lat":49.27504,"long":-123.121346},"type":"Feature","geometry":{"type":"Point","coordinates":[-123.121346,49.27504]}},{"properties":{"tickets":6658,"id":"a62pih4jf2cm","address":"1150 Homer St.","lat":49.275757,"long":-123.12249},"type":"Feature","geometry":{"type":"Point","coordinates":[-123.12249,49.275757]}},{"properties":{"tickets":6676,"id":"a62pigwpwkoy","address":"150 Davie St.","lat":49.273453,"long":-123.120552},"type":"Feature","geometry":{"type":"Point","coordinates":[-123.120552,49.273453]}},{"properties":{"tickets":6821,"id":"a62pih2b4li5","address":"950 Broadway St. W.","lat":49.263325,"long":-123.12542},"type":"Feature","geometry":{"type":"Point","coordinates":[-123.12542,49.263325]}},{"properties":{"tickets":6889,"id":"a62pih63wsm4","address":"1050 Hamilton St.","lat":49.276264,"long":-123.12056},"type":"Feature","geometry":{"type":"Point","coordinates":[-123.12056,49.276264]}},{"properties":{"tickets":6903,"id":"a62pigx44mwr","address":"1150 Broadway St. W.","lat":49.26347,"long":-123.130188},"type":"Feature","geometry":{"type":"Point","coordinates":[-123.130188,49.26347]}},{"properties":{"tickets":6961,"id":"a62pigzfkilq","address":"1350 Broadway St. W.","lat":49.26355,"long":-123.134888},"type":"Feature","geometry":{"type":"Point","coordinates":[-123.134888,49.26355]}},{"properties":{"tickets":7062,"id":"a62pih1n0q0y","address":"1650 Broadway St. W.","lat":49.263695,"long":-123.142235},"type":"Feature","geometry":{"type":"Point","coordinates":[-123.142235,49.263695]}},{"properties":{"tickets":7354,"id":"a62pigxhl06c","address":"2650 Granville St.","lat":49.262165,"long":-123.13858},"type":"Feature","geometry":{"type":"Point","coordinates":[-123.13858,49.262165]}},{"properties":{"tickets":7403,"id":"a62pihbldz6y","address":"1950 4th Ave W.","lat":49.268063,"long":-123.149208},"type":"Feature","geometry":{"type":"Point","coordinates":[-123.149208,49.268063]}},{"properties":{"tickets":7462,"id":"a62pigwhg6mf","address":"950 Hornby St.","lat":49.281044,"long":-123.124191},"type":"Feature","geometry":{"type":"Point","coordinates":[-123.124191,49.281044]}},{"properties":{"tickets":7634,"id":"a62pigvl4mgk","address":"2250 4th Ave W.","lat":49.268169,"long":-123.156342},"type":"Feature","geometry":{"type":"Point","coordinates":[-123.156342,49.268169]}},{"properties":{"tickets":7848,"id":"a62pigwcxmjy","address":"850 Broadway St. W.","lat":49.263336,"long":-123.123032},"type":"Feature","geometry":{"type":"Point","coordinates":[-123.123032,49.263336]}},{"properties":{"tickets":7941,"id":"a62pigy35t6i","address":"850 Howe St.","lat":49.28149,"long":-123.121651},"type":"Feature","geometry":{"type":"Point","coordinates":[-123.121651,49.28149]}},{"properties":{"tickets":8094,"id":"a62pigyf4rkl","address":"1150 Hamilton St.","lat":49.275387,"long":-123.12188},"type":"Feature","geometry":{"type":"Point","coordinates":[-123.12188,49.275387]}},{"properties":{"tickets":8269,"id":"a62pihapks8k","address":"1050 Homer St.","lat":49.27681,"long":-123.120895},"type":"Feature","geometry":{"type":"Point","coordinates":[-123.120895,49.27681]}},{"properties":{"tickets":8328,"id":"a62pih7er645","address":"1050 Mainland St","lat":49.276089,"long":-123.119766},"type":"Feature","geometry":{"type":"Point","coordinates":[-123.119766,49.276089]}},{"properties":{"tickets":8863,"id":"a62pigz679rb","address":"650 Hornby St.","lat":49.284313,"long":-123.11924},"type":"Feature","geometry":{"type":"Point","coordinates":[-123.11924,49.284313]}},{"properties":{"tickets":9100,"id":"a62pihbe4404","address":"1050 Hornby St.","lat":49.279987,"long":-123.125801},"type":"Feature","geometry":{"type":"Point","coordinates":[-123.125801,49.279987]}},{"properties":{"tickets":9121,"id":"a62pih5u6qm3","address":"1750 Broadway St. W.","lat":49.263737,"long":-123.144539},"type":"Feature","geometry":{"type":"Point","coordinates":[-123.144539,49.263737]}},{"properties":{"tickets":9729,"id":"a62pih28rnru","address":"1050 Alberni St.","lat":49.284691,"long":-123.122704},"type":"Feature","geometry":{"type":"Point","coordinates":[-123.122704,49.284691]}},{"properties":{"tickets":10426,"id":"a62pih6bymue","address":"650 Broadway St. W.","lat":49.263271,"long":-123.118729},"type":"Feature","geometry":{"type":"Point","coordinates":[-123.118729,49.263271]}},{"properties":{"tickets":10501,"id":"a62pigxabboh","address":"850 Hornby St.","lat":49.282097,"long":-123.122581},"type":"Feature","geometry":{"type":"Point","coordinates":[-123.122581,49.282097]}},{"properties":{"tickets":15674,"id":"a62pih2gud1l","address":"1150 Robson St.","lat":49.285301,"long":-123.125923},"type":"Feature","geometry":{"type":"Point","coordinates":[-123.125923,49.285301]}},{"properties":{"tickets":17899,"id":"a62pih00d2eq","address":"1050 Robson St.","lat":49.283955,"long":-123.123848},"type":"Feature","geometry":{"type":"Point","coordinates":[-123.123848,49.283955]}}],"is_temporal":false,"author":{"url":"","metadata":"","contact_name":"","contact_address":"","source":"","contact_phone":""},"source":"","pagination":{"sort":null,"start":0,"total":695,"limit":1000000},"state":"complete","tags":"","published":"2014-08-11T10:16:12-04:00","id":8850}