{"type":"FeatureCollection","data_type":"Dataset","url_type":null,"permissions":[{"permissions":{"download":true,"view":true},"group_id":"everyone"}],"classification":null,"title":"alhambra-crime","count":45,"stream_id":88563,"contributor":{"url":"http://geocommons.com/users/8857","name":"8857"},"data_attributes":null,"calculation_params":null,"icon_link":null,"link":"http://geocommons.com/overlays/88563.json","extent":[-114.669,52.3334,-114.669,52.3334],"geometry_types":["point"],"unique_name":null,"name":"alhambra-crime","feature_count":45,"description":"","next_feature":null,"is_raster":false,"short_classification":"Y","stats":{"date":{"max":"2011/01/23 00:00:00 -0500","mean":"2011/01/13 15:28:00 -0500","variance":350905902545.455,"stdev":592373.110923727,"min":"2011/01/04 00:00:00 -0500","median":"2011/01/17 00:00:00 -0500"}},"features":[{"properties":{"city":"Alhambra, CA","date":{"end_time":"2011/01/05 00:00:00 -0500","original":"4-Jan-11","granularity":"day","time":"2011/01/04 00:00:00 -0500"},"geo_score":0.971,"type of crime":"hit-and-run","id":"a64lfio7hmh3","geo_precision":"zip","address":"000 block of Third Street.","state":"California"},"type":"Feature","geometry":{"type":"Point","coordinates":[-114.668743538,52.333415779]}},{"properties":{"city":"Alhambra, CA","date":{"end_time":"2011/01/05 00:00:00 -0500","original":"4-Jan-11","granularity":"day","time":"2011/01/04 00:00:00 -0500"},"geo_score":0.971,"type of crime":"grand theft","id":"a64lfik1cc7n","geo_precision":"zip","address":"2500 block of Alhambra Road.","state":"California"},"type":"Feature","geometry":{"type":"Point","coordinates":[-114.668743538,52.333415779]}},{"properties":{"city":"Alhambra, CA","date":{"end_time":"2011/01/06 00:00:00 -0500","original":"5-Jan-11","granularity":"day","time":"2011/01/05 00:00:00 -0500"},"geo_score":0.971,"type of crime":"auto burglary","id":"a64lfivi3uoc","geo_precision":"zip","address":"300 block of South Date Avenue.","state":"California"},"type":"Feature","geometry":{"type":"Point","coordinates":[-114.668743538,52.333415779]}},{"properties":{"city":"Alhambra, CA","date":{"end_time":"2011/01/06 00:00:00 -0500","original":"5-Jan-11","granularity":"day","time":"2011/01/05 00:00:00 -0500"},"geo_score":0.971,"type of crime":"robbery","id":"a64lfinmna6j","geo_precision":"zip","address":"1100 block of South Fremont Avenue.","state":"California"},"type":"Feature","geometry":{"type":"Point","coordinates":[-114.668743538,52.333415779]}},{"properties":{"city":"Alhambra, CA","date":{"end_time":"2011/01/06 00:00:00 -0500","original":"5-Jan-11","granularity":"day","time":"2011/01/05 00:00:00 -0500"},"geo_score":0.971,"type of crime":"residential burglary","id":"a64lfivq1k76","geo_precision":"zip","address":"800 block of South Olive Avenue.","state":"California"},"type":"Feature","geometry":{"type":"Point","coordinates":[-114.668743538,52.333415779]}},{"properties":{"city":"Alhambra, CA","date":{"end_time":"2011/01/06 00:00:00 -0500","original":"5-Jan-11","granularity":"day","time":"2011/01/05 00:00:00 -0500"},"geo_score":0.971,"type of crime":"robbery","id":"a64lfinvpweg","geo_precision":"zip","address":"1800 block of South Third Street.","state":"California"},"type":"Feature","geometry":{"type":"Point","coordinates":[-114.668743538,52.333415779]}},{"properties":{"city":"Alhambra, CA","date":{"end_time":"2011/01/06 00:00:00 -0500","original":"5-Jan-11","granularity":"day","time":"2011/01/05 00:00:00 -0500"},"geo_score":0.971,"type of crime":"grand theft","id":"a64lfimumgxb","geo_precision":"zip","address":"900 block of South Almansor Street.","state":"California"},"type":"Feature","geometry":{"type":"Point","coordinates":[-114.668743538,52.333415779]}},{"properties":{"city":"Alhambra, CA","date":{"end_time":"2011/01/06 00:00:00 -0500","original":"5-Jan-11","granularity":"day","time":"2011/01/05 00:00:00 -0500"},"geo_score":0.971,"type of crime":"hit-and-run","id":"a64lfiynchpv","geo_precision":"zip","address":"intersection of Alhambra Road and Atlantic Boulevard.","state":"California"},"type":"Feature","geometry":{"type":"Point","coordinates":[-114.668743538,52.333415779]}},{"properties":{"city":"Alhambra, CA","date":{"end_time":"2011/01/07 00:00:00 -0500","original":"6-Jan-11","granularity":"day","time":"2011/01/06 00:00:00 -0500"},"geo_score":0.971,"type of crime":"auto burglary","id":"a64lfik7cpxo","geo_precision":"zip","address":"1500 block of South Second Street.","state":"California"},"type":"Feature","geometry":{"type":"Point","coordinates":[-114.668743538,52.333415779]}},{"properties":{"city":"Alhambra, CA","date":{"end_time":"2011/01/07 00:00:00 -0500","original":"6-Jan-11","granularity":"day","time":"2011/01/06 00:00:00 -0500"},"geo_score":0.971,"type of crime":"auto burglary","id":"a64lfijsvkj5","geo_precision":"zip","address":"100 block of West Main Street.","state":"California"},"type":"Feature","geometry":{"type":"Point","coordinates":[-114.668743538,52.333415779]}},{"properties":{"city":"Alhambra, CA","date":{"end_time":"2011/01/07 00:00:00 -0500","original":"6-Jan-11","granularity":"day","time":"2011/01/06 00:00:00 -0500"},"geo_score":0.971,"type of crime":"auto burglary","id":"a64lfimvozbe","geo_precision":"zip","address":"500 block of East Hellman Avenue.","state":"California"},"type":"Feature","geometry":{"type":"Point","coordinates":[-114.668743538,52.333415779]}},{"properties":{"city":"Alhambra, CA","date":{"end_time":"2011/01/07 00:00:00 -0500","original":"6-Jan-11","granularity":"day","time":"2011/01/06 00:00:00 -0500"},"geo_score":0.971,"type of crime":"hit-and-run","id":"a64lfiu8s7q4","geo_precision":"zip","address":"2200 block of West Main Street.","state":"California"},"type":"Feature","geometry":{"type":"Point","coordinates":[-114.668743538,52.333415779]}},{"properties":{"city":"Alhambra, CA","date":{"end_time":"2011/01/08 00:00:00 -0500","original":"7-Jan-11","granularity":"day","time":"2011/01/07 00:00:00 -0500"},"geo_score":0.971,"type of crime":"grand theft","id":"a64lfivrfftq","geo_precision":"zip","address":"120 block of East Adams Avenue.","state":"California"},"type":"Feature","geometry":{"type":"Point","coordinates":[-114.668743538,52.333415779]}},{"properties":{"city":"Alhambra, CA","date":{"end_time":"2011/01/08 00:00:00 -0500","original":"7-Jan-11","granularity":"day","time":"2011/01/07 00:00:00 -0500"},"geo_score":0.971,"type of crime":"grand theft","id":"a64lfivya87t","geo_precision":"zip","address":"700 block of West Main Street.","state":"California"},"type":"Feature","geometry":{"type":"Point","coordinates":[-114.668743538,52.333415779]}},{"properties":{"city":"Alhambra, CA","date":{"end_time":"2011/01/09 00:00:00 -0500","original":"8-Jan-11","granularity":"day","time":"2011/01/08 00:00:00 -0500"},"geo_score":0.971,"type of crime":"residential burglary","id":"a64lfip1vuel","geo_precision":"zip","address":"1700 block of South Ninth Street.","state":"California"},"type":"Feature","geometry":{"type":"Point","coordinates":[-114.668743538,52.333415779]}},{"properties":{"city":"Alhambra, CA","date":{"end_time":"2011/01/09 00:00:00 -0500","original":"8-Jan-11","granularity":"day","time":"2011/01/08 00:00:00 -0500"},"geo_score":0.971,"type of crime":"auto burglary","id":"a64lfird36zo","geo_precision":"zip","address":"160 block of South Meridian Avenue.","state":"California"},"type":"Feature","geometry":{"type":"Point","coordinates":[-114.668743538,52.333415779]}},{"properties":{"city":"Alhambra, CA","date":{"end_time":"2011/01/09 00:00:00 -0500","original":"8-Jan-11","granularity":"day","time":"2011/01/08 00:00:00 -0500"},"geo_score":0.971,"type of crime":"grand theft","id":"a64lfiww5dmq","geo_precision":"zip","address":"2000 block of South Fremont Avenue.","state":"California"},"type":"Feature","geometry":{"type":"Point","coordinates":[-114.668743538,52.333415779]}},{"properties":{"city":"Alhambra, CA","date":{"end_time":"2011/01/10 00:00:00 -0500","original":"9-Jan-11","granularity":"day","time":"2011/01/09 00:00:00 -0500"},"geo_score":0.971,"type of crime":"hit-and-run","id":"a64lfizjfqh1","geo_precision":"zip","address":"100 block of North Palm Avenue.","state":"California"},"type":"Feature","geometry":{"type":"Point","coordinates":[-114.668743538,52.333415779]}},{"properties":{"city":"Alhambra, CA","date":{"end_time":"2011/01/10 00:00:00 -0500","original":"9-Jan-11","granularity":"day","time":"2011/01/09 00:00:00 -0500"},"geo_score":0.971,"type of crime":"robbery","id":"a64lfil5q708","geo_precision":"zip","address":"1500 block of West Valley Boulevard.","state":"California"},"type":"Feature","geometry":{"type":"Point","coordinates":[-114.668743538,52.333415779]}},{"properties":{"city":"Alhambra, CA","date":{"end_time":"2011/01/10 00:00:00 -0500","original":"9-Jan-11","granularity":"day","time":"2011/01/09 00:00:00 -0500"},"geo_score":0.971,"type of crime":"hit-and-run","id":"a64lfiq9k20p","geo_precision":"zip","address":"500 block of South San Pasqual Drive.","state":"California"},"type":"Feature","geometry":{"type":"Point","coordinates":[-114.668743538,52.333415779]}},{"properties":{"city":"Alhambra, CA","date":{"end_time":"2011/01/18 00:00:00 -0500","original":"17-Jan-11","granularity":"day","time":"2011/01/17 00:00:00 -0500"},"geo_score":0.971,"type of crime":"grand theft","id":"a64lfivbz0zd","geo_precision":"zip","address":"1600 block of Westmont Drive.","state":"California"},"type":"Feature","geometry":{"type":"Point","coordinates":[-114.668743538,52.333415779]}},{"properties":{"city":"Alhambra, CA","date":{"end_time":"2011/01/18 00:00:00 -0500","original":"17-Jan-11","granularity":"day","time":"2011/01/17 00:00:00 -0500"},"geo_score":0.971,"type of crime":"commercial burglary","id":"a64lfir453rs","geo_precision":"zip","address":"2800 block of West Valley Boulevard.","state":"California"},"type":"Feature","geometry":{"type":"Point","coordinates":[-114.668743538,52.333415779]}},{"properties":{"city":"Alhambra, CA","date":{"end_time":"2011/01/18 00:00:00 -0500","original":"17-Jan-11","granularity":"day","time":"2011/01/17 00:00:00 -0500"},"geo_score":0.971,"type of crime":"grand theft","id":"a64lfis926oa","geo_precision":"zip","address":"1100 block of West Stoneman Avenue.","state":"California"},"type":"Feature","geometry":{"type":"Point","coordinates":[-114.668743538,52.333415779]}},{"properties":{"city":"Alhambra, CA","date":{"end_time":"2011/01/18 00:00:00 -0500","original":"17-Jan-11","granularity":"day","time":"2011/01/17 00:00:00 -0500"},"geo_score":0.971,"type of crime":"garage burglary","id":"a64lfir79uhv","geo_precision":"zip","address":"2200 block of West Main Street.","state":"California"},"type":"Feature","geometry":{"type":"Point","coordinates":[-114.668743538,52.333415779]}},{"properties":{"city":"Alhambra, CA","date":{"end_time":"2011/01/18 00:00:00 -0500","original":"17-Jan-11","granularity":"day","time":"2011/01/17 00:00:00 -0500"},"geo_score":0.971,"type of crime":"hit and run","id":"a64lfin926is","geo_precision":"zip","address":"800 block of South Almansor Street.","state":"California"},"type":"Feature","geometry":{"type":"Point","coordinates":[-114.668743538,52.333415779]}},{"properties":{"city":"Alhambra, CA","date":{"end_time":"2011/01/18 00:00:00 -0500","original":"17-Jan-11","granularity":"day","time":"2011/01/17 00:00:00 -0500"},"geo_score":0.971,"type of crime":"auto burglary","id":"a64lfiy6p88w","geo_precision":"zip","address":"100 block of North Chapel Avenue.","state":"California"},"type":"Feature","geometry":{"type":"Point","coordinates":[-114.668743538,52.333415779]}},{"properties":{"city":"Alhambra, CA","date":{"end_time":"2011/01/18 00:00:00 -0500","original":"17-Jan-11","granularity":"day","time":"2011/01/17 00:00:00 -0500"},"geo_score":0.971,"type of crime":"auto burglary","id":"a64lfinfvrsh","geo_precision":"zip","address":"220 block of West Alhambra Road.","state":"California"},"type":"Feature","geometry":{"type":"Point","coordinates":[-114.668743538,52.333415779]}},{"properties":{"city":"Alhambra, CA","date":{"end_time":"2011/01/19 00:00:00 -0500","original":"18-Jan-11","granularity":"day","time":"2011/01/18 00:00:00 -0500"},"geo_score":0.971,"type of crime":"grand theft","id":"a64lfill42qe","geo_precision":"zip","address":"1600 block of South Grandada Avenue.","state":"California"},"type":"Feature","geometry":{"type":"Point","coordinates":[-114.668743538,52.333415779]}},{"properties":{"city":"Alhambra, CA","date":{"end_time":"2011/01/20 00:00:00 -0500","original":"19-Jan-11","granularity":"day","time":"2011/01/19 00:00:00 -0500"},"geo_score":0.971,"type of crime":"residential burglary","id":"a64lfijdwohj","geo_precision":"zip","address":"1200 block of South Edith Avenue.","state":"California"},"type":"Feature","geometry":{"type":"Point","coordinates":[-114.668743538,52.333415779]}},{"properties":{"city":"Alhambra, CA","date":{"end_time":"2011/01/20 00:00:00 -0500","original":"19-Jan-11","granularity":"day","time":"2011/01/19 00:00:00 -0500"},"geo_score":0.971,"type of crime":"hit and run","id":"a64lfivgs62j","geo_precision":"zip","address":"Garfield Avenue and Valley Boulevard.","state":"California"},"type":"Feature","geometry":{"type":"Point","coordinates":[-114.668743538,52.333415779]}},{"properties":{"city":"Alhambra, CA","date":{"end_time":"2011/01/20 00:00:00 -0500","original":"19-Jan-11","granularity":"day","time":"2011/01/19 00:00:00 -0500"},"geo_score":0.971,"type of crime":"burglary","id":"a64lfip37u66","geo_precision":"zip","address":"Benito Avenue and Valley Boulevard.","state":"California"},"type":"Feature","geometry":{"type":"Point","coordinates":[-114.668743538,52.333415779]}},{"properties":{"city":"Alhambra, CA","date":{"end_time":"2011/01/20 00:00:00 -0500","original":"19-Jan-11","granularity":"day","time":"2011/01/19 00:00:00 -0500"},"geo_score":0.971,"type of crime":"residential burglary","id":"a64lfipbbayu","geo_precision":"zip","address":"900 block of North Stoneman Avenue.","state":"California"},"type":"Feature","geometry":{"type":"Point","coordinates":[-114.668743538,52.333415779]}},{"properties":{"city":"Alhambra, CA","date":{"end_time":"2011/01/20 00:00:00 -0500","original":"19-Jan-11","granularity":"day","time":"2011/01/19 00:00:00 -0500"},"geo_score":0.971,"type of crime":"hit and run","id":"a64lfirs81w5","geo_precision":"zip","address":"Concord Street and Fremont Avenue.","state":"California"},"type":"Feature","geometry":{"type":"Point","coordinates":[-114.668743538,52.333415779]}},{"properties":{"city":"Alhambra, CA","date":{"end_time":"2011/01/20 00:00:00 -0500","original":"19-Jan-11","granularity":"day","time":"2011/01/19 00:00:00 -0500"},"geo_score":0.971,"type of crime":"hit and run","id":"a64lfiz0buf8","geo_precision":"zip","address":"1000 block of South Fremont Avenue.","state":"California"},"type":"Feature","geometry":{"type":"Point","coordinates":[-114.668743538,52.333415779]}},{"properties":{"city":"Alhambra, CA","date":{"end_time":"2011/01/21 00:00:00 -0500","original":"20-Jan-11","granularity":"day","time":"2011/01/20 00:00:00 -0500"},"geo_score":0.971,"type of crime":"grand theft","id":"a64lfitcn1nm","geo_precision":"zip","address":"400 block of South Monterey Street.","state":"California"},"type":"Feature","geometry":{"type":"Point","coordinates":[-114.668743538,52.333415779]}},{"properties":{"city":"Alhambra, CA","date":{"end_time":"2011/01/21 00:00:00 -0500","original":"20-Jan-11","granularity":"day","time":"2011/01/20 00:00:00 -0500"},"geo_score":0.971,"type of crime":"hit and run","id":"a64lfio7aidl","geo_precision":"zip","address":"1500 block of South Marguerita Avenue.","state":"California"},"type":"Feature","geometry":{"type":"Point","coordinates":[-114.668743538,52.333415779]}},{"properties":{"city":"Alhambra, CA","date":{"end_time":"2011/01/21 00:00:00 -0500","original":"20-Jan-11","granularity":"day","time":"2011/01/20 00:00:00 -0500"},"geo_score":0.971,"type of crime":"auto burglary","id":"a64lfirs1v0s","geo_precision":"zip","address":"400 block of East Main Street.","state":"California"},"type":"Feature","geometry":{"type":"Point","coordinates":[-114.668743538,52.333415779]}},{"properties":{"city":"Alhambra, CA","date":{"end_time":"2011/01/22 00:00:00 -0500","original":"21-Jan-11","granularity":"day","time":"2011/01/21 00:00:00 -0500"},"geo_score":0.971,"type of crime":"hit and run","id":"a64lfizk75ky","geo_precision":"zip","address":"2500 block of South Aurora Terrace.","state":"California"},"type":"Feature","geometry":{"type":"Point","coordinates":[-114.668743538,52.333415779]}},{"properties":{"city":"Alhambra, CA","date":{"end_time":"2011/01/23 00:00:00 -0500","original":"22-Jan-11","granularity":"day","time":"2011/01/22 00:00:00 -0500"},"geo_score":0.971,"type of crime":"hit and run","id":"a64lfipd2xfv","geo_precision":"zip","address":"1900 block of South Date Avenue.","state":"California"},"type":"Feature","geometry":{"type":"Point","coordinates":[-114.668743538,52.333415779]}},{"properties":{"city":"Alhambra, CA","date":{"end_time":"2011/01/23 00:00:00 -0500","original":"22-Jan-11","granularity":"day","time":"2011/01/22 00:00:00 -0500"},"geo_score":0.971,"type of crime":"hit and run","id":"a64lfitqly52","geo_precision":"zip","address":"Elm Street and Hellman Avenue.","state":"California"},"type":"Feature","geometry":{"type":"Point","coordinates":[-114.668743538,52.333415779]}},{"properties":{"city":"Alhambra, CA","date":{"end_time":"2011/01/23 00:00:00 -0500","original":"22-Jan-11","granularity":"day","time":"2011/01/22 00:00:00 -0500"},"geo_score":0.971,"type of crime":"hit and run","id":"a64lfirsbnsd","geo_precision":"zip","address":"500 block of West Valley Boulevard.","state":"California"},"type":"Feature","geometry":{"type":"Point","coordinates":[-114.668743538,52.333415779]}},{"properties":{"city":"Alhambra, CA","date":{"end_time":"2011/01/23 00:00:00 -0500","original":"22-Jan-11","granularity":"day","time":"2011/01/22 00:00:00 -0500"},"geo_score":0.971,"type of crime":"hit and run","id":"a64lfiom9xoe","geo_precision":"zip","address":"Garfield Avenue and Norwood Place.","state":"California"},"type":"Feature","geometry":{"type":"Point","coordinates":[-114.668743538,52.333415779]}},{"properties":{"city":"Alhambra, CA","date":{"end_time":"2011/01/23 00:00:00 -0500","original":"22-Jan-11","granularity":"day","time":"2011/01/22 00:00:00 -0500"},"geo_score":0.971,"type of crime":"auto burglary","id":"a64lfiv7k539","geo_precision":"zip","address":"1700 block of South Fifth Street.","state":"California"},"type":"Feature","geometry":{"type":"Point","coordinates":[-114.668743538,52.333415779]}},{"properties":{"city":"Alhambra, CA","date":{"end_time":"2011/01/23 00:00:00 -0500","original":"22-Jan-11","granularity":"day","time":"2011/01/22 00:00:00 -0500"},"geo_score":0.971,"type of crime":"purse robbery","id":"a64lfivqu5c6","geo_precision":"zip","address":"Garfield Avenue and Main Street.","state":"California"},"type":"Feature","geometry":{"type":"Point","coordinates":[-114.668743538,52.333415779]}},{"properties":{"city":"Alhambra, CA","date":{"end_time":"2011/01/24 00:00:00 -0500","original":"23-Jan-11","granularity":"day","time":"2011/01/23 00:00:00 -0500"},"geo_score":0.971,"type of crime":"hit and run","id":"a64lfiq5i2oc","geo_precision":"zip","address":"220 block of East Main Street.","state":"California"},"type":"Feature","geometry":{"type":"Point","coordinates":[-114.668743538,52.333415779]}}],"is_temporal":true,"author":{"url":null,"metadata":null,"contact_name":null,"contact_address":null,"source":null,"contact_phone":null},"source":null,"pagination":{"sort":null,"start":0,"total":45,"limit":1000000},"state":"complete","tags":"","published":"2014-08-10T22:44:17-04:00","id":88563}