{"type":"FeatureCollection","data_type":"Dataset","url_type":null,"permissions":[{"permissions":{"download":true,"view":true},"group_id":"everyone"}],"classification":null,"title":"Percentage of Old People, PA, by County, 2007","count":67,"stream_id":8925,"contributor":{"url":"http://geocommons.com/users/2943","name":"Margot"},"data_attributes":null,"calculation_params":null,"icon_link":null,"link":"http://geocommons.com/overlays/8925.json","extent":[-80.3319,39.8706,-75.0242,42.0595],"geometry_types":["point"],"unique_name":null,"name":"Percentage of Old People, PA, by County, 2007","feature_count":67,"description":"This data was found on the Administration on Aging website in a search for county population aged 65 and older. The data was loaded into excel and then formatted. County populations were then divided by the state's total population to get a number for each counties population that is 65 and up as percentage of the state's total population. Data was then joined in ArcMap and uploaded into geocommons as a shapefile.\n\nThe older population--persons 65 years or older--numbered 37.3 million in 2006 (the latest year for which data is available). They represented 12.4% of the U.S. population, about one in every eight Americans. By 2030, there will be about 71.5 million older persons, more than twice their number in 2000. People 65+ represented 12.4% of the population in the year 2000 but are expected to grow to be 20% of the population by 2030. The information in this section of the AoA web site brings together a wide variety of statistical information about this growing population. ","next_feature":null,"is_raster":false,"short_classification":"Y","stats":{"sixfiveplus":{"max":205511,"mean":28203.8805970149,"variance":1417992011.80371,"stdev":37656.2347002951,"min":1046,"median":14460},"percent":{"max":23.5,"mean":16.2611940298507,"variance":4.61150158299412,"stdev":2.14744070535,"min":11.1,"median":16.7},"lat":{"max":42.05946,"mean":40.8132030298508,"variance":0.373158506922302,"stdev":0.610867012468591,"min":39.87056,"median":40.775617},"long":{"max":-75.024246,"mean":-77.6309650746269,"variance":2.78246813294589,"stdev":1.6680731797334,"min":-80.331879,"median":-77.503357}},"features":[{"properties":{"county":"Adams County","sixfiveplus":14195,"countystateabb":"AdamsPA","id":"a63gfltdnl1j","percent":14.1,"lat":39.894749,"state":"Pennsylvania","long":-77.213509},"type":"Feature","geometry":{"type":"Point","coordinates":[-77.213509,39.894749]}},{"properties":{"county":"Allegheny County","sixfiveplus":205511,"countystateabb":"AlleghenyPA","id":"a63gflq016ol","percent":16.9,"lat":40.434738,"state":"Pennsylvania","long":-80.024887},"type":"Feature","geometry":{"type":"Point","coordinates":[-80.024887,40.434738]}},{"properties":{"county":"Armstrong County","sixfiveplus":12735,"countystateabb":"ArmstrongPA","id":"a63gflkog94d","percent":18.4,"lat":40.847591,"state":"Pennsylvania","long":-79.451622},"type":"Feature","geometry":{"type":"Point","coordinates":[-79.451622,40.847591]}},{"properties":{"county":"Beaver County","sixfiveplus":31630,"countystateabb":"BeaverPA","id":"a63gflyhgowu","percent":18.3,"lat":40.66568,"state":"Pennsylvania","long":-80.331879},"type":"Feature","geometry":{"type":"Point","coordinates":[-80.331879,40.66568]}},{"properties":{"county":"Bedford County","sixfiveplus":8650,"countystateabb":"BedfordPA","id":"a63gflse9etf","percent":17.4,"lat":40.02475,"state":"Pennsylvania","long":-78.471428},"type":"Feature","geometry":{"type":"Point","coordinates":[-78.471428,40.02475]}},{"properties":{"county":"Berks County","sixfiveplus":56560,"countystateabb":"BerksPA","id":"a63gflp9uuaf","percent":14.1,"lat":40.407051,"state":"Pennsylvania","long":-75.98497},"type":"Feature","geometry":{"type":"Point","coordinates":[-75.98497,40.407051]}},{"properties":{"county":"Blair County","sixfiveplus":21520,"countystateabb":"BlairPA","id":"a63gflxfqle0","percent":17.1,"lat":40.493481,"state":"Pennsylvania","long":-78.368156},"type":"Feature","geometry":{"type":"Point","coordinates":[-78.368156,40.493481]}},{"properties":{"county":"Bradford County","sixfiveplus":10330,"countystateabb":"BradfordPA","id":"a63gfljvrhdv","percent":16.8,"lat":41.7719,"state":"Pennsylvania","long":-76.521248},"type":"Feature","geometry":{"type":"Point","coordinates":[-76.521248,41.7719]}},{"properties":{"county":"Bucks County","sixfiveplus":84064,"countystateabb":"BucksPA","id":"a63gflmfz2uu","percent":13.5,"lat":40.32848,"state":"Pennsylvania","long":-75.102921},"type":"Feature","geometry":{"type":"Point","coordinates":[-75.102921,40.32848]}},{"properties":{"county":"Butler County","sixfiveplus":26280,"countystateabb":"ButlerPA","id":"a63gfluuo8wp","percent":14.4,"lat":40.921131,"state":"Pennsylvania","long":-79.927498},"type":"Feature","geometry":{"type":"Point","coordinates":[-79.927498,40.921131]}},{"properties":{"county":"Cambria County","sixfiveplus":27048,"countystateabb":"CambriaPA","id":"a63gflszl4el","percent":18.7,"lat":40.484119,"state":"Pennsylvania","long":-78.702316},"type":"Feature","geometry":{"type":"Point","coordinates":[-78.702316,40.484119]}},{"properties":{"county":"Cameron County","sixfiveplus":1046,"countystateabb":"CameronPA","id":"a63gflwrlerl","percent":19.6,"lat":41.417519,"state":"Pennsylvania","long":-78.204918},"type":"Feature","geometry":{"type":"Point","coordinates":[-78.204918,41.417519]}},{"properties":{"county":"Carbon County","sixfiveplus":10716,"countystateabb":"CarbonPA","id":"a63gflnmvmuz","percent":16.9,"lat":40.934528,"state":"Pennsylvania","long":-75.735977},"type":"Feature","geometry":{"type":"Point","coordinates":[-75.735977,40.934528]}},{"properties":{"county":"Centre County","sixfiveplus":15998,"countystateabb":"CentrePA","id":"a63gfly0ip7d","percent":11.1,"lat":40.972172,"state":"Pennsylvania","long":-77.76017},"type":"Feature","geometry":{"type":"Point","coordinates":[-77.76017,40.972172]}},{"properties":{"county":"Chester County","sixfiveplus":59067,"countystateabb":"ChesterPA","id":"a63gflsyzmdj","percent":12.1,"lat":39.983219,"state":"Pennsylvania","long":-75.74791},"type":"Feature","geometry":{"type":"Point","coordinates":[-75.74791,39.983219]}},{"properties":{"county":"Clarion County","sixfiveplus":6773,"countystateabb":"ClarionPA","id":"a63gflv6lhyg","percent":16.9,"lat":41.202259,"state":"Pennsylvania","long":-79.453758},"type":"Feature","geometry":{"type":"Point","coordinates":[-79.453758,41.202259]}},{"properties":{"county":"Clearfield County","sixfiveplus":14460,"countystateabb":"ClearfieldPA","id":"a63gflskltyf","percent":17.8,"lat":40.989021,"state":"Pennsylvania","long":-78.422318},"type":"Feature","geometry":{"type":"Point","coordinates":[-78.422318,40.989021]}},{"properties":{"county":"Clinton County","sixfiveplus":6221,"countystateabb":"ClintonPA","id":"a63gflry9phg","percent":16.7,"lat":41.220589,"state":"Pennsylvania","long":-77.618561},"type":"Feature","geometry":{"type":"Point","coordinates":[-77.618561,41.220589]}},{"properties":{"county":"Columbia County","sixfiveplus":10446,"countystateabb":"ColumbiaPA","id":"a63gflxbpy5x","percent":16.1,"lat":41.041962,"state":"Pennsylvania","long":-76.424294},"type":"Feature","geometry":{"type":"Point","coordinates":[-76.424294,41.041962]}},{"properties":{"county":"Crawford County","sixfiveplus":14205,"countystateabb":"CrawfordPA","id":"a63gflqee0qi","percent":16,"lat":41.666031,"state":"Pennsylvania","long":-80.065804},"type":"Feature","geometry":{"type":"Point","coordinates":[-80.065804,41.666031]}},{"properties":{"county":"Cumberland County","sixfiveplus":34547,"countystateabb":"CumberlandPA","id":"a63gflnjcebd","percent":15.2,"lat":40.136349,"state":"Pennsylvania","long":-77.242943},"type":"Feature","geometry":{"type":"Point","coordinates":[-77.242943,40.136349]}},{"properties":{"county":"Dauphin County","sixfiveplus":34950,"countystateabb":"DauphinPA","id":"a63gflx0zx7w","percent":13.7,"lat":40.389702,"state":"Pennsylvania","long":-76.782341},"type":"Feature","geometry":{"type":"Point","coordinates":[-76.782341,40.389702]}},{"properties":{"county":"Delaware County","sixfiveplus":78371,"countystateabb":"DelawarePA","id":"a63gfltgy0pi","percent":14.1,"lat":39.934261,"state":"Pennsylvania","long":-75.405861},"type":"Feature","geometry":{"type":"Point","coordinates":[-75.405861,39.934261]}},{"properties":{"county":"Elk County","sixfiveplus":5959,"countystateabb":"ElkPA","id":"a63gflkkol2l","percent":18.3,"lat":41.415829,"state":"Pennsylvania","long":-78.665024},"type":"Feature","geometry":{"type":"Point","coordinates":[-78.665024,41.415829]}},{"properties":{"county":"Erie County","sixfiveplus":39904,"countystateabb":"EriePA","id":"a63gflz0i9my","percent":14.3,"lat":42.05946,"state":"Pennsylvania","long":-80.064758},"type":"Feature","geometry":{"type":"Point","coordinates":[-80.064758,42.05946]}},{"properties":{"county":"Fayette County","sixfiveplus":25253,"countystateabb":"FayettePA","id":"a63gflmdil6h","percent":17.5,"lat":39.932049,"state":"Pennsylvania","long":-79.652092},"type":"Feature","geometry":{"type":"Point","coordinates":[-79.652092,39.932049]}},{"properties":{"county":"Forest County","sixfiveplus":1126,"countystateabb":"ForestPA","id":"a63gflmok5p4","percent":16.2,"lat":41.47583,"state":"Pennsylvania","long":-79.239128},"type":"Feature","geometry":{"type":"Point","coordinates":[-79.239128,41.47583]}},{"properties":{"county":"Franklin County","sixfiveplus":23396,"countystateabb":"FranklinPA","id":"a63gflm7e0sy","percent":16.5,"lat":40.004871,"state":"Pennsylvania","long":-77.77636},"type":"Feature","geometry":{"type":"Point","coordinates":[-77.77636,40.004871]}},{"properties":{"county":"Fulton County","sixfiveplus":2411,"countystateabb":"FultonPA","id":"a63gflodhgwh","percent":16.1,"lat":39.943649,"state":"Pennsylvania","long":-78.122681},"type":"Feature","geometry":{"type":"Point","coordinates":[-78.122681,39.943649]}},{"properties":{"county":"Greene County","sixfiveplus":5933,"countystateabb":"GreenePA","id":"a63gfly9hn7i","percent":15,"lat":39.87056,"state":"Pennsylvania","long":-80.211258},"type":"Feature","geometry":{"type":"Point","coordinates":[-80.211258,39.87056]}},{"properties":{"county":"Huntingdon County","sixfiveplus":7136,"countystateabb":"HuntingdonPA","id":"a63gflmudhdy","percent":15.7,"lat":40.402481,"state":"Pennsylvania","long":-77.966942},"type":"Feature","geometry":{"type":"Point","coordinates":[-77.966942,40.402481]}},{"properties":{"county":"Indiana County","sixfiveplus":13826,"countystateabb":"IndianaPA","id":"a63gfljentpc","percent":15.8,"lat":40.639912,"state":"Pennsylvania","long":-79.129539},"type":"Feature","geometry":{"type":"Point","coordinates":[-79.129539,40.639912]}},{"properties":{"county":"Jefferson County","sixfiveplus":8207,"countystateabb":"JeffersonPA","id":"a63gflus2w7j","percent":18.2,"lat":40.775617,"state":"Pennsylvania","long":-79.835615},"type":"Feature","geometry":{"type":"Point","coordinates":[-79.835615,40.775617]}},{"properties":{"county":"Juniata County","sixfiveplus":3887,"countystateabb":"JuniataPA","id":"a63gflmiv8it","percent":16.8,"lat":40.478611,"state":"Pennsylvania","long":-77.503357},"type":"Feature","geometry":{"type":"Point","coordinates":[-77.503357,40.478611]}},{"properties":{"county":"Lackawanna County","sixfiveplus":37619,"countystateabb":"LackawannaPA","id":"a63gflv2wz92","percent":18,"lat":41.40181,"state":"Pennsylvania","long":-75.637558},"type":"Feature","geometry":{"type":"Point","coordinates":[-75.637558,41.40181]}},{"properties":{"county":"Lancaster County","sixfiveplus":71955,"countystateabb":"LancasterPA","id":"a63gflwi0a15","percent":14.4,"lat":40.018318,"state":"Pennsylvania","long":-76.297478},"type":"Feature","geometry":{"type":"Point","coordinates":[-76.297478,40.018318]}},{"properties":{"county":"Lawrence County","sixfiveplus":16696,"countystateabb":"LawrencePA","id":"a63gflkuqq9d","percent":18.3,"lat":40.989632,"state":"Pennsylvania","long":-80.307953},"type":"Feature","geometry":{"type":"Point","coordinates":[-80.307953,40.989632]}},{"properties":{"county":"Lebanon County","sixfiveplus":21024,"countystateabb":"LebanonPA","id":"a63gflxxyfwa","percent":16.4,"lat":40.375351,"state":"Pennsylvania","long":-76.414917},"type":"Feature","geometry":{"type":"Point","coordinates":[-76.414917,40.375351]}},{"properties":{"county":"Lehigh County","sixfiveplus":50971,"countystateabb":"LehighPA","id":"a63gflnc0whn","percent":15.1,"lat":40.602821,"state":"Pennsylvania","long":-75.612221},"type":"Feature","geometry":{"type":"Point","coordinates":[-75.612221,40.602821]}},{"properties":{"county":"Luzerne County","sixfiveplus":56760,"countystateabb":"LuzernePA","id":"a63gflrkztj4","percent":18.2,"lat":41.164639,"state":"Pennsylvania","long":-75.960152},"type":"Feature","geometry":{"type":"Point","coordinates":[-75.960152,41.164639]}},{"properties":{"county":"Lycoming County","sixfiveplus":19097,"countystateabb":"LycomingPA","id":"a63gflpbx2l0","percent":16.3,"lat":41.332661,"state":"Pennsylvania","long":-77.02359},"type":"Feature","geometry":{"type":"Point","coordinates":[-77.02359,41.332661]}},{"properties":{"county":"McKean County","sixfiveplus":7362,"countystateabb":"McKeanPA","id":"a63gflnry6gq","percent":16.9,"lat":41.801029,"state":"Pennsylvania","long":-78.579819},"type":"Feature","geometry":{"type":"Point","coordinates":[-78.579819,41.801029]}},{"properties":{"county":"Mercer County","sixfiveplus":20743,"countystateabb":"MercerPA","id":"a63gflj6gdnb","percent":17.8,"lat":41.280861,"state":"Pennsylvania","long":-80.259171},"type":"Feature","geometry":{"type":"Point","coordinates":[-80.259171,41.280861]}},{"properties":{"county":"Mifflin County","sixfiveplus":8275,"countystateabb":"MifflinPA","id":"a63gfljwxrgd","percent":17.6,"lat":40.603699,"state":"Pennsylvania","long":-77.590439},"type":"Feature","geometry":{"type":"Point","coordinates":[-77.590439,40.603699]}},{"properties":{"county":"Monroe County","sixfiveplus":19314,"countystateabb":"MonroePA","id":"a63gflvc3k2s","percent":11.7,"lat":41.033611,"state":"Pennsylvania","long":-75.307899},"type":"Feature","geometry":{"type":"Point","coordinates":[-75.307899,41.033611]}},{"properties":{"county":"Montgomery County","sixfiveplus":114326,"countystateabb":"MontgomeryPA","id":"a63gflmd4283","percent":14.7,"lat":40.21199,"state":"Pennsylvania","long":-75.355919},"type":"Feature","geometry":{"type":"Point","coordinates":[-75.355919,40.21199]}},{"properties":{"county":"Montour County","sixfiveplus":3229,"countystateabb":"MontourPA","id":"a63gfljfkjzd","percent":18.1,"lat":41.027279,"state":"Pennsylvania","long":-76.653641},"type":"Feature","geometry":{"type":"Point","coordinates":[-76.653641,41.027279]}},{"properties":{"county":"Northampton County","sixfiveplus":42435,"countystateabb":"NorthamptonPA","id":"a63gflmiy1ge","percent":14.5,"lat":40.752571,"state":"Pennsylvania","long":-75.329918},"type":"Feature","geometry":{"type":"Point","coordinates":[-75.329918,40.752571]}},{"properties":{"county":"Northumberland County","sixfiveplus":16989,"countystateabb":"NorthumberlandPA","id":"a63gfljz8epd","percent":18.7,"lat":40.889641,"state":"Pennsylvania","long":-76.66468},"type":"Feature","geometry":{"type":"Point","coordinates":[-76.66468,40.889641]}},{"properties":{"county":"Perry County","sixfiveplus":5713,"countystateabb":"PerryPA","id":"a63gflpl8nxf","percent":12.6,"lat":40.406761,"state":"Pennsylvania","long":-77.293282},"type":"Feature","geometry":{"type":"Point","coordinates":[-77.293282,40.406761]}},{"properties":{"county":"Philadelphia County","sixfiveplus":186573,"countystateabb":"PhiladelphiaPA","id":"a63gfln08czi","percent":12.9,"lat":40.001709,"state":"Pennsylvania","long":-75.118011},"type":"Feature","geometry":{"type":"Point","coordinates":[-75.118011,40.001709]}},{"properties":{"county":"Pike County","sixfiveplus":8602,"countystateabb":"PikePA","id":"a63gflol6z8w","percent":14.7,"lat":41.341,"state":"Pennsylvania","long":-75.024246},"type":"Feature","geometry":{"type":"Point","coordinates":[-75.024246,41.341]}},{"properties":{"county":"Potter County","sixfiveplus":3030,"countystateabb":"PotterPA","id":"a63gfltl6uxk","percent":17.8,"lat":41.737629,"state":"Pennsylvania","long":-77.902351},"type":"Feature","geometry":{"type":"Point","coordinates":[-77.902351,41.737629]}},{"properties":{"county":"Schuylkill County","sixfiveplus":26759,"countystateabb":"SchuylkillPA","id":"a63gfluupn2f","percent":18.2,"lat":40.722591,"state":"Pennsylvania","long":-76.229637},"type":"Feature","geometry":{"type":"Point","coordinates":[-76.229637,40.722591]}},{"properties":{"county":"Snyder County","sixfiveplus":5317,"countystateabb":"SnyderPA","id":"a63gflkj1zut","percent":14,"lat":40.762589,"state":"Pennsylvania","long":-77.077477},"type":"Feature","geometry":{"type":"Point","coordinates":[-77.077477,40.762589]}},{"properties":{"county":"Somerset County","sixfiveplus":14460,"countystateabb":"SomersetPA","id":"a63gflmny5vl","percent":18.6,"lat":40.003361,"state":"Pennsylvania","long":-79.037903},"type":"Feature","geometry":{"type":"Point","coordinates":[-79.037903,40.003361]}},{"properties":{"county":"Sullivan County","sixfiveplus":1456,"countystateabb":"SullivanPA","id":"a63gflp2nk1v","percent":23.5,"lat":41.432789,"state":"Pennsylvania","long":-76.516853},"type":"Feature","geometry":{"type":"Point","coordinates":[-76.516853,41.432789]}},{"properties":{"county":"Susquehanna County","sixfiveplus":6640,"countystateabb":"SusquehannaPA","id":"a63gflz6omyj","percent":16.1,"lat":41.82029,"state":"Pennsylvania","long":-75.804512},"type":"Feature","geometry":{"type":"Point","coordinates":[-75.804512,41.82029]}},{"properties":{"county":"Tioga County","sixfiveplus":7079,"countystateabb":"TiogaPA","id":"a63gfll0vq3k","percent":17.4,"lat":41.77195,"state":"Pennsylvania","long":-77.242241},"type":"Feature","geometry":{"type":"Point","coordinates":[-77.242241,41.77195]}},{"properties":{"county":"Union County","sixfiveplus":6142,"countystateabb":"UnionPA","id":"a63gflswpb6c","percent":14,"lat":40.9781,"state":"Pennsylvania","long":-77.082268},"type":"Feature","geometry":{"type":"Point","coordinates":[-77.082268,40.9781]}},{"properties":{"county":"Venango County","sixfiveplus":9405,"countystateabb":"VenangoPA","id":"a63gfluterdb","percent":17.2,"lat":41.398109,"state":"Pennsylvania","long":-79.738861},"type":"Feature","geometry":{"type":"Point","coordinates":[-79.738861,41.398109]}},{"properties":{"county":"Warren County","sixfiveplus":7334,"countystateabb":"WarrenPA","id":"a63gflo82dwv","percent":17.9,"lat":41.811691,"state":"Pennsylvania","long":-79.264343},"type":"Feature","geometry":{"type":"Point","coordinates":[-79.264343,41.811691]}},{"properties":{"county":"Washington County","sixfiveplus":35282,"countystateabb":"WashingtonPA","id":"a63gflp1vyfi","percent":17.2,"lat":40.214931,"state":"Pennsylvania","long":-80.179108},"type":"Feature","geometry":{"type":"Point","coordinates":[-80.179108,40.214931]}},{"properties":{"county":"Wayne County","sixfiveplus":9262,"countystateabb":"WaynePA","id":"a63gfllqho77","percent":17.9,"lat":41.615898,"state":"Pennsylvania","long":-75.274681},"type":"Feature","geometry":{"type":"Point","coordinates":[-75.274681,41.615898]}},{"properties":{"county":"Westmoreland County","sixfiveplus":66171,"countystateabb":"WestmorelandPA","id":"a63gflli4nh7","percent":18.3,"lat":40.33152,"state":"Pennsylvania","long":-79.675995},"type":"Feature","geometry":{"type":"Point","coordinates":[-79.675995,40.33152]}},{"properties":{"county":"Wyoming County","sixfiveplus":4053,"countystateabb":"WyomingPA","id":"a63gflw78pfl","percent":14.6,"lat":41.51466,"state":"Pennsylvania","long":-76.000633},"type":"Feature","geometry":{"type":"Point","coordinates":[-76.000633,41.51466]}},{"properties":{"county":"York County","sixfiveplus":57226,"countystateabb":"YorkPA","id":"a63gflxe2zaz","percent":13.6,"lat":39.972961,"state":"Pennsylvania","long":-76.68486},"type":"Feature","geometry":{"type":"Point","coordinates":[-76.68486,39.972961]}}],"is_temporal":false,"author":{"url":"http://www.aoa.gov/prof/statistics/statistics.aspx","metadata":"http://www.aoa.gov/prof/statistics/statistics.aspx","contact_name":"","contact_address":"","source":"The Department of Health and Human Services - Administration on Aging","contact_phone":""},"source":"http://www.aoa.gov/prof/statistics/statistics.aspx","pagination":{"sort":null,"start":0,"total":67,"limit":1000000},"state":"complete","tags":"age,aging,county,pa,pennsylvania,population,society,state,usa","published":"2009-01-22T12:00:00Z","id":8925}