{"type":"FeatureCollection","data_type":"Dataset","url_type":null,"permissions":[{"permissions":{"download":true,"view":true},"group_id":"everyone"}],"classification":null,"title":"Pittsburgh Hospitals","count":21,"stream_id":89263,"contributor":{"url":"http://geocommons.com/users/21511","name":"bnhorwit"},"data_attributes":null,"calculation_params":null,"icon_link":null,"link":"http://geocommons.com/overlays/89263.json","extent":[-80.1144,40.3195,-79.8705,40.572],"geometry_types":["point"],"unique_name":null,"name":"Pittsburgh Hospitals","feature_count":21,"description":"","next_feature":null,"is_raster":false,"short_classification":"Y","stats":{},"features":[{"properties":{"city":"Pittsburgh","name":"Allegheny General Hospital","geo_score":0.779,"zip code":"15212","street address":"320 East North Avenue","id":"a68eo0v4frq6","geo_precision":"range","state":"PA"},"type":"Feature","geometry":{"type":"Point","coordinates":[-80.003386,40.456073]}},{"properties":{"city":"Pittsburgh","name":"Children's Home of Pittsburgh","geo_score":0.902,"zip code":"15232","street address":"5618 Kentucky Avenue","id":"a68eo0ljxg7a","geo_precision":"range","state":"PA"},"type":"Feature","geometry":{"type":"Point","coordinates":[-79.931169,40.450186]}},{"properties":{"city":"Pittsburgh","name":"Children's Hospital of Pittsburgh","geo_score":0.902,"zip code":"15224","street address":"4401 Penn Avenue","id":"a68eo0kdfb3p","geo_precision":"range","state":"PA"},"type":"Feature","geometry":{"type":"Point","coordinates":[-79.95356,40.465931]}},{"properties":{"city":"Pittsburgh","name":"Children's Institute of Pittsburgh","geo_score":0.911,"zip code":"15217","street address":"6301 Northumberland Street","id":"a68eo0ju570w","geo_precision":"range","state":"PA"},"type":"Feature","geometry":{"type":"Point","coordinates":[-79.918815,40.441998]}},{"properties":{"city":"Pittsburgh","name":"Jefferson Regional Medical Center","geo_score":0.522,"zip code":"15236","street address":"565 Coal Valley Road","id":"a68eo0uy4by8","geo_precision":"street","state":"PA"},"type":"Feature","geometry":{"type":"Point","coordinates":[-79.992539,40.33041]}},{"properties":{"city":"Pittsburgh","name":"LifeCare Hospitals of Pittsburgh","geo_score":0.911,"zip code":"15221","street address":"225 Penn Avenue","id":"a68eo0oijmkv","geo_precision":"range","state":"PA"},"type":"Feature","geometry":{"type":"Point","coordinates":[-79.893805,40.44668]}},{"properties":{"city":"Pittsburgh","name":"Magee-Womens Hospital of UPMC","geo_score":0.902,"zip code":"15213","street address":"3324 Forbes Ave","id":"a68eo0t3vi3t","geo_precision":"range","state":"PA"},"type":"Feature","geometry":{"type":"Point","coordinates":[-79.962671,40.437439]}},{"properties":{"city":"Pittsburgh","name":"Mercy Hospital Of Pittsburgh","geo_score":0.708,"zip code":"15213","street address":"1401 Blvd of the Allies","id":"a68eo0vd3gxc","geo_precision":"street","state":"PA"},"type":"Feature","geometry":{"type":"Point","coordinates":[-79.976014,40.436406]}},{"properties":{"city":"Pittsburgh","name":"Mercy Hospital Of Pittsburgh","geo_score":1.0,"zip code":"15219","street address":"1400 Locust Street","id":"a68eo0qh06ay","geo_precision":"range","state":"PA"},"type":"Feature","geometry":{"type":"Point","coordinates":[-79.986612,40.436918]}},{"properties":{"city":"Pittsburgh","name":"Mercy Hospital-North Shore Campus","geo_score":0.909,"zip code":"15212","street address":"1004 Arch Street","id":"a68eo0svr6n0","geo_precision":"range","state":"PA"},"type":"Feature","geometry":{"type":"Point","coordinates":[-80.008487,40.454684]}},{"properties":{"city":"Pittsburgh","name":"Select Specialty Hospital","geo_score":0.902,"zip code":"15213","street address":"200 Lothrop Street","id":"a68eo0ul378u","geo_precision":"range","state":"PA"},"type":"Feature","geometry":{"type":"Point","coordinates":[-79.960813,40.441875]}},{"properties":{"city":"Pittsburgh","name":"Southwood Psychiatric Hospital","geo_score":0.867,"zip code":"15241","street address":"2575 Boyce Plaza Road","id":"a68eo0it4hvh","geo_precision":"range","state":"PA"},"type":"Feature","geometry":{"type":"Point","coordinates":[-80.114444,40.319541]}},{"properties":{"city":"Pittsburgh","name":"St. Clair Memorial Hospital","geo_score":1.0,"zip code":"15243","street address":"1000 Bower Hill Road","id":"a68eo0jvadst","geo_precision":"range","state":"PA"},"type":"Feature","geometry":{"type":"Point","coordinates":[-80.067678,40.376318]}},{"properties":{"city":"Pittsburgh","name":"UPMC Passavant","geo_score":0.912,"zip code":"15237","street address":"9100 Babcock Boulevard","id":"a68eo0wi0xc9","geo_precision":"range","state":"PA"},"type":"Feature","geometry":{"type":"Point","coordinates":[-80.016403,40.572026]}},{"properties":{"city":"Pittsburgh","name":"UPMC Presbyterian","geo_score":0.902,"zip code":"15213","street address":"200 Lothrop Street","id":"a68eo0wgxjyq","geo_precision":"range","state":"PA"},"type":"Feature","geometry":{"type":"Point","coordinates":[-79.960813,40.441875]}},{"properties":{"city":"Pittsburgh","name":"UPMC Shadyside","geo_score":0.902,"zip code":"15232","street address":"5230 Centre Avenue","id":"a68eo0onznpu","geo_precision":"range","state":"PA"},"type":"Feature","geometry":{"type":"Point","coordinates":[-79.940974,40.455201]}},{"properties":{"city":"Pittsburgh","name":"UPMC South Side","geo_score":1.0,"zip code":"15203","street address":"2000 Mary Street","id":"a68eo0oul0dg","geo_precision":"range","state":"PA"},"type":"Feature","geometry":{"type":"Point","coordinates":[-79.977909,40.425892]}},{"properties":{"city":"Pittsburgh","name":"UPMC St. Margaret","geo_score":0.941,"zip code":"15215","street address":"815 Freeport Road","id":"a68eo0vmsdjm","geo_precision":"range","state":"PA"},"type":"Feature","geometry":{"type":"Point","coordinates":[-79.894866,40.487114]}},{"properties":{"city":"Pittsburgh","name":"Va Medical Center","geo_score":0.484,"zip code":"15213","street address":"3850 O Hara St","id":"a68eo0wiq9o2","geo_precision":"street","state":"PA"},"type":"Feature","geometry":{"type":"Point","coordinates":[-79.870497,40.447812]}},{"properties":{"city":"Pittsburgh","name":"Veterans Affairs Pittsburgh Healthcare System","geo_score":0.714,"zip code":"15240","street address":"Delafield Road","id":"a68eo0x3k89l","geo_precision":"street","state":"PA"},"type":"Feature","geometry":{"type":"Point","coordinates":[-79.897174,40.490367]}},{"properties":{"city":"Pittsburgh","name":"West Penn Hospital","geo_score":0.902,"zip code":"15224","street address":"4800 Friendship Ave","id":"a68eo0scyzpk","geo_precision":"range","state":"PA"},"type":"Feature","geometry":{"type":"Point","coordinates":[-79.946846,40.462455]}}],"is_temporal":false,"author":{"url":"","metadata":"","contact_name":"","contact_address":"","source":"","contact_phone":""},"source":"","pagination":{"sort":null,"start":0,"total":21,"limit":1000000},"state":"complete","tags":"hospitals","published":"2014-08-10T23:21:24-04:00","id":89263}