{"type":"FeatureCollection","data_type":"Dataset","url_type":null,"permissions":[{"permissions":{"download":true,"view":true},"group_id":"everyone"}],"classification":null,"title":"Nursing Homes in Allegheny County, PA","count":64,"stream_id":8953,"contributor":{"url":"http://geocommons.com/users/2943","name":"Margot"},"data_attributes":null,"calculation_params":null,"icon_link":null,"link":"http://geocommons.com/overlays/8953.json","extent":[-80.2241,40.2914,-79.7419,40.6523],"geometry_types":["point"],"unique_name":null,"name":"Nursing Homes in Allegheny County, PA","feature_count":64,"description":"This information was found on the Nursing Homes Web in a search for nursing homes in Allegheny County, PA. The list was sorted and formatted in excel and then locations were geocoded for latitude and longitude using batchgeocode.com. The data was saved as a csv and then uploaded into Geocommons. ","next_feature":null,"is_raster":false,"short_classification":"Y","stats":{"zip":{"max":15243,"mean":15165.25,"variance":4927.2380952381,"stdev":70.194288195252,"min":15014,"median":15206},"lat":{"max":40.652268,"mean":40.451394046875,"variance":0.0075892763149978,"stdev":0.0871164526079764,"min":40.291406,"median":40.44199},"long":{"max":-79.741925,"mean":-79.957033625,"variance":0.0115240628991271,"stdev":0.107350188165308,"min":-80.224136,"median":-79.958435}},"features":[{"properties":{"city":"Pittsburgh","zip":15243,"homename":"Asbury Health Center","county":"Allegheny","street":"700 Bower Hill Road","id":"a62u3iion9kg","lat":40.382476,"state":"PA","long":-80.057179},"type":"Feature","geometry":{"type":"Point","coordinates":[-80.057179,40.382476]}},{"properties":{"city":"Pittsburgh","zip":15227,"homename":"Baldwin Health Center","county":"Allegheny","street":"1717 Skyline Drive","id":"a62u3ifda3ih","lat":40.366051,"state":"PA","long":-79.962762},"type":"Feature","geometry":{"type":"Point","coordinates":[-79.962762,40.366051]}},{"properties":{"city":"Pittsburgh","zip":15234,"homename":"Baptist Homes Nursing Center","county":"Allegheny","street":"489 Castle Shannon Blvd","id":"a62u3i8fqna1","lat":40.371866,"state":"PA","long":-80.033193},"type":"Feature","geometry":{"type":"Point","coordinates":[-80.033193,40.371866]}},{"properties":{"city":"Pittsburgh","zip":15201,"homename":"Canterbury Place","county":"Allegheny","street":"310 Fisk Street","id":"a62u3ih8kuep","lat":40.466601,"state":"PA","long":-79.958435},"type":"Feature","geometry":{"type":"Point","coordinates":[-79.958435,40.466601]}},{"properties":{"city":"Monroeville","zip":15146,"homename":"Cedars of Monroeville, The","county":"Allegheny","street":"4363 Northern Pike","id":"a62u3imnxx3g","lat":40.434497,"state":"PA","long":-79.747738},"type":"Feature","geometry":{"type":"Point","coordinates":[-79.747738,40.434497]}},{"properties":{"city":"Pittsburgh","zip":15217,"homename":"Charles M. Morris Nursing And","county":"Allegheny","street":"200 Jhf Drive","id":"a62u3im704wj","lat":40.414031,"state":"PA","long":-79.92129},"type":"Feature","geometry":{"type":"Point","coordinates":[-79.92129,40.414031]}},{"properties":{"city":"Pittsburgh","zip":15217,"homename":"Commons At Squirrel Hill, The","county":"Allegheny","street":"2025 Wightman Street","id":"a62u3i9g17nt","lat":40.433673,"state":"PA","long":-79.927427},"type":"Feature","geometry":{"type":"Point","coordinates":[-79.927427,40.433673]}},{"properties":{"city":"Allison Park","zip":15101,"homename":"Concordia At Rebecca Residence","county":"Allegheny","street":"3746 Cedar Ridge Road","id":"a62u3ikq3zpe","lat":40.601656,"state":"PA","long":-79.897105},"type":"Feature","geometry":{"type":"Point","coordinates":[-79.897105,40.601656]}},{"properties":{"city":"Bridgeville","zip":15017,"homename":"Country Meadows of South Hills","county":"Allegheny","street":"3590 Washington Pike","id":"a62u3ihrobqu","lat":40.325796,"state":"PA","long":-80.137858},"type":"Feature","geometry":{"type":"Point","coordinates":[-80.137858,40.325796]}},{"properties":{"city":"Pittsburgh","zip":15243,"homename":"Covenant At South Hills","county":"Allegheny","street":"1300 Bower Hill Road","id":"a62u3iavgb5u","lat":40.374505,"state":"PA","long":-80.073612},"type":"Feature","geometry":{"type":"Point","coordinates":[-80.073612,40.374505]}},{"properties":{"city":"Munhall","zip":15120,"homename":"Eldercrest Nursing Center","county":"Allegheny","street":"2600 West Run Road","id":"a62u3ii8cvvw","lat":40.391461,"state":"PA","long":-79.902699},"type":"Feature","geometry":{"type":"Point","coordinates":[-79.902699,40.391461]}},{"properties":{"city":"Pittsburgh","zip":15206,"homename":"Forbes Road Nursing and Rehab","county":"Allegheny","street":"6655 Frankstown Avenue","id":"a62u3idj08a5","lat":40.459053,"state":"PA","long":-79.909101},"type":"Feature","geometry":{"type":"Point","coordinates":[-79.909101,40.459053]}},{"properties":{"city":"Pittsburgh","zip":15241,"homename":"Friendship Village of South Hi","county":"Allegheny","street":"1290 Boyce Road","id":"a62u3iimuwqv","lat":40.315345,"state":"PA","long":-80.108169},"type":"Feature","geometry":{"type":"Point","coordinates":[-80.108169,40.315345]}},{"properties":{"city":"Monroeville","zip":15146,"homename":"Golden Livingcenter-Monroeville","county":"Allegheny","street":"4142 Monroeville Blvd","id":"a62u3il1m5cp","lat":40.434089,"state":"PA","long":-79.765},"type":"Feature","geometry":{"type":"Point","coordinates":[-79.765,40.434089]}},{"properties":{"city":"Pittsburgh","zip":15228,"homename":"Golden Livingcenter-Mt Lebanon","county":"Allegheny","street":"350 Old Gilkeson Road","id":"a62u3ic8exc3","lat":40.360182,"state":"PA","long":-80.060584},"type":"Feature","geometry":{"type":"Point","coordinates":[-80.060584,40.360182]}},{"properties":{"city":"Oakmont","zip":15139,"homename":"Golden Livingcenter-Oakmont","county":"Allegheny","street":"26 Ann Street","id":"a62u3ik1cn62","lat":40.520941,"state":"PA","long":-79.847313},"type":"Feature","geometry":{"type":"Point","coordinates":[-79.847313,40.520941]}},{"properties":{"city":"Cheswick","zip":15024,"homename":"Harmar Village Care Center","county":"Allegheny","street":"715 Freeport Road","id":"a62u3ijv9hmx","lat":40.540859,"state":"PA","long":-79.820495},"type":"Feature","geometry":{"type":"Point","coordinates":[-79.820495,40.540859]}},{"properties":{"city":"Pittsburgh","zip":15238,"homename":"Harmarville Transitional Rehabilitation Unit","county":"Allegheny","street":"Po Box 11460 Guys Run Road","id":"a62u3icj7k0h","lat":40.43831,"state":"PA","long":-79.997459},"type":"Feature","geometry":{"type":"Point","coordinates":[-79.997459,40.43831]}},{"properties":{"city":"Pittsburgh","zip":15232,"homename":"Heartland Health Care Center","county":"Allegheny","street":"550 South Negley Avenue","id":"a62u3iikhif6","lat":40.456084,"state":"PA","long":-79.933539},"type":"Feature","geometry":{"type":"Point","coordinates":[-79.933539,40.456084]}},{"properties":{"city":"Pittsburgh","zip":15217,"homename":"Heritage Shadyside, The","county":"Allegheny","street":"5701 Phillips Avenue","id":"a62u3ine1f6f","lat":40.431729,"state":"PA","long":-79.924224},"type":"Feature","geometry":{"type":"Point","coordinates":[-79.924224,40.431729]}},{"properties":{"city":"Brackenridge","zip":15014,"homename":"Highland Center, Genesis Elder","county":"Allegheny","street":"1050 Broadview Boulevard","id":"a62u3ii1bsew","lat":40.613898,"state":"PA","long":-79.741925},"type":"Feature","geometry":{"type":"Point","coordinates":[-79.741925,40.613898]}},{"properties":{"city":"Pittsburgh","zip":15206,"homename":"Highland Park Care Center","county":"Allegheny","street":"745 North Highland Avenue","id":"a62u3iezsgpv","lat":40.469152,"state":"PA","long":-79.921456},"type":"Feature","geometry":{"type":"Point","coordinates":[-79.921456,40.469152]}},{"properties":{"city":"Clairton","zip":15025,"homename":"Jefferson Hills Manor","county":"Allegheny","street":"448 Old Clairton Road","id":"a62u3ilj6d5t","lat":40.307112,"state":"PA","long":-79.946325},"type":"Feature","geometry":{"type":"Point","coordinates":[-79.946325,40.307112]}},{"properties":{"city":"Pittsburgh","zip":15207,"homename":"John J Kane Regional Center-Gl","county":"Allegheny","street":"955 Rivermont Drive","id":"a62u3i9pfpgi","lat":40.407141,"state":"PA","long":-79.928344},"type":"Feature","geometry":{"type":"Point","coordinates":[-79.928344,40.407141]}},{"properties":{"city":"Mckeesport","zip":15132,"homename":"John J Kane Regional Center-Mc","county":"Allegheny","street":"100 Ninth Street","id":"a62u3ikvmsvs","lat":40.346473,"state":"PA","long":-79.867744},"type":"Feature","geometry":{"type":"Point","coordinates":[-79.867744,40.346473]}},{"properties":{"city":"Pittsburgh","zip":15237,"homename":"John J Kane Regional Center-Ro","county":"Allegheny","street":"110 Mcintyre Road","id":"a62u3iac3sdp","lat":40.550963,"state":"PA","long":-80.016149},"type":"Feature","geometry":{"type":"Point","coordinates":[-80.016149,40.550963]}},{"properties":{"city":"Pittsburgh","zip":15243,"homename":"John J Kane Regional Center-Sc","county":"Allegheny","street":"300 Kane Boulevard","id":"a62u3iauudvr","lat":40.374096,"state":"PA","long":-80.085526},"type":"Feature","geometry":{"type":"Point","coordinates":[-80.085526,40.374096]}},{"properties":{"city":"Clairton","zip":15025,"homename":"Lawson Nursing Home, Inc.","county":"Allegheny","street":"540 Coal Valley Road","id":"a62u3ikds9ld","lat":40.323014,"state":"PA","long":-79.929508},"type":"Feature","geometry":{"type":"Point","coordinates":[-79.929508,40.323014]}},{"properties":{"city":"Turtle Creek","zip":15145,"homename":"Lgar Health and Rehabilitation","county":"Allegheny","street":"800 Elsie Street","id":"a62u3i9oepvn","lat":40.412822,"state":"PA","long":-79.820845},"type":"Feature","geometry":{"type":"Point","coordinates":[-79.820845,40.412822]}},{"properties":{"city":"Pittsburgh","zip":15212,"homename":"Little Sisters of The Poor","county":"Allegheny","street":"1028 Benton Avenue","id":"a62u3igbsxim","lat":40.487695,"state":"PA","long":-80.033881},"type":"Feature","geometry":{"type":"Point","coordinates":[-80.033881,40.487695]}},{"properties":{"city":"Verona","zip":15147,"homename":"Longwood At Oakmont","county":"Allegheny","street":"500 Route 909","id":"a62u3im8r8k4","lat":40.528237,"state":"PA","long":-79.804863},"type":"Feature","geometry":{"type":"Point","coordinates":[-79.804863,40.528237]}},{"properties":{"city":"Bethel Park","zip":15102,"homename":"Manorcare Health Services-Bethel P","county":"Allegheny","street":"60 Highland Road","id":"a62u3ig654y7","lat":40.349005,"state":"PA","long":-80.048112},"type":"Feature","geometry":{"type":"Point","coordinates":[-80.048112,40.349005]}},{"properties":{"city":"Pittsburgh","zip":15220,"homename":"Manorcare Health Services-Green Tr","county":"Allegheny","street":"1848 Greentree Road","id":"a62u3i84s6d1","lat":40.396905,"state":"PA","long":-80.066098},"type":"Feature","geometry":{"type":"Point","coordinates":[-80.066098,40.396905]}},{"properties":{"city":"Monroeville","zip":15146,"homename":"Manorcare Health Services-Monroevi","county":"Allegheny","street":"885 Macbeth Drive","id":"a62u3idg8pq9","lat":40.426114,"state":"PA","long":-79.756954},"type":"Feature","geometry":{"type":"Point","coordinates":[-79.756954,40.426114]}},{"properties":{"city":"Pittsburgh","zip":15237,"homename":"Manorcare Health Services-North Hi","county":"Allegheny","street":"1105 Perry Highway","id":"a62u3ifkgsl8","lat":40.545115,"state":"PA","long":-80.036089},"type":"Feature","geometry":{"type":"Point","coordinates":[-80.036089,40.545115]}},{"properties":{"city":"Pittsburgh","zip":15237,"homename":"Manorcare Health Services-North Hi","county":"Allegheny","street":"1105 Perry Highway","id":"a62u3i7i71wp","lat":40.545115,"state":"PA","long":-80.036089},"type":"Feature","geometry":{"type":"Point","coordinates":[-80.036089,40.545115]}},{"properties":{"city":"Pittsburgh","zip":15236,"homename":"Manorcare Health Services-Whitehal","county":"Allegheny","street":"505 Weyman Road","id":"a62u3ibwfcul","lat":40.362079,"state":"PA","long":-80.000381},"type":"Feature","geometry":{"type":"Point","coordinates":[-80.000381,40.362079]}},{"properties":{"city":"Pittsburgh","zip":15236,"homename":"Manorcare Health Services-Whitehal","county":"Allegheny","street":"505 Weyman Road","id":"a62u3iarmmzy","lat":40.362079,"state":"PA","long":-80.000381},"type":"Feature","geometry":{"type":"Point","coordinates":[-80.000381,40.362079]}},{"properties":{"city":"Pittsburgh","zip":15220,"homename":"Marian Manor Corporation","county":"Allegheny","street":"2695 Winchester Drive","id":"a62u3iesy41w","lat":40.408965,"state":"PA","long":-80.043601},"type":"Feature","geometry":{"type":"Point","coordinates":[-80.043601,40.408965]}},{"properties":{"city":"Sewickley","zip":15143,"homename":"Masonic Village At Sewickley","county":"Allegheny","street":"1000 Masonic Drive","id":"a62u3inz237a","lat":40.530064,"state":"PA","long":-80.141008},"type":"Feature","geometry":{"type":"Point","coordinates":[-80.141008,40.530064]}},{"properties":{"city":"Bethel Park","zip":15102,"homename":"Meadowcrest Nursing Center","county":"Allegheny","street":"1200 Braun Road","id":"a62u3i8v7eme","lat":40.291406,"state":"PA","long":-80.04231},"type":"Feature","geometry":{"type":"Point","coordinates":[-80.04231,40.291406]}},{"properties":{"city":"Wexford","zip":15090,"homename":"North Hills Health and Rehabilitation Center","county":"Allegheny","street":"194 Swinderman Road","id":"a62u3iae49xu","lat":40.637571,"state":"PA","long":-80.061243},"type":"Feature","geometry":{"type":"Point","coordinates":[-80.061243,40.637571]}},{"properties":{"city":"Braddock","zip":15104,"homename":"Progressive Care Center Braddock","county":"Allegheny","street":"400 Holland Avenue","id":"a62u3if6f63r","lat":40.405746,"state":"PA","long":-79.870377},"type":"Feature","geometry":{"type":"Point","coordinates":[-79.870377,40.405746]}},{"properties":{"city":"Pittsburgh","zip":15214,"homename":"Reformed Presbyterian Home","county":"Allegheny","street":"2344 Perrysville Avenue","id":"a62u3ihtd13q","lat":40.467049,"state":"PA","long":-80.009928},"type":"Feature","geometry":{"type":"Point","coordinates":[-80.009928,40.467049]}},{"properties":{"city":"Pittsburgh","zip":15232,"homename":"Residence For Renal Care At Shadyside","county":"Allegheny","street":"5511 Baum Blvd","id":"a62u3i9gi7au","lat":40.457609,"state":"PA","long":-79.936799},"type":"Feature","geometry":{"type":"Point","coordinates":[-79.936799,40.457609]}},{"properties":{"city":"Mckeesport","zip":15132,"homename":"Riverside Care Center","county":"Allegheny","street":"100 Eighth Avenue","id":"a62u3ii2otgr","lat":40.347476,"state":"PA","long":-79.868033},"type":"Feature","geometry":{"type":"Point","coordinates":[-79.868033,40.347476]}},{"properties":{"city":"Verona","zip":15147,"homename":"Seneca Place","county":"Allegheny","street":"5360 Saltsburg Road","id":"a62u3imeup17","lat":40.480147,"state":"PA","long":-79.837211},"type":"Feature","geometry":{"type":"Point","coordinates":[-79.837211,40.480147]}},{"properties":{"city":"Pittsburgh","zip":15232,"homename":"Shadyside Nursing and Rehab Center","county":"Allegheny","street":"5609 Fifth Avenue","id":"a62u3ibgxjxp","lat":40.449599,"state":"PA","long":-79.930806},"type":"Feature","geometry":{"type":"Point","coordinates":[-79.930806,40.449599]}},{"properties":{"city":"Pittsburgh","zip":15212,"homename":"Sky Vue Terrace","county":"Allegheny","street":"2170 Rhine Street","id":"a62u3i9o10lr","lat":40.467037,"state":"PA","long":-79.994186},"type":"Feature","geometry":{"type":"Point","coordinates":[-79.994186,40.467037]}},{"properties":{"city":"Pittsburgh","zip":15122,"homename":"Southwestern Nursing Center","county":"Allegheny","street":"500 Lewis Run Road","id":"a62u3iagk2rz","lat":40.534269,"state":"PA","long":-80.056978},"type":"Feature","geometry":{"type":"Point","coordinates":[-80.056978,40.534269]}},{"properties":{"city":"Gibsonia","zip":15044,"homename":"St. Barnabas Nursing Home","county":"Allegheny","street":"5827 Meridian Road","id":"a62u3ia1bsz2","lat":40.652268,"state":"PA","long":-79.959598},"type":"Feature","geometry":{"type":"Point","coordinates":[-79.959598,40.652268]}},{"properties":{"city":"Coraopolis","zip":15108,"homename":"Sycamore Creek Nursing Center","county":"Allegheny","street":"234 Coraopolis Road","id":"a62u3ialfswd","lat":40.500591,"state":"PA","long":-80.112838},"type":"Feature","geometry":{"type":"Point","coordinates":[-80.112838,40.500591]}},{"properties":{"city":"Cheswick","zip":15024,"homename":"Tandem Health Care of Cheswick","county":"Allegheny","street":"3876 Saxonburg Boulevard","id":"a62u3ij03xxg","lat":40.595928,"state":"PA","long":-79.872385},"type":"Feature","geometry":{"type":"Point","coordinates":[-79.872385,40.595928]}},{"properties":{"city":"Pittsburgh","zip":15213,"homename":"Upmc Magee-Womens Hospital Transitional Care Unit","county":"Allegheny","street":"300 Halket Street","id":"a62u3ia76qk1","lat":40.436858,"state":"PA","long":-79.959493},"type":"Feature","geometry":{"type":"Point","coordinates":[-79.959493,40.436858]}},{"properties":{"city":"Mckeesport","zip":15132,"homename":"Upmc Mckeesport Long Term Care","county":"Allegheny","street":"1500 Fifth Avenue","id":"a62u3idx2wdt","lat":40.351992,"state":"PA","long":-79.850739},"type":"Feature","geometry":{"type":"Point","coordinates":[-79.850739,40.351992]}},{"properties":{"city":"Pittsburgh","zip":15213,"homename":"Upmc Transitional Care Unit","county":"Allegheny","street":"200 Lothrop Street","id":"a62u3ik8abzx","lat":40.44199,"state":"PA","long":-79.960769},"type":"Feature","geometry":{"type":"Point","coordinates":[-79.960769,40.44199]}},{"properties":{"city":"Pittsburgh","zip":15206,"homename":"Vincentian De Marillac","county":"Allegheny","street":"5300 Stanton Avenue","id":"a62u3i9y7zd3","lat":40.474006,"state":"PA","long":-79.931576},"type":"Feature","geometry":{"type":"Point","coordinates":[-79.931576,40.474006]}},{"properties":{"city":"Pittsburgh","zip":15237,"homename":"Vincentian Home","county":"Allegheny","street":"111 Perrymont Road","id":"a62u3icojf9m","lat":40.556589,"state":"PA","long":-80.038685},"type":"Feature","geometry":{"type":"Point","coordinates":[-80.038685,40.556589]}},{"properties":{"city":"Allison Park","zip":15101,"homename":"Vincentian Regency","county":"Allegheny","street":"9399 Babcock Boulevard","id":"a62u3iiul43w","lat":40.576212,"state":"PA","long":-80.014918},"type":"Feature","geometry":{"type":"Point","coordinates":[-80.014918,40.576212]}},{"properties":{"city":"Coraopolis","zip":15108,"homename":"West Hills Health and Rehabilitation Center","county":"Allegheny","street":"951 Brodhead Road","id":"a62u3iju7t7b","lat":40.519503,"state":"PA","long":-80.224136},"type":"Feature","geometry":{"type":"Point","coordinates":[-80.224136,40.519503]}},{"properties":{"city":"Pittsburgh","zip":15221,"homename":"Westwood Nursing and Rehab Center","county":"Allegheny","street":"909 West Street","id":"a62u3igwojpf","lat":40.444621,"state":"PA","long":-79.890094},"type":"Feature","geometry":{"type":"Point","coordinates":[-79.890094,40.444621]}},{"properties":{"city":"Wexford","zip":15090,"homename":"Wexford House Nursing Center","county":"Allegheny","street":"9850 Old Perry Highway","id":"a62u3iikaffp","lat":40.587997,"state":"PA","long":-80.044321},"type":"Feature","geometry":{"type":"Point","coordinates":[-80.044321,40.587997]}},{"properties":{"city":"Oakmont","zip":15139,"homename":"Willows of Presbyterian Senior","county":"Allegheny","street":"1215 Hulton Road","id":"a62u3ijnzeoi","lat":40.524616,"state":"PA","long":-79.828364},"type":"Feature","geometry":{"type":"Point","coordinates":[-79.828364,40.524616]}},{"properties":{"city":"Monroeville","zip":15146,"homename":"Woodhaven Care Center","county":"Allegheny","street":"2400 Mcginley Road","id":"a62u3iez5nbn","lat":40.42289,"state":"PA","long":-79.743904},"type":"Feature","geometry":{"type":"Point","coordinates":[-79.743904,40.42289]}}],"is_temporal":false,"author":{"url":"http://www.nursinghomesweb.com/county/PA/AlleghenyCounty.html","metadata":"http://www.nursinghomesweb.com/county/PA/AlleghenyCounty.html","contact_name":"","contact_address":"","source":"Nuring Homes Web","contact_phone":""},"source":"http://www.nursinghomesweb.com/county/PA/AlleghenyCounty.html","pagination":{"sort":null,"start":0,"total":64,"limit":1000000},"state":"complete","tags":"age,aging,care,county,elderly,facilities,health,nursing,pa,pennsylvania,population,society,state,usa","published":"2009-01-23T12:00:00Z","id":8953}