{"type":"FeatureCollection","data_type":"Dataset","url_type":null,"permissions":[{"permissions":{"download":true,"view":true},"group_id":"everyone"}],"classification":null,"title":"publiclibraries.com, Kansas Public Libraries, Kansas, 1.2008","count":375,"stream_id":896,"contributor":{"url":"http://geocommons.com/users/2","name":"data"},"data_attributes":null,"calculation_params":null,"icon_link":null,"link":"http://geocommons.com/overlays/896.json","extent":[-101.893,37.0,-94.6252,40.0009],"geometry_types":["point"],"unique_name":null,"name":"publiclibraries.com, Kansas Public Libraries, Kansas, 1.2008","feature_count":375,"description":"This dataset displays the locations of all the public libraries in the state of Kansas. The data included is the name of the library, name of the library system, library's address, phone, and lat/lon coordinates. The data came from publiclibraries.com which is a updated directory of all the public libraries throughout the United States.\n","next_feature":null,"is_raster":false,"short_classification":"Y","stats":{"lon":{"max":-94.625165,"mean":-97.3564661546667,"variance":3.77785848926585,"stdev":1.94367139436322,"min":-101.893029,"median":-97.278134},"phone":{"max":9139732265,"mean":6214192018.66133,"variance":7.4333638963947e+18,"stdev":2726419611.21077,"min":3162232882,"median":6208263223},"lat":{"max":40.000885,"mean":38.4513978213334,"variance":0.744823020830333,"stdev":0.863031297711927,"min":37.000045,"median":38.454841}},"features":[{"properties":{"city":"Abilene","lon":-97.214983,"zip":"","librarysystem":"Abilene Public Library","phone":7852633082,"id":"a672lrc8xsq2","address":"209 NW 4th","lat":38.918274,"libraryname":"Abilene Public Library","state":"KS"},"type":"Feature","geometry":{"type":"Point","coordinates":[-97.214983,38.918274]}},{"properties":{"city":"Wichita","lon":-97.370915,"zip":"","librarysystem":"Wichita Public Library","phone":3163379119,"id":"a672lriodmsv","address":"3447 S. Meridian","lat":37.632217,"libraryname":"Alford Branch Library","state":"KS"},"type":"Feature","geometry":{"type":"Point","coordinates":[-97.370915,37.632217]}},{"properties":{"city":"Alma","lon":-96.292992,"zip":"","librarysystem":"Pottawatomie-Wabaunsee Public Library","phone":9137653647,"id":"a672lrg69k3t","address":"314 West 3rd","lat":39.012647,"libraryname":"Alma Branch Library","state":"KS"},"type":"Feature","geometry":{"type":"Point","coordinates":[-96.292992,39.012647]}},{"properties":{"city":"Almena","lon":-99.70695,"zip":"","librarysystem":"Almena City Library","phone":7856692336,"id":"a672lrcmq6f7","address":"415 Main","lat":39.89375,"libraryname":"Almena City Library","state":"KS"},"type":"Feature","geometry":{"type":"Point","coordinates":[-99.70695,39.89375]}},{"properties":{"city":"Alta Vista","lon":-96.490774,"zip":"","librarysystem":"Pottawatomie-Wabaunsee Public Library","phone":7854995542,"id":"a672lrk1d9bx","address":"310 Center","lat":38.863957,"libraryname":"Alta Vista Branch","state":"KS"},"type":"Feature","geometry":{"type":"Point","coordinates":[-96.490774,38.863957]}},{"properties":{"city":"Altamont","lon":-95.296962,"zip":"","librarysystem":"Altamont Public Library","phone":6207845530,"id":"a672lre9usib","address":"407 Huston Ave.","lat":37.192871,"libraryname":"Altamont Public Library","state":"KS"},"type":"Feature","geometry":{"type":"Point","coordinates":[-95.296962,37.192871]}},{"properties":{"city":"Altoona","lon":-95.662524,"zip":"","librarysystem":"Altoona Public Library","phone":6205685415,"id":"a672lrjw3jp3","address":"713 Main St.","lat":37.515832,"libraryname":"Altoona Public Library","state":"KS"},"type":"Feature","geometry":{"type":"Point","coordinates":[-95.662524,37.515832]}},{"properties":{"city":"Americus","lon":-96.262144,"zip":"","librarysystem":"Americus Township Library","phone":6204435503,"id":"a672lrezqis1","address":"710 Main, PO Box 404","lat":38.506385,"libraryname":"Americus Township Library","state":"KS"},"type":"Feature","geometry":{"type":"Point","coordinates":[-96.262144,38.506385]}},{"properties":{"city":"Andale","lon":-97.630124,"zip":"","librarysystem":"Andale District Library","phone":3164442472,"id":"a672lrcfq4l5","address":"PO Box 71","lat":37.79121,"libraryname":"Andale District Library","state":"KS"},"type":"Feature","geometry":{"type":"Point","coordinates":[-97.630124,37.79121]}},{"properties":{"city":"Andover","lon":-97.135293,"zip":"","librarysystem":"Andover Public Library","phone":3167334599,"id":"a672lrp423q0","address":"937 N. Andover Rd.","lat":37.702389,"libraryname":"Andover Public Library","state":"KS"},"type":"Feature","geometry":{"type":"Point","coordinates":[-97.135293,37.702389]}},{"properties":{"city":"Anthony","lon":-98.023224,"zip":"","librarysystem":"Anthony Public Library","phone":6208425344,"id":"a672lri617pe","address":"624 E. Main Street","lat":37.152128,"libraryname":"Anthony Public Library","state":"KS"},"type":"Feature","geometry":{"type":"Point","coordinates":[-98.023224,37.152128]}},{"properties":{"city":"Kansas City","lon":-94.661443,"zip":"","librarysystem":"Kansas City Public Library","phone":9137227400,"id":"a672lrcnl89l","address":"2800 Metropolitan Ave","lat":39.073413,"libraryname":"Argentine Branch Library","state":"KS"},"type":"Feature","geometry":{"type":"Point","coordinates":[-94.661443,39.073413]}},{"properties":{"city":"Arkansas City","lon":-97.038676,"zip":"","librarysystem":"Arkansas City Public Library","phone":6204421280,"id":"a672lrld6e0l","address":"120 E. Fifth Avenue","lat":37.061279,"libraryname":"Arkansas City Public Library","state":"KS"},"type":"Feature","geometry":{"type":"Point","coordinates":[-97.038676,37.061279]}},{"properties":{"city":"Arlington","lon":-98.175756,"zip":"","librarysystem":"Arlington City Library","phone":6205382471,"id":"a672lrnnwxpm","address":"111 E. Main St","lat":37.896322,"libraryname":"Arlington City Library","state":"KS"},"type":"Feature","geometry":{"type":"Point","coordinates":[-98.175756,37.896322]}},{"properties":{"city":"Arma","lon":-94.704963,"zip":"","librarysystem":"Arma City Library","phone":6203474811,"id":"a672lrjl47u9","address":"502 N. West St","lat":37.547839,"libraryname":"Arma City Library","state":"KS"},"type":"Feature","geometry":{"type":"Point","coordinates":[-94.704963,37.547839]}},{"properties":{"city":"Ashland","lon":-99.765719,"zip":"","librarysystem":"Ashland Library","phone":6206352589,"id":"a672lrl5kib2","address":"604 Main Street","lat":37.18205,"libraryname":"Ashland Public Library","state":"KS"},"type":"Feature","geometry":{"type":"Point","coordinates":[-99.765719,37.18205]}},{"properties":{"city":"Atchison","lon":-95.117841,"zip":"","librarysystem":"Atchison Public Library","phone":9133671902,"id":"a672lrlqra9z","address":"401 Kansas Ave.","lat":39.563102,"libraryname":"Atchison Public Library","state":"KS"},"type":"Feature","geometry":{"type":"Point","coordinates":[-95.117841,39.563102]}},{"properties":{"city":"Attica","lon":-98.22605,"zip":"","librarysystem":"Attica City Library","phone":6202547767,"id":"a672lrkm9srw","address":"123 N. Main","lat":37.240138,"libraryname":"Attica City Library","state":"KS"},"type":"Feature","geometry":{"type":"Point","coordinates":[-98.22605,37.240138]}},{"properties":{"city":"Atwood","lon":-101.039746,"zip":"","librarysystem":"Atwood Public Library","phone":7856263805,"id":"a672lrhoc1v0","address":"102 S. 6th Street","lat":39.807468,"libraryname":"Atwood Public Library","state":"KS"},"type":"Feature","geometry":{"type":"Point","coordinates":[-101.039746,39.807468]}},{"properties":{"city":"Augusta","lon":-96.979091,"zip":"","librarysystem":"Augusta Public Library","phone":3167752681,"id":"a672lrpez6fi","address":"1609 State St.","lat":37.690433,"libraryname":"Augusta Public Library","state":"KS"},"type":"Feature","geometry":{"type":"Point","coordinates":[-96.979091,37.690433]}},{"properties":{"city":"Axtell","lon":-96.259142,"zip":"","librarysystem":"Axtell Public Library","phone":7857362834,"id":"a672lrdxiyxi","address":"401 Maple","lat":39.872446,"libraryname":"Axtell Public Library","state":"KS"},"type":"Feature","geometry":{"type":"Point","coordinates":[-96.259142,39.872446]}},{"properties":{"city":"Baldwin City","lon":-95.187339,"zip":"","librarysystem":"Baldwin City Library","phone":7855943411,"id":"a672lrccmo2v","address":"800 7th Avenue","lat":38.774828,"libraryname":"Baldwin City Library","state":"KS"},"type":"Feature","geometry":{"type":"Point","coordinates":[-95.187339,38.774828]}},{"properties":{"city":"La Crosse","lon":-99.309664,"zip":"","librarysystem":"Barnard Library","phone":7852222826,"id":"a672lrc1bb9j","address":"521 Elm St.","lat":38.53216,"libraryname":"Barnard Library, La Crosse","state":"KS"},"type":"Feature","geometry":{"type":"Point","coordinates":[-99.309664,38.53216]}},{"properties":{"city":"Everest","lon":-95.424479,"zip":"","librarysystem":"Barnes Reading Room","phone":7855487733,"id":"a672lrbeyf0k","address":"PO Box 204","lat":39.67731,"libraryname":"Barnes Reading Room, Everest","state":"KS"},"type":"Feature","geometry":{"type":"Point","coordinates":[-95.424479,39.67731]}},{"properties":{"city":"Basehor","lon":-94.938564,"zip":"","librarysystem":"Basehor Community Library","phone":9137282203,"id":"a672lrci82iz","address":"2812 N. 155th St., PO Box 380","lat":39.139258,"libraryname":"Basehor Community Library","state":"KS"},"type":"Feature","geometry":{"type":"Point","coordinates":[-94.938564,39.139258]}},{"properties":{"city":"Holton","lon":-95.739248,"zip":"","librarysystem":"Beck-Bookman Library","phone":7853643532,"id":"a672lrl6p1ht","address":"420 West 4th Street","lat":39.463487,"libraryname":"Beck-Bookman Library","state":"KS"},"type":"Feature","geometry":{"type":"Point","coordinates":[-95.739248,39.463487]}},{"properties":{"city":"Belle Plaine","lon":-97.278134,"zip":"","librarysystem":"Belle Plaine Public Library","phone":3164883431,"id":"a672lri42aap","address":"222 W. 5th, Box 700","lat":37.393779,"libraryname":"Belle Plaine City Library","state":"KS"},"type":"Feature","geometry":{"type":"Point","coordinates":[-97.278134,37.393779]}},{"properties":{"city":"Belleville","lon":-97.630445,"zip":"","librarysystem":"Belleville Public Library","phone":9135275305,"id":"a672lro0mndg","address":"1327 19th St.","lat":39.822751,"libraryname":"Belleville Public Library","state":"KS"},"type":"Feature","geometry":{"type":"Point","coordinates":[-97.630445,39.822751]}},{"properties":{"city":"Bern","lon":-95.971782,"zip":"","librarysystem":"Bern Community Library","phone":7853363000,"id":"a672lriwugwx","address":"402 Main Street","lat":39.962976,"libraryname":"Bern Community Library","state":"KS"},"type":"Feature","geometry":{"type":"Point","coordinates":[-95.971782,39.962976]}},{"properties":{"city":"Bird City","lon":-101.531399,"zip":"","librarysystem":"Bird City Public Library","phone":7857342203,"id":"a672lrcgskvb","address":"110 E. 4th","lat":39.7496,"libraryname":"Bird City Public Library","state":"KS"},"type":"Feature","geometry":{"type":"Point","coordinates":[-101.531399,39.7496]}},{"properties":{"city":"Bison","lon":-99.198137,"zip":"","librarysystem":"Bison Community Library","phone":7853564803,"id":"a672lribhucj","address":"202 Main Street","lat":38.522035,"libraryname":"Bison Community Library","state":"KS"},"type":"Feature","geometry":{"type":"Point","coordinates":[-99.198137,38.522035]}},{"properties":{"city":"Blue Rapids","lon":-96.657729,"zip":"","librarysystem":"Blue Rapids Public Library","phone":7853637709,"id":"a672lrc5oyer","address":"Public Square","lat":39.682655,"libraryname":"Blue Rapids Public Library","state":"KS"},"type":"Feature","geometry":{"type":"Point","coordinates":[-96.657729,39.682655]}},{"properties":{"city":"Bonner Springs","lon":-94.882821,"zip":"","librarysystem":"Bonner Springs City Library","phone":9134412665,"id":"a672lrbf782k","address":"200 E. 3rd St.","lat":39.057966,"libraryname":"Bonner Springs City Library","state":"KS"},"type":"Feature","geometry":{"type":"Point","coordinates":[-94.882821,39.057966]}},{"properties":{"city":"El Dorado","lon":-96.853741,"zip":"","librarysystem":"Bradford Memorial Library","phone":3163213363,"id":"a672lrnzn064","address":"611 S. Washington","lat":37.812661,"libraryname":"Bradford Memorial Library, El Dorado","state":"KS"},"type":"Feature","geometry":{"type":"Point","coordinates":[-96.853741,37.812661]}},{"properties":{"city":"Bronson","lon":-95.071987,"zip":"","librarysystem":"Bronson Public Library","phone":6209394910,"id":"a672lrfqkxak","address":"411 Clay St.","lat":37.893639,"libraryname":"Bronson Public Library","state":"KS"},"type":"Feature","geometry":{"type":"Point","coordinates":[-95.071987,37.893639]}},{"properties":{"city":"Brownell","lon":-99.745679,"zip":"","librarysystem":"Brownell Public Library","phone":7854812300,"id":"a672lrnrflkc","address":"P.P. Box 135","lat":38.640065,"libraryname":"Brownell Public Library","state":"KS"},"type":"Feature","geometry":{"type":"Point","coordinates":[-99.745679,38.640065]}},{"properties":{"city":"Bucklin","lon":-99.634273,"zip":"","librarysystem":"Bucklin Public Library","phone":6208263223,"id":"a672lrochdbz","address":"201 N. Main","lat":37.55068,"libraryname":"Bucklin Public Library","state":"KS"},"type":"Feature","geometry":{"type":"Point","coordinates":[-99.634273,37.55068]}},{"properties":{"city":"Buhler","lon":-97.770713,"zip":"","librarysystem":"Buhler Public Library","phone":6205432241,"id":"a672lriuy8r0","address":"121 N. Main","lat":38.135059,"libraryname":"Buhler Public Library","state":"KS"},"type":"Feature","geometry":{"type":"Point","coordinates":[-97.770713,38.135059]}},{"properties":{"city":"Burdett","lon":-99.527232,"zip":"","librarysystem":"Burdett Community Library","phone":3165256588,"id":"a672lrhwmmoa","address":"207 Elm Street","lat":38.191101,"libraryname":"Burdett Community Library","state":"KS"},"type":"Feature","geometry":{"type":"Point","coordinates":[-99.527232,38.191101]}},{"properties":{"city":"Burlingame","lon":-95.835286,"zip":"","librarysystem":"Burlingame Public Library","phone":7856543400,"id":"a672lrngpgvw","address":"122 W. Santa Fe","lat":38.75387,"libraryname":"Burlingame Public Library","state":"KS"},"type":"Feature","geometry":{"type":"Point","coordinates":[-95.835286,38.75387]}},{"properties":{"city":"Cottonwood Falls","lon":-96.542189,"zip":"","librarysystem":"Cottonwood Falls/Burnley Memorial","phone":6202738588,"id":"a672lrc5lwky","address":"401 Oak Street","lat":38.36686,"libraryname":"Burnley Memorial Library","state":"KS"},"type":"Feature","geometry":{"type":"Point","coordinates":[-96.542189,38.36686]}},{"properties":{"city":"Burns","lon":-96.887279,"zip":"","librarysystem":"Burns Public Library","phone":6207265232,"id":"a672lrcn8nls","address":"104 North Church Street","lat":38.09034,"libraryname":"Burns Public Library","state":"KS"},"type":"Feature","geometry":{"type":"Point","coordinates":[-96.887279,38.09034]}},{"properties":{"city":"Burr Oak","lon":-98.304684,"zip":"","librarysystem":"Burr Oak City Library","phone":9136478181,"id":"a672lrju4nie","address":"776 Kansas","lat":39.869593,"libraryname":"Burr Oak City Library","state":"KS"},"type":"Feature","geometry":{"type":"Point","coordinates":[-98.304684,39.869593]}},{"properties":{"city":"Burrton","lon":-97.671664,"zip":"","librarysystem":"Ruth Dole Memorial Library","phone":3164637902,"id":"a672lrj1ujx7","address":"121 N. Burrton Ave","lat":38.024347,"libraryname":"Burrton Public Library","state":"KS"},"type":"Feature","geometry":{"type":"Point","coordinates":[-97.671664,38.024347]}},{"properties":{"city":"Caldwell","lon":-97.609477,"zip":"","librarysystem":"Caldwell Carnegie Library","phone":3168456879,"id":"a672lrqd2vtw","address":"8 N. Osage","lat":37.032648,"libraryname":"Caldwell Carnegie City Library","state":"KS"},"type":"Feature","geometry":{"type":"Point","coordinates":[-97.609477,37.032648]}},{"properties":{"city":"Caney","lon":-95.929875,"zip":"","librarysystem":"Caney City Library","phone":3168795341,"id":"a672lra5h8eq","address":"100 N. Ridgeway","lat":37.011717,"libraryname":"Caney City Library","state":"KS"},"type":"Feature","geometry":{"type":"Point","coordinates":[-95.929875,37.011717]}},{"properties":{"city":"Canton","lon":-97.427194,"zip":"","librarysystem":"Canton Township","phone":3166284992,"id":"a672lroz33fu","address":"203 N. Main, PO Box 336","lat":38.38529,"libraryname":"Canton Carnegie Township Library","state":"KS"},"type":"Feature","geometry":{"type":"Point","coordinates":[-97.427194,38.38529]}},{"properties":{"city":"Carbondale","lon":-95.691722,"zip":"","librarysystem":"Carbondale City Library","phone":9135647638,"id":"a672lrh8jh0s","address":"234 Main Street","lat":38.818837,"libraryname":"Carbondale City Library","state":"KS"},"type":"Feature","geometry":{"type":"Point","coordinates":[-95.691722,38.818837]}},{"properties":{"city":"Cedar Vale","lon":-96.498639,"zip":"","librarysystem":"Cedar Vale Memorial","phone":3167582598,"id":"a672lro3zitg","address":"606 Cedar, PO Box 369","lat":37.104385,"libraryname":"Cedar Vale Memorial Library","state":"KS"},"type":"Feature","geometry":{"type":"Point","coordinates":[-96.498639,37.104385]}},{"properties":{"city":"Centralia","lon":-96.129979,"zip":"","librarysystem":"Centralia Community Library","phone":9138573331,"id":"a672lrm1f5fw","address":"608 4th St.","lat":39.72364,"libraryname":"Centralia Community Library","state":"KS"},"type":"Feature","geometry":{"type":"Point","coordinates":[-96.129979,39.72364]}},{"properties":{"city":"Chanute","lon":-95.451683,"zip":"","librarysystem":"Chanute Public Library","phone":3164313820,"id":"a672lriv2zol","address":"102 S. Lincoln","lat":37.680762,"libraryname":"Chanute Public Library","state":"KS"},"type":"Feature","geometry":{"type":"Point","coordinates":[-95.451683,37.680762]}},{"properties":{"city":"Chapman","lon":-97.018694,"zip":"","librarysystem":"Chapman Public Library","phone":9139226548,"id":"a672lrkepv71","address":"402 N. Marshall, PO Box F","lat":38.970295,"libraryname":"Chapman Public Library","state":"KS"},"type":"Feature","geometry":{"type":"Point","coordinates":[-97.018694,38.970295]}},{"properties":{"city":"Cheney","lon":-97.781009,"zip":"","librarysystem":"Cheney Public Library","phone":3165423331,"id":"a672lrbf3624","address":"203 N. Main, PO Box 700","lat":37.627445,"libraryname":"Cheney Public Library","state":"KS"},"type":"Feature","geometry":{"type":"Point","coordinates":[-97.781009,37.627445]}},{"properties":{"city":"Cherryvale","lon":-95.555184,"zip":"","librarysystem":"Cherryvale Public Library","phone":3163363460,"id":"a672lrd2o9gz","address":"329 E. Main, PO Box 394","lat":37.268895,"libraryname":"Cherryvale Public Library","state":"KS"},"type":"Feature","geometry":{"type":"Point","coordinates":[-95.555184,37.268895]}},{"properties":{"city":"Chetopa","lon":-95.086884,"zip":"","librarysystem":"Chetopa City Library","phone":3162367194,"id":"a672lronyev7","address":"312 Maple, PO Box 206","lat":37.03696,"libraryname":"Chetopa City Library","state":"KS"},"type":"Feature","geometry":{"type":"Point","coordinates":[-95.086884,37.03696]}},{"properties":{"city":"Cimarron","lon":-100.347689,"zip":"","librarysystem":"Cimarron City Library","phone":3168553808,"id":"a672lrjmz9th","address":"120 N. Main, PO Box 645","lat":37.806742,"libraryname":"Cimarron City Library","state":"KS"},"type":"Feature","geometry":{"type":"Point","coordinates":[-100.347689,37.806742]}},{"properties":{"city":"Cimarron","lon":-100.347689,"zip":"","librarysystem":"Cimarron City Library","phone":3168553808,"id":"a672lrgl2xdy","address":"111 Main, PO Box 645","lat":37.806742,"libraryname":"Cimarron City Library","state":"KS"},"type":"Feature","geometry":{"type":"Point","coordinates":[-100.347689,37.806742]}},{"properties":{"city":"Cimarron","lon":-100.347689,"zip":"","librarysystem":"Cimarron City Library","phone":3168553808,"id":"a672lrn1oyr0","address":"120 N. Main, PO Box 645","lat":37.806742,"libraryname":"Cimarron City Library","state":"KS"},"type":"Feature","geometry":{"type":"Point","coordinates":[-100.347689,37.806742]}},{"properties":{"city":"Clay Center","lon":-97.12445,"zip":"","librarysystem":"Clay Center Carnegie Library","phone":9136323889,"id":"a672lrnkz82m","address":"706 6th St.","lat":39.376411,"libraryname":"Clay Center Carnegie Library","state":"KS"},"type":"Feature","geometry":{"type":"Point","coordinates":[-97.12445,39.376411]}},{"properties":{"city":"Clearwater","lon":-97.505586,"zip":"","librarysystem":"Clearwater Public Library","phone":3165846474,"id":"a672lrfie3xu","address":"129 E. Ross","lat":37.504509,"libraryname":"Clearwater Public Library","state":"KS"},"type":"Feature","geometry":{"type":"Point","coordinates":[-97.505586,37.504509]}},{"properties":{"city":"Clifton","lon":-97.280313,"zip":"","librarysystem":"Clifton Public Library","phone":9134552222,"id":"a672lrbf0nxt","address":"104 E. Parallel","lat":39.56659,"libraryname":"Clifton Public Library","state":"KS"},"type":"Feature","geometry":{"type":"Point","coordinates":[-97.280313,39.56659]}},{"properties":{"city":"Burlington","lon":-95.748198,"zip":"","librarysystem":"Coffey County Library","phone":6203642010,"id":"a672lrptkxiv","address":"410 Juniatta Street","lat":38.197661,"libraryname":"Coffey County Library","state":"KS"},"type":"Feature","geometry":{"type":"Point","coordinates":[-95.748198,38.197661]}},{"properties":{"city":"Coffeyville","lon":-95.61932,"zip":"","librarysystem":"Coffeyville Public Library","phone":3162511370,"id":"a672lrci06c0","address":"311 W. 10th St.","lat":37.033897,"libraryname":"Coffeyville Public Library","state":"KS"},"type":"Feature","geometry":{"type":"Point","coordinates":[-95.61932,37.033897]}},{"properties":{"city":"Coldwater","lon":-99.328784,"zip":"","librarysystem":"Coldwater-Wilmore Regional Library","phone":3165822333,"id":"a672lrm485gd","address":"221 E. Main, PO Box 606","lat":37.267905,"libraryname":"Coldwater-Wilmore Regional Library","state":"KS"},"type":"Feature","geometry":{"type":"Point","coordinates":[-99.328784,37.267905]}},{"properties":{"city":"Colony","lon":-95.367389,"zip":"","librarysystem":"Colony City Library","phone":3168523530,"id":"a672lrku5p0j","address":"339 Cherry, PO Box 68","lat":38.071355,"libraryname":"Colony City Library","state":"KS"},"type":"Feature","geometry":{"type":"Point","coordinates":[-95.367389,38.071355]}},{"properties":{"city":"Columbus","lon":-94.842694,"zip":"","librarysystem":"Columbus Public Library","phone":3164292086,"id":"a672lrg28a7c","address":"205 N. Kansas","lat":37.17207,"libraryname":"Columbus Public Library","state":"KS"},"type":"Feature","geometry":{"type":"Point","coordinates":[-94.842694,37.17207]}},{"properties":{"city":"Colwich","lon":-97.536428,"zip":"","librarysystem":"Colwich Community Library","phone":3167961521,"id":"a672lrhi5ikk","address":"126 W. Colwich","lat":37.781071,"libraryname":"Colwich Community Library","state":"KS"},"type":"Feature","geometry":{"type":"Point","coordinates":[-97.536428,37.781071]}},{"properties":{"city":"Fort Leavenworth","lon":-94.915258,"zip":"","librarysystem":"Combined Arms Research Library","phone":9137583053,"id":"a672lrbijwi3","address":"250 Gibbon Ave","lat":39.35001,"libraryname":"Combined Arms Research Library","state":"KS"},"type":"Feature","geometry":{"type":"Point","coordinates":[-94.915258,39.35001]}},{"properties":{"city":"Wichita","lon":-97.244405,"zip":"","librarysystem":"Wichita Public Library","phone":3166889350,"id":"a672lrgftfiw","address":"2244 N. Rock Road","lat":37.72411,"libraryname":"Comotara Branch Library","state":"KS"},"type":"Feature","geometry":{"type":"Point","coordinates":[-97.244405,37.72411]}},{"properties":{"city":"Conway Springs","lon":-97.641179,"zip":"","librarysystem":"Conway Springs City Library","phone":3164562859,"id":"a672lrghomf0","address":"210 W. Spring, PO Box 183","lat":37.390975,"libraryname":"Conway Springs City Library","state":"KS"},"type":"Feature","geometry":{"type":"Point","coordinates":[-97.641179,37.390975]}},{"properties":{"city":"Copeland","lon":-100.629424,"zip":"","librarysystem":"Copeland Public Library","phone":3166685559,"id":"a672lrirqyjq","address":"109 Santa Fe","lat":37.542646,"libraryname":"Copeland Public Library","state":"KS"},"type":"Feature","geometry":{"type":"Point","coordinates":[-100.629424,37.542646]}},{"properties":{"city":"Corning","lon":-96.026322,"zip":"","librarysystem":"Corning City Library","phone":9138682755,"id":"a672lrp0cexu","address":"6611 7th Street","lat":39.654765,"libraryname":"Corning City Library","state":"KS"},"type":"Feature","geometry":{"type":"Point","coordinates":[-96.026322,39.654765]}},{"properties":{"city":"Council Grove","lon":-96.499054,"zip":"","librarysystem":"Council Grove Public Library","phone":6207675716,"id":"a672lrp86bwx","address":"829 West Main Street","lat":38.658478,"libraryname":"Council Grove Public Library","state":"KS"},"type":"Feature","geometry":{"type":"Point","coordinates":[-96.499054,38.658478]}},{"properties":{"city":"Courtland","lon":-97.895154,"zip":"","librarysystem":"Courtland Community Library","phone":9133744260,"id":"a672lrnawj72","address":"Main St.","lat":39.78675,"libraryname":"Courtland City Library","state":"KS"},"type":"Feature","geometry":{"type":"Point","coordinates":[-97.895154,39.78675]}},{"properties":{"city":"Cunningham","lon":-98.432718,"zip":"","librarysystem":"Cunningham Public Library","phone":3162982135,"id":"a672lrgdb3ti","address":"105 N Main","lat":37.645428,"libraryname":"Cunningham Public Library","state":"KS"},"type":"Feature","geometry":{"type":"Point","coordinates":[-98.432718,37.645428]}},{"properties":{"city":"Valley Falls","lon":-95.459142,"zip":"","librarysystem":"Delaware Township Library","phone":7859453587,"id":"a672lrp3hbj7","address":"421 Mary","lat":39.344917,"libraryname":"Delaware Township Library","state":"KS"},"type":"Feature","geometry":{"type":"Point","coordinates":[-95.459142,39.344917]}},{"properties":{"city":"Delphos","lon":-97.765185,"zip":"","librarysystem":"Delphos Public Library","phone":9135234668,"id":"a672lrhvjsw1","address":"114 W. 2nd, PO Box 284","lat":39.273703,"libraryname":"Delphos Public Library","state":"KS"},"type":"Feature","geometry":{"type":"Point","coordinates":[-97.765185,39.273703]}},{"properties":{"city":"Derby","lon":-97.248164,"zip":"","librarysystem":"Derby Public Library","phone":3167880760,"id":"a672lrpbpjkr","address":"611 Mulberry","lat":37.548372,"libraryname":"Derby Public Library","state":"KS"},"type":"Feature","geometry":{"type":"Point","coordinates":[-97.248164,37.548372]}},{"properties":{"city":"Argonia","lon":-97.766839,"zip":"","librarysystem":"Argonia/Dixon Township Library","phone":3164356632,"id":"a672lrf8tet3","address":"120 W. Walnut","lat":37.26577,"libraryname":"Dixon Township Library, Argonia","state":"KS"},"type":"Feature","geometry":{"type":"Point","coordinates":[-97.766839,37.26577]}},{"properties":{"city":"Dodge City","lon":-100.018932,"zip":"","librarysystem":"Dodge City Public Library","phone":6202250248,"id":"a672lrglp9ft","address":"1001 2nd Ave.","lat":37.757509,"libraryname":"Dodge City Public Library","state":"KS"},"type":"Feature","geometry":{"type":"Point","coordinates":[-100.018932,37.757509]}},{"properties":{"city":"Junction City","lon":-96.832134,"zip":"","librarysystem":"Dorothy Bramlage Public Library","phone":9132384311,"id":"a672lrofu0c6","address":"230 W. 7th St.","lat":39.029473,"libraryname":"Dorothy Bramlage Public Library, Junction Cit","state":"KS"},"type":"Feature","geometry":{"type":"Point","coordinates":[-96.832134,39.029473]}},{"properties":{"city":"Douglass","lon":-97.016438,"zip":"","librarysystem":"Douglass Public Library","phone":3167462200,"id":"a672lreipd1c","address":"319 S. Forrest","lat":37.517139,"libraryname":"Douglass Public Library","state":"KS"},"type":"Feature","geometry":{"type":"Point","coordinates":[-97.016438,37.517139]}},{"properties":{"city":"Downs","lon":-98.544638,"zip":"","librarysystem":"Downs Carnegie","phone":9134543821,"id":"a672lrb5w0sy","address":"504 Morgan","lat":39.50078,"libraryname":"Downs Carnegie Library","state":"KS"},"type":"Feature","geometry":{"type":"Point","coordinates":[-98.544638,39.50078]}},{"properties":{"city":"Satanta","lon":-100.985825,"zip":"","librarysystem":"Dudley Township Public Library","phone":3166492213,"id":"a672lrfxtmek","address":"Sequoyah St., PO Box 189","lat":37.439686,"libraryname":"Dudley Township Public Library, Satanta","state":"KS"},"type":"Feature","geometry":{"type":"Point","coordinates":[-100.985825,37.439686]}},{"properties":{"city":"Dwight","lon":-96.594019,"zip":"","librarysystem":"Dwight Public","phone":9134823804,"id":"a672lrpw33bt","address":"637 Main, PO Box 278","lat":38.84389,"libraryname":"Dwight Library","state":"KS"},"type":"Feature","geometry":{"type":"Point","coordinates":[-96.594019,38.84389]}},{"properties":{"city":"Edgerton","lon":-95.007908,"zip":"","librarysystem":"Johnson County Library","phone":9138936720,"id":"a672lrgpaqzy","address":"319 E. Nelson","lat":38.764771,"libraryname":"Edgerton Library","state":"KS"},"type":"Feature","geometry":{"type":"Point","coordinates":[-95.007908,38.764771]}},{"properties":{"city":"Valley Center","lon":-97.374929,"zip":"","librarysystem":"Edna Buschow Memorial Library","phone":3167552218,"id":"a672lrmas5i4","address":"321 W. 1st","lat":37.83359,"libraryname":"Edna Buschow Memorial Library, Valley Center","state":"KS"},"type":"Feature","geometry":{"type":"Point","coordinates":[-97.374929,37.83359]}},{"properties":{"city":"Edna","lon":-95.359128,"zip":"","librarysystem":"Edna Public Library","phone":3169223470,"id":"a672lrpp2up2","address":"105 N. Delaware","lat":37.057159,"libraryname":"Edna Public Library","state":"KS"},"type":"Feature","geometry":{"type":"Point","coordinates":[-95.359128,37.057159]}},{"properties":{"city":"Effingham","lon":-95.396841,"zip":"","librarysystem":"Effingham Community Library","phone":9138335881,"id":"a672lrepacmo","address":"414 Main","lat":39.521666,"libraryname":"Effingham Community Library","state":"KS"},"type":"Feature","geometry":{"type":"Point","coordinates":[-95.396841,39.521666]}},{"properties":{"city":"Ellinwood","lon":-98.577799,"zip":"","librarysystem":"Ellinwood School Community Library","phone":3165642306,"id":"a672lrb4g9x4","address":"210 N. Schiller","lat":38.355808,"libraryname":"Ellinwood School-Community Library","state":"KS"},"type":"Feature","geometry":{"type":"Point","coordinates":[-98.577799,38.355808]}},{"properties":{"city":"Ellis","lon":-99.560247,"zip":"","librarysystem":"Ellis Public Library","phone":9137263464,"id":"a672lragzjji","address":"907 Washington St.","lat":38.938392,"libraryname":"Ellis Public Library","state":"KS"},"type":"Feature","geometry":{"type":"Point","coordinates":[-99.560247,38.938392]}},{"properties":{"city":"Wilsey","lon":-96.676553,"zip":"","librarysystem":"Wilsey/Elm Creek Township Library","phone":7854972289,"id":"a672lrmckv88","address":"213 North 5th St","lat":38.637305,"libraryname":"Elm Creek Township Library, Wilsey","state":"KS"},"type":"Feature","geometry":{"type":"Point","coordinates":[-96.676553,38.637305]}},{"properties":{"city":"Hartford","lon":-95.957506,"zip":"","librarysystem":"Hartford/Elmendaro Township","phone":3163925518,"id":"a672lrcg7fl4","address":"224 Comercial St.","lat":38.309475,"libraryname":"Elmendaro Township Library, Hartford","state":"KS"},"type":"Feature","geometry":{"type":"Point","coordinates":[-95.957506,38.309475]}},{"properties":{"city":"Elwood","lon":-94.88082,"zip":"","librarysystem":"Library District # 1, Doniphan County","phone":9133652409,"id":"a672lri5erqb","address":"410 N 9th","lat":39.758638,"libraryname":"Elwood Branch Library","state":"KS"},"type":"Feature","geometry":{"type":"Point","coordinates":[-94.88082,39.758638]}},{"properties":{"city":"Emporia","lon":-96.178632,"zip":"","librarysystem":"Emporia Public Library","phone":6203426524,"id":"a672lrmolyud","address":"110 E. 6th Ave.","lat":38.405152,"libraryname":"Emporia Public Library","state":"KS"},"type":"Feature","geometry":{"type":"Point","coordinates":[-96.178632,38.405152]}},{"properties":{"city":"Enterprise","lon":-97.117394,"zip":"","librarysystem":"Enterprise Public Library","phone":9139342351,"id":"a672lrh5yxjk","address":"123 S. Factory, PO Box 307","lat":38.902525,"libraryname":"Enterprise Public Library","state":"KS"},"type":"Feature","geometry":{"type":"Point","coordinates":[-97.117394,38.902525]}},{"properties":{"city":"Erie","lon":-95.241913,"zip":"","librarysystem":"Erie City Public Library","phone":3162445119,"id":"a672lrdhoyuf","address":"204 S. Butler","lat":37.567194,"libraryname":"Erie City Public Library","state":"KS"},"type":"Feature","geometry":{"type":"Point","coordinates":[-95.241913,37.567194]}},{"properties":{"city":"Eskridge","lon":-96.109938,"zip":"","librarysystem":"Pottawatomie-Wabaunsee Public Library","phone":9134492296,"id":"a672lrdrsb56","address":"405 S. Main","lat":38.857875,"libraryname":"Eskridge Branch","state":"KS"},"type":"Feature","geometry":{"type":"Point","coordinates":[-96.109938,38.857875]}},{"properties":{"city":"Eudora","lon":-95.097673,"zip":"","librarysystem":"Eudora Public Library","phone":9135422496,"id":"a672lrjf2tr5","address":"114 E. 9th St., PO Box 370","lat":38.943641,"libraryname":"Eudora Public Library","state":"KS"},"type":"Feature","geometry":{"type":"Point","coordinates":[-95.097673,38.943641]}},{"properties":{"city":"Eureka","lon":-96.293994,"zip":"","librarysystem":"Eureka Carnegie Library","phone":3165836222,"id":"a672lrae2y2i","address":"520 N. Main","lat":37.823549,"libraryname":"Eureka Carnegie Library","state":"KS"},"type":"Feature","geometry":{"type":"Point","coordinates":[-96.293994,37.823549]}},{"properties":{"city":"Wichita","lon":-97.344977,"zip":"","librarysystem":"Wichita Public Library","phone":3163038181,"id":"a672lrknjmou","address":"2601 N. Arkansas","lat":37.73004,"libraryname":"Evergreen Branch Library","state":"KS"},"type":"Feature","geometry":{"type":"Point","coordinates":[-97.344977,37.73004]}},{"properties":{"city":"Agra","lon":-99.118874,"zip":"","librarysystem":"Agra/F Lee Doctor Library","phone":9136382444,"id":"a672lrmc3nz8","address":"330 Main","lat":39.762301,"libraryname":"F. Lee Doctor Public Library, Agra","state":"KS"},"type":"Feature","geometry":{"type":"Point","coordinates":[-99.118874,39.762301]}},{"properties":{"city":"Fall River","lon":-96.028227,"zip":"","librarysystem":"Fall River Public Library","phone":3166584973,"id":"a672lrjlfd0n","address":"314 Merchant Ave.","lat":37.609816,"libraryname":"Fall River Public Library","state":"KS"},"type":"Feature","geometry":{"type":"Point","coordinates":[-96.028227,37.609816]}},{"properties":{"city":"Bushton","lon":-98.397354,"zip":"","librarysystem":"Farmer Township Community Library","phone":3165623352,"id":"a672lrdfrpy2","address":"Main Street","lat":38.516175,"libraryname":"Farmer Township Community Library","state":"KS"},"type":"Feature","geometry":{"type":"Point","coordinates":[-98.397354,38.516175]}},{"properties":{"city":"Garden City","lon":-100.865939,"zip":"","librarysystem":"Finney County Public Library","phone":3162763941,"id":"a672lrg2hyoy","address":"3rd &amp; Walnut","lat":37.97054,"libraryname":"Finney County Public Library, Garden City","state":"KS"},"type":"Feature","geometry":{"type":"Point","coordinates":[-100.865939,37.97054]}},{"properties":{"city":"Florence","lon":-96.926035,"zip":"","librarysystem":"Florence Public Library","phone":3168784649,"id":"a672lrjvemz9","address":"324 Main St.","lat":38.241888,"libraryname":"Florence Public Library","state":"KS"},"type":"Feature","geometry":{"type":"Point","coordinates":[-96.926035,38.241888]}},{"properties":{"city":"Ford","lon":-99.748544,"zip":"","librarysystem":"Ford City Library","phone":3163692247,"id":"a672lre2ipjx","address":"East Eighth Street","lat":37.637298,"libraryname":"Ford City Library","state":"KS"},"type":"Feature","geometry":{"type":"Point","coordinates":[-99.748544,37.637298]}},{"properties":{"city":"Wichita","lon":-97.267814,"zip":"","librarysystem":"Wichita Public Library","phone":3166889361,"id":"a672lrkf74tz","address":"5939 E 9th","lat":37.70093,"libraryname":"Ford Rockwell Branch Library","state":"KS"},"type":"Feature","geometry":{"type":"Point","coordinates":[-97.267814,37.70093]}},{"properties":{"city":"Formoso","lon":-97.993214,"zip":"","librarysystem":"Formoso Public Library","phone":9137942424,"id":"a672lre0zcn9","address":"204 Main St.","lat":39.779506,"libraryname":"Formoso Public Library","state":"KS"},"type":"Feature","geometry":{"type":"Point","coordinates":[-97.993214,39.779506]}},{"properties":{"city":"Fort Scott","lon":-94.707234,"zip":"","librarysystem":"Fort Scott Public Library","phone":3162232882,"id":"a672lrajc7sg","address":"201 S. National","lat":37.839778,"libraryname":"Fort Scott Public Library","state":"KS"},"type":"Feature","geometry":{"type":"Point","coordinates":[-94.707234,37.839778]}},{"properties":{"city":"Fowler","lon":-100.195514,"zip":"","librarysystem":"Fowler Public Library","phone":3166465772,"id":"a672lrm0zbvj","address":"510 Main, PO Box 101","lat":37.382205,"libraryname":"Fowler Public Library","state":"KS"},"type":"Feature","geometry":{"type":"Point","coordinates":[-100.195514,37.382205]}},{"properties":{"city":"Concordia","lon":-97.659357,"zip":"","librarysystem":"Concordia/Frank Carlson Library","phone":9132432250,"id":"a672lrhobr0o","address":"702 Broadway","lat":39.570369,"libraryname":"Frank Carlson Library, Concordia","state":"KS"},"type":"Feature","geometry":{"type":"Point","coordinates":[-97.659357,39.570369]}},{"properties":{"city":"Frankfort","lon":-96.418628,"zip":"","librarysystem":"Frankfort City Library","phone":9132924320,"id":"a672lrh74g5s","address":"107 N. Kansas","lat":39.701364,"libraryname":"Frankfort City Library","state":"KS"},"type":"Feature","geometry":{"type":"Point","coordinates":[-96.418628,39.701364]}},{"properties":{"city":"Fredonia","lon":-95.824741,"zip":"","librarysystem":"Fredonia Public Library","phone":3163782863,"id":"a672lrp68a0p","address":"807 Jefferson","lat":37.53266,"libraryname":"Fredonia Public Library","state":"KS"},"type":"Feature","geometry":{"type":"Point","coordinates":[-95.824741,37.53266]}},{"properties":{"city":"Thayer","lon":-95.471819,"zip":"","librarysystem":"Thayer Friday Reading Club City Library","phone":3168395646,"id":"a672lrgmdl0w","address":"200 West Neosho Avenue","lat":37.48787,"libraryname":"Friday Reading Club City Library, Thayer","state":"KS"},"type":"Feature","geometry":{"type":"Point","coordinates":[-95.471819,37.48787]}},{"properties":{"city":"Galena","lon":-94.639199,"zip":"","librarysystem":"Galena Public Library","phone":3167835132,"id":"a672lrdtq51g","address":"Municipal Building","lat":37.07459,"libraryname":"Galena Public Library","state":"KS"},"type":"Feature","geometry":{"type":"Point","coordinates":[-94.639199,37.07459]}},{"properties":{"city":"Garden Plain","lon":-97.683949,"zip":"","librarysystem":"Garden Plain Community Library","phone":3165352563,"id":"a672lrfvhnw4","address":"505 N. Main, Box 336","lat":37.65814,"libraryname":"Garden Plain Community Library","state":"KS"},"type":"Feature","geometry":{"type":"Point","coordinates":[-97.683949,37.65814]}},{"properties":{"city":"Garnett","lon":-95.242771,"zip":"","librarysystem":"Garnett Public Library","phone":9134483388,"id":"a672lrftup01","address":"125 W. 4th St.","lat":38.281087,"libraryname":"Garnett Public Library","state":"KS"},"type":"Feature","geometry":{"type":"Point","coordinates":[-95.242771,38.281087]}},{"properties":{"city":"Gaylord","lon":-98.84638,"zip":"","librarysystem":"Gaylord City Library","phone":9136972722,"id":"a672lrf72itc","address":"505 Main","lat":39.646509,"libraryname":"Gaylord Library","state":"KS"},"type":"Feature","geometry":{"type":"Point","coordinates":[-98.84638,39.646509]}},{"properties":{"city":"Geneseo","lon":-98.156685,"zip":"","librarysystem":"Geneseo Public Library","phone":3168246140,"id":"a672lrg3t73t","address":"725 Main","lat":38.515921,"libraryname":"Geneseo Public Library","state":"KS"},"type":"Feature","geometry":{"type":"Point","coordinates":[-98.156685,38.515921]}},{"properties":{"city":"Girard","lon":-94.843961,"zip":"","librarysystem":"Girard Public","phone":3167244317,"id":"a672lre7m89j","address":"128 W. Prairie","lat":37.50965,"libraryname":"Girard Public Library","state":"KS"},"type":"Feature","geometry":{"type":"Point","coordinates":[-94.843961,37.50965]}},{"properties":{"city":"Glasco","lon":-97.836654,"zip":"","librarysystem":"Glasco City Library","phone":9135682313,"id":"a672lraotaod","address":"E. Main Street","lat":39.36115,"libraryname":"Glasco City Library","state":"KS"},"type":"Feature","geometry":{"type":"Point","coordinates":[-97.836654,39.36115]}},{"properties":{"city":"Glen Elder","lon":-98.308329,"zip":"","librarysystem":"Glen Elder Library","phone":9135453632,"id":"a672lrpy9a3x","address":"105 S Mill","lat":39.49816,"libraryname":"Glen Elder Library","state":"KS"},"type":"Feature","geometry":{"type":"Point","coordinates":[-98.308329,39.49816]}},{"properties":{"city":"Goddard","lon":-97.575024,"zip":"","librarysystem":"Goddard Public Library","phone":3167948771,"id":"a672lraxybc9","address":"315 S. Main","lat":37.655305,"libraryname":"Goddard Public Library","state":"KS"},"type":"Feature","geometry":{"type":"Point","coordinates":[-97.575024,37.655305]}},{"properties":{"city":"Goessel","lon":-97.349168,"zip":"","librarysystem":"Goessel Public Library","phone":3163678111,"id":"a672lrczi4jn","address":"214 E. Main","lat":38.246639,"libraryname":"Goessel City Library","state":"KS"},"type":"Feature","geometry":{"type":"Point","coordinates":[-97.349168,38.246639]}},{"properties":{"city":"Goodland","lon":-101.710559,"zip":"","librarysystem":"Goodland Public Library","phone":9138992721,"id":"a672lrl1v4ub","address":"812 Broadway","lat":39.35099,"libraryname":"Goodland Public Library","state":"KS"},"type":"Feature","geometry":{"type":"Point","coordinates":[-101.710559,39.35099]}},{"properties":{"city":"Gove","lon":-100.488539,"zip":"","librarysystem":"Gove City Library","phone":9139384471,"id":"a672lrma6yh8","address":"519 Broad Street/ PO Box 66","lat":38.95896,"libraryname":"Gove City Library","state":"KS"},"type":"Feature","geometry":{"type":"Point","coordinates":[-100.488539,38.95896]}},{"properties":{"city":"Hill City","lon":-99.840404,"zip":"","librarysystem":"Graham County Public Library","phone":9136742722,"id":"a672lrll2mvv","address":"414 N. West St.","lat":39.367954,"libraryname":"Graham County Public Library","state":"KS"},"type":"Feature","geometry":{"type":"Point","coordinates":[-99.840404,39.367954]}},{"properties":{"city":"Grainfield","lon":-100.465374,"zip":"","librarysystem":"Grainfield City Library","phone":9136734770,"id":"a672lrfse6pv","address":"242 Main, PO Box 154","lat":39.11068,"libraryname":"Grainfield City Library","state":"KS"},"type":"Feature","geometry":{"type":"Point","coordinates":[-100.465374,39.11068]}},{"properties":{"city":"Ulysses","lon":-101.356429,"zip":"","librarysystem":"Ulysses/Grant County Library","phone":3163561433,"id":"a672lrdednhr","address":"215 E. Grant St.","lat":37.580658,"libraryname":"Grant County Library, Ulysses","state":"KS"},"type":"Feature","geometry":{"type":"Point","coordinates":[-101.356429,37.580658]}},{"properties":{"city":"St. Paul","lon":-95.171842,"zip":"","librarysystem":"Graves Memorial Library","phone":3164492266,"id":"a672lrnc6l07","address":"717 Central","lat":37.519111,"libraryname":"Graves Memorial Public Library, St. Paul","state":"KS"},"type":"Feature","geometry":{"type":"Point","coordinates":[-95.171842,37.519111]}},{"properties":{"city":"Great Bend","lon":-98.766722,"zip":"","librarysystem":"Great Bend Public Library","phone":6207922409,"id":"a672lrj2rc2w","address":"1409 Williams St.","lat":38.36566,"libraryname":"Great Bend Public Library","state":"KS"},"type":"Feature","geometry":{"type":"Point","coordinates":[-98.766722,38.36566]}},{"properties":{"city":"Tribune","lon":-101.752389,"zip":"","librarysystem":"Greeley County Public Library","phone":3163764801,"id":"a672lrcfltqt","address":"519 Broadway, PO Box C","lat":38.470295,"libraryname":"Greeley County Library, Tribune","state":"KS"},"type":"Feature","geometry":{"type":"Point","coordinates":[-101.752389,38.470295]}},{"properties":{"city":"Grenola","lon":-96.449538,"zip":"","librarysystem":"Grenola Public Library","phone":3163582735,"id":"a672lrq1fwb0","address":"205 S. Main","lat":37.3462,"libraryname":"Grenola Public Library","state":"KS"},"type":"Feature","geometry":{"type":"Point","coordinates":[-96.449538,37.3462]}},{"properties":{"city":"Gridley","lon":-95.88351,"zip":"","librarysystem":"Coffey County Library","phone":3168363905,"id":"a672lrfl4il2","address":"512 Main","lat":38.097999,"libraryname":"Gridley Library","state":"KS"},"type":"Feature","geometry":{"type":"Point","coordinates":[-95.88351,38.097999]}},{"properties":{"city":"Gypsum","lon":-97.431611,"zip":"","librarysystem":"Gypsum Community Library","phone":9135364296,"id":"a672lrjn5ggr","address":"521 Maple, PO Box 8","lat":38.702693,"libraryname":"Gypsum Community Library","state":"KS"},"type":"Feature","geometry":{"type":"Point","coordinates":[-97.431611,38.702693]}},{"properties":{"city":"Halstead","lon":-97.505904,"zip":"","librarysystem":"Halstead Public Library","phone":3168352170,"id":"a672lrk2txd9","address":"264 Main","lat":38.003555,"libraryname":"Halstead Public Library","state":"KS"},"type":"Feature","geometry":{"type":"Point","coordinates":[-97.505904,38.003555]}},{"properties":{"city":"Hamilton","lon":-96.164426,"zip":"","librarysystem":"Hamilton City Library","phone":3166783646,"id":"a672lrk46yfm","address":"21 E. Main","lat":37.979804,"libraryname":"Hamilton City Library","state":"KS"},"type":"Feature","geometry":{"type":"Point","coordinates":[-96.164426,37.979804]}},{"properties":{"city":"Syracuse","lon":-101.751888,"zip":"","librarysystem":"Syracuse/Hamilton County Library","phone":3163845622,"id":"a672lrag8qsa","address":"N. Main &amp; Ave. C","lat":37.982552,"libraryname":"Hamilton County Public Library, Syracuse","state":"KS"},"type":"Feature","geometry":{"type":"Point","coordinates":[-101.751888,37.982552]}},{"properties":{"city":"Hanover","lon":-96.874007,"zip":"","librarysystem":"Hanover Public","phone":9133372261,"id":"a672lriji9bq","address":"205 Jackson Street","lat":39.891418,"libraryname":"Hanover Public Library","state":"KS"},"type":"Feature","geometry":{"type":"Point","coordinates":[-96.874007,39.891418]}},{"properties":{"city":"Hanston","lon":-99.715839,"zip":"","librarysystem":"Hanston City Library","phone":3166232798,"id":"a672lriu2efz","address":"Rt. 1, Box H6","lat":38.122675,"libraryname":"Hanston City Library","state":"KS"},"type":"Feature","geometry":{"type":"Point","coordinates":[-99.715839,38.122675]}},{"properties":{"city":"Hardtner","lon":-98.648019,"zip":"","librarysystem":"Hardtner Public Library","phone":3162964522,"id":"a672lrc2engf","address":"102 E. Central","lat":37.01384,"libraryname":"Hardtner Public Library","state":"KS"},"type":"Feature","geometry":{"type":"Point","coordinates":[-98.648019,37.01384]}},{"properties":{"city":"Harper","lon":-98.027289,"zip":"","librarysystem":"Harper Public Library","phone":3168962959,"id":"a672lrg3i5zw","address":"10th &amp; Oak","lat":37.28671,"libraryname":"Harper Public Library","state":"KS"},"type":"Feature","geometry":{"type":"Point","coordinates":[-98.027289,37.28671]}},{"properties":{"city":"Sublette","lon":-100.852859,"zip":"","librarysystem":"Haskell Township Library","phone":3166752771,"id":"a672lrpurjh5","address":"700 W. Chouteau","lat":37.48002,"libraryname":"Haskell Township Public Library, Sublette","state":"KS"},"type":"Feature","geometry":{"type":"Point","coordinates":[-100.852859,37.48002]}},{"properties":{"city":"Havana","lon":-95.946479,"zip":"","librarysystem":"Havana Library","phone":3166734942,"id":"a672lrcwzdg6","address":"Rt. 1, PO Box 33","lat":37.09014,"libraryname":"Havana Study Club Library","state":"KS"},"type":"Feature","geometry":{"type":"Point","coordinates":[-95.946479,37.09014]}},{"properties":{"city":"Haven","lon":-97.783929,"zip":"","librarysystem":"Haven Public Library","phone":3164653524,"id":"a672lrq9ag6r","address":"120 S. Kansas, P.O. Drawer 340","lat":37.90019,"libraryname":"Haven Public Library","state":"KS"},"type":"Feature","geometry":{"type":"Point","coordinates":[-97.783929,37.90019]}},{"properties":{"city":"Hays","lon":-99.330029,"zip":"","librarysystem":"Hays Public Library","phone":9136259014,"id":"a672lraenw61","address":"1205 Main St.","lat":38.872896,"libraryname":"Hays Public Library","state":"KS"},"type":"Feature","geometry":{"type":"Point","coordinates":[-99.330029,38.872896]}},{"properties":{"city":"Haysville","lon":-97.352784,"zip":"","librarysystem":"Haysville Community Library","phone":3165245242,"id":"a672lrn1s5br","address":"130 West Grand","lat":37.564461,"libraryname":"Haysville Community Library","state":"KS"},"type":"Feature","geometry":{"type":"Point","coordinates":[-97.352784,37.564461]}},{"properties":{"city":"Healy","lon":-100.618344,"zip":"","librarysystem":"Dighton/Lane County Library","phone":3163982304,"id":"a672lrmzkvlr","address":"Rt. 1 Box 63","lat":38.600595,"libraryname":"Healy Extension Of Lane County Library","state":"KS"},"type":"Feature","geometry":{"type":"Point","coordinates":[-100.618344,38.600595]}},{"properties":{"city":"Hepler","lon":-94.969832,"zip":"","librarysystem":"Hepler City Library","phone":3163684379,"id":"a672lrf41zxf","address":"105 S. Prairie","lat":37.659849,"libraryname":"Hepler City Library","state":"KS"},"type":"Feature","geometry":{"type":"Point","coordinates":[-94.969832,37.659849]}},{"properties":{"city":"Herington","lon":-96.943491,"zip":"","librarysystem":"Herington Public Library","phone":7852582011,"id":"a672lro5fflw","address":"102 S. Broadway","lat":38.669743,"libraryname":"Herington Public Library","state":"KS"},"type":"Feature","geometry":{"type":"Point","coordinates":[-96.943491,38.669743]}},{"properties":{"city":"Cawker City","lon":-98.431689,"zip":"","librarysystem":"Cawker City Public Library","phone":9137814925,"id":"a672lrmyb2p4","address":"802 Locust St.","lat":39.50837,"libraryname":"Hesperian Library, Cawker City","state":"KS"},"type":"Feature","geometry":{"type":"Point","coordinates":[-98.431689,39.50837]}},{"properties":{"city":"Hesston","lon":-97.426964,"zip":"","librarysystem":"Hesston Public Library","phone":3163274666,"id":"a672lrlctlfd","address":"110 E. Smith, PO Box 640","lat":38.137955,"libraryname":"Hesston Public Library","state":"KS"},"type":"Feature","geometry":{"type":"Point","coordinates":[-97.426964,38.137955]}},{"properties":{"city":"Highland","lon":-95.267638,"zip":"","librarysystem":"Library District # 1, Doniphan County","phone":7854423078,"id":"a672lrdymcto","address":"306 W. Main","lat":39.859708,"libraryname":"Highland Branch Library","state":"KS"},"type":"Feature","geometry":{"type":"Point","coordinates":[-95.267638,39.859708]}},{"properties":{"city":"Cuba","lon":-97.453631,"zip":"","librarysystem":"Hillcrest Library","phone":7857293333,"id":"a672lriirkwl","address":"804 Bristol Street","lat":39.803424,"libraryname":"Hillcrest Library","state":"KS"},"type":"Feature","geometry":{"type":"Point","coordinates":[-97.453631,39.803424]}},{"properties":{"city":"Hillsboro","lon":-97.204318,"zip":"","librarysystem":"Hillsboro Public Library","phone":3169473827,"id":"a672lrcn51d0","address":"120 E. Grand","lat":38.353138,"libraryname":"Hillsboro Public Library","state":"KS"},"type":"Feature","geometry":{"type":"Point","coordinates":[-97.204318,38.353138]}},{"properties":{"city":"Hoisington","lon":-98.776244,"zip":"","librarysystem":"Hoisington Public Library","phone":3166534128,"id":"a672lrmc0urs","address":"169 S. Walnut","lat":38.513085,"libraryname":"Hoisington Public Library","state":"KS"},"type":"Feature","geometry":{"type":"Point","coordinates":[-98.776244,38.513085]}},{"properties":{"city":"Hope","lon":-97.077864,"zip":"","librarysystem":"Hope Community Library","phone":9133667314,"id":"a672lrd7ot9e","address":"216 N. Main","lat":38.690713,"libraryname":"Hope Community Library","state":"KS"},"type":"Feature","geometry":{"type":"Point","coordinates":[-97.077864,38.690713]}},{"properties":{"city":"Horton","lon":-95.52601,"zip":"","librarysystem":"Horton Public Library","phone":9134863616,"id":"a672lri7gzh5","address":"809 1st Ave. East","lat":39.660202,"libraryname":"Horton Free Public Library","state":"KS"},"type":"Feature","geometry":{"type":"Point","coordinates":[-95.52601,39.660202]}},{"properties":{"city":"Howard","lon":-96.263569,"zip":"","librarysystem":"Howard City Library","phone":3163742074,"id":"a672lrop6dca","address":"124 S. Wabash","lat":37.46799,"libraryname":"Howard City Library","state":"KS"},"type":"Feature","geometry":{"type":"Point","coordinates":[-96.263569,37.46799]}},{"properties":{"city":"Humboldt","lon":-95.435169,"zip":"","librarysystem":"Humboldt Public Library","phone":3164732243,"id":"a672lrhn5o7l","address":"916 Bridge St.","lat":37.811367,"libraryname":"Humboldt Public Library","state":"KS"},"type":"Feature","geometry":{"type":"Point","coordinates":[-95.435169,37.811367]}},{"properties":{"city":"Hutchinson","lon":-97.931999,"zip":"","librarysystem":"Hutchinson Public Library","phone":6206635441,"id":"a672lrlx9shq","address":"901 N. Main","lat":38.062936,"libraryname":"Hutchinson Public Library","state":"KS"},"type":"Feature","geometry":{"type":"Point","coordinates":[-97.931999,38.062936]}},{"properties":{"city":"St. John","lon":-98.759242,"zip":"","librarysystem":"Ida Long Goodman Memorial Library","phone":3165493227,"id":"a672lrj8rxaz","address":"406 N. Monroe","lat":38.002591,"libraryname":"Ida Long Goodman Memorial Library, St. John","state":"KS"},"type":"Feature","geometry":{"type":"Point","coordinates":[-98.759242,38.002591]}},{"properties":{"city":"Independence","lon":-95.704959,"zip":"","librarysystem":"Independence Public Library","phone":3163313030,"id":"a672lrdk0fde","address":"220 E. Maple","lat":37.222309,"libraryname":"Independence Public Library","state":"KS"},"type":"Feature","geometry":{"type":"Point","coordinates":[-95.704959,37.222309]}},{"properties":{"city":"Claflin","lon":-98.533444,"zip":"","librarysystem":"Independent Township","phone":3165873488,"id":"a672lrmptva4","address":"108 Main","lat":38.522602,"libraryname":"Independent Township Library, Claflin","state":"KS"},"type":"Feature","geometry":{"type":"Point","coordinates":[-98.533444,38.522602]}},{"properties":{"city":"Olathe","lon":-94.760949,"zip":"","librarysystem":"Olathe Public Library","phone":9133975235,"id":"a672lrgcqew3","address":"1290 South Blackbob Road","lat":38.90817,"libraryname":"Indian Creek Branch Library","state":"KS"},"type":"Feature","geometry":{"type":"Point","coordinates":[-94.760949,38.90817]}},{"properties":{"city":"Inman","lon":-97.775734,"zip":"","librarysystem":"Inman Public Library","phone":3165852474,"id":"a672lrectdz1","address":"200 S. Main","lat":38.230788,"libraryname":"Inman City Library","state":"KS"},"type":"Feature","geometry":{"type":"Point","coordinates":[-97.775734,38.230788]}},{"properties":{"city":"Iola","lon":-95.401473,"zip":"","librarysystem":"Iola Public Library","phone":6203653262,"id":"a672lrf9dbuw","address":"218 E. Madison","lat":37.921434,"libraryname":"Iola Public Library","state":"KS"},"type":"Feature","geometry":{"type":"Point","coordinates":[-95.401473,37.921434]}},{"properties":{"city":"Ellsworth","lon":-98.229453,"zip":"","librarysystem":"Ellsworth/J H Robbins Mem Lib","phone":9134723969,"id":"a672lrjtqjn7","address":"219 N. Lincoln","lat":38.729039,"libraryname":"J. H. Robbins Memorial Library, Ellsworth","state":"KS"},"type":"Feature","geometry":{"type":"Point","coordinates":[-98.229453,38.729039]}},{"properties":{"city":"Jamestown","lon":-97.856529,"zip":"","librarysystem":"Jamestown City Library","phone":9134396258,"id":"a672lrnsikqz","address":"415 Walnut, PO Box 287","lat":39.60044,"libraryname":"Jamestown City Library","state":"KS"},"type":"Feature","geometry":{"type":"Point","coordinates":[-97.856529,39.60044]}},{"properties":{"city":"Quinter","lon":-100.234748,"zip":"","librarysystem":"Quinter/Jay Johnson Public Library","phone":9137542171,"id":"a672lrbmmsqt","address":"411 Main, PO Box 369","lat":39.063785,"libraryname":"Jay Johnson Public Library, Quinter","state":"KS"},"type":"Feature","geometry":{"type":"Point","coordinates":[-100.234748,39.063785]}},{"properties":{"city":"Jennings","lon":-100.293959,"zip":"","librarysystem":"Jennings City Library","phone":9136782652,"id":"a672lrgm75le","address":"Kansas Avenue, PO Box 84","lat":39.68219,"libraryname":"Jennings City Library","state":"KS"},"type":"Feature","geometry":{"type":"Point","coordinates":[-100.293959,39.68219]}},{"properties":{"city":"Jetmore","lon":-99.893854,"zip":"","librarysystem":"Jetmore Public Library","phone":3163578336,"id":"a672lrg6i80m","address":"308 N. Main, PO Box 274","lat":38.083095,"libraryname":"Jetmore Municipal Library","state":"KS"},"type":"Feature","geometry":{"type":"Point","coordinates":[-99.893854,38.083095]}},{"properties":{"city":"Jewell","lon":-98.154659,"zip":"","librarysystem":"Jewell","phone":9134283630,"id":"a672lrgkfre6","address":"101 1/2 Washington","lat":39.670501,"libraryname":"Jewell Public Library","state":"KS"},"type":"Feature","geometry":{"type":"Point","coordinates":[-98.154659,39.670501]}},{"properties":{"city":"Merriam","lon":-94.68664,"zip":"","librarysystem":"Johnson County Library","phone":9133848500,"id":"a672lrk2gp6r","address":"8700 Shawnee Mission Pwky.","lat":39.015041,"libraryname":"Johnson County Library, Antioch Central","state":"KS"},"type":"Feature","geometry":{"type":"Point","coordinates":[-94.68664,39.015041]}},{"properties":{"city":"Overland Park","lon":-94.678705,"zip":"","librarysystem":"Johnson County Library","phone":9138978200,"id":"a672lrl13lyq","address":"15185 South Lowell","lat":38.852844,"libraryname":"Johnson County Library, Blue Valley","state":"KS"},"type":"Feature","geometry":{"type":"Point","coordinates":[-94.678705,38.852844]}},{"properties":{"city":"Roeland Park","lon":-94.642097,"zip":"","librarysystem":"Johnson County Library","phone":9133848547,"id":"a672lreqk5xi","address":"5120 Cedar","lat":39.035905,"libraryname":"Johnson County Library, Cedar Roe","state":"KS"},"type":"Feature","geometry":{"type":"Point","coordinates":[-94.642097,39.035905]}},{"properties":{"city":"Prairie Village","lon":-94.630471,"zip":"","librarysystem":"Johnson County Library","phone":9139678650,"id":"a672lrm4x5eb","address":"8100 Mission Road","lat":38.982207,"libraryname":"Johnson County Library, Corinth","state":"KS"},"type":"Feature","geometry":{"type":"Point","coordinates":[-94.630471,38.982207]}},{"properties":{"city":"Desoto","lon":-94.969802,"zip":"","librarysystem":"Johnson County Library","phone":9135833106,"id":"a672lrlwmch2","address":"33145 West 83rd Street","lat":38.97801,"libraryname":"Johnson County Library, Desoto","state":"KS"},"type":"Feature","geometry":{"type":"Point","coordinates":[-94.969802,38.97801]}},{"properties":{"city":"Gardner","lon":-94.926883,"zip":"","librarysystem":"Johnson County Library","phone":9138567223,"id":"a672lricy7lw","address":"116 East Main","lat":38.811142,"libraryname":"Johnson County Library, Gardner","state":"KS"},"type":"Feature","geometry":{"type":"Point","coordinates":[-94.926883,38.811142]}},{"properties":{"city":"Lenexa","lon":-94.764282,"zip":"","librarysystem":"Johnson County Library","phone":9137528750,"id":"a672lreyyty0","address":"15345 West 87th Street Parkway","lat":38.970867,"libraryname":"Johnson County Library, Lackman","state":"KS"},"type":"Feature","geometry":{"type":"Point","coordinates":[-94.764282,38.970867]}},{"properties":{"city":"Leawood","lon":-94.64003,"zip":"","librarysystem":"Johnson County Library","phone":9133440250,"id":"a672lrhkg03o","address":"4700 Town Center Drive","lat":38.916713,"libraryname":"Johnson County Library, Leawood","state":"KS"},"type":"Feature","geometry":{"type":"Point","coordinates":[-94.64003,38.916713]}},{"properties":{"city":"Overland Park","lon":-94.711923,"zip":"","librarysystem":"Johnson County Library","phone":9137528700,"id":"a672lro8hnrh","address":"9500 Bluejacket","lat":38.956432,"libraryname":"Johnson County Library, Oak Park","state":"KS"},"type":"Feature","geometry":{"type":"Point","coordinates":[-94.711923,38.956432]}},{"properties":{"city":"Shawnee","lon":-94.745696,"zip":"","librarysystem":"Johnson County Library","phone":9139623800,"id":"a672lrd7j1pn","address":"13811 Johnson Drive","lat":39.021882,"libraryname":"Johnson County Library, Shawnee","state":"KS"},"type":"Feature","geometry":{"type":"Point","coordinates":[-94.745696,39.021882]}},{"properties":{"city":"Overland Park","lon":-94.688457,"zip":"","librarysystem":"Johnson County Library","phone":9139678600,"id":"a672lrm2o1mi","address":"8826 Santa Fe","lat":38.972456,"libraryname":"Johnson County Library, Shawnee Mission","state":"KS"},"type":"Feature","geometry":{"type":"Point","coordinates":[-94.688457,38.972456]}},{"properties":{"city":"Spring Hill","lon":-94.825721,"zip":"","librarysystem":"Johnson County Library","phone":9135923232,"id":"a672lrbpqouo","address":"109 South Webster","lat":38.743606,"libraryname":"Johnson County Library, Spring Hill","state":"KS"},"type":"Feature","geometry":{"type":"Point","coordinates":[-94.825721,38.743606]}},{"properties":{"city":"Baxter Springs","lon":-94.736731,"zip":"","librarysystem":"Baxter Springs/Johnston Public Lib","phone":3168565591,"id":"a672lront3lg","address":"210 W. 10th St.","lat":37.025954,"libraryname":"Johnston Public Library, Baxter Springs","state":"KS"},"type":"Feature","geometry":{"type":"Point","coordinates":[-94.736731,37.025954]}},{"properties":{"city":"Larned","lon":-99.098244,"zip":"","librarysystem":"Larned/Jordaan Memorial Library","phone":3162852876,"id":"a672lrkc735c","address":"724 Broadway","lat":38.180967,"libraryname":"Jordaan Memorial Library, Larned","state":"KS"},"type":"Feature","geometry":{"type":"Point","coordinates":[-99.098244,38.180967]}},{"properties":{"city":"Kanopolis","lon":-98.158049,"zip":"","librarysystem":"Kanopolis Public Library","phone":9134723053,"id":"a672lrfyzfeo","address":"221 N. Kansas","lat":38.711724,"libraryname":"Kanopolis Public Library","state":"KS"},"type":"Feature","geometry":{"type":"Point","coordinates":[-98.158049,38.711724]}},{"properties":{"city":"Kansas City","lon":-94.625165,"zip":"","librarysystem":"Kansas City Public Library","phone":9136213073,"id":"a672lrkxzujb","address":"625 Minnesota Ave.","lat":39.115347,"libraryname":"Kansas City, Kansas Public Library","state":"KS"},"type":"Feature","geometry":{"type":"Point","coordinates":[-94.625165,39.115347]}},{"properties":{"city":"Topeka","lon":-95.771124,"zip":"","librarysystem":"Kansas State Historical Society","phone":7852728682,"id":"a672lrn0k660","address":"6425 SW Sixth Avenue","lat":39.056835,"libraryname":"Kansas State Historical Society","state":"KS"},"type":"Feature","geometry":{"type":"Point","coordinates":[-95.771124,39.056835]}},{"properties":{"city":"Lakin","lon":-101.26234,"zip":"","librarysystem":"Lakin/Kearny County Library","phone":3163556674,"id":"a672lrmhltrf","address":"Main &amp; Waterman, PO Box 773","lat":37.936233,"libraryname":"Kearny County Library, Lakin","state":"KS"},"type":"Feature","geometry":{"type":"Point","coordinates":[-101.26234,37.936233]}},{"properties":{"city":"Kensington","lon":-99.031824,"zip":"","librarysystem":"Kensington Community/School Library","phone":9134762219,"id":"a672lrg6uzfq","address":"203 S. Jackson Ave., PO Box 188","lat":39.76486,"libraryname":"Kensington Community/School Library","state":"KS"},"type":"Feature","geometry":{"type":"Point","coordinates":[-99.031824,39.76486]}},{"properties":{"city":"Kingman","lon":-98.113334,"zip":"","librarysystem":"Kingman Public Library","phone":6205323061,"id":"a672lrfk3kfq","address":"455 N. Main","lat":37.645912,"libraryname":"Kingman Public Library","state":"KS"},"type":"Feature","geometry":{"type":"Point","coordinates":[-98.113334,37.645912]}},{"properties":{"city":"Kinsley","lon":-99.41099,"zip":"","librarysystem":"Kinsley Library","phone":3166593341,"id":"a672lrosxuwr","address":"208 E. 8th St.","lat":37.920963,"libraryname":"Kinsley Library","state":"KS"},"type":"Feature","geometry":{"type":"Point","coordinates":[-99.41099,37.920963]}},{"properties":{"city":"Greensburg","lon":-99.292697,"zip":"","librarysystem":"Greensburg/Kiowa County Library","phone":3167232683,"id":"a672lrgj7ejo","address":"120 S. Main","lat":37.604963,"libraryname":"Kiowa County Library, Greensburg","state":"KS"},"type":"Feature","geometry":{"type":"Point","coordinates":[-99.292697,37.604963]}},{"properties":{"city":"Greensburg","lon":-99.292697,"zip":"","librarysystem":"Greensburg/Kiowa County Library","phone":3167232683,"id":"a672lrnk6hse","address":"120 S. Main","lat":37.604963,"libraryname":"Kiowa County Library, Haviland","state":"KS"},"type":"Feature","geometry":{"type":"Point","coordinates":[-99.292697,37.604963]}},{"properties":{"city":"Greensburg","lon":-99.292697,"zip":"","librarysystem":"Greensburg/Kiowa County Library","phone":3167232683,"id":"a672lrbmnxng","address":"120 S. Main","lat":37.604963,"libraryname":"Kiowa County Library, Mullinville","state":"KS"},"type":"Feature","geometry":{"type":"Point","coordinates":[-99.292697,37.604963]}},{"properties":{"city":"Kiowa","lon":-98.485485,"zip":"","librarysystem":"Kiowa Public Library","phone":3168254630,"id":"a672lrd73ksb","address":"123 N. 7th","lat":37.017316,"libraryname":"Kiowa Public Library","state":"KS"},"type":"Feature","geometry":{"type":"Point","coordinates":[-98.485485,37.017316]}},{"properties":{"city":"Kirwin","lon":-99.122981,"zip":"","librarysystem":"Kirwin City Library","phone":9135436652,"id":"a672lrn537yn","address":"1st &amp; Main","lat":39.67305,"libraryname":"Kirwin City Library","state":"KS"},"type":"Feature","geometry":{"type":"Point","coordinates":[-99.122981,39.67305]}},{"properties":{"city":"Kismet","lon":-100.700199,"zip":"","librarysystem":"Kismet Public Library","phone":3165637357,"id":"a672lrae5rtt","address":"503 Main, PO Box 66","lat":37.20504,"libraryname":"Kismet Public Library","state":"KS"},"type":"Feature","geometry":{"type":"Point","coordinates":[-100.700199,37.20504]}},{"properties":{"city":"Dighton","lon":-100.467564,"zip":"","librarysystem":"Dighton/Lane County Library","phone":3163975829,"id":"a672lrnmzv8f","address":"144 S. Lane, PO Box 66","lat":38.48207,"libraryname":"Lane County Library, Dighton","state":"KS"},"type":"Feature","geometry":{"type":"Point","coordinates":[-100.467564,38.48207]}},{"properties":{"city":"Wilson","lon":-98.474919,"zip":"","librarysystem":"Wilson/Lang Memorial","phone":9136583648,"id":"a672lrcp3dog","address":"2405 Ave F Box 310","lat":38.824615,"libraryname":"Lang Memorial Library, Wilson","state":"KS"},"type":"Feature","geometry":{"type":"Point","coordinates":[-98.474919,38.824615]}},{"properties":{"city":"City Of Lansing","lon":-94.896378,"zip":"","librarysystem":"Lansing Community Library","phone":9137272929,"id":"a672lrc8cjwt","address":"108 S 2nd St","lat":39.249181,"libraryname":"Lansing Community Library","state":"KS"},"type":"Feature","geometry":{"type":"Point","coordinates":[-94.896378,39.249181]}},{"properties":{"city":"Lansing","lon":-94.896378,"zip":"","librarysystem":"Lansing Community Library","phone":9137272929,"id":"a672lrk8aj23","address":"108 S. 2nd Street","lat":39.249181,"libraryname":"Lansing Community Library","state":"KS"},"type":"Feature","geometry":{"type":"Point","coordinates":[-94.896378,39.249181]}},{"properties":{"city":"Lawrence","lon":-95.237224,"zip":"","librarysystem":"Lawrence Public Library","phone":7858433833,"id":"a672lrorf7ez","address":"707 Vermont St.","lat":38.970981,"libraryname":"Lawrence Public Library","state":"KS"},"type":"Feature","geometry":{"type":"Point","coordinates":[-95.237224,38.970981]}},{"properties":{"city":"Leavenworth","lon":-94.912545,"zip":"","librarysystem":"Leavenworth Public Library","phone":9136825666,"id":"a672lra8cuza","address":"417 Spruce","lat":39.310718,"libraryname":"Leavenworth Public Library","state":"KS"},"type":"Feature","geometry":{"type":"Point","coordinates":[-94.912545,39.310718]}},{"properties":{"city":"Lebanon","lon":-98.555195,"zip":"","librarysystem":"Lebanon Community Library","phone":9133895711,"id":"a672lrbnxdt1","address":"N. Main St.","lat":39.802682,"libraryname":"Lebanon City Library","state":"KS"},"type":"Feature","geometry":{"type":"Point","coordinates":[-98.555195,39.802682]}},{"properties":{"city":"Lebo","lon":-95.857684,"zip":"","librarysystem":"Coffey County Library","phone":3162566452,"id":"a672lrm30u9o","address":"327 Ogden","lat":38.416013,"libraryname":"Lebo Library","state":"KS"},"type":"Feature","geometry":{"type":"Point","coordinates":[-95.857684,38.416013]}},{"properties":{"city":"Lenora","lon":-100.001808,"zip":"","librarysystem":"Lenora Public Library","phone":9135674860,"id":"a672lrg5kva2","address":"125 E. Washington","lat":39.610675,"libraryname":"Lenora Public Library","state":"KS"},"type":"Feature","geometry":{"type":"Point","coordinates":[-100.001808,39.610675]}},{"properties":{"city":"Leon","lon":-96.781415,"zip":"","librarysystem":"Leon Public Library","phone":3167453438,"id":"a672lri56ztw","address":"111 S. Main","lat":37.688114,"libraryname":"Leon Public Library","state":"KS"},"type":"Feature","geometry":{"type":"Point","coordinates":[-96.781415,37.688114]}},{"properties":{"city":"Leonardville","lon":-96.859609,"zip":"","librarysystem":"Leonardville City Library","phone":9132934492,"id":"a672lror4ris","address":"117 N. Erpelding Rd /PO Box 141","lat":39.364355,"libraryname":"Leonardville City Library","state":"KS"},"type":"Feature","geometry":{"type":"Point","coordinates":[-96.859609,39.364355]}},{"properties":{"city":"Leroy","lon":-95.633874,"zip":"","librarysystem":"Coffey County Library","phone":3169642321,"id":"a672lrcohu0q","address":"725 Main","lat":38.083629,"libraryname":"Leroy Library","state":"KS"},"type":"Feature","geometry":{"type":"Point","coordinates":[-95.633874,38.083629]}},{"properties":{"city":"Liberal","lon":-100.922184,"zip":"","librarysystem":"Liberal Memorial Library","phone":6206260180,"id":"a672lrjaact8","address":"519 N. Kansas","lat":37.043098,"libraryname":"Liberal Memorial Library","state":"KS"},"type":"Feature","geometry":{"type":"Point","coordinates":[-100.922184,37.043098]}},{"properties":{"city":"Troy","lon":-95.089793,"zip":"","librarysystem":"Library District # 1, Doniphan County","phone":7859852597,"id":"a672lrd7zz6g","address":"105 N. Main","lat":39.786856,"libraryname":"Library District # 1, Doniphan County","state":"KS"},"type":"Feature","geometry":{"type":"Point","coordinates":[-95.089793,39.786856]}},{"properties":{"city":"Parker","lon":-94.988808,"zip":"","librarysystem":"Library District #1, Linn County","phone":9138984650,"id":"a672lrjddsoi","address":"105 N. Main","lat":38.328254,"libraryname":"Library District #1 Of Linn County, Parker","state":"KS"},"type":"Feature","geometry":{"type":"Point","coordinates":[-94.988808,38.328254]}},{"properties":{"city":"Lacygne","lon":-94.761279,"zip":"","librarysystem":"Linn County Library Dist.#2","phone":9137572151,"id":"a672lrmrsac1","address":"210 N. Commercial, PO Box 127","lat":38.345825,"libraryname":"Library District #2 Of Linn County, La Cygne","state":"KS"},"type":"Feature","geometry":{"type":"Point","coordinates":[-94.761279,38.345825]}},{"properties":{"city":"Blue Mound","lon":-95.006639,"zip":"","librarysystem":"Linn County Library Dist. #3","phone":9137562614,"id":"a672lrnstwom","address":"Main St., PO Box 13","lat":38.089385,"libraryname":"Library District #3 Of Linn County, Blue Moun","state":"KS"},"type":"Feature","geometry":{"type":"Point","coordinates":[-95.006639,38.089385]}},{"properties":{"city":"Osage City","lon":-95.825492,"zip":"","librarysystem":"Osage City Public Library","phone":9135283727,"id":"a672lrgj3b8i","address":"214 S. 6th St.","lat":38.633298,"libraryname":"Lieber Public Library, Osage City","state":"KS"},"type":"Feature","geometry":{"type":"Point","coordinates":[-95.825492,38.633298]}},{"properties":{"city":"Sedgwick","lon":-97.427376,"zip":"","librarysystem":"Sedgwick/Lillian Tear","phone":3167725727,"id":"a672lrgw6g33","address":"112 W. 5th","lat":37.917423,"libraryname":"Lillian Tear Library, Sedgwick","state":"KS"},"type":"Feature","geometry":{"type":"Point","coordinates":[-97.427376,37.917423]}},{"properties":{"city":"Lincoln","lon":-98.145957,"zip":"","librarysystem":"Lincoln Carnegie Library","phone":9135244034,"id":"a672lrh1nukw","address":"203 S. 3rd","lat":39.039125,"libraryname":"Lincoln Carnegie Library","state":"KS"},"type":"Feature","geometry":{"type":"Point","coordinates":[-98.145957,39.039125]}},{"properties":{"city":"Medicine Lodge","lon":-98.579455,"zip":"","librarysystem":"Medicine Lodge/Lincoln Library","phone":3168865746,"id":"a672lrnwchob","address":"201 N. Main","lat":37.281961,"libraryname":"Lincoln Library, Medicine Lodge","state":"KS"},"type":"Feature","geometry":{"type":"Point","coordinates":[-98.579455,37.281961]}},{"properties":{"city":"Pleasanton","lon":-94.711219,"zip":"","librarysystem":"Pleasanton Lincoln Library","phone":9133528257,"id":"a672lrm2e9ev","address":"9th &amp; Palm, PO Box 101","lat":38.17582,"libraryname":"Lincoln Library, Pleasanton","state":"KS"},"type":"Feature","geometry":{"type":"Point","coordinates":[-94.711219,38.17582]}},{"properties":{"city":"Lindsborg","lon":-97.675744,"zip":"","librarysystem":"Lindsborg Community Library","phone":9132272710,"id":"a672lrnhfr9q","address":"111 S. Main","lat":38.573177,"libraryname":"Lindsborg Community Library","state":"KS"},"type":"Feature","geometry":{"type":"Point","coordinates":[-97.675744,38.573177]}},{"properties":{"city":"Linwood","lon":-95.038489,"zip":"","librarysystem":"Linwood Community Library","phone":9137233686,"id":"a672lrcpe8jd","address":"302 Main, PO Box C","lat":39.004041,"libraryname":"Linwood Community Library","state":"KS"},"type":"Feature","geometry":{"type":"Point","coordinates":[-95.038489,39.004041]}},{"properties":{"city":"Wichita","lon":-97.313437,"zip":"","librarysystem":"Wichita Public Library","phone":3163379125,"id":"a672lrhzs5ya","address":"1901 S Kansas","lat":37.658346,"libraryname":"Linwood Park Branch Library","state":"KS"},"type":"Feature","geometry":{"type":"Point","coordinates":[-97.313437,37.658346]}},{"properties":{"city":"Little River","lon":-98.011389,"zip":"","librarysystem":"Little River Community Library","phone":3168976610,"id":"a672lrnroka2","address":"340 Main, PO Box 98","lat":38.399315,"libraryname":"Little River Community Library","state":"KS"},"type":"Feature","geometry":{"type":"Point","coordinates":[-98.011389,38.399315]}},{"properties":{"city":"Logan","lon":-99.567499,"zip":"","librarysystem":"Logan Public Library","phone":9136894846,"id":"a672lrptse2z","address":"109 W. Main","lat":39.661815,"libraryname":"Logan Public Library","state":"KS"},"type":"Feature","geometry":{"type":"Point","coordinates":[-99.567499,39.661815]}},{"properties":{"city":"Long Island","lon":-99.534054,"zip":"","librarysystem":"Long Island Community Library","phone":9138547671,"id":"a672lrmpg76x","address":"369 Washington Ave.","lat":39.947175,"libraryname":"Long Island Community Library","state":"KS"},"type":"Feature","geometry":{"type":"Point","coordinates":[-99.534054,39.947175]}},{"properties":{"city":"Longton","lon":-96.080739,"zip":"","librarysystem":"Longton Public Library","phone":6206426012,"id":"a672lrpj2gl6","address":"501 Kansas Ave","lat":37.37681,"libraryname":"Longton Public Library","state":"KS"},"type":"Feature","geometry":{"type":"Point","coordinates":[-96.080739,37.37681]}},{"properties":{"city":"Louisburg","lon":-94.681452,"zip":"","librarysystem":"Louisburg Library Library District No. 1","phone":9138372217,"id":"a672lrc4ro68","address":"206 S. Broadway","lat":38.619253,"libraryname":"Louisburg Library","state":"KS"},"type":"Feature","geometry":{"type":"Point","coordinates":[-94.681452,38.619253]}},{"properties":{"city":"Lucas","lon":-98.538216,"zip":"","librarysystem":"Lucas Public Library","phone":9135256305,"id":"a672lrauh4hy","address":"209 S. Main","lat":39.057859,"libraryname":"Lucas Public Library","state":"KS"},"type":"Feature","geometry":{"type":"Point","coordinates":[-98.538216,39.057859]}},{"properties":{"city":"Luray Kansas","lon":-94.626829,"zip":"","librarysystem":"Luray City Library","phone":7856982508,"id":"a672lrikp1nq","address":"119 N Main Street","lat":39.11317,"libraryname":"Luray City Library","state":"KS"},"type":"Feature","geometry":{"type":"Point","coordinates":[-94.626829,39.11317]}},{"properties":{"city":"Lyndon","lon":-95.684425,"zip":"","librarysystem":"Lyndon Carnegie Library","phone":7858284520,"id":"a672lrklpd4c","address":"127 East 6th Street","lat":38.60931,"libraryname":"Lyndon Carnegie Library","state":"KS"},"type":"Feature","geometry":{"type":"Point","coordinates":[-95.684425,38.60931]}},{"properties":{"city":"Allen","lon":-96.169929,"zip":"","librarysystem":"Lyon County Library District No. 1","phone":6205283451,"id":"a672lris4hee","address":"421 Main Street","lat":38.655116,"libraryname":"Lyon County Library District No. 1","state":"KS"},"type":"Feature","geometry":{"type":"Point","coordinates":[-96.169929,38.655116]}},{"properties":{"city":"Lyons","lon":-98.203404,"zip":"","librarysystem":"Lyons Public Library","phone":3162572961,"id":"a672lrdgcl85","address":"217 E. Ave. S.","lat":38.346378,"libraryname":"Lyons Public Library","state":"KS"},"type":"Feature","geometry":{"type":"Point","coordinates":[-98.203404,38.346378]}},{"properties":{"city":"Macksville","lon":-98.967799,"zip":"","librarysystem":"Macksville City Library","phone":3163483555,"id":"a672lrbtd2x5","address":"333 N. Main, PO Box 398","lat":37.957215,"libraryname":"Macksville City Library","state":"KS"},"type":"Feature","geometry":{"type":"Point","coordinates":[-98.967799,37.957215]}},{"properties":{"city":"Madison","lon":-96.133399,"zip":"","librarysystem":"Madison Public Library","phone":3164372634,"id":"a672lrn1mxhr","address":"112 S. 1st St.","lat":38.136195,"libraryname":"Madison Public Library","state":"KS"},"type":"Feature","geometry":{"type":"Point","coordinates":[-96.133399,38.136195]}},{"properties":{"city":"Manhattan","lon":-96.565628,"zip":"","librarysystem":"Manhattan Public Library","phone":7857764741,"id":"a672lrbtecnw","address":"629 Poyntz Avenue","lat":39.179269,"libraryname":"Manhattan Public Library","state":"KS"},"type":"Feature","geometry":{"type":"Point","coordinates":[-96.565628,39.179269]}},{"properties":{"city":"Mankato","lon":-98.209834,"zip":"","librarysystem":"Mankato City Library","phone":9133783885,"id":"a672lrkoxk22","address":"210 N. Commercial","lat":39.787007,"libraryname":"Mankato City Library","state":"KS"},"type":"Feature","geometry":{"type":"Point","coordinates":[-98.209834,39.787007]}},{"properties":{"city":"Marion","lon":-97.020829,"zip":"","librarysystem":"Marion City Library","phone":3163822442,"id":"a672lrg5hnbd","address":"208 E. Santa Fe","lat":38.349168,"libraryname":"Marion City Library","state":"KS"},"type":"Feature","geometry":{"type":"Point","coordinates":[-97.020829,38.349168]}},{"properties":{"city":"Marquette","lon":-97.834004,"zip":"","librarysystem":"Marquette Community Library","phone":9135462561,"id":"a672lrj8zh1r","address":"121 N. Washington","lat":38.554514,"libraryname":"Marquette Community Library","state":"KS"},"type":"Feature","geometry":{"type":"Point","coordinates":[-97.834004,38.554514]}},{"properties":{"city":"Sabetha","lon":-95.807079,"zip":"","librarysystem":"Mary Cotton Public Library","phone":7852843160,"id":"a672lrgk3ru1","address":"915 Virginia, PO Box 70","lat":39.90294,"libraryname":"Mary Cotton Public Library","state":"KS"},"type":"Feature","geometry":{"type":"Point","coordinates":[-95.807079,39.90294]}},{"properties":{"city":"Mound City","lon":-94.813393,"zip":"","librarysystem":"Mound City/Linn County Dist. #4","phone":9137952788,"id":"a672lrn1biuv","address":"509 Main Street","lat":38.142472,"libraryname":"Mary Sommerville Free Library, Mound City","state":"KS"},"type":"Feature","geometry":{"type":"Point","coordinates":[-94.813393,38.142472]}},{"properties":{"city":"Marysville","lon":-96.645014,"zip":"","librarysystem":"Marysville Public Library","phone":9135622491,"id":"a672lrqa33mo","address":"1006 Elm, PO Box 389","lat":39.842152,"libraryname":"Marysville Public Library","state":"KS"},"type":"Feature","geometry":{"type":"Point","coordinates":[-96.645014,39.842152]}},{"properties":{"city":"Wichita","lon":-97.300631,"zip":"","librarysystem":"Wichita Public Library","phone":3166889580,"id":"a672lrn27put","address":"3051 E. 21st","lat":37.722615,"libraryname":"Maya Angelou Branch Library","state":"KS"},"type":"Feature","geometry":{"type":"Point","coordinates":[-97.300631,37.722615]}},{"properties":{"city":"McCracken","lon":-99.568419,"zip":"","librarysystem":"McCracken Public Library","phone":9133942444,"id":"a672lreujjyl","address":"Main St., PO Box 125","lat":38.585115,"libraryname":"McCracken Public Library","state":"KS"},"type":"Feature","geometry":{"type":"Point","coordinates":[-99.568419,38.585115]}},{"properties":{"city":"McCune","lon":-95.018764,"zip":"","librarysystem":"McCune City Library","phone":3166325294,"id":"a672lrdz650w","address":"509 6th St.","lat":37.353111,"libraryname":"McCune City Library","state":"KS"},"type":"Feature","geometry":{"type":"Point","coordinates":[-95.018764,37.353111]}},{"properties":{"city":"McLouth","lon":-95.208547,"zip":"","librarysystem":"McLouth Public Library","phone":9137962225,"id":"a672lrgvkb44","address":"215 South Union","lat":39.196379,"libraryname":"McLouth Public Library","state":"KS"},"type":"Feature","geometry":{"type":"Point","coordinates":[-95.208547,39.196379]}},{"properties":{"city":"McPherson","lon":-97.668542,"zip":"","librarysystem":"McPherson Public Library","phone":6202452570,"id":"a672lreu9jvp","address":"214 W. Marlin","lat":38.370602,"libraryname":"McPherson Public Library","state":"KS"},"type":"Feature","geometry":{"type":"Point","coordinates":[-97.668542,38.370602]}},{"properties":{"city":"Meade","lon":-100.340689,"zip":"","librarysystem":"Meade Public Library","phone":3168732522,"id":"a672lrou8pik","address":"132 S. Fowler, PO Box 599","lat":37.28549,"libraryname":"Meade Public Library","state":"KS"},"type":"Feature","geometry":{"type":"Point","coordinates":[-100.340689,37.28549]}},{"properties":{"city":"Lewis","lon":-99.254299,"zip":"","librarysystem":"Lewis/Meadowlark Library","phone":3163245743,"id":"a672lrpjfxk8","address":"PO Box 331/208 Main St.","lat":37.937035,"libraryname":"Meadowlark Library, Lewis","state":"KS"},"type":"Feature","geometry":{"type":"Point","coordinates":[-99.254299,37.937035]}},{"properties":{"city":"Meriden","lon":-95.570864,"zip":"","librarysystem":"Meriden Community Library","phone":7854843393,"id":"a672lrdg7wh9","address":"7272 K4 Hwy, Suite D","lat":39.19108,"libraryname":"Meriden Community Library","state":"KS"},"type":"Feature","geometry":{"type":"Point","coordinates":[-95.570864,39.19108]}},{"properties":{"city":"Minneapolis","lon":-97.707234,"zip":"","librarysystem":"Minneapolis Public Library","phone":9133923205,"id":"a672lrpryei0","address":"209 N. Sheridan","lat":39.122497,"libraryname":"Minneapolis Public Library","state":"KS"},"type":"Feature","geometry":{"type":"Point","coordinates":[-97.707234,39.122497]}},{"properties":{"city":"Minneola","lon":-100.015214,"zip":"","librarysystem":"Minneola City Library","phone":3168854749,"id":"a672lrpi8hlc","address":"112 Main St., PO Box 95","lat":37.44274,"libraryname":"Minneola Public Library","state":"KS"},"type":"Feature","geometry":{"type":"Point","coordinates":[-100.015214,37.44274]}},{"properties":{"city":"Moline","lon":-96.302681,"zip":"","librarysystem":"Moline Public Library","phone":3166478178,"id":"a672lricjy2n","address":"107 N. Main","lat":37.359439,"libraryname":"Moline Public Library","state":"KS"},"type":"Feature","geometry":{"type":"Point","coordinates":[-96.302681,37.359439]}},{"properties":{"city":"Montezuma","lon":-100.442704,"zip":"","librarysystem":"Montezuma Township Library","phone":3168467032,"id":"a672lrnq82e4","address":"309 N. Aztec","lat":37.598254,"libraryname":"Montezuma Township Library","state":"KS"},"type":"Feature","geometry":{"type":"Point","coordinates":[-100.442704,37.598254]}},{"properties":{"city":"Grinnell","lon":-100.629359,"zip":"","librarysystem":"Grinnell/Moore Family Library","phone":9138243885,"id":"a672lre44f8t","address":"95 S. Adams PO Box 159","lat":39.11939,"libraryname":"Moore Family Library, Grinnell","state":"KS"},"type":"Feature","geometry":{"type":"Point","coordinates":[-100.629359,39.11939]}},{"properties":{"city":"Moran","lon":-95.170074,"zip":"","librarysystem":"Moran Public Library","phone":3162374271,"id":"a672lrd3x2kv","address":"PO Box 186, 335 N. Cedar","lat":37.91618,"libraryname":"Moran Public Library","state":"KS"},"type":"Feature","geometry":{"type":"Point","coordinates":[-95.170074,37.91618]}},{"properties":{"city":"Hiawatha","lon":-95.532684,"zip":"","librarysystem":"Morrill Public Library","phone":9137423831,"id":"a672lrlw901e","address":"431 Oregon","lat":39.852755,"libraryname":"Morrill Public Library","state":"KS"},"type":"Feature","geometry":{"type":"Point","coordinates":[-95.532684,39.852755]}},{"properties":{"city":"Elkhart","lon":-101.893029,"zip":"","librarysystem":"Elkhart/Morton County Library","phone":6206972025,"id":"a672lrmbu4f9","address":"410 Kansas, PO Box 938","lat":37.000045,"libraryname":"Morton County Library, Elkhart","state":"KS"},"type":"Feature","geometry":{"type":"Point","coordinates":[-101.893029,37.000045]}},{"properties":{"city":"Elkhart","lon":-101.893029,"zip":"","librarysystem":"Elkhart/Morton County Library","phone":6205934320,"id":"a672lrlndqnb","address":"410 Kansas, PO Box 938","lat":37.000045,"libraryname":"Morton County Library, Rolla Extension","state":"KS"},"type":"Feature","geometry":{"type":"Point","coordinates":[-101.893029,37.000045]}},{"properties":{"city":"Mound Valley","lon":-95.404854,"zip":"","librarysystem":"Mound Valley Public Library","phone":3163283341,"id":"a672lrdmrge4","address":"411 Hickory","lat":37.204437,"libraryname":"Mound Valley Public Library","state":"KS"},"type":"Feature","geometry":{"type":"Point","coordinates":[-95.404854,37.204437]}},{"properties":{"city":"Moundridge","lon":-97.519029,"zip":"","librarysystem":"Moundridge Public Library","phone":3163456355,"id":"a672lrf80v7m","address":"220 S. Christian, PO Box 696","lat":38.20357,"libraryname":"Moundridge Public Library","state":"KS"},"type":"Feature","geometry":{"type":"Point","coordinates":[-97.519029,38.20357]}},{"properties":{"city":"Kansas City","lon":-94.789229,"zip":"","librarysystem":"Kansas City Public Library","phone":9132992384,"id":"a672lrk0vna1","address":"4051 West Drive","lat":39.163377,"libraryname":"Mr. And Mrs. F.L. Schlagle Library","state":"KS"},"type":"Feature","geometry":{"type":"Point","coordinates":[-94.789229,39.163377]}},{"properties":{"city":"Mt. Hope","lon":-97.665476,"zip":"","librarysystem":"Mt. Hope Public Library","phone":3166672211,"id":"a672lrfln69m","address":"109 S. Ohio","lat":37.868502,"libraryname":"Mt. Hope Public Library","state":"KS"},"type":"Feature","geometry":{"type":"Point","coordinates":[-97.665476,37.868502]}},{"properties":{"city":"Mulvane","lon":-97.243905,"zip":"","librarysystem":"Mulvane Public Library","phone":3167771211,"id":"a672lreggu7k","address":"101 E. Main","lat":37.474702,"libraryname":"Mulvane Public Library","state":"KS"},"type":"Feature","geometry":{"type":"Point","coordinates":[-97.243905,37.474702]}},{"properties":{"city":"Ness City","lon":-99.903794,"zip":"","librarysystem":"Ness City Public Library","phone":9137983415,"id":"a672lrcvx768","address":"113 S. Iowa","lat":38.454841,"libraryname":"Ness City Public Library","state":"KS"},"type":"Feature","geometry":{"type":"Point","coordinates":[-99.903794,38.454841]}},{"properties":{"city":"New Strawn","lon":-95.738285,"zip":"","librarysystem":"Coffey County Library","phone":3163648910,"id":"a672lrhedlw2","address":"365 North Main","lat":38.26539,"libraryname":"New Strawn Library","state":"KS"},"type":"Feature","geometry":{"type":"Point","coordinates":[-95.738285,38.26539]}},{"properties":{"city":"Newton","lon":-97.342921,"zip":"","librarysystem":"Newton Public Library","phone":3162832890,"id":"a672lrb8rhrf","address":"720 N. Oak","lat":38.050215,"libraryname":"Newton Public Library","state":"KS"},"type":"Feature","geometry":{"type":"Point","coordinates":[-97.342921,38.050215]}},{"properties":{"city":"Nickerson","lon":-98.082829,"zip":"","librarysystem":"Nickerson Public Library","phone":3164223361,"id":"a672lrn11inq","address":"1 N. Nickerson, PO Box 456","lat":38.146735,"libraryname":"Nickerson Public Library","state":"KS"},"type":"Feature","geometry":{"type":"Point","coordinates":[-98.082829,38.146735]}},{"properties":{"city":"Stafford","lon":-98.601602,"zip":"","librarysystem":"Stafford/Nora E Larabee Mem Lib","phone":3162345762,"id":"a672lrh319ep","address":"108 N. Union","lat":37.962313,"libraryname":"Nora E. Larabee Memorial Library, Stafford","state":"KS"},"type":"Feature","geometry":{"type":"Point","coordinates":[-98.601602,37.962313]}},{"properties":{"city":"Norcatur","lon":-100.190579,"zip":"","librarysystem":"Norcatur Public Library","phone":9136934461,"id":"a672lrfyf8g4","address":"301 E. Ossipee, PO Box 213","lat":39.8365,"libraryname":"Norcatur Public Library","state":"KS"},"type":"Feature","geometry":{"type":"Point","coordinates":[-100.190579,39.8365]}},{"properties":{"city":"North Kansas City","lon":-94.626829,"zip":"","librarysystem":"North Kansas City Public Library/High School Media Center","phone":8162213360,"id":"a672lrjwgx5e","address":"2251 Howell Street","lat":39.11317,"libraryname":"North Kansas City Public Library/High School Media Center","state":"KS"},"type":"Feature","geometry":{"type":"Point","coordinates":[-94.626829,39.11317]}},{"properties":{"city":"Norton","lon":-99.888818,"zip":"","librarysystem":"Norton Public Library","phone":9138772481,"id":"a672lrgad2a4","address":"101 E. Lincoln","lat":39.830137,"libraryname":"Norton Public Library","state":"KS"},"type":"Feature","geometry":{"type":"Point","coordinates":[-99.888818,39.830137]}},{"properties":{"city":"Nortonville","lon":-95.334354,"zip":"","librarysystem":"Nortonville Public Library","phone":9138862060,"id":"a672lrkhmbl3","address":"407 Main, P.O. Box 179","lat":39.41783,"libraryname":"Nortonville Public Library","state":"KS"},"type":"Feature","geometry":{"type":"Point","coordinates":[-95.334354,39.41783]}},{"properties":{"city":"Norwich","lon":-97.846742,"zip":"","librarysystem":"Norwich Public Library","phone":3164782681,"id":"a672lrdrfbub","address":"209 South Parkway","lat":37.458,"libraryname":"Norwich Public Library","state":"KS"},"type":"Feature","geometry":{"type":"Point","coordinates":[-97.846742,37.458]}},{"properties":{"city":"Oakley","lon":-100.860362,"zip":"","librarysystem":"Oakley Public Library","phone":9136724776,"id":"a672lrjrc4zl","address":"700 W. 3rd St.","lat":39.127753,"libraryname":"Oakley Public Library","state":"KS"},"type":"Feature","geometry":{"type":"Point","coordinates":[-100.860362,39.127753]}},{"properties":{"city":"Oberlin","lon":-100.528827,"zip":"","librarysystem":"Oberlin City Library","phone":9134752412,"id":"a672lrfu1euy","address":"104 E. Oak","lat":39.822924,"libraryname":"Oberlin City Library","state":"KS"},"type":"Feature","geometry":{"type":"Point","coordinates":[-100.528827,39.822924]}},{"properties":{"city":"Olathe","lon":-94.818103,"zip":"","librarysystem":"Olathe Public Library","phone":9137642272,"id":"a672lrp1st0s","address":"201 E. Park","lat":38.88193,"libraryname":"Olathe Public Library","state":"KS"},"type":"Feature","geometry":{"type":"Point","coordinates":[-94.818103,38.88193]}},{"properties":{"city":"Onaga","lon":-96.170131,"zip":"","librarysystem":"Pottawatomie-Wabaunsee Public Library","phone":9138894531,"id":"a672lrlee5fn","address":"313 Leonard","lat":39.489957,"libraryname":"Onaga Branch","state":"KS"},"type":"Feature","geometry":{"type":"Point","coordinates":[-96.170131,39.489957]}},{"properties":{"city":"Wichita","lon":-97.398952,"zip":"","librarysystem":"Wichita Public Library","phone":3163379084,"id":"a672lrkgp90k","address":"4808 W 9th","lat":37.701808,"libraryname":"Orchard Park Branch Library","state":"KS"},"type":"Feature","geometry":{"type":"Point","coordinates":[-97.398952,37.701808]}},{"properties":{"city":"Osawatomie","lon":-94.94925,"zip":"","librarysystem":"Osawatomie Public Library","phone":9137552136,"id":"a672lrjsiopa","address":"527 Brown Avenue","lat":38.497927,"libraryname":"Osawatomie Public Library","state":"KS"},"type":"Feature","geometry":{"type":"Point","coordinates":[-94.94925,38.497927]}},{"properties":{"city":"Osborne","lon":-98.698725,"zip":"","librarysystem":"Osborne Public Library","phone":9133465486,"id":"a672lrb03jfn","address":"307 W. Main","lat":39.438033,"libraryname":"Osborne Public Library","state":"KS"},"type":"Feature","geometry":{"type":"Point","coordinates":[-98.698725,39.438033]}},{"properties":{"city":"Oskaloosa","lon":-95.312339,"zip":"","librarysystem":"Oskaloosa Public Library","phone":7858632475,"id":"a672lrjvvkwc","address":"315 Jefferson, PO Box 347","lat":39.215465,"libraryname":"Oskaloosa Public Library","state":"KS"},"type":"Feature","geometry":{"type":"Point","coordinates":[-95.312339,39.215465]}},{"properties":{"city":"Oswego","lon":-95.107584,"zip":"","librarysystem":"Oswego Public Library","phone":3167954921,"id":"a672lrfftvlm","address":"704 4th St.","lat":37.166954,"libraryname":"Oswego Public Library","state":"KS"},"type":"Feature","geometry":{"type":"Point","coordinates":[-95.107584,37.166954]}},{"properties":{"city":"Otis","lon":-99.051389,"zip":"","librarysystem":"Otis Community Library","phone":9133872403,"id":"a672lrhiepg4","address":"122 South Main","lat":38.53543,"libraryname":"Otis Community Library","state":"KS"},"type":"Feature","geometry":{"type":"Point","coordinates":[-99.051389,38.53543]}},{"properties":{"city":"Ottawa","lon":-95.266985,"zip":"","librarysystem":"Ottawa Public Library","phone":7852423080,"id":"a672lrn23rhn","address":"105 S Hickory","lat":38.616989,"libraryname":"Ottawa Public Library","state":"KS"},"type":"Feature","geometry":{"type":"Point","coordinates":[-95.266985,38.616989]}},{"properties":{"city":"Overbrook","lon":-95.556704,"zip":"","librarysystem":"Overbrook Public Library","phone":9136657266,"id":"a672lrp6m0h5","address":"317 Maple, PO Box 3889","lat":38.780045,"libraryname":"Overbrook Public Library","state":"KS"},"type":"Feature","geometry":{"type":"Point","coordinates":[-95.556704,38.780045]}},{"properties":{"city":"Oxford","lon":-97.1692,"zip":"","librarysystem":"Oxford Public Library","phone":3164552233,"id":"a672lrckzm40","address":"121 S. Sumner","lat":37.27396,"libraryname":"Oxford Public Library","state":"KS"},"type":"Feature","geometry":{"type":"Point","coordinates":[-97.1692,37.27396]}},{"properties":{"city":"Palco","lon":-99.562139,"zip":"","librarysystem":"Palco Public Library","phone":9137374286,"id":"a672lrcfa632","address":"311 Main, PO Box 218","lat":39.258865,"libraryname":"Palco Public Library","state":"KS"},"type":"Feature","geometry":{"type":"Point","coordinates":[-99.562139,39.258865]}},{"properties":{"city":"Paola","lon":-94.876473,"zip":"","librarysystem":"Paola Free Library","phone":9132593655,"id":"a672lrgrkrah","address":"101 E. Peoria","lat":38.572402,"libraryname":"Paola Free Library","state":"KS"},"type":"Feature","geometry":{"type":"Point","coordinates":[-94.876473,38.572402]}},{"properties":{"city":"Park City","lon":-97.319565,"zip":"","librarysystem":"Park City Community Public Library","phone":3167446318,"id":"a672lrb3e1xw","address":"1530 E 61st St. N","lat":37.796204,"libraryname":"Park City Community Public Library","state":"KS"},"type":"Feature","geometry":{"type":"Point","coordinates":[-97.319565,37.796204]}},{"properties":{"city":"Parsons","lon":-95.260978,"zip":"","librarysystem":"Parsons Public Library","phone":6204215920,"id":"a672lrlw6xiu","address":"311 S. 17th St.","lat":37.338518,"libraryname":"Parsons Public Library","state":"KS"},"type":"Feature","geometry":{"type":"Point","coordinates":[-95.260978,37.338518]}},{"properties":{"city":"Partridge","lon":-98.092399,"zip":"","librarysystem":"Partridge Public Library","phone":3165672493,"id":"a672lrb8o3f9","address":"E &amp; Main, PO Box 127","lat":37.969809,"libraryname":"Partridge Public Library","state":"KS"},"type":"Feature","geometry":{"type":"Point","coordinates":[-98.092399,37.969809]}},{"properties":{"city":"Peabody","lon":-97.106664,"zip":"","librarysystem":"Peabody Township Library","phone":3169832494,"id":"a672lrjh44iq","address":"214 Walnut","lat":38.166368,"libraryname":"Peabody Township Library","state":"KS"},"type":"Feature","geometry":{"type":"Point","coordinates":[-97.106664,38.166368]}},{"properties":{"city":"Phillipsburg","lon":-99.322966,"zip":"","librarysystem":"Phillipsburg City Library","phone":7855435325,"id":"a672lro2u043","address":"888 4th St.","lat":39.757907,"libraryname":"Phillipsburg City Library","state":"KS"},"type":"Feature","geometry":{"type":"Point","coordinates":[-99.322966,39.757907]}},{"properties":{"city":"Colby","lon":-101.04915,"zip":"","librarysystem":"Colby/Pioneer Memorial Library","phone":9134627563,"id":"a672lrf91z0a","address":"375 W. 4th St.","lat":39.397209,"libraryname":"Pioneer Memorial Library, Colby","state":"KS"},"type":"Feature","geometry":{"type":"Point","coordinates":[-101.04915,39.397209]}},{"properties":{"city":"Pittsburg","lon":-94.706623,"zip":"","librarysystem":"Pittsburg Public Library","phone":3162318110,"id":"a672lrm0ia4s","address":"211 W. 4th St.","lat":37.410921,"libraryname":"Pittsburg Public Library","state":"KS"},"type":"Feature","geometry":{"type":"Point","coordinates":[-94.706623,37.410921]}},{"properties":{"city":"Plains","lon":-100.588329,"zip":"","librarysystem":"Plains Community Library","phone":3165637326,"id":"a672lrgflxf8","address":"308 2nd St., PO Box 7","lat":37.25733,"libraryname":"Plains Community Library","state":"KS"},"type":"Feature","geometry":{"type":"Point","coordinates":[-100.588329,37.25733]}},{"properties":{"city":"Plainville","lon":-99.299819,"zip":"","librarysystem":"Plainville Memorial","phone":9134342786,"id":"a672lrj2i5tk","address":"200 S.W. 1st St.","lat":39.233485,"libraryname":"Plainville Memorial Library","state":"KS"},"type":"Feature","geometry":{"type":"Point","coordinates":[-99.299819,39.233485]}},{"properties":{"city":"Beloit","lon":-98.113219,"zip":"","librarysystem":"Beloit/Port Library","phone":9137383936,"id":"a672lrju39mw","address":"311 W. Main","lat":39.458876,"libraryname":"Port Library, Beloit","state":"KS"},"type":"Feature","geometry":{"type":"Point","coordinates":[-98.113219,39.458876]}},{"properties":{"city":"Potwin","lon":-97.019894,"zip":"","librarysystem":"Potwin Public Library","phone":3167523607,"id":"a672lrinw8j7","address":"110 N. Randall","lat":37.938634,"libraryname":"Potwin Public Library","state":"KS"},"type":"Feature","geometry":{"type":"Point","coordinates":[-97.019894,37.938634]}},{"properties":{"city":"Pratt","lon":-98.740859,"zip":"","librarysystem":"Pratt Public Library","phone":3166723041,"id":"a672lrhpvlgl","address":"4th &amp; Jackson St.","lat":37.64288,"libraryname":"Pratt Public Library","state":"KS"},"type":"Feature","geometry":{"type":"Point","coordinates":[-98.740859,37.64288]}},{"properties":{"city":"Prescott","lon":-94.692006,"zip":"","librarysystem":"Prescott City Library","phone":9134714837,"id":"a672lrizi3y2","address":"174 3rd Street","lat":38.065448,"libraryname":"Prescott City Public Library","state":"KS"},"type":"Feature","geometry":{"type":"Point","coordinates":[-94.692006,38.065448]}},{"properties":{"city":"Pretty Prairie","lon":-98.019678,"zip":"","librarysystem":"Pretty Prairie Public Library","phone":6204596392,"id":"a672lrqa8lhw","address":"119 W. Main","lat":37.780593,"libraryname":"Pretty Prairie Public Library","state":"KS"},"type":"Feature","geometry":{"type":"Point","coordinates":[-98.019678,37.780593]}},{"properties":{"city":"Protection","lon":-99.483845,"zip":"","librarysystem":"Protection Township Library","phone":3166224886,"id":"a672lrfd9l4p","address":"404 North Broadway","lat":37.196342,"libraryname":"Protection Public Library","state":"KS"},"type":"Feature","geometry":{"type":"Point","coordinates":[-99.483845,37.196342]}},{"properties":{"city":"Republic","lon":-97.821832,"zip":"","librarysystem":"Rae Hobson Memorial Library","phone":9133612481,"id":"a672lrogxc6g","address":"401 Pawnee Avenue","lat":39.923801,"libraryname":"Rae Hobson Memorial Library, Republic","state":"KS"},"type":"Feature","geometry":{"type":"Point","coordinates":[-97.821832,39.923801]}},{"properties":{"city":"Randall","lon":-98.043789,"zip":"","librarysystem":"Randall Public Library","phone":9137392380,"id":"a672lrmr2cru","address":"107 Main PO Box 101","lat":39.640755,"libraryname":"Randall Public Library","state":"KS"},"type":"Feature","geometry":{"type":"Point","coordinates":[-98.043789,39.640755]}},{"properties":{"city":"Clyde","lon":-97.397699,"zip":"","librarysystem":"Randolph-Decker Pub. Lib.","phone":9134463563,"id":"a672lrpb0m6k","address":"101 S. Green, PO Box 85","lat":39.59119,"libraryname":"Randolph-Decker Public Library, Clyde","state":"KS"},"type":"Feature","geometry":{"type":"Point","coordinates":[-97.397699,39.59119]}},{"properties":{"city":"Ransom","lon":-99.931529,"zip":"","librarysystem":"Ransom Public Library","phone":7857312855,"id":"a672lrk2y32q","address":"411 S Vermont","lat":38.6368,"libraryname":"Ransom Public Library","state":"KS"},"type":"Feature","geometry":{"type":"Point","coordinates":[-99.931529,38.6368]}},{"properties":{"city":"Richmond","lon":-95.256067,"zip":"","librarysystem":"Richmond Public Library","phone":7858356163,"id":"a672lrhzwzml","address":"107 E. Central","lat":38.401708,"libraryname":"Richmond Public Library","state":"KS"},"type":"Feature","geometry":{"type":"Point","coordinates":[-95.256067,38.401708]}},{"properties":{"city":"Rossville","lon":-95.952192,"zip":"","librarysystem":"Rossville Community Library","phone":7855846454,"id":"a672lrhftsbz","address":"407 Main, PO Box 618","lat":39.13786,"libraryname":"Rossville Community Library","state":"KS"},"type":"Feature","geometry":{"type":"Point","coordinates":[-95.952192,39.13786]}},{"properties":{"city":"Russell","lon":-98.858599,"zip":"","librarysystem":"Russell Public Library","phone":9134832742,"id":"a672lrbz785h","address":"6th &amp; Kansas","lat":38.89114,"libraryname":"Russell Public Library","state":"KS"},"type":"Feature","geometry":{"type":"Point","coordinates":[-98.858599,38.89114]}},{"properties":{"city":"Salina","lon":-97.611538,"zip":"","librarysystem":"Salina Public Library","phone":7858254624,"id":"a672lroci4ek","address":"301 W. Elm St.","lat":38.845053,"libraryname":"Salina Public Library","state":"KS"},"type":"Feature","geometry":{"type":"Point","coordinates":[-97.611538,38.845053]}},{"properties":{"city":"Savonburg","lon":-95.14296,"zip":"","librarysystem":"Savonburg Public Library","phone":3167543531,"id":"a672lrj4o94t","address":"101 S. Walnut","lat":37.748572,"libraryname":"Savonburg Public Library","state":"KS"},"type":"Feature","geometry":{"type":"Point","coordinates":[-95.14296,37.748572]}},{"properties":{"city":"Scandia","lon":-97.783158,"zip":"","librarysystem":"Scandia City Library","phone":9133352271,"id":"a672lrmi7cuu","address":"Fourth And Grant","lat":39.793399,"libraryname":"Scandia City Library","state":"KS"},"type":"Feature","geometry":{"type":"Point","coordinates":[-97.783158,39.793399]}},{"properties":{"city":"Kansas City","lon":-94.789229,"zip":"","librarysystem":"Kansas City Public Library","phone":9132992384,"id":"a672lrpond48","address":"4051 W. Drive","lat":39.163377,"libraryname":"Schlagle Branch","state":"KS"},"type":"Feature","geometry":{"type":"Point","coordinates":[-94.789229,39.163377]}},{"properties":{"city":"Scott City","lon":-100.907134,"zip":"","librarysystem":"Scott County Library","phone":3168725341,"id":"a672lrpaolh8","address":"110 W. 8th","lat":38.479593,"libraryname":"Scott County Library, Scott City","state":"KS"},"type":"Feature","geometry":{"type":"Point","coordinates":[-100.907134,38.479593]}},{"properties":{"city":"Sedan","lon":-96.186986,"zip":"","librarysystem":"Sedan Public Library","phone":3167253405,"id":"a672lrkwkw24","address":"115 N. Chautauqua","lat":37.127119,"libraryname":"Sedan Public Library","state":"KS"},"type":"Feature","geometry":{"type":"Point","coordinates":[-96.186986,37.127119]}},{"properties":{"city":"Selden","lon":-100.567862,"zip":"","librarysystem":"Selden Public Library","phone":7853864368,"id":"a672lrjhi0za","address":"109 S. Kansas Ave","lat":39.540469,"libraryname":"Selden Public Library","state":"KS"},"type":"Feature","geometry":{"type":"Point","coordinates":[-100.567862,39.540469]}},{"properties":{"city":"Seneca","lon":-96.061555,"zip":"","librarysystem":"Seneca Free Library","phone":9133362377,"id":"a672lrpyrnx9","address":"606 Main","lat":39.834181,"libraryname":"Seneca Free Library","state":"KS"},"type":"Feature","geometry":{"type":"Point","coordinates":[-96.061555,39.834181]}},{"properties":{"city":"Sharon Springs","lon":-101.746649,"zip":"","librarysystem":"Sharon Springs Public Library","phone":9138524257,"id":"a672lrfwoqxp","address":"113 N. 2nd St.","lat":38.89602,"libraryname":"Sharon Springs Public Library","state":"KS"},"type":"Feature","geometry":{"type":"Point","coordinates":[-101.746649,38.89602]}},{"properties":{"city":"Sharon","lon":-98.420112,"zip":"","librarysystem":"Wisner Library","phone":6202945472,"id":"a672lrk3w70b","address":"102 South Broadway","lat":37.248333,"libraryname":"Sharon Wisner Library","state":"KS"},"type":"Feature","geometry":{"type":"Point","coordinates":[-98.420112,37.248333]}},{"properties":{"city":"Hoxie","lon":-100.441929,"zip":"","librarysystem":"Hoxie/Sheridan County Library","phone":9136753102,"id":"a672lre811w0","address":"801 Royal Ave., PO Box 607","lat":39.35332,"libraryname":"Sheridan County Library, Hoxie","state":"KS"},"type":"Feature","geometry":{"type":"Point","coordinates":[-100.441929,39.35332]}},{"properties":{"city":"Silver Lake","lon":-95.859091,"zip":"","librarysystem":"Silver Lake Library","phone":7855825141,"id":"a672lro7z0tq","address":"201 Railroad, PO Box 248","lat":39.10553,"libraryname":"Silver Lake Library","state":"KS"},"type":"Feature","geometry":{"type":"Point","coordinates":[-95.859091,39.10553]}},{"properties":{"city":"Smith Center","lon":-98.786145,"zip":"","librarysystem":"Smith Center Public Library","phone":7852823361,"id":"a672lrp34sg9","address":"119 W. Court St.","lat":39.776495,"libraryname":"Smith Center Public Library","state":"KS"},"type":"Feature","geometry":{"type":"Point","coordinates":[-98.786145,39.776495]}},{"properties":{"city":"Solomon","lon":-97.370564,"zip":"","librarysystem":"Solomon Public Library","phone":9136553521,"id":"a672lrgw6uyk","address":"108 N. Walnut","lat":38.918423,"libraryname":"Solomon Public Library","state":"KS"},"type":"Feature","geometry":{"type":"Point","coordinates":[-97.370564,38.918423]}},{"properties":{"city":"South Haven","lon":-97.401354,"zip":"","librarysystem":"South Haven Township Library","phone":3168925268,"id":"a672lrdysn02","address":"104 W. Baird","lat":37.048706,"libraryname":"South Haven Township Library","state":"KS"},"type":"Feature","geometry":{"type":"Point","coordinates":[-97.401354,37.048706]}},{"properties":{"city":"Spearville","lon":-99.754931,"zip":"","librarysystem":"Spearville Township Library","phone":3163852501,"id":"a672lronfqyq","address":"103 Ave. A, PO Box 464","lat":37.847807,"libraryname":"Spearville City Library","state":"KS"},"type":"Feature","geometry":{"type":"Point","coordinates":[-99.754931,37.847807]}},{"properties":{"city":"St. Francis","lon":-101.801399,"zip":"","librarysystem":"Pottawatomie-Wabaunsee Public Library","phone":9133323292,"id":"a672lrodquaz","address":"121 N. Scott","lat":39.77209,"libraryname":"St. Francis Public Library","state":"KS"},"type":"Feature","geometry":{"type":"Point","coordinates":[-101.801399,39.77209]}},{"properties":{"city":"St. Marys","lon":-96.068533,"zip":"","librarysystem":"Pottawatomie-Wabaunsee Public Library","phone":7854372778,"id":"a672lrh4ggkf","address":"306 North 5th Street","lat":39.195643,"libraryname":"St. Marys Library","state":"KS"},"type":"Feature","geometry":{"type":"Point","coordinates":[-96.068533,39.195643]}},{"properties":{"city":"Johnson","lon":-101.748814,"zip":"","librarysystem":"Johnson/Stanton County Public Lib","phone":3164922242,"id":"a672lri8i0m6","address":"103 E. Sherman, PO Box 480","lat":37.57741,"libraryname":"Stanton County Public Library, Johnson","state":"KS"},"type":"Feature","geometry":{"type":"Point","coordinates":[-101.748814,37.57741]}},{"properties":{"city":"Sterling","lon":-98.20669,"zip":"","librarysystem":"Sterling Free Public Library","phone":3162783191,"id":"a672lrf03dqs","address":"138 N. Broadway","lat":38.210607,"libraryname":"Sterling Free Public Library","state":"KS"},"type":"Feature","geometry":{"type":"Point","coordinates":[-98.20669,38.210607]}},{"properties":{"city":"Hugoton","lon":-101.346305,"zip":"","librarysystem":"Hugoton/Stevens County Library","phone":3165442301,"id":"a672lrdkdglu","address":"500 Monroe","lat":37.178388,"libraryname":"Stevens County Library, Hugoton","state":"KS"},"type":"Feature","geometry":{"type":"Point","coordinates":[-101.346305,37.178388]}},{"properties":{"city":"Stockton","lon":-99.274994,"zip":"","librarysystem":"Stockton","phone":9134256372,"id":"a672lrmnpo6v","address":"124 N. Cedar","lat":39.43701,"libraryname":"Stockton Public Library","state":"KS"},"type":"Feature","geometry":{"type":"Point","coordinates":[-99.274994,39.43701]}},{"properties":{"city":"Summerfield","lon":-96.350764,"zip":"","librarysystem":"Summerfield Public Library","phone":9132446297,"id":"a672lrdo1jl7","address":"Main St., PO Box 146","lat":40.000885,"libraryname":"Summerfield Public Library","state":"KS"},"type":"Feature","geometry":{"type":"Point","coordinates":[-96.350764,40.000885]}},{"properties":{"city":"Prairie View","lon":-99.572541,"zip":"","librarysystem":"Prairie View/Sunshine City Lib","phone":9139732265,"id":"a672lrni2w9k","address":"402 1st St.","lat":39.832521,"libraryname":"Sunshine City Library, Prairie View","state":"KS"},"type":"Feature","geometry":{"type":"Point","coordinates":[-99.572541,39.832521]}},{"properties":{"city":"Sylvan Grove","lon":-98.393209,"zip":"","librarysystem":"Sylvan Grove Public Library","phone":9135267188,"id":"a672lrd1f1nh","address":"Main St., PO Box 996","lat":39.011535,"libraryname":"Sylvan Grove Public Library","state":"KS"},"type":"Feature","geometry":{"type":"Point","coordinates":[-98.393209,39.011535]}},{"properties":{"city":"Sylvia","lon":-98.406142,"zip":"","librarysystem":"Sylvia Public Library","phone":3164862472,"id":"a672lrdhok4s","address":"121 S. Main PO Box 68","lat":37.95551,"libraryname":"Sylvia Public Library","state":"KS"},"type":"Feature","geometry":{"type":"Point","coordinates":[-98.406142,37.95551]}},{"properties":{"city":"Tonganoxie","lon":-95.087546,"zip":"","librarysystem":"Tonganoxie Public Library","phone":9138453281,"id":"a672lrb62y00","address":"303 S. Bury St.","lat":39.110143,"libraryname":"Tonganoxie Public Library","state":"KS"},"type":"Feature","geometry":{"type":"Point","coordinates":[-95.087546,39.110143]}},{"properties":{"city":"Topeka","lon":-95.695842,"zip":"","librarysystem":"Topeka and Shawnee County Public Library","phone":7855804400,"id":"a672lrilumwt","address":"1515 SW 10th Avenue","lat":39.051064,"libraryname":"Topeka and Shawnee County Public Library","state":"KS"},"type":"Feature","geometry":{"type":"Point","coordinates":[-95.695842,39.051064]}},{"properties":{"city":"Toronto","lon":-95.950249,"zip":"","librarysystem":"Toronto Public Library","phone":3166372731,"id":"a672lrjz76fk","address":"107 W. Main St.","lat":37.798353,"libraryname":"Toronto Public Library","state":"KS"},"type":"Feature","geometry":{"type":"Point","coordinates":[-95.950249,37.798353]}},{"properties":{"city":"Towanda","lon":-97.002349,"zip":"","librarysystem":"Towanda Public Library","phone":3165362464,"id":"a672lrk6nfo2","address":"620 Highland St., PO Box 580","lat":37.795885,"libraryname":"Towanda Public Library","state":"KS"},"type":"Feature","geometry":{"type":"Point","coordinates":[-97.002349,37.795885]}},{"properties":{"city":"Turon","lon":-98.423656,"zip":"","librarysystem":"Turon Community Library","phone":3164976409,"id":"a672lrdvlh5a","address":"501 E. Price","lat":37.805658,"libraryname":"Turon Community Library","state":"KS"},"type":"Feature","geometry":{"type":"Point","coordinates":[-98.423656,37.805658]}},{"properties":{"city":"Udall","lon":-97.117115,"zip":"","librarysystem":"Udall Public Library","phone":3167823512,"id":"a672lrq81qex","address":"110 S. Main","lat":37.387253,"libraryname":"Udall Public Library","state":"KS"},"type":"Feature","geometry":{"type":"Point","coordinates":[-97.117115,37.387253]}},{"properties":{"city":"Utica","lon":-100.166929,"zip":"","librarysystem":"Utica Library Association","phone":9133912419,"id":"a672lragb92w","address":"249 N Ohio","lat":38.64347,"libraryname":"Utica Library Association","state":"KS"},"type":"Feature","geometry":{"type":"Point","coordinates":[-100.166929,38.64347]}},{"properties":{"city":"Vermillion","lon":-96.265794,"zip":"","librarysystem":"Vermillion Public Library","phone":9133826224,"id":"a672lrgo5elh","address":"Main St.","lat":39.717565,"libraryname":"Vermillion Public Library","state":"KS"},"type":"Feature","geometry":{"type":"Point","coordinates":[-96.265794,39.717565]}},{"properties":{"city":"Viola","lon":-97.642776,"zip":"","librarysystem":"Viola Township Library","phone":3165846679,"id":"a672lrbept5w","address":"100 N. Grice","lat":37.482244,"libraryname":"Viola Township Library","state":"KS"},"type":"Feature","geometry":{"type":"Point","coordinates":[-97.642776,37.482244]}},{"properties":{"city":"Neodesha","lon":-95.67995,"zip":"","librarysystem":"Neodesha/W.A. Rankin Memorial","phone":3163253275,"id":"a672lrd0dzhr","address":"502 Indiana","lat":37.418644,"libraryname":"W. A. Rankin Memorial Library, Neodesha","state":"KS"},"type":"Feature","geometry":{"type":"Point","coordinates":[-95.67995,37.418644]}},{"properties":{"city":"Wakeeney","lon":-99.885234,"zip":"","librarysystem":"Wakeeney Public Library","phone":9137432960,"id":"a672lrn3d9fa","address":"408 Russell","lat":39.025653,"libraryname":"Wakeeney City Library","state":"KS"},"type":"Feature","geometry":{"type":"Point","coordinates":[-99.885234,39.025653]}},{"properties":{"city":"Wakefield","lon":-97.013119,"zip":"","librarysystem":"Wakefield Public Library","phone":9134615510,"id":"a672lrlrndjh","address":"3rd &amp; Dogwood","lat":39.2124,"libraryname":"Wakefield Public Library","state":"KS"},"type":"Feature","geometry":{"type":"Point","coordinates":[-97.013119,39.2124]}},{"properties":{"city":"Walnut","lon":-95.075389,"zip":"","librarysystem":"Walnut Public Library","phone":3163546779,"id":"a672lrht62jb","address":"511 W. Robbins, PO Box 18","lat":37.60128,"libraryname":"Walnut Public Library","state":"KS"},"type":"Feature","geometry":{"type":"Point","coordinates":[-95.075389,37.60128]}},{"properties":{"city":"Walton","lon":-97.256799,"zip":"","librarysystem":"Walton Community Library","phone":3168373252,"id":"a672lrihamdx","address":"122 Main St.","lat":38.11792,"libraryname":"Walton Community Library","state":"KS"},"type":"Feature","geometry":{"type":"Point","coordinates":[-97.256799,38.11792]}},{"properties":{"city":"Wamego","lon":-96.306284,"zip":"","librarysystem":"Wamego Public Library","phone":7854569181,"id":"a672lrmp7bjk","address":"408 Elm St.","lat":39.201097,"libraryname":"Wamego Public Library","state":"KS"},"type":"Feature","geometry":{"type":"Point","coordinates":[-96.306284,39.201097]}},{"properties":{"city":"Washington","lon":-97.050805,"zip":"","librarysystem":"Washington Library","phone":9133252114,"id":"a672lrjbz33n","address":"116 E. 2nd St.","lat":39.818755,"libraryname":"Washington Library","state":"KS"},"type":"Feature","geometry":{"type":"Point","coordinates":[-97.050805,39.818755]}},{"properties":{"city":"Waterville","lon":-96.748805,"zip":"","librarysystem":"Waterville Public Library","phone":9137852769,"id":"a672lrg7q1g8","address":"129 E. Commercial","lat":39.692365,"libraryname":"Waterville Public Library","state":"KS"},"type":"Feature","geometry":{"type":"Point","coordinates":[-96.748805,39.692365]}},{"properties":{"city":"Wathena","lon":-94.944082,"zip":"","librarysystem":"Library District # 1, Doniphan County","phone":7859894711,"id":"a672lragfnr7","address":"206 St. Joseph","lat":39.759705,"libraryname":"Wathena Branch Library","state":"KS"},"type":"Feature","geometry":{"type":"Point","coordinates":[-94.944082,39.759705]}},{"properties":{"city":"Waverly","lon":-95.600054,"zip":"","librarysystem":"Coffey County Library","phone":9137332400,"id":"a672lrq19lq4","address":"608 Pearson","lat":38.395444,"libraryname":"Waverly Library","state":"KS"},"type":"Feature","geometry":{"type":"Point","coordinates":[-95.600054,38.395444]}},{"properties":{"city":"Weir","lon":-94.771679,"zip":"","librarysystem":"Weir Public Library","phone":3163968214,"id":"a672lrpwmg6n","address":"Washington &amp; Pine","lat":37.309205,"libraryname":"Weir Public Library","state":"KS"},"type":"Feature","geometry":{"type":"Point","coordinates":[-94.771679,37.309205]}},{"properties":{"city":"Wellington","lon":-97.398392,"zip":"","librarysystem":"Wellington Public","phone":3163262011,"id":"a672lrfcv7pu","address":"121 W. 7th St.","lat":37.266934,"libraryname":"Wellington Public Library","state":"KS"},"type":"Feature","geometry":{"type":"Point","coordinates":[-97.398392,37.266934]}},{"properties":{"city":"Wellsville","lon":-95.158025,"zip":"","librarysystem":"Wellsville City Library","phone":7858832870,"id":"a672lrb2qcwx","address":"115 W. 6th / P.O. Box 517","lat":38.692041,"libraryname":"Wellsville City Library","state":"KS"},"type":"Feature","geometry":{"type":"Point","coordinates":[-95.158025,38.692041]}},{"properties":{"city":"Kansas City","lon":-94.769636,"zip":"","librarysystem":"Kansas City Public Library","phone":9135965800,"id":"a672lrmadzyw","address":"1737 N. 82nd Street","lat":39.124592,"libraryname":"West Wyandotte Branch Library","state":"KS"},"type":"Feature","geometry":{"type":"Point","coordinates":[-94.769636,39.124592]}},{"properties":{"city":"Wichita","lon":-97.441371,"zip":"","librarysystem":"Wichita Public Library","phone":3163379456,"id":"a672lrndpod6","address":"8515 Bekemeyer","lat":37.697675,"libraryname":"Westlink Branch Library","state":"KS"},"type":"Feature","geometry":{"type":"Point","coordinates":[-97.441371,37.697675]}},{"properties":{"city":"Wetmore","lon":-95.811239,"zip":"","librarysystem":"Wetmore Public Library","phone":7858662250,"id":"a672lrp3l3my","address":"2nd &amp; Kansas, PO Box 122","lat":39.63205,"libraryname":"Wetmore Public Library","state":"KS"},"type":"Feature","geometry":{"type":"Point","coordinates":[-95.811239,39.63205]}},{"properties":{"city":"White City","lon":-96.844919,"zip":"","librarysystem":"White City Public Library","phone":9133492228,"id":"a672lrdfugnx","address":"104 N. 1st St.","lat":38.739275,"libraryname":"White City Public Library","state":"KS"},"type":"Feature","geometry":{"type":"Point","coordinates":[-96.844919,38.739275]}},{"properties":{"city":"Whitewater","lon":-97.149115,"zip":"","librarysystem":"Whitewater Memorial Library","phone":3167992471,"id":"a672lrfuex6r","address":"118 E. Topeka","lat":37.962538,"libraryname":"Whitewater Memorial Library","state":"KS"},"type":"Feature","geometry":{"type":"Point","coordinates":[-97.149115,37.962538]}},{"properties":{"city":"Leoti","lon":-101.357684,"zip":"","librarysystem":"Leoti/Wichita County Library","phone":3163754322,"id":"a672lrn83ou7","address":"4th &amp; M St., PO Box 490","lat":38.481425,"libraryname":"Wichita County Library, Leoti","state":"KS"},"type":"Feature","geometry":{"type":"Point","coordinates":[-101.357684,38.481425]}},{"properties":{"city":"Wichita","lon":-97.338335,"zip":"","librarysystem":"Wichita Public Library","phone":3162618500,"id":"a672lraaphx0","address":"223 S. Main","lat":37.684614,"libraryname":"Wichita Public Library","state":"KS"},"type":"Feature","geometry":{"type":"Point","coordinates":[-97.338335,37.684614]}},{"properties":{"city":"Williamsburg","lon":-95.468854,"zip":"","librarysystem":"Williamsburg Community Library","phone":7857465624,"id":"a672lrm6r9f1","address":"105 S. Center / P.O. Box 142","lat":38.47867,"libraryname":"Williamsburg Community Library","state":"KS"},"type":"Feature","geometry":{"type":"Point","coordinates":[-95.468854,38.47867]}},{"properties":{"city":"Wilmore","lon":-99.210289,"zip":"","librarysystem":"Coldwater-Wilmore Regional Library","phone":3167384464,"id":"a672lrcbsz26","address":"Box 276","lat":37.3369,"libraryname":"Wilmore Branch Library","state":"KS"},"type":"Feature","geometry":{"type":"Point","coordinates":[-99.210289,37.3369]}},{"properties":{"city":"Winchester","lon":-95.26847,"zip":"","librarysystem":"Winchester Public Library","phone":9137742922,"id":"a672lrowtn2j","address":"203 Fourth Street","lat":39.324069,"libraryname":"Winchester Public Library","state":"KS"},"type":"Feature","geometry":{"type":"Point","coordinates":[-95.26847,39.324069]}},{"properties":{"city":"Winfield","lon":-96.978511,"zip":"","librarysystem":"Winfield Public Library","phone":6202214470,"id":"a672lrpic23g","address":"605 College St","lat":37.243584,"libraryname":"Winfield Public Library","state":"KS"},"type":"Feature","geometry":{"type":"Point","coordinates":[-96.978511,37.243584]}},{"properties":{"city":"Yates Center","lon":-95.732296,"zip":"","librarysystem":"Yates Center Public Library","phone":3166253341,"id":"a672lrgqoy7e","address":"218 N. Main","lat":37.882656,"libraryname":"Yates Center Public Library","state":"KS"},"type":"Feature","geometry":{"type":"Point","coordinates":[-95.732296,37.882656]}},{"properties":{"city":"Zenda","lon":-98.282132,"zip":"","librarysystem":"Zenda Public Library","phone":3162435791,"id":"a672lrmp0rhj","address":"215 N. Main","lat":37.443948,"libraryname":"Zenda Public Library","state":"KS"},"type":"Feature","geometry":{"type":"Point","coordinates":[-98.282132,37.443948]}}],"is_temporal":false,"author":{"url":"http://www.publiclibraries.com/kansas.htm","metadata":"","contact_name":"","contact_address":"","source":"publiclibrairies.com","contact_phone":""},"source":"http://www.publiclibraries.com/kansas.htm","pagination":{"sort":null,"start":0,"total":375,"limit":1000000},"state":"complete","tags":"books,education,kansas,libraries,library,public","published":"2008-05-09T12:00:00Z","id":896}