{"type":"FeatureCollection","data_type":"Dataset","url_type":null,"permissions":[{"permissions":{"download":true,"view":true},"group_id":"everyone"}],"classification":null,"title":"Pharmacies in Allegheny County, PA","count":111,"stream_id":8963,"contributor":{"url":"http://geocommons.com/users/2943","name":"Margot"},"data_attributes":null,"calculation_params":null,"icon_link":null,"link":"http://geocommons.com/overlays/8963.json","extent":[-80.2532,40.2725,-79.7607,40.5564],"geometry_types":["point"],"unique_name":null,"name":"Pharmacies in Allegheny County, PA","feature_count":111,"description":"This data was found at delirious.com in a search for pharmacies in Allegheny County, PA. The data was sorted and formatted in excel and then addresses were geocoded for latitude and longitude using batchgeocode.com. The data was uploaded as a csv into Geocommons and points were checked for accuracy in Maker!","next_feature":null,"is_raster":false,"short_classification":"Y","stats":{"zip":{"max":15243,"mean":15155.1531531532,"variance":4786.7126945127,"stdev":69.1860729808586,"min":15017,"median":15145},"lat":{"max":40.556406,"mean":40.4030930900901,"variance":0.0045076587774645,"stdev":0.0671391002133965,"min":40.272486,"median":40.401423},"long":{"max":-79.760706,"mean":-79.991846936937,"variance":0.0121996694995141,"stdev":0.110452114056337,"min":-80.253189,"median":-79.99732}},"features":[{"properties":{"city":"Pittsburgh","zip":15205,"number":"(412) 249-2900","countyname":"Allegheny","street":"500 Business Center Dr","pharmacyname":"Advance Pcs","id":"a64wdbt0t0wc","lat":40.434302,"state":"PA","long":-80.138854},"type":"Feature","geometry":{"type":"Point","coordinates":[-80.138854,40.434302]}},{"properties":{"city":"Bridgeville","zip":15017,"number":"(412) 257-2838","countyname":"Allegheny","street":"800 Bursca Dr # 805","pharmacyname":"Alert Pharmacy Svc Inc","id":"a64wdbupek8m","lat":40.347992,"state":"PA","long":-80.111143},"type":"Feature","geometry":{"type":"Point","coordinates":[-80.111143,40.347992]}},{"properties":{"city":"Pittsburgh","zip":15210,"number":"(412) 431-5766","countyname":"Allegheny","street":"818 E Warrington Ave","pharmacyname":"Amsler Pharmacy","id":"a64wdbmsw5nb","lat":40.421692,"state":"PA","long":-79.992974},"type":"Feature","geometry":{"type":"Point","coordinates":[-79.992974,40.421692]}},{"properties":{"city":"Pittsburgh","zip":15202,"number":"(412) 761-5625","countyname":"Allegheny","street":"550 California Ave","pharmacyname":"Avalon Community Pharmacy","id":"a64wdbmnpusy","lat":40.502109,"state":"PA","long":-80.070298},"type":"Feature","geometry":{"type":"Point","coordinates":[-80.070298,40.502109]}},{"properties":{"city":"Mckeesport","zip":15132,"number":"(412) 672-3000","countyname":"Allegheny","street":"3000 Walnut St","pharmacyname":"Ayres Pharmacy","id":"a64wdbrqhjue","lat":40.331448,"state":"PA","long":-79.844589},"type":"Feature","geometry":{"type":"Point","coordinates":[-79.844589,40.331448]}},{"properties":{"city":"Pittsburgh","zip":15224,"number":"(412) 682-4909","countyname":"Allegheny","street":"4727 Liberty Ave","pharmacyname":"Bloomfield Drug Store","id":"a64wdbfc6v5v","lat":40.461663,"state":"PA","long":-79.94899},"type":"Feature","geometry":{"type":"Point","coordinates":[-79.94899,40.461663]}},{"properties":{"city":"Elizabeth","zip":15037,"number":"(412) 751-6100","countyname":"Allegheny","street":"108 Simpson Howell Rd","pharmacyname":"Central Pharmacy","id":"a64wdbuqq8y5","lat":40.272486,"state":"PA","long":-79.837326},"type":"Feature","geometry":{"type":"Point","coordinates":[-79.837326,40.272486]}},{"properties":{"city":"Pittsburgh","zip":15207,"number":"(412) 421-4104","countyname":"Allegheny","street":"517 Greenfield Ave","pharmacyname":"Community Drug","id":"a64wdbgtxhlz","lat":40.4258,"state":"PA","long":-79.941822},"type":"Feature","geometry":{"type":"Point","coordinates":[-79.941822,40.4258]}},{"properties":{"city":"Bellevue","zip":15202,"number":"(412) 761-4951","countyname":"Allegheny","street":"501 Lincoln Ave","pharmacyname":"Cvs Pharmacy","id":"a64wdbfu8apr","lat":40.495571,"state":"PA","long":-80.055732},"type":"Feature","geometry":{"type":"Point","coordinates":[-80.055732,40.495571]}},{"properties":{"city":"West Mifflin","zip":15123,"number":"(412) 653-1030","countyname":"Allegheny","street":"3075 Clairton Rd # 158","pharmacyname":"Cvs Pharmacy","id":"a64wdbnf32bs","lat":40.338002,"state":"PA","long":-79.937805},"type":"Feature","geometry":{"type":"Point","coordinates":[-79.937805,40.338002]}},{"properties":{"city":"South Hills","zip":15216,"number":"(412) 341-2136","countyname":"Allegheny","street":"2973 W Liberty Ave","pharmacyname":"Cvs Pharmacy","id":"a64wdbhtoywa","lat":40.393536,"state":"PA","long":-80.036104},"type":"Feature","geometry":{"type":"Point","coordinates":[-80.036104,40.393536]}},{"properties":{"city":"Turtle Creek","zip":15145,"number":"(412) 824-5137","countyname":"Allegheny","street":"237 Monroeville Ave","pharmacyname":"Cvs Pharmacy","id":"a64wdbk0ohy4","lat":40.405946,"state":"PA","long":-79.823277},"type":"Feature","geometry":{"type":"Point","coordinates":[-79.823277,40.405946]}},{"properties":{"city":"Mckeesport","zip":15132,"number":"(412) 678-6769","countyname":"Allegheny","street":"311 5th Ave","pharmacyname":"Cvs Pharmacy","id":"a64wdbiyhf18","lat":40.351144,"state":"PA","long":-79.864645},"type":"Feature","geometry":{"type":"Point","coordinates":[-79.864645,40.351144]}},{"properties":{"city":"Bethel Park","zip":15102,"number":"(412) 833-6029","countyname":"Allegheny","street":"5190 Library Rd","pharmacyname":"Cvs Pharmacy","id":"a64wdbv36bff","lat":40.334299,"state":"PA","long":-80.024259},"type":"Feature","geometry":{"type":"Point","coordinates":[-80.024259,40.334299]}},{"properties":{"city":"Pittsburgh","zip":15212,"number":"(412) 322-5517","countyname":"Allegheny","street":"1 Allegheny Center Mall # 164","pharmacyname":"Cvs Pharmacy","id":"a64wdbpyo8ub","lat":40.45069,"state":"PA","long":-80.002949},"type":"Feature","geometry":{"type":"Point","coordinates":[-80.002949,40.45069]}},{"properties":{"city":"Pittsburgh","zip":15228,"number":"(412) 833-8597","countyname":"Allegheny","street":"1601 Washington Rd","pharmacyname":"Cvs Pharmacy","id":"a64wdbmohj7y","lat":40.354423,"state":"PA","long":-80.050049},"type":"Feature","geometry":{"type":"Point","coordinates":[-80.050049,40.354423]}},{"properties":{"city":"Mt Lebanon","zip":15228,"number":"(412) 563-5526","countyname":"Allegheny","street":"328 Cochran Rd","pharmacyname":"Cvs Pharmacy","id":"a64wdbopeqbx","lat":40.382255,"state":"PA","long":-80.052194},"type":"Feature","geometry":{"type":"Point","coordinates":[-80.052194,40.382255]}},{"properties":{"city":"Pittsburgh","zip":15222,"number":"(412) 281-0403","countyname":"Allegheny","street":"226 6th St","pharmacyname":"Cvs Pharmacy","id":"a64wdbm041kf","lat":40.442442,"state":"PA","long":-80.002175},"type":"Feature","geometry":{"type":"Point","coordinates":[-80.002175,40.442442]}},{"properties":{"city":"Pittsburgh","zip":15222,"number":"(412) 566-1541","countyname":"Allegheny","street":"242 5th Ave","pharmacyname":"Cvs Pharmacy","id":"a64wdbjzlivf","lat":40.440917,"state":"PA","long":-80.001325},"type":"Feature","geometry":{"type":"Point","coordinates":[-80.001325,40.440917]}},{"properties":{"city":"Pittsburgh","zip":15213,"number":"(412) 687-4180","countyname":"Allegheny","street":"3440 Forbes Ave","pharmacyname":"Cvs Pharmacy","id":"a64wdbt7bm49","lat":40.43914,"state":"PA","long":-79.960032},"type":"Feature","geometry":{"type":"Point","coordinates":[-79.960032,40.43914]}},{"properties":{"city":"Pittsburgh","zip":15222,"number":"(412) 471-9294","countyname":"Allegheny","street":"610 Wood St","pharmacyname":"Cvs Pharmacy","id":"a64wdbozndyr","lat":40.442127,"state":"PA","long":-79.999276},"type":"Feature","geometry":{"type":"Point","coordinates":[-79.999276,40.442127]}},{"properties":{"city":"Pittsburgh","zip":15222,"number":"(412) 261-4267","countyname":"Allegheny","street":"429 Smithfield St","pharmacyname":"Cvs Pharmacy","id":"a64wdbn2y2hj","lat":40.439451,"state":"PA","long":-79.999097},"type":"Feature","geometry":{"type":"Point","coordinates":[-79.999097,40.439451]}},{"properties":{"city":"Pittsburgh","zip":15213,"number":"(412) 279-5020","countyname":"Allegheny","street":"4725 Centre Ave","pharmacyname":"Cvs Pharmacy","id":"a64wdbv5320v","lat":40.452956,"state":"PA","long":-79.948929},"type":"Feature","geometry":{"type":"Point","coordinates":[-79.948929,40.452956]}},{"properties":{"city":"Pittsburgh","zip":15236,"number":"(412) 885-5860","countyname":"Allegheny","street":"5242 Clairton Blvd","pharmacyname":"Cvs Pharmacy","id":"a64wdbrotmd5","lat":40.343704,"state":"PA","long":-79.971085},"type":"Feature","geometry":{"type":"Point","coordinates":[-79.971085,40.343704]}},{"properties":{"city":"Pittsburgh","zip":15243,"number":"(412) 923-1550","countyname":"Allegheny","street":"1086 Bower Hill Rd","pharmacyname":"Eckerd","id":"a64wdbjyoiky","lat":40.376172,"state":"PA","long":-80.068208},"type":"Feature","geometry":{"type":"Point","coordinates":[-80.068208,40.376172]}},{"properties":{"city":"Pittsburgh","zip":15203,"number":"(412) 481-8818","countyname":"Allegheny","street":"1915 E Carson St","pharmacyname":"Eckerd","id":"a64wdbfnb7cl","lat":40.428797,"state":"PA","long":-79.978771},"type":"Feature","geometry":{"type":"Point","coordinates":[-79.978771,40.428797]}},{"properties":{"city":"Pittsburgh","zip":15213,"number":"(412) 681-1332","countyname":"Allegheny","street":"3700 Forbes Ave","pharmacyname":"Eckerd","id":"a64wdbgaev57","lat":40.441078,"state":"PA","long":-79.957499},"type":"Feature","geometry":{"type":"Point","coordinates":[-79.957499,40.441078]}},{"properties":{"city":"Monroeville","zip":15146,"number":"(412) 373-5420","countyname":"Allegheny","street":"4534 Broadway Blvd","pharmacyname":"Eckerd","id":"a64wdbj16oia","lat":40.390178,"state":"PA","long":-79.766141},"type":"Feature","geometry":{"type":"Point","coordinates":[-79.766141,40.390178]}},{"properties":{"city":"Pittsburgh","zip":15236,"number":"(412) 653-1322","countyname":"Allegheny","street":"402 Clairton Blvd","pharmacyname":"Eckerd","id":"a64wdbm7bgd9","lat":40.336546,"state":"PA","long":-79.948891},"type":"Feature","geometry":{"type":"Point","coordinates":[-79.948891,40.336546]}},{"properties":{"city":"Pittsburgh","zip":15224,"number":"(412) 621-9987","countyname":"Allegheny","street":"4411 Howley St","pharmacyname":"Eckerd","id":"a64wdbhjq9ky","lat":40.464222,"state":"PA","long":-79.952803},"type":"Feature","geometry":{"type":"Point","coordinates":[-79.952803,40.464222]}},{"properties":{"city":"Castle Shannon","zip":15234,"number":"(412) 563-1505","countyname":"Allegheny","street":"250 Mount Lebanon Blvd # 1","pharmacyname":"Eckerd","id":"a64wdbqly50c","lat":40.368283,"state":"PA","long":-80.037228},"type":"Feature","geometry":{"type":"Point","coordinates":[-80.037228,40.368283]}},{"properties":{"city":"Pittsburgh","zip":15212,"number":"(412) 322-1566","countyname":"Allegheny","street":"623 E Ohio St","pharmacyname":"Eckerd","id":"a64wdbs7p2h0","lat":40.453691,"state":"PA","long":-79.998856},"type":"Feature","geometry":{"type":"Point","coordinates":[-79.998856,40.453691]}},{"properties":{"city":"Pittsburgh","zip":15222,"number":"(412) 471-8882","countyname":"Allegheny","street":"623 Smithfield St","pharmacyname":"Eckerd","id":"a64wdbonsjel","lat":40.442215,"state":"PA","long":-79.997278},"type":"Feature","geometry":{"type":"Point","coordinates":[-79.997278,40.442215]}},{"properties":{"city":"Mc Kees Rocks","zip":15136,"number":"(412) 771-1894","countyname":"Allegheny","street":"500 Pine Hollow Rd","pharmacyname":"Eckerd","id":"a64wdbrt1uf2","lat":40.470007,"state":"PA","long":-80.076519},"type":"Feature","geometry":{"type":"Point","coordinates":[-80.076519,40.470007]}},{"properties":{"city":"Mc Kees Rocks","zip":15136,"number":"(412) 771-4080","countyname":"Allegheny","street":"Chartiers Ave","pharmacyname":"Eckerd","id":"a64wdbm2umx3","lat":40.467515,"state":"PA","long":-80.083064},"type":"Feature","geometry":{"type":"Point","coordinates":[-80.083064,40.467515]}},{"properties":{"city":"Mc Kees Rocks","zip":15136,"number":"(412) 771-6366","countyname":"Allegheny","street":"Mckees Rocks &amp; Forest Grn","pharmacyname":"Eckerd","id":"a64wdbufrqbw","lat":40.476008,"state":"PA","long":-80.05392},"type":"Feature","geometry":{"type":"Point","coordinates":[-80.05392,40.476008]}},{"properties":{"city":"Pleasant Hills","zip":15236,"number":"(412) 655-9455","countyname":"Allegheny","street":"5410 Keeport Dr","pharmacyname":"Eckerd","id":"a64wdbm4wqcb","lat":40.33099,"state":"PA","long":-79.952004},"type":"Feature","geometry":{"type":"Point","coordinates":[-79.952004,40.33099]}},{"properties":{"city":"South Hills","zip":15216,"number":"(412) 343-7323","countyname":"Allegheny","street":"220 Washington Rd","pharmacyname":"Eckerd","id":"a64wdbiba55b","lat":40.388974,"state":"PA","long":-80.042505},"type":"Feature","geometry":{"type":"Point","coordinates":[-80.042505,40.388974]}},{"properties":{"city":"West Mifflin","zip":15122,"number":"(412) 469-2220","countyname":"Allegheny","street":"4927 Homeville Rd","pharmacyname":"Eckerd","id":"a64wdbr0ozlx","lat":40.382164,"state":"PA","long":-79.877455},"type":"Feature","geometry":{"type":"Point","coordinates":[-79.877455,40.382164]}},{"properties":{"city":"Bethel Park","zip":15102,"number":"(412) 833-1175","countyname":"Allegheny","street":"5235 Library Rd","pharmacyname":"Eckerd","id":"a64wdbu6vvam","lat":40.332694,"state":"PA","long":-80.023354},"type":"Feature","geometry":{"type":"Point","coordinates":[-80.023354,40.332694]}},{"properties":{"city":"Mckeesport","zip":15132,"number":"(412) 751-3870","countyname":"Allegheny","street":"4313 Walnut St","pharmacyname":"Eckerd","id":"a64wdbtr44lx","lat":40.321225,"state":"PA","long":-79.836497},"type":"Feature","geometry":{"type":"Point","coordinates":[-79.836497,40.321225]}},{"properties":{"city":"White Oak","zip":15131,"number":"(412) 678-2755","countyname":"Allegheny","street":"2001 Lincoln Way","pharmacyname":"Eckerd","id":"a64wdbldq9gm","lat":40.337437,"state":"PA","long":-79.808657},"type":"Feature","geometry":{"type":"Point","coordinates":[-79.808657,40.337437]}},{"properties":{"city":"Bellevue","zip":15202,"number":"(412) 761-1890","countyname":"Allegheny","street":"535 Lincoln Ave","pharmacyname":"Eckerd","id":"a64wdbk9tkyv","lat":40.496337,"state":"PA","long":-80.057383},"type":"Feature","geometry":{"type":"Point","coordinates":[-80.057383,40.496337]}},{"properties":{"city":"East Mc Keesport","zip":15035,"number":"(412) 829-7379","countyname":"Allegheny","street":"400 Lincoln Hwy","pharmacyname":"Eckerd","id":"a64wdbooszfx","lat":40.381273,"state":"PA","long":-79.812416},"type":"Feature","geometry":{"type":"Point","coordinates":[-79.812416,40.381273]}},{"properties":{"city":"Sewickley","zip":15143,"number":"(412) 741-5464","countyname":"Allegheny","street":"Ohio River Blvd","pharmacyname":"Eckerd Drugs","id":"a64wdbv904jk","lat":40.536675,"state":"PA","long":-80.184704},"type":"Feature","geometry":{"type":"Point","coordinates":[-80.184704,40.536675]}},{"properties":{"city":"Sewickley","zip":15143,"number":"(412) 741-9250","countyname":"Allegheny","street":"515 Beaver Rd","pharmacyname":"Eckerd Drugs","id":"a64wdbhzc86j","lat":40.556406,"state":"PA","long":-80.197282},"type":"Feature","geometry":{"type":"Point","coordinates":[-80.197282,40.556406]}},{"properties":{"city":"Pittsburgh","zip":15231,"number":"(412) 472-5040","countyname":"Allegheny","street":"Pittsburgh Intl Airport","pharmacyname":"Eckerd Drugs","id":"a64wdbhmq87q","lat":40.43831,"state":"PA","long":-79.997459},"type":"Feature","geometry":{"type":"Point","coordinates":[-79.997459,40.43831]}},{"properties":{"city":"Coraopolis","zip":15108,"number":"(412) 262-2161","countyname":"Allegheny","street":"5990 University Blvd","pharmacyname":"Eckerd Drugs","id":"a64wdbhlch07","lat":40.519921,"state":"PA","long":-80.217913},"type":"Feature","geometry":{"type":"Point","coordinates":[-80.217913,40.519921]}},{"properties":{"city":"Bridgeville","zip":15017,"number":"(412) 220-7180","countyname":"Allegheny","street":"1155 Washington Pike","pharmacyname":"Eckerd Drugs","id":"a64wdbs1mq44","lat":40.368875,"state":"PA","long":-80.102341},"type":"Feature","geometry":{"type":"Point","coordinates":[-80.102341,40.368875]}},{"properties":{"city":"Bethel Park","zip":15102,"number":"(412) 831-1333","countyname":"Allegheny","street":"414 Mcmurray Rd","pharmacyname":"Gaetano's Pharmacy","id":"a64wdbnwg77q","lat":40.312866,"state":"PA","long":-80.066542},"type":"Feature","geometry":{"type":"Point","coordinates":[-80.066542,40.312866]}},{"properties":{"city":"Duquesne","zip":15110,"number":"(412) 466-5959","countyname":"Allegheny","street":"426 Grant Ave","pharmacyname":"Gallagher Pharmacy","id":"a64wdbhdk5az","lat":40.372606,"state":"PA","long":-79.849738},"type":"Feature","geometry":{"type":"Point","coordinates":[-79.849738,40.372606]}},{"properties":{"city":"Pittsburgh","zip":15236,"number":"(412) 881-4602","countyname":"Allegheny","street":"5301 Grove Rd","pharmacyname":"Giant Eagle Pharmacy Dept","id":"a64wdbt0uw7y","lat":40.35754,"state":"PA","long":-80.000589},"type":"Feature","geometry":{"type":"Point","coordinates":[-80.000589,40.35754]}},{"properties":{"city":"Glassport","zip":15045,"number":"(412) 678-9474","countyname":"Allegheny","street":"937 Ohio Ave","pharmacyname":"Glassport Pharmacy","id":"a64wdbhrfq96","lat":40.320337,"state":"PA","long":-79.890876},"type":"Feature","geometry":{"type":"Point","coordinates":[-79.890876,40.320337]}},{"properties":{"city":"Pittsburgh","zip":15213,"number":"(412) 681-6400","countyname":"Allegheny","street":"3500 5th Ave # 2","pharmacyname":"Hieber's Drug Store","id":"a64wdbgxtinu","lat":40.440549,"state":"PA","long":-79.96},"type":"Feature","geometry":{"type":"Point","coordinates":[-79.96,40.440549]}},{"properties":{"city":"Bridgeville","zip":15017,"number":"(412) 257-2973","countyname":"Allegheny","street":"700 Old Pond Rd","pharmacyname":"Hometown Pharmacy","id":"a64wdbh6g4fb","lat":40.352341,"state":"PA","long":-80.119049},"type":"Feature","geometry":{"type":"Point","coordinates":[-80.119049,40.352341]}},{"properties":{"city":"Pittsburgh","zip":15222,"number":"(724) 443-1456","countyname":"Allegheny","street":"615 Sipha Dr","pharmacyname":"J C Penney Co","id":"a64wdbmlmqji","lat":40.43831,"state":"PA","long":-79.997459},"type":"Feature","geometry":{"type":"Point","coordinates":[-79.997459,40.43831]}},{"properties":{"city":"Turtle Creek","zip":15145,"number":"(412) 823-2727","countyname":"Allegheny","street":"109 Penn Plz","pharmacyname":"John's Legend Drug Store","id":"a64wdbra94v8","lat":40.405455,"state":"PA","long":-79.827882},"type":"Feature","geometry":{"type":"Point","coordinates":[-79.827882,40.405455]}},{"properties":{"city":"Pleasant Hills","zip":15236,"number":"(412) 655-2151","countyname":"Allegheny","street":"600 Old Clairton Rd","pharmacyname":"Johnson's Pharmacy","id":"a64wdbjn9mmn","lat":40.325611,"state":"PA","long":-79.956732},"type":"Feature","geometry":{"type":"Point","coordinates":[-79.956732,40.325611]}},{"properties":{"city":"Pittsburgh","zip":15234,"number":"(412) 344-6700","countyname":"Allegheny","street":"300 Mount Lebanon Blvd","pharmacyname":"Lebanon Shops Pharmacy","id":"a64wdbjs88ox","lat":40.368505,"state":"PA","long":-80.03674},"type":"Feature","geometry":{"type":"Point","coordinates":[-80.03674,40.368505]}},{"properties":{"city":"South Park","zip":15129,"number":"(412) 835-4552","countyname":"Allegheny","street":"2800 Brownsville Rd","pharmacyname":"Library Pharmacy","id":"a64wdbhzp2wz","lat":40.289706,"state":"PA","long":-79.997254},"type":"Feature","geometry":{"type":"Point","coordinates":[-79.997254,40.289706]}},{"properties":{"city":"Clairton","zip":15025,"number":"(412) 233-7100","countyname":"Allegheny","street":"550 Miller Ave","pharmacyname":"Livingston Legend Pharmacy","id":"a64wdbo4smrz","lat":40.293511,"state":"PA","long":-79.882991},"type":"Feature","geometry":{"type":"Point","coordinates":[-79.882991,40.293511]}},{"properties":{"city":"Mckeesport","zip":15132,"number":"(412) 673-7147","countyname":"Allegheny","street":"2301 Versailles Ave","pharmacyname":"Mc Keesport Prescription Center","id":"a64wdbo168la","lat":40.345875,"state":"PA","long":-79.849266},"type":"Feature","geometry":{"type":"Point","coordinates":[-79.849266,40.345875]}},{"properties":{"city":"Coraopolis","zip":15108,"number":"(412) 262-7979","countyname":"Allegheny","street":"825 Beaver Grade Rd","pharmacyname":"Med Fast Pharmacy","id":"a64wdbvmj6s9","lat":40.516377,"state":"PA","long":-80.220331},"type":"Feature","geometry":{"type":"Point","coordinates":[-80.220331,40.516377]}},{"properties":{"city":"Pittsburgh","zip":15217,"number":"(412) 422-9004","countyname":"Allegheny","street":"4028 Beechwood Blvd","pharmacyname":"Medicine Shoppe Pharmacy","id":"a64wdbgguewp","lat":40.426956,"state":"PA","long":-79.937596},"type":"Feature","geometry":{"type":"Point","coordinates":[-79.937596,40.426956]}},{"properties":{"city":"Mckeesport","zip":15132,"number":"(412) 751-1900","countyname":"Allegheny","street":"323 28th St","pharmacyname":"Medicine Shoppe Pharmacy","id":"a64wdbhusq1n","lat":40.333356,"state":"PA","long":-79.846136},"type":"Feature","geometry":{"type":"Point","coordinates":[-79.846136,40.333356]}},{"properties":{"city":"Trafford","zip":15085,"number":"(412) 372-5493","countyname":"Allegheny","street":"312 Cavitt Ave","pharmacyname":"Medicine Shoppe Pharmacy","id":"a64wdbg408rd","lat":40.383576,"state":"PA","long":-79.760706},"type":"Feature","geometry":{"type":"Point","coordinates":[-79.760706,40.383576]}},{"properties":{"city":"Bellevue","zip":15202,"number":"(412) 766-6550","countyname":"Allegheny","street":"612 Lincoln Ave","pharmacyname":"Medicine Shoppe Pharmacy","id":"a64wdbihgqv2","lat":40.497274,"state":"PA","long":-80.058686},"type":"Feature","geometry":{"type":"Point","coordinates":[-80.058686,40.497274]}},{"properties":{"city":"Clairton","zip":15025,"number":"(412) 233-3303","countyname":"Allegheny","street":"645 Miller Ave","pharmacyname":"Medicine Shoppe Pharmacy","id":"a64wdbjd7jv9","lat":40.291307,"state":"PA","long":-79.884005},"type":"Feature","geometry":{"type":"Point","coordinates":[-79.884005,40.291307]}},{"properties":{"city":"Mt Lebanon","zip":15228,"number":"(412) 344-3411","countyname":"Allegheny","street":"514 Washington Rd","pharmacyname":"Medicine Shoppe Pharmacy","id":"a64wdbnw3v9z","lat":40.38418,"state":"PA","long":-80.043952},"type":"Feature","geometry":{"type":"Point","coordinates":[-80.043952,40.38418]}},{"properties":{"city":"Turtle Creek","zip":15145,"number":"(412) 824-9920","countyname":"Allegheny","street":"920 Penn Ave","pharmacyname":"Medicine Shoppe Pharmacy","id":"a64wdbvmmr37","lat":40.404469,"state":"PA","long":-79.825563},"type":"Feature","geometry":{"type":"Point","coordinates":[-79.825563,40.404469]}},{"properties":{"city":"Bridgeville","zip":15017,"number":"(412) 257-4466","countyname":"Allegheny","street":"510 Station St","pharmacyname":"Medicine Shoppe Pharmacy","id":"a64wdbn2um5h","lat":40.357657,"state":"PA","long":-80.110633},"type":"Feature","geometry":{"type":"Point","coordinates":[-80.110633,40.357657]}},{"properties":{"city":"Mc Kees Rocks","zip":15136,"number":"(412) 331-7080","countyname":"Allegheny","street":"1770 Pine Hollow Rd","pharmacyname":"Medicine Shoppe Pharmacy","id":"a64wdbn1rg89","lat":40.4765,"state":"PA","long":-80.101078},"type":"Feature","geometry":{"type":"Point","coordinates":[-80.101078,40.4765]}},{"properties":{"city":"Pittsburgh","zip":15213,"number":"(412) 682-0434","countyname":"Allegheny","street":"4631 Centre Ave","pharmacyname":"Melwood Pharmacy","id":"a64wdbr58b1w","lat":40.452275,"state":"PA","long":-79.951057},"type":"Feature","geometry":{"type":"Point","coordinates":[-79.951057,40.452275]}},{"properties":{"city":"Bridgeville","zip":15017,"number":"(412) 221-0237","countyname":"Allegheny","street":"700 Bursca Dr","pharmacyname":"Neighbor Care Pharmacy","id":"a64wdbjrytqn","lat":40.347828,"state":"PA","long":-80.11241},"type":"Feature","geometry":{"type":"Point","coordinates":[-80.11241,40.347828]}},{"properties":{"city":"Bethel Park","zip":15102,"number":"(412) 835-1616","countyname":"Allegheny","street":"3400 S Park Rd # 1","pharmacyname":"O'Brien's Pharmacy","id":"a64wdbu3xt8i","lat":40.322188,"state":"PA","long":-80.056912},"type":"Feature","geometry":{"type":"Point","coordinates":[-80.056912,40.322188]}},{"properties":{"city":"West Mifflin","zip":15122,"number":"(412) 466-0100","countyname":"Allegheny","street":"1815 Pennsylvania Ave","pharmacyname":"Penn-Taft Pharmacy","id":"a64wdbmfohyk","lat":40.361913,"state":"PA","long":-79.862042},"type":"Feature","geometry":{"type":"Point","coordinates":[-79.862042,40.361913]}},{"properties":{"city":"Clairton","zip":15025,"number":"(412) 469-5265","countyname":"Allegheny","street":"575 Coal Valley Rd","pharmacyname":"Pharmacy","id":"a64wdbkdn15j","lat":40.322242,"state":"PA","long":-79.930936},"type":"Feature","geometry":{"type":"Point","coordinates":[-79.930936,40.322242]}},{"properties":{"city":"Coraopolis","zip":15108,"number":"(412) 264-2230","countyname":"Allegheny","street":"935 Beaver Grade Rd","pharmacyname":"Porter's Prescription Pharmacy","id":"a64wdbgc6n9h","lat":40.510806,"state":"PA","long":-80.213118},"type":"Feature","geometry":{"type":"Point","coordinates":[-80.213118,40.510806]}},{"properties":{"city":"Pittsburgh","zip":15219,"number":"(412) 281-5700","countyname":"Allegheny","street":"508 William Penn Pl","pharmacyname":"Remedies","id":"a64wdbpjl66c","lat":40.439876,"state":"PA","long":-79.99732},"type":"Feature","geometry":{"type":"Point","coordinates":[-79.99732,40.439876]}},{"properties":{"city":"Mckeesport","zip":15132,"number":"(412) 672-3853","countyname":"Allegheny","street":"725 Lysle Blvd","pharmacyname":"Rite Aid Pharmacy","id":"a64wdbozwqly","lat":40.352286,"state":"PA","long":-79.858049},"type":"Feature","geometry":{"type":"Point","coordinates":[-79.858049,40.352286]}},{"properties":{"city":"Pittsburgh","zip":15213,"number":"(412) 621-4302","countyname":"Allegheny","street":"209 Atwood St","pharmacyname":"Rite Aid Pharmacy","id":"a64wdbg8ovms","lat":40.440957,"state":"PA","long":-79.957235},"type":"Feature","geometry":{"type":"Point","coordinates":[-79.957235,40.440957]}},{"properties":{"city":"Pittsburgh","zip":15203,"number":"(412) 431-6773","countyname":"Allegheny","street":"2300 Jane St","pharmacyname":"Rite Aid Pharmacy","id":"a64wdbt2l3fz","lat":40.426407,"state":"PA","long":-79.973062},"type":"Feature","geometry":{"type":"Point","coordinates":[-79.973062,40.426407]}},{"properties":{"city":"Pittsburgh","zip":15222,"number":"(717) 214-8556","countyname":"Allegheny","street":"300 6th Ave","pharmacyname":"Rite Aid Pharmacy","id":"a64wdbr1qi0e","lat":40.441994,"state":"PA","long":-79.999398},"type":"Feature","geometry":{"type":"Point","coordinates":[-79.999398,40.441994]}},{"properties":{"city":"Pittsburgh","zip":15222,"number":"(412) 434-6607","countyname":"Allegheny","street":"318 5th Ave","pharmacyname":"Rite Aid Pharmacy","id":"a64wdbsye337","lat":40.440395,"state":"PA","long":-80.000021},"type":"Feature","geometry":{"type":"Point","coordinates":[-80.000021,40.440395]}},{"properties":{"city":"Pittsburgh","zip":15201,"number":"(412) 682-6970","countyname":"Allegheny","street":"3939 Butler St","pharmacyname":"Rite Aid Pharmacy","id":"a64wdbsei77j","lat":40.468416,"state":"PA","long":-79.962794},"type":"Feature","geometry":{"type":"Point","coordinates":[-79.962794,40.468416]}},{"properties":{"city":"White Oak","zip":15131,"number":"(412) 672-5576","countyname":"Allegheny","street":"1615 Lincoln Way","pharmacyname":"Rite Aid Pharmacy","id":"a64wdbs77oh9","lat":40.347587,"state":"PA","long":-79.816729},"type":"Feature","geometry":{"type":"Point","coordinates":[-79.816729,40.347587]}},{"properties":{"city":"Mckeesport","zip":15132,"number":"(412) 672-3853","countyname":"Allegheny","street":"333 5th Ave","pharmacyname":"Rite Aid Pharmacy","id":"a64wdbfer4gh","lat":40.351183,"state":"PA","long":-79.864316},"type":"Feature","geometry":{"type":"Point","coordinates":[-79.864316,40.351183]}},{"properties":{"city":"Oakdale","zip":15071,"number":"(724) 695-7317","countyname":"Allegheny","street":"400 Market Place Dr","pharmacyname":"Rite Aid Pharmacy","id":"a64wdbh7wmn4","lat":40.441021,"state":"PA","long":-80.23989},"type":"Feature","geometry":{"type":"Point","coordinates":[-80.23989,40.441021]}},{"properties":{"city":"Mc Kees Rocks","zip":15136,"number":"(412) 331-0106","countyname":"Allegheny","street":"821 Chartiers Ave","pharmacyname":"Rite Aid Pharmacy","id":"a64wdbfepnq0","lat":40.465813,"state":"PA","long":-80.065034},"type":"Feature","geometry":{"type":"Point","coordinates":[-80.065034,40.465813]}},{"properties":{"city":"Bethel Park","zip":15102,"number":"(412) 854-1207","countyname":"Allegheny","street":"5100 Library Rd","pharmacyname":"Rite Aid Pharmacy","id":"a64wdbos96xi","lat":40.338705,"state":"PA","long":-80.02629},"type":"Feature","geometry":{"type":"Point","coordinates":[-80.02629,40.338705]}},{"properties":{"city":"Glassport","zip":15045,"number":"(412) 678-5109","countyname":"Allegheny","street":"634 Monongahela Ave # 640","pharmacyname":"Rite Aid Pharmacy","id":"a64wdbk9c63u","lat":40.32538,"state":"PA","long":-79.892648},"type":"Feature","geometry":{"type":"Point","coordinates":[-79.892648,40.32538]}},{"properties":{"city":"South Park","zip":15129,"number":"(412) 831-8350","countyname":"Allegheny","street":"6375 Library Rd","pharmacyname":"Rite Aid Pharmacy","id":"a64wdbstep40","lat":40.29024,"state":"PA","long":-80.027898},"type":"Feature","geometry":{"type":"Point","coordinates":[-80.027898,40.29024]}},{"properties":{"city":"Elizabeth","zip":15037,"number":"(412) 384-2890","countyname":"Allegheny","street":"300 Market St","pharmacyname":"Rite Aid Pharmacy","id":"a64wdbl25y4c","lat":40.272523,"state":"PA","long":-79.886283},"type":"Feature","geometry":{"type":"Point","coordinates":[-79.886283,40.272523]}},{"properties":{"city":"Castle Shannon","zip":15234,"number":"(412) 885-2408","countyname":"Allegheny","street":"3425 Library Rd","pharmacyname":"Rite Aid Pharmacy","id":"a64wdbrwihda","lat":40.367707,"state":"PA","long":-80.012963},"type":"Feature","geometry":{"type":"Point","coordinates":[-80.012963,40.367707]}},{"properties":{"city":"Clairton","zip":15025,"number":"(412) 233-2703","countyname":"Allegheny","street":"623 Saint Clair Ave","pharmacyname":"Rite Aid Pharmacy","id":"a64wdbu55jf4","lat":40.293537,"state":"PA","long":-79.887895},"type":"Feature","geometry":{"type":"Point","coordinates":[-79.887895,40.293537]}},{"properties":{"city":"Coraopolis","zip":15108,"number":"(412) 264-0810","countyname":"Allegheny","street":"412 Broadway St","pharmacyname":"Rite Aid Pharmacy","id":"a64wdbt3kg6q","lat":40.517166,"state":"PA","long":-80.16089},"type":"Feature","geometry":{"type":"Point","coordinates":[-80.16089,40.517166]}},{"properties":{"city":"Coraopolis","zip":15108,"number":"(412) 299-1340","countyname":"Allegheny","street":"1 Thorn Run Ctr","pharmacyname":"Rite Aid Pharmacy","id":"a64wdbn2u99d","lat":40.52285,"state":"PA","long":-80.178119},"type":"Feature","geometry":{"type":"Point","coordinates":[-80.178119,40.52285]}},{"properties":{"city":"Pittsburgh","zip":15232,"number":"(412) 621-5900","countyname":"Allegheny","street":"811 S Aiken Ave","pharmacyname":"Schiller's Pharmacy","id":"a64wdbt0am01","lat":40.45039,"state":"PA","long":-79.935153},"type":"Feature","geometry":{"type":"Point","coordinates":[-79.935153,40.45039]}},{"properties":{"city":"Sewickley","zip":15143,"number":"(412) 749-7329","countyname":"Allegheny","street":"701 Broad St","pharmacyname":"Sewickley Vly Hospital Phrmcy","id":"a64wdbjppb7t","lat":40.541725,"state":"PA","long":-80.178128},"type":"Feature","geometry":{"type":"Point","coordinates":[-80.178128,40.541725]}},{"properties":{"city":"Munhall","zip":15120,"number":"(412) 461-1214","countyname":"Allegheny","street":"3417 Main St","pharmacyname":"Sherman's Pharmacy","id":"a64wdbfn5bs5","lat":40.386349,"state":"PA","long":-79.90258},"type":"Feature","geometry":{"type":"Point","coordinates":[-79.90258,40.386349]}},{"properties":{"city":"Pittsburgh","zip":15234,"number":"(412) 561-2417","countyname":"Allegheny","street":"799 Castle Shannon Blvd","pharmacyname":"Shop N' Save Pharmacy","id":"a64wdbsibjar","lat":40.368369,"state":"PA","long":-80.028205},"type":"Feature","geometry":{"type":"Point","coordinates":[-80.028205,40.368369]}},{"properties":{"city":"Imperial","zip":15126,"number":"(724) 695-9100","countyname":"Allegheny","street":"7906 Steubenville Pike","pharmacyname":"St Peter's Apothecary","id":"a64wdbm3fxcc","lat":40.4371,"state":"PA","long":-80.253189},"type":"Feature","geometry":{"type":"Point","coordinates":[-80.253189,40.4371]}},{"properties":{"city":"Pittsburgh","zip":15203,"number":"(412) 431-9302","countyname":"Allegheny","street":"2134 E Carson St","pharmacyname":"Stutz Pharmacy","id":"a64wdbohxmuy","lat":40.428338,"state":"PA","long":-79.975624},"type":"Feature","geometry":{"type":"Point","coordinates":[-79.975624,40.428338]}},{"properties":{"city":"Pittsburgh","zip":15201,"number":"(412) 227-0911","countyname":"Allegheny","street":"70 33rd St","pharmacyname":"Syncor Corp","id":"a64wdbromg94","lat":40.463111,"state":"PA","long":-79.970843},"type":"Feature","geometry":{"type":"Point","coordinates":[-79.970843,40.463111]}},{"properties":{"city":"Coraopolis","zip":15108,"number":"(412) 262-1123","countyname":"Allegheny","street":"Coraopolis Moon Plz","pharmacyname":"Thrift Drug","id":"a64wdbizc8xy","lat":40.50434,"state":"PA","long":-80.193079},"type":"Feature","geometry":{"type":"Point","coordinates":[-80.193079,40.50434]}},{"properties":{"city":"Pittsburgh","zip":15212,"number":"(412) 231-1559","countyname":"Allegheny","street":"1612 Lowrie St","pharmacyname":"Troy Pharmacy","id":"a64wdbohql38","lat":40.46298,"state":"PA","long":-79.983347},"type":"Feature","geometry":{"type":"Point","coordinates":[-79.983347,40.46298]}},{"properties":{"city":"Bridgeville","zip":15017,"number":"(412) 221-0237","countyname":"Allegheny","street":"600 Bursca Dr # 609","pharmacyname":"Vitalink Pharmacy","id":"a64wdbs5tfxb","lat":40.348454,"state":"PA","long":-80.110531},"type":"Feature","geometry":{"type":"Point","coordinates":[-80.110531,40.348454]}},{"properties":{"city":"Pittsburgh","zip":15220,"number":"(412) 561-6532","countyname":"Allegheny","street":"1910 Cochran Rd","pharmacyname":"Westbrook Pharmacy &amp; Surgical","id":"a64wdboixzzy","lat":40.393145,"state":"PA","long":-80.063468},"type":"Feature","geometry":{"type":"Point","coordinates":[-80.063468,40.393145]}},{"properties":{"city":"Whitaker","zip":15120,"number":"(412) 461-2342","countyname":"Allegheny","street":"106 Whitaker Way","pharmacyname":"Whitaker Drugs","id":"a64wdbj14soi","lat":40.401423,"state":"PA","long":-79.888192},"type":"Feature","geometry":{"type":"Point","coordinates":[-79.888192,40.401423]}},{"properties":{"city":"Mckeesport","zip":15133,"number":"(412) 673-5529","countyname":"Allegheny","street":"2929 Liberty Way","pharmacyname":"William C Kessling Pharmacy","id":"a64wdbgbr1ob","lat":40.325648,"state":"PA","long":-79.856329},"type":"Feature","geometry":{"type":"Point","coordinates":[-79.856329,40.325648]}},{"properties":{"city":"Pittsburgh","zip":15224,"number":"(412) 621-6471","countyname":"Allegheny","street":"4101 Penn Ave","pharmacyname":"Wilson's Pharmacy","id":"a64wdbsxv5q9","lat":40.465714,"state":"PA","long":-79.955152},"type":"Feature","geometry":{"type":"Point","coordinates":[-79.955152,40.465714]}}],"is_temporal":false,"author":{"url":"http://de.lirio.us/find/mckeesport-allegheny-county-pa/pharmacies-and-drug-stores/","metadata":"http://de.lirio.us/find/mckeesport-allegheny-county-pa/pharmacies-and-drug-stores/","contact_name":"","contact_address":"","source":"Delirious.com","contact_phone":""},"source":"http://de.lirio.us/find/mckeesport-allegheny-county-pa/pharmacies-and-drug-stores/","pagination":{"sort":null,"start":0,"total":111,"limit":1000000},"state":"complete","tags":"care,county,drugs,health,pa,pennsylvania,pharmacies,state,usa","published":"2009-01-23T12:00:00Z","id":8963}