{"type":"FeatureCollection","data_type":"Dataset","url_type":null,"permissions":[{"permissions":{"download":true,"view":true},"group_id":"everyone"}],"classification":null,"title":"maptest2","count":42,"stream_id":90003,"contributor":{"url":"http://geocommons.com/users/21496","name":"sandrock"},"data_attributes":null,"calculation_params":null,"icon_link":null,"link":"http://geocommons.com/overlays/90003.json","extent":[-111.392,25.0042,-68.3642,45.7963],"geometry_types":["point"],"unique_name":null,"name":"maptest2","feature_count":42,"description":"","next_feature":null,"is_raster":false,"short_classification":"Y","stats":{},"features":[{"properties":{"city":"Davidsonville","company name":"Owens Comfort Systems","geo_score":0.482,"id":"a6358d7sx81w","geo_precision":"street","address":"PO Box 348","state":"MD"},"type":"Feature","geometry":{"type":"Point","coordinates":[-82.729711,35.22725]}},{"properties":{"city":"Gaithersburg","company name":"Hottel Energy Group","geo_score":0.902,"id":"a6358di59fqz","geo_precision":"range","address":"18900 Woodfield Rd.","state":"MD"},"type":"Feature","geometry":{"type":"Point","coordinates":[-77.156524,39.165785]}},{"properties":{"city":"Hebron","company name":"Wilfre Co. Inc.","geo_score":0.571,"id":"a6358damth8o","geo_precision":"street","address":"8161 Memory Gardens Lane","state":"MD"},"type":"Feature","geometry":{"type":"Point","coordinates":[-86.771625,34.786123]}},{"properties":{"city":"Hollywood","company name":"Winslow Pump &amp; Well Inc.","geo_score":0.429,"id":"a6358dkkdxse","geo_precision":"street","address":"PO Box 521","state":"MD"},"type":"Feature","geometry":{"type":"Point","coordinates":[-80.517038,25.004175]}},{"properties":{"city":"Laurel","company name":"Minnick's Inc.","geo_score":0.902,"id":"a6358dkl0hsn","geo_precision":"range","address":"5200 Minnick Rd.","state":"MD"},"type":"Feature","geometry":{"type":"Point","coordinates":[-76.917382,39.09153]}},{"properties":{"city":"Lothian","company name":"JFJ Energy Services LLC","geo_score":0.561,"id":"a6358d55gia6","geo_precision":"street","address":"5480 Southern Maryland Blvd.","state":"MD"},"type":"Feature","geometry":{"type":"Point","coordinates":[-84.310617,33.8034]}},{"properties":{"city":"Westover","company name":"Somerset Well Drilling Co. Inc.","geo_score":0.259,"id":"a6358di12pa5","geo_precision":"street","address":"PO Box 67","state":"MD"},"type":"Feature","geometry":{"type":"Point","coordinates":[-86.888706,33.47761]}},{"properties":{"city":"Sidney","company name":"Bob Philbrick Well Drilling","geo_score":0.707,"id":"a6358df6ruq6","geo_precision":"street","address":"2807 Middle Rd.","state":"ME"},"type":"Feature","geometry":{"type":"Point","coordinates":[-88.178417,30.576096]}},{"properties":{"city":"Holland","company name":"G H P Systems Inc.","geo_score":0.488,"id":"a6358d5r868u","geo_precision":"street","address":"5710 143rd Ave.","state":"MI"},"type":"Feature","geometry":{"type":"Point","coordinates":[-85.491214,33.105621]}},{"properties":{"city":"Howell","company name":"Signal Systems Industries Inc.","geo_score":0.707,"id":"a6358dgpe6sv","geo_precision":"street","address":"2813 Eager Rd.","state":"MI"},"type":"Feature","geometry":{"type":"Point","coordinates":[-83.305534,30.868844]}},{"properties":{"city":"Whitmore Lake","company name":"Michigan Energy Services Inc.","geo_score":0.708,"id":"a6358dk05bds","geo_precision":"street","address":"8445 Main St.","state":"MI"},"type":"Feature","geometry":{"type":"Point","coordinates":[-86.365332,31.49241]}},{"properties":{"city":"Brimson","company name":"Northern GroundSource Inc.","geo_score":0.735,"id":"a6358d5nqw58","geo_precision":"range","address":"1558 Stone Lake Bridge Rd.","state":"MN"},"type":"Feature","geometry":{"type":"Point","coordinates":[-74.084457,42.551564]}},{"properties":{"city":"Hutchinson","company name":"Mid MN Geothermal Services","geo_score":0.488,"id":"a6358dd248nn","geo_precision":"city","address":"22517 Tagus Ave.","state":"MN"},"type":"Feature","geometry":{"type":"Point","coordinates":[-97.929774,38.060845]}},{"properties":{"city":"Maple Plain","company name":"Bergerson - Caswell Inc.","geo_score":0.72,"id":"a6358dabqbeq","geo_precision":"street","address":"5115 Industrial St.","state":"MN"},"type":"Feature","geometry":{"type":"Point","coordinates":[-96.563668,32.906296]}},{"properties":{"city":"Maple Plain","company name":"Thermal Dynamics","geo_score":0.72,"id":"a6358d7jcpr2","geo_precision":"street","address":"5115 Industrial St.","state":"MN"},"type":"Feature","geometry":{"type":"Point","coordinates":[-96.563668,32.906296]}},{"properties":{"city":"Buffalo","company name":"Ground Source Systems Inc.","geo_score":0.571,"id":"a6358dgh2rxv","geo_precision":"street","address":"PO Box 1490","state":"MO"},"type":"Feature","geometry":{"type":"Point","coordinates":[-78.832421,42.911277]}},{"properties":{"city":"DeSoto","company name":"SMCI DeSoto","geo_score":0.432,"id":"a6358dabk612","geo_precision":"city","address":"1661 Veterans Dr.","state":"MO"},"type":"Feature","geometry":{"type":"Point","coordinates":[-110.405687,35.499454]}},{"properties":{"city":"Monett","company name":"Schoen Heating &amp; Air LLC","geo_score":0.61,"id":"a6358d6nsi02","geo_precision":"street","address":"21280 Lawrence 1090","state":"MO"},"type":"Feature","geometry":{"type":"Point","coordinates":[-87.762538,34.498628]}},{"properties":{"city":"Smithville","company name":"ECS Geothermal","geo_score":0.685,"id":"a6358dchj8tv","geo_precision":"street","address":"209 Richardson St.","state":"MO"},"type":"Feature","geometry":{"type":"Point","coordinates":[-89.645738,40.579993]}},{"properties":{"city":"Billings","company name":"Bertram Drilling Inc.","geo_score":0.429,"id":"a6358d6bv53c","geo_precision":"street","address":"PO Box 2053","state":"MT"},"type":"Feature","geometry":{"type":"Point","coordinates":[-108.590467,45.796343]}},{"properties":{"city":"Glendive","company name":"Iba Drilling Co. Inc.","geo_score":0.667,"id":"a6358df4ga3t","geo_precision":"street","address":"PO Box 1041","state":"MT"},"type":"Feature","geometry":{"type":"Point","coordinates":[-106.095795,39.582263]}},{"properties":{"city":"Jacksonville","company name":"Climate Control Heating &amp; Cooling Co. Inc.","geo_score":0.829,"id":"a6358dbzxppu","geo_precision":"range","address":"102 Middle St.","state":"NC"},"type":"Feature","geometry":{"type":"Point","coordinates":[-81.763766,30.324959]}},{"properties":{"city":"Raleigh","company name":"Morrissey Mechanical Inc.","geo_score":0.471,"id":"a6358desc1lr","geo_precision":"street","address":"PO Box 80755","state":"NC"},"type":"Feature","geometry":{"type":"Point","coordinates":[-78.615735,35.823274]}},{"properties":{"city":"Raleigh","company name":"Allen Kelly &amp; Co. Inc.","geo_score":0.482,"id":"a6358dli5i4l","geo_precision":"street","address":"220 Tryon Rd. Ste. A","state":"NC"},"type":"Feature","geometry":{"type":"Point","coordinates":[-78.730182,35.800716]}},{"properties":{"city":"Bismarck","company name":"Comfort Zone Heating and Air","geo_score":0.305,"id":"a6358djvul74","geo_precision":"street","address":"1313 C Republic St.","state":"ND"},"type":"Feature","geometry":{"type":"Point","coordinates":[-87.054955,33.466164]}},{"properties":{"city":"Blair","company name":"Jensen Well Co. Inc.","geo_score":0.574,"id":"a6358dc8nzb3","geo_precision":"street","address":"767 Iowa St.","state":"NE"},"type":"Feature","geometry":{"type":"Point","coordinates":[-91.441558,33.5274]}},{"properties":{"city":"Amherst","company name":"Skillings &amp; Sons Inc.","geo_score":0.488,"id":"a6358dbtaat1","geo_precision":"city","address":"9 Columbia Dr.","state":"NH"},"type":"Feature","geometry":{"type":"Point","coordinates":[-68.364188,44.833404]}},{"properties":{"city":"Kingston","company name":"Comac Pump &amp; Well LLC","geo_score":0.603,"id":"a6358dgmhjl4","geo_precision":"street","address":"13 New Boston Rd.","state":"NH"},"type":"Feature","geometry":{"type":"Point","coordinates":[-93.131788,35.27791]}},{"properties":{"city":"Mays Landing","company name":"Geothermal Services Inc.","geo_score":0.482,"id":"a6358dkesscc","geo_precision":"street","address":"PO Box 427","state":"NJ"},"type":"Feature","geometry":{"type":"Point","coordinates":[-111.391821,33.033609]}},{"properties":{"city":"Newton","company name":"Perfection Contracting Inc.","geo_score":0.474,"id":"a6358dake7c1","geo_precision":"city","address":"1 Camre Dr.","state":"NJ"},"type":"Feature","geometry":{"type":"Point","coordinates":[-85.817475,34.873415]}},{"properties":{"city":"Palmyra","company name":"Fishers Trade Service","geo_score":0.488,"id":"a6358djh0n8o","geo_precision":"city","address":"324 Delaware Ave.","state":"NJ"},"type":"Feature","geometry":{"type":"Point","coordinates":[-91.930414,33.92288]}},{"properties":{"city":"Gallup","company name":"Mechanical Southwest Inc.","geo_score":0.429,"id":"a6358d6x3oz8","geo_precision":"street","address":"108 W. Maloney","state":"NM"},"type":"Feature","geometry":{"type":"Point","coordinates":[-91.56815,35.920117]}},{"properties":{"city":"Sparks","company name":"Sierra Air Inc.","geo_score":0.577,"id":"a6358d7sv0xx","geo_precision":"range","address":"51 Snider Way","state":"NV"},"type":"Feature","geometry":{"type":"Point","coordinates":[-109.225103,41.589552]}},{"properties":{"city":"Mahopac","company name":"Bell Energy Mgmt.","geo_score":0.286,"id":"a6358dbb28k6","geo_precision":"street","address":"PO Box 232","state":"NY"},"type":"Feature","geometry":{"type":"Point","coordinates":[-73.768808,41.346412]}},{"properties":{"city":"Rensselaer","company name":"Bourque Mechanical Systems Inc.","geo_score":0.286,"id":"a6358d671s46","geo_precision":"street","address":"PO Box 253","state":"NY"},"type":"Feature","geometry":{"type":"Point","coordinates":[-91.353693,39.701907]}},{"properties":{"city":"Akron","company name":"MIDDLETON GEOTHERMAL SERVICES","geo_score":0.571,"id":"a6358dg3uc3k","geo_precision":"street","address":"PO Box 4894","state":"OH"},"type":"Feature","geometry":{"type":"Point","coordinates":[-81.522037,40.983222]}},{"properties":{"city":"Findlay","company name":"Greensleeves LLC","geo_score":0.732,"id":"a6358dafrcdn","geo_precision":"range","address":"1995 Tiffin Avenue Ste. 307","state":"OH"},"type":"Feature","geometry":{"type":"Point","coordinates":[-92.952325,34.517347]}},{"properties":{"city":"Mason","company name":"Geothermal Solutions Div. of Wright Solutions Group","geo_score":0.476,"id":"a6358dfkf3mv","geo_precision":"street","address":"PO Box 1235","state":"OH"},"type":"Feature","geometry":{"type":"Point","coordinates":[-81.81299,30.06005]}},{"properties":{"city":"Plain City","company name":"Geo Source One Inc.","geo_score":0.571,"id":"a6358da25f3c","geo_precision":"street","address":"9021 Heritage Dr. Ste. B","state":"OH"},"type":"Feature","geometry":{"type":"Point","coordinates":[-96.747042,32.986252]}},{"properties":{"city":"Sugarcreek","company name":"Yoder Drilling &amp; Geothermal Inc.","geo_score":0.537,"id":"a6358disgjz3","geo_precision":"street","address":"997 State Route 93 NW","state":"OH"},"type":"Feature","geometry":{"type":"Point","coordinates":[-93.811864,35.151201]}},{"properties":{"city":"Edmond","company name":"Wallace Mechanical LLC","geo_score":0.583,"id":"a6358dflk2ck","geo_precision":"street","address":"525 Evergreen St.","state":"OK"},"type":"Feature","geometry":{"type":"Point","coordinates":[-97.538497,35.763771]}},{"properties":{"city":"Oklahoma City","company name":"Hunter Mechanical &amp; Controls Inc.","geo_score":0.49,"id":"a6358d82v7tl","geo_precision":"street","address":"5305 N. Santa Fe Ave.","state":"OK"},"type":"Feature","geometry":{"type":"Point","coordinates":[-97.65073,35.487842]}}],"is_temporal":false,"author":{"url":"","metadata":"","contact_name":"","contact_address":"","source":"","contact_phone":""},"source":"","pagination":{"sort":null,"start":0,"total":42,"limit":1000000},"state":"complete","tags":"","published":"2014-08-10T10:59:16-04:00","id":90003}