{"type":"FeatureCollection","data_type":"Dataset","url_type":null,"permissions":[{"permissions":{"download":true,"view":true},"group_id":"everyone"}],"classification":null,"title":"Washington Stores","count":510,"stream_id":90338,"contributor":{"url":"http://geocommons.com/users/21621","name":"enoc22"},"data_attributes":null,"calculation_params":null,"icon_link":null,"link":"http://geocommons.com/overlays/90338.json","extent":[-124.054,45.5789,-117.046,48.9976],"geometry_types":["point"],"unique_name":null,"name":"Washington Stores","feature_count":510,"description":"Stores in Washington","next_feature":null,"is_raster":false,"short_classification":"Y","stats":{},"features":[{"properties":{"city":"College Place","zip":"98665","geo_score":0.927,"description":"Andy's Market - Grocery Store / Health Food Store.","id":"a62gczdlb23d","geo_precision":"range","address":"7223 NE Hazel Dell Ave","state":"Washington"},"type":"Feature","geometry":{"type":"Point","coordinates":[-122.668242,45.674268]}},{"properties":{"city":"Chelan","zip":"98371","geo_score":0.84,"description":"Bear Foods Market - Visit Bear Foods for a unique natural shopping experience..","id":"a62gczlr73a1","geo_precision":"range","address":"7812 River Rd E","state":"Washington"},"type":"Feature","geometry":{"type":"Point","coordinates":[-122.32553,47.207741]}},{"properties":{"city":"SEATTLE","zip":"98373","geo_score":0.819,"description":"Bee Well Vitamin Shoppe - The Cutest Little Health Shoppe in Seattle.","id":"a62gcziigx3c","geo_precision":"range","address":"3817 Meridian St S","state":"Washington"},"type":"Feature","geometry":{"type":"Point","coordinates":[-122.292976,47.156614]}},{"properties":{"city":"Lopez Island","zip":"99206","geo_score":0.917,"description":"Blossom Local","id":"a62gczg720qw","geo_precision":"range","address":"3426 S University Rd #200","state":"Washington"},"type":"Feature","geometry":{"type":"Point","coordinates":[-117.261356,47.65434]}},{"properties":{"city":"Bellingham","zip":"99021","geo_score":0.857,"description":"Community Food Co-op - Full-line natural foods grocer--leading supplier in NW Washington.","id":"a62gczk6xakm","geo_precision":"range","address":"14202 N Market","state":"Washington"},"type":"Feature","geometry":{"type":"Point","coordinates":[-117.352269,47.786266]}},{"properties":{"city":"Deming","zip":null,"geo_score":0.857,"description":"Everybody's Store - Where Upscale Meets Downhome.","id":"a62gczlnh5fg","geo_precision":"city","address":null,"state":"Washington"},"type":"Feature","geometry":{"type":"Point","coordinates":[-122.091834,48.80177]}},{"properties":{"city":"Republic","zip":"98225","geo_score":0.762,"description":"Ferry County Co-op - Organic &amp; Whole Foods -Wide variety of soy and rice products for wheat-free alternative diets.","id":"a62gczd2gqgm","geo_precision":"range","address":"1305 Railroad Ave","state":"Washington"},"type":"Feature","geometry":{"type":"Point","coordinates":[-122.478084,48.749124]}},{"properties":{"city":"Port Angeles","zip":null,"geo_score":0.74,"description":"Good To Go! Natural Grocery - Real Food","id":"a62gczedfu5n","geo_precision":"city","address":null,"state":"Washington"},"type":"Feature","geometry":{"type":"Point","coordinates":[-122.62541,47.388985]}},{"properties":{"city":"Kirkland","zip":"98110","geo_score":0.915,"description":"Green Line Organic Health - Health Food Store.","id":"a62gczbtlgs2","geo_precision":"range","address":"169 Winslow Way E","state":"Washington"},"type":"Feature","geometry":{"type":"Point","coordinates":[-122.520513,47.624871]}},{"properties":{"city":"Vancouver","zip":"98683","geo_score":1.0,"description":"Healthline Nutrition Ctr - mon to Friday 10- 6pm.","id":"a62gczmeyo2w","geo_precision":"range","address":"815 Southeast 160th Ave","state":"Washington"},"type":"Feature","geometry":{"type":"Point","coordinates":[-122.507562,45.615631]}},{"properties":{"city":"Spokane","zip":"98005","geo_score":0.827,"description":"Huckleberry's Fresh Market - Natural Food Store.","id":"a62gczkg0zt1","geo_precision":"range","address":"15 Lake Bellevue Dr Ste 100","state":"Washington"},"type":"Feature","geometry":{"type":"Point","coordinates":[-122.179664,47.619083]}},{"properties":{"city":"Brainbridge Island","zip":"98683","geo_score":0.92,"description":"Island Health Foods - Natural Food Store.","id":"a62gczknjaqi","geo_precision":"range","address":"815 SE 160th Ave","state":"Washington"},"type":"Feature","geometry":{"type":"Point","coordinates":[-122.507562,45.615631]}},{"properties":{"city":"Lakebay","zip":"98466","geo_score":0.819,"description":"JED's Good Stuff - Organic and Natural foods","id":"a62gczrlsuqd","geo_precision":"range","address":"6810 27th St W","state":"Washington"},"type":"Feature","geometry":{"type":"Point","coordinates":[-122.527578,47.235418]}},{"properties":{"city":"Langley","zip":"98121","geo_score":0.93,"description":"Living Green Natural Food and Apothecary - Living Green Natural Food and Apothecary/Vegetarian Cafe.","id":"a62gczrs0lkz","geo_precision":"range","address":"2210 Westlake Ave","state":"Washington"},"type":"Feature","geometry":{"type":"Point","coordinates":[-122.338393,47.618009]}},{"properties":{"city":"Spokane","zip":"98115","geo_score":0.829,"description":"Lorien Herbs &amp; Natural Foods - Natural Foods and Herbs.","id":"a62gczh74rak","geo_precision":"range","address":"1026 NE 64th St","state":"Washington"},"type":"Feature","geometry":{"type":"Point","coordinates":[-122.317214,47.674977]}},{"properties":{"city":"Seattle","zip":"98052","geo_score":0.913,"description":"Madison Market - Natural Foods Cooperative.","id":"a62gczn7cfkf","geo_precision":"range","address":"17991 Redmond Way","state":"Washington"},"type":"Feature","geometry":{"type":"Point","coordinates":[-122.099565,47.665209]}},{"properties":{"city":"Mountlake Terrace","zip":"98052","geo_score":0.86,"description":"Manna Mills Natural Food Store - 100 % Organic Produce &amp; Organic Grain Fed Beef.","id":"a62gczoaz422","geo_precision":"range","address":"17991 NE Redmond Way","state":"Washington"},"type":"Feature","geometry":{"type":"Point","coordinates":[-122.099565,47.665209]}},{"properties":{"city":"Federal Way","zip":"98335","geo_score":0.902,"description":"Marlene's Market &amp; Deli - Natural food store with restaurant","id":"a62gczoit2qz","geo_precision":"range","address":"3122 Harborview Dr","state":"Washington"},"type":"Feature","geometry":{"type":"Point","coordinates":[-122.581019,47.329625]}},{"properties":{"city":"Tacoma","zip":"98004","geo_score":0.92,"description":"Marlene's Market &amp; Deli - Organic. Natural. Independent. Local. Since 1976..","id":"a62gczny7b4z","geo_precision":"range","address":"888 116th Ave NE","state":"Washington"},"type":"Feature","geometry":{"type":"Point","coordinates":[-122.185638,47.618502]}},{"properties":{"city":"Kettle Falls","zip":"98403","geo_score":0.745,"description":"Meyers Falls Market - Natural Food Store and Deli located in beautiful Kettle Falls","id":"a62gczl2m71c","geo_precision":"range","address":"909 North I St Ste 108","state":"Washington"},"type":"Feature","geometry":{"type":"Point","coordinates":[-122.461507,47.265485]}},{"properties":{"city":"Union Gap","zip":"98126","geo_score":0.805,"description":"Mill Creek Natural Foods","id":"a62gczrf9vnn","geo_precision":"range","address":"4201 SW Morgan St","state":"Washington"},"type":"Feature","geometry":{"type":"Point","coordinates":[-122.385755,47.54484]}},{"properties":{"city":"Seattle","zip":null,"geo_score":0.857,"description":"Mother Nature's Natural Health Store - Health Food Store.","id":"a62gczd44orn","geo_precision":"city","address":null,"state":"Washington"},"type":"Feature","geometry":{"type":"Point","coordinates":[-122.332071,47.60621]}},{"properties":{"city":"Spokane","zip":"98801","geo_score":0.925,"description":"Mother's Cupboard - Natural Food Store.","id":"a62gcznkj5j6","geo_precision":"range","address":"222 N Wenatchee Ave","state":"Washington"},"type":"Feature","geometry":{"type":"Point","coordinates":[-120.31365,47.427456]}},{"properties":{"city":"Colville","zip":"99403","geo_score":0.804,"description":"Mt Sunflower Natural Market - Health Food Store.","id":"a62gczm7mfsw","geo_precision":"range","address":"800 6th St","state":"Washington"},"type":"Feature","geometry":{"type":"Point","coordinates":[-117.04557,46.4145]}},{"properties":{"city":"Kent","zip":"98271","geo_score":0.634,"description":"Nature's Market - Natural Food Store.","id":"a62gczraojl3","geo_precision":"street","address":"10600 Quil Ceda Blvd","state":"Washington"},"type":"Feature","geometry":{"type":"Point","coordinates":[-122.166247,48.097225]}},{"properties":{"city":"Tonasket","zip":"98383","geo_score":0.442,"description":"Okanogan River Natural Foods Co-op - Travelers are often amazed and always pleased to find us out here :  .","id":"a62gczqoap3e","geo_precision":"street","address":"PO Box 3409","state":"Washington"},"type":"Feature","geometry":{"type":"Point","coordinates":[-122.714708,47.636949]}},{"properties":{"city":"Olympia","zip":"98383","geo_score":0.956,"description":"Olympia Food Co-op -","id":"a62gczrwdjg4","geo_precision":"range","address":"10315 Silverdale Way NW","state":"Washington"},"type":"Feature","geometry":{"type":"Point","coordinates":[-122.687679,47.656619]}},{"properties":{"city":"Olympia","zip":"98052","geo_score":0.84,"description":"Olympia Food Co-op East - The Olympia Food Coop operates two stores.","id":"a62gczrh112n","geo_precision":"range","address":"16488 NE 74th St","state":"Washington"},"type":"Feature","geometry":{"type":"Point","coordinates":[-122.120691,47.670405]}},{"properties":{"city":"Eastsound","zip":"98373","geo_score":0.796,"description":"Orcas Home Grown Market and Deli - Natural Food Store and Deli.","id":"a62gczl3yjvi","geo_precision":"range","address":"3500 S Meridian Ste 305","state":"Washington"},"type":"Feature","geometry":{"type":"Point","coordinates":[-122.293185,47.164464]}},{"properties":{"city":"Olympia","zip":"98045","geo_score":0.79,"description":"Organics To Go - Organics To Go - Your Online Grocer.","id":"a62gczrlzcfn","geo_precision":"range","address":"661 S Fork Ave SW Ste G","state":"Washington"},"type":"Feature","geometry":{"type":"Point","coordinates":[-121.792682,47.491209]}},{"properties":{"city":"Seattle","zip":"98037","geo_score":0.902,"description":"PCC Natural Markets","id":"a62gczd2ye3f","geo_precision":"range","address":"3000 184th St SW","state":"Washington"},"type":"Feature","geometry":{"type":"Point","coordinates":[-122.273678,47.831732]}},{"properties":{"city":"Seattle","zip":"98264","geo_score":0.863,"description":"PCC Natural Markets - Fremont - Full-line natural foods co-op grocery serving the Seattle area..","id":"a62gczdg6d82","geo_precision":"range","address":"8174 Guide Meridian","state":"Washington"},"type":"Feature","geometry":{"type":"Point","coordinates":[-122.485389,48.938117]}},{"properties":{"city":"Seattle","zip":"99336","geo_score":0.885,"description":"PCC Natural Markets - Greenlake - Full-line natural foods grocery co-op serving the Seattle area..","id":"a62gczr166ug","geo_precision":"range","address":"1321 North Columbia Ctr Blvd","state":"Washington"},"type":"Feature","geometry":{"type":"Point","coordinates":[-119.22361,46.224668]}},{"properties":{"city":"Issaquah","zip":"98240","geo_score":0.532,"description":"PCC Natural Markets - Issaquah - Full-line natural foods co-op grocery serving the Seattle area..","id":"a62gczq2j95j","geo_precision":"street","address":"3400 Birch Bay Ste #A2A","state":"Washington"},"type":"Feature","geometry":{"type":"Point","coordinates":[-122.643906,48.906337]}},{"properties":{"city":"Kirkland","zip":"98531","geo_score":0.38,"description":"PCC Natural Markets - Kirkland - Full-line natural foods grocery co-op serving the Seattle area..","id":"a62gczle6c94","geo_precision":"street","address":"2110 Havil Rd","state":"Washington"},"type":"Feature","geometry":{"type":"Point","coordinates":[-122.86003,46.879349]}},{"properties":{"city":"Redmond","zip":"98233","geo_score":0.902,"description":"PCC Natural Markets - Redmond - Full-line natural foods co-op grocery serving the Seattle area..","id":"a62gczgx0947","geo_precision":"range","address":"284 Fashion Way","state":"Washington"},"type":"Feature","geometry":{"type":"Point","coordinates":[-122.336032,48.457168]}},{"properties":{"city":"Seattle","zip":"98226","geo_score":0.687,"description":"PCC Natural Markets - Seward Park - Full-line natural foods co-op grocery serving the Seattle area..","id":"a62gczkd7fd4","geo_precision":"street","address":"One Belles Fair Pkwy #702","state":"Washington"},"type":"Feature","geometry":{"type":"Point","coordinates":[-122.480524,48.787838]}},{"properties":{"city":"Seattle","zip":"98001","geo_score":0.902,"description":"PCC Natural Markets - View Ridge - Full-line natural foods co-op grocery serving the Seattle area..","id":"a62gczge7gd6","geo_precision":"range","address":"1101 Super Mall Way #1361","state":"Washington"},"type":"Feature","geometry":{"type":"Point","coordinates":[-122.252118,47.298283]}},{"properties":{"city":"Seattle","zip":"98188","geo_score":0.915,"description":"PCC Natural Markets - West Seattle - Full-line natural foods co-op grocery serving the Seattle area..","id":"a62gczra0vd2","geo_precision":"range","address":"17401 Southcenter Pkwy","state":"Washington"},"type":"Feature","geometry":{"type":"Point","coordinates":[-122.262461,47.449925]}},{"properties":{"city":"Seattle","zip":"98052","geo_score":0.913,"description":"Pike Place Natural Foods - Health Food Store.","id":"a62gczg976mp","geo_precision":"range","address":"17124 Redmond Way","state":"Washington"},"type":"Feature","geometry":{"type":"Point","coordinates":[-122.112276,47.671147]}},{"properties":{"city":"Spokane","zip":"98502","geo_score":0.829,"description":"Pilgrim's Fine Foods - Natural Food Store.","id":"a62gczntb1t1","geo_precision":"range","address":"1111 Cooper Point Way","state":"Washington"},"type":"Feature","geometry":{"type":"Point","coordinates":[-122.9412,47.05523]}},{"properties":{"city":"Seattle","zip":"98029","geo_score":0.488,"description":"Pilgrim's Natural Foods Mkt - Health Food Store.","id":"a62gczcxq358","geo_precision":"street","address":"6150 E. Lake Sammamish Pkwy","state":"Washington"},"type":"Feature","geometry":{"type":"Point","coordinates":[-122.081892,47.595924]}},{"properties":{"city":"Spokane","zip":"98295","geo_score":0.476,"description":"Pilgrim's Natural Foods Mkt - Natural Food Store.","id":"a62gczkdgbwr","geo_precision":"street","address":"PO Box 2000","state":"Washington"},"type":"Feature","geometry":{"type":"Point","coordinates":[-122.666206,48.282575]}},{"properties":{"city":"Spokane","zip":"98052","geo_score":0.913,"description":"Pilgrim's Natural Foods Mkt - Natural Food Store.","id":"a62gczfsjf76","geo_precision":"range","address":"15940 Redmond Way","state":"Washington"},"type":"Feature","geometry":{"type":"Point","coordinates":[-122.128766,47.674588]}},{"properties":{"city":"Spokane","zip":"98083","geo_score":0.333,"description":"Pilgrim's Natural Foods Mkt - Natural Food Store.","id":"a62gczjq1v5b","geo_precision":"street","address":"PO Box 3474","state":"Washington"},"type":"Feature","geometry":{"type":"Point","coordinates":[-122.036588,47.528394]}},{"properties":{"city":"Spokane","zip":"98373","geo_score":0.843,"description":"Pilgrim's Natural Foods Mkt - Natural Foods Store.","id":"a62gczl159q7","geo_precision":"range","address":"12105 78th Ave East","state":"Washington"},"type":"Feature","geometry":{"type":"Point","coordinates":[-122.32547,47.14647]}},{"properties":{"city":"Everett","zip":"98944","geo_score":0.381,"description":"Pilgrim's Nature Way - Health Food and Natural Food Store.","id":"a62gczfmgj3f","geo_precision":"street","address":"PO Box 1560","state":"Washington"},"type":"Feature","geometry":{"type":"Point","coordinates":[-120.924562,47.161853]}},{"properties":{"city":"Oak Harbor","zip":"98070","geo_score":0.339,"description":"Pilgrim's Nutrition Center - Health Food Store.","id":"a62gczey96dd","geo_precision":"street","address":"PO Box 307","state":"Washington"},"type":"Feature","geometry":{"type":"Point","coordinates":[-122.036588,47.528394]}},{"properties":{"city":"Seattle","zip":"98273","geo_score":0.841,"description":"Rainbow Natural Grocery - Your Independent Natural Food Store.","id":"a62gczkj22dl","geo_precision":"range","address":"221 S 1st St","state":"Washington"},"type":"Feature","geometry":{"type":"Point","coordinates":[-122.336872,48.421145]}},{"properties":{"city":"Spokane","zip":"98230","geo_score":0.723,"description":"Rocket Market - Natural Food Store.","id":"a62gczp8sy4a","geo_precision":"street","address":"1828 Peace Portal Dr #22","state":"Washington"},"type":"Feature","geometry":{"type":"Point","coordinates":[-122.752287,48.997571]}},{"properties":{"city":"Ephrata","zip":"98368","geo_score":0.927,"description":"Settler's Country Market - Natural &amp; Organic.","id":"a62gczjqqxkf","geo_precision":"range","address":"1002 Lawrence St","state":"Washington"},"type":"Feature","geometry":{"type":"Point","coordinates":[-122.760685,48.117385]}},{"properties":{"city":"Mount Vernon","zip":"98012","geo_score":0.864,"description":"Skagit Valley Food Co-op - Full line natural foods with sitdown deli.","id":"a62gczmvhudz","geo_precision":"range","address":"18001 Bothell Everett Hwy Ste L","state":"Washington"},"type":"Feature","geometry":{"type":"Point","coordinates":[-122.210766,47.83463]}},{"properties":{"city":"Everett","zip":null,"geo_score":0.857,"description":"SnoIsle Natural Foods Co-op - Sno-Isle Natural Foods Co-op.","id":"a62gczj5ob3r","geo_precision":"city","address":null,"state":"Washington"},"type":"Feature","geometry":{"type":"Point","coordinates":[-122.202079,47.978985]}},{"properties":{"city":"Spokane","zip":"98012","geo_score":0.858,"description":"Spokane Vitamin and Mineral - Natural Food Store.","id":"a62gczckl8uv","geo_precision":"range","address":"18001 Bothell-Everett Hwy Ste L","state":"Washington"},"type":"Feature","geometry":{"type":"Point","coordinates":[-122.210766,47.83463]}},{"properties":{"city":"Bellingham","zip":"98107","geo_score":0.822,"description":"Terra Organica - Organic Market Place.","id":"a62gczm6y6bp","geo_precision":"range","address":"2208 NW Market St Ste 507","state":"Washington"},"type":"Feature","geometry":{"type":"Point","coordinates":[-122.384836,47.668676]}},{"properties":{"city":"Port Townsend","zip":"98110","geo_score":0.927,"description":"The Food Co-op - Specializing in organic whole foods.","id":"a62gczlgpvar","geo_precision":"range","address":"343 Winslow Way E","state":"Washington"},"type":"Feature","geometry":{"type":"Point","coordinates":[-122.518453,47.624859]}},{"properties":{"city":"Burien","zip":"98631","geo_score":0.333,"description":"The Grainery - Health Food Store.","id":"a62gczoi4qvs","geo_precision":"street","address":"PO box 1061","state":"Washington"},"type":"Feature","geometry":{"type":"Point","coordinates":[-121.188285,45.65437]}},{"properties":{"city":"Seattle","zip":"99205","geo_score":0.93,"description":"The Herbalist - Celebrating 20 Year of Quality Herbal Products.","id":"a62gczis75t1","geo_precision":"range","address":"5014 North Ash St","state":"Washington"},"type":"Feature","geometry":{"type":"Point","coordinates":[-117.436417,47.70363]}},{"properties":{"city":"Bothell","zip":"98903","geo_score":0.827,"description":"TruHealth - Quality Nutritional Products - A Truly Healthy Health Food Store.","id":"a62gczc19iqs","geo_precision":"range","address":"2203 South 1st St","state":"Washington"},"type":"Feature","geometry":{"type":"Point","coordinates":[-120.487509,46.570476]}},{"properties":{"city":"Wenatchee","zip":"98072","geo_score":0.902,"description":"Wenatchee Natural Foods - health food grocery store.","id":"a62gczjwrwg1","geo_precision":"range","address":"17641 Garden Way NE","state":"Washington"},"type":"Feature","geometry":{"type":"Point","coordinates":[-122.155212,47.755097]}},{"properties":{"city":"Bainbridge Island","zip":"98802","geo_score":0.909,"description":"Willow's Naturally - Health Food Store.","id":"a62gczezpeju","geo_precision":"range","address":"10 Grant Rd","state":"Washington"},"type":"Feature","geometry":{"type":"Point","coordinates":[-120.289478,47.406033]}},{"properties":{"city":"Yelm","zip":"98405","geo_score":0.835,"description":"Yelm Food Co-op - .","id":"a62gczj7igi2","geo_precision":"range","address":"3130 S 23rd St","state":"Washington"},"type":"Feature","geometry":{"type":"Point","coordinates":[-122.477271,47.237482]}},{"properties":{"city":"Olympia","zip":"98290","geo_score":0.902,"description":"1st Chinies Herbs","id":"a62gczmrpet0","geo_precision":"range","address":"1301 Ave D","state":"Washington"},"type":"Feature","geometry":{"type":"Point","coordinates":[-122.098262,47.927053]}},{"properties":{"city":"Pt Angeles","zip":"98133","geo_score":0.913,"description":"1st Choice Nutritionals","id":"a62gczjkv8k2","geo_precision":"range","address":"1201 North 175th St","state":"Washington"},"type":"Feature","geometry":{"type":"Point","coordinates":[-122.344022,47.755968]}},{"properties":{"city":"Marysville","zip":"98502","geo_score":0.854,"description":"A to Z Nutrition","id":"a62gczi11qiy","geo_precision":"range","address":"1313 Cooper Point Rd","state":"Washington"},"type":"Feature","geometry":{"type":"Point","coordinates":[-122.941195,47.056753]}},{"properties":{"city":"Deer Park","zip":"98516","geo_score":0.885,"description":"Acorn Natural Foods","id":"a62gczfyviqa","geo_precision":"range","address":"5600 Martin Way","state":"Washington"},"type":"Feature","geometry":{"type":"Point","coordinates":[-122.807769,47.049637]}},{"properties":{"city":"Spokane","zip":"98031","geo_score":0.639,"description":"Akins Foods","id":"a62gczdno8ov","geo_precision":"street","address":"26015 104th Ave SE","state":"Washington"},"type":"Feature","geometry":{"type":"Point","coordinates":[-122.202293,47.367667]}},{"properties":{"city":"Anacortes","zip":"98003","geo_score":0.851,"description":"Anacortes Health &amp; Nutrition","id":"a62gczcyez0l","geo_precision":"range","address":"31515 20th Ave South","state":"Washington"},"type":"Feature","geometry":{"type":"Point","coordinates":[-122.308087,47.319353]}},{"properties":{"city":"College Place","zip":"98204","geo_score":0.705,"description":"Andy's Market","id":"a62gcze91peq","geo_precision":"street","address":"1605 SE Everett Mall Way","state":"Washington"},"type":"Feature","geometry":{"type":"Point","coordinates":[-122.244095,47.904095]}},{"properties":{"city":"College Place","zip":"98026","geo_score":0.911,"description":"Andy's Market - Grocery Store / Health Food Store.","id":"a62gczcxkmez","geo_precision":"range","address":"21900 Hwy 99","state":"Washington"},"type":"Feature","geometry":{"type":"Point","coordinates":[-122.331166,47.800323]}},{"properties":{"city":"Everett","zip":"98008","geo_score":0.841,"description":"Apothecary In Thyme","id":"a62gczkhyt1f","geo_precision":"range","address":"15751 NE 15th St","state":"Washington"},"type":"Feature","geometry":{"type":"Point","coordinates":[-122.130634,47.623225]}},{"properties":{"city":"Arlington","zip":"98002","geo_score":0.924,"description":"Arlington Health Foods","id":"a62gczcwd287","geo_precision":"range","address":"1702 Auburn Way North","state":"Washington"},"type":"Feature","geometry":{"type":"Point","coordinates":[-122.22153,47.323221]}},{"properties":{"city":"Rochester","zip":"98520","geo_score":0.513,"description":"Bailey's IGA","id":"a62gczi85qr8","geo_precision":"street","address":"1213 E Wishkah","state":"Washington"},"type":"Feature","geometry":{"type":"Point","coordinates":[-123.818615,46.982901]}},{"properties":{"city":"Ballinger","zip":"98104","geo_score":0.621,"description":"Ballinger Village Market","id":"a62gczqf2nq4","geo_precision":"street","address":"800 5th Ave #101-120","state":"Washington"},"type":"Feature","geometry":{"type":"Point","coordinates":[-122.327885,47.60227]}},{"properties":{"city":"Spokane","zip":"98272","geo_score":0.902,"description":"Barney's Sooper Markets","id":"a62gczdsl3hw","geo_precision":"range","address":"109 W Main St","state":"Washington"},"type":"Feature","geometry":{"type":"Point","coordinates":[-121.970847,47.855715]}},{"properties":{"city":"Seattle","zip":"99223","geo_score":0.662,"description":"Bartell Drug","id":"a62gczpajo9z","geo_precision":"street","address":"726 E 43rd Ave","state":"Washington"},"type":"Feature","geometry":{"type":"Point","coordinates":[-117.363145,47.61453]}},{"properties":{"city":"Olympia","zip":null,"geo_score":0.857,"description":"Bayview Thriftway #722","id":"a62gczq82606","geo_precision":"city","address":null,"state":"Washington"},"type":"Feature","geometry":{"type":"Point","coordinates":[-122.900695,47.037874]}},{"properties":{"city":"Chelan","zip":"98115","geo_score":0.829,"description":"Bear Foods","id":"a62gczic8cem","geo_precision":"range","address":"2106 NE 65th St","state":"Washington"},"type":"Feature","geometry":{"type":"Point","coordinates":[-122.304366,47.675774]}},{"properties":{"city":"Chelan","zip":"98837","geo_score":0.944,"description":"Bear Foods Market - Visit Bear Foods for a unique natural shopping experience..","id":"a62gczkxtmh5","geo_precision":"range","address":"639 S Pioneer Way","state":"Washington"},"type":"Feature","geometry":{"type":"Point","coordinates":[-119.26958,47.129473]}},{"properties":{"city":"SEATTLE","zip":null,"geo_score":0.857,"description":"Bee Well Vitamin Shoppe - The Cutest Little Health Shoppe in Seattle.","id":"a62gczgm8ox9","geo_precision":"city","address":null,"state":"Washington"},"type":"Feature","geometry":{"type":"Point","coordinates":[-122.332071,47.60621]}},{"properties":{"city":"Union Gap","zip":"98260","geo_score":0.454,"description":"Beem's New Life Nutrition Ctr","id":"a62gczefiref","geo_precision":"street","address":"PO Box 578","state":"Washington"},"type":"Feature","geometry":{"type":"Point","coordinates":[-122.511413,48.095254]}},{"properties":{"city":"Yakima","zip":"98168","geo_score":0.825,"description":"Beem's New Life Nutrition Ctr","id":"a62gczlt59lb","geo_precision":"range","address":"13629 1st Ave South","state":"Washington"},"type":"Feature","geometry":{"type":"Point","coordinates":[-122.333824,47.480763]}},{"properties":{"city":"Spokane","zip":"98382","geo_score":0.924,"description":"Better Health &amp; Home","id":"a62gczrt22f0","geo_precision":"range","address":"255 Riverside Rd","state":"Washington"},"type":"Feature","geometry":{"type":"Point","coordinates":[-123.145852,48.064611]}},{"properties":{"city":"Ellensburg","zip":null,"geo_score":0.857,"description":"Better Life Natural Foods","id":"a62gczkq4ux1","geo_precision":"city","address":null,"state":"Washington"},"type":"Feature","geometry":{"type":"Point","coordinates":[-120.48998,47.028084]}},{"properties":{"city":"Seattle","zip":"98368","geo_score":0.915,"description":"Be-Well Vitamin Shop","id":"a62gczh25eoo","geo_precision":"range","address":"414 Kearney St","state":"Washington"},"type":"Feature","geometry":{"type":"Point","coordinates":[-122.771036,48.11037]}},{"properties":{"city":"Lopez Island","zip":"98368","geo_score":0.92,"description":"Blossom Local, Organic, &amp; Natural Grocery - A Natural Foods Store on the Island of Good Food.","id":"a62gczr7erxu","geo_precision":"range","address":"414 Kearney St","state":"Washington"},"type":"Feature","geometry":{"type":"Point","coordinates":[-122.771036,48.11037]}},{"properties":{"city":"Puyallup","zip":"98631","geo_score":0.636,"description":"Canyon Road Nutrition","id":"a62gczlgpl1j","geo_precision":"range","address":"811 Pacific Hwy S Unit 20","state":"Washington"},"type":"Feature","geometry":{"type":"Point","coordinates":[-124.054249,46.355895]}},{"properties":{"city":"Mill Creek","zip":"98055","geo_score":0.68,"description":"Central Market","id":"a62gczcobtb2","geo_precision":"range","address":"801 SW 16th St Ste 121","state":"Washington"},"type":"Feature","geometry":{"type":"Point","coordinates":[-122.227562,47.466007]}},{"properties":{"city":"Seattle","zip":"98225","geo_score":0.819,"description":"Central Market","id":"a62gczd2sy2o","geo_precision":"range","address":"1530 Cornwall Ave Ste 101","state":"Washington"},"type":"Feature","geometry":{"type":"Point","coordinates":[-122.475367,48.752526]}},{"properties":{"city":"Shoreline","zip":null,"geo_score":0.857,"description":"Central Market","id":"a62gczhqe5of","geo_precision":"city","address":null,"state":"Washington"},"type":"Feature","geometry":{"type":"Point","coordinates":[-122.341518,47.755653]}},{"properties":{"city":"Seattle","zip":"98520","geo_score":0.902,"description":"Choy's Herbs","id":"a62gczhfaa8y","geo_precision":"range","address":"1401 Simpson Ave","state":"Washington"},"type":"Feature","geometry":{"type":"Point","coordinates":[-123.832373,46.975099]}},{"properties":{"city":"University Place","zip":"98358","geo_score":0.805,"description":"College Place Nutrition","id":"a62gczpqltep","geo_precision":"range","address":"1210 F St","state":"Washington"},"type":"Feature","geometry":{"type":"Point","coordinates":[-122.775047,48.121513]}},{"properties":{"city":"Bellingham","zip":"98003","geo_score":0.429,"description":"Community Food Coop","id":"a62gczod1gvo","geo_precision":"street","address":"2019 S Seatac Mall #A","state":"Washington"},"type":"Feature","geometry":{"type":"Point","coordinates":[-122.000562,47.197283]}},{"properties":{"city":"Bellingham","zip":"98042","geo_score":0.802,"description":"Community Food Co-op","id":"a62gczn6kzff","geo_precision":"range","address":"15220 SE 277nd","state":"Washington"},"type":"Feature","geometry":{"type":"Point","coordinates":[-122.138626,47.353075]}},{"properties":{"city":"Bellingham","zip":"98382","geo_score":0.87,"description":"Community Food Co-op - Full-line natural foods grocer--leading supplier in NW Washington.","id":"a62gczs7g7tg","geo_precision":"range","address":"261461 Hwy 101 W","state":"Washington"},"type":"Feature","geometry":{"type":"Point","coordinates":[-123.169839,48.078901]}},{"properties":{"city":"Stanwood","zip":"98260","geo_score":0.454,"description":"Cornucopia Natural Foods","id":"a62gczmuzpvn","geo_precision":"street","address":"PO Box 307","state":"Washington"},"type":"Feature","geometry":{"type":"Point","coordinates":[-122.511413,48.095254]}},{"properties":{"city":"Longview","zip":null,"geo_score":0.857,"description":"Country Village Nutrition Shoppe","id":"a62gczepg4j9","geo_precision":"city","address":null,"state":"Washington"},"type":"Feature","geometry":{"type":"Point","coordinates":[-123.057597,46.181872]}},{"properties":{"city":"Pt Angeles","zip":"99208","geo_score":0.924,"description":"Country-Air Grocery","id":"a62gczook5kg","geo_precision":"range","address":"1008 W Rosewood Ave","state":"Washington"},"type":"Feature","geometry":{"type":"Point","coordinates":[-117.425496,47.716525]}},{"properties":{"city":"Seattle","zip":null,"geo_score":0.857,"description":"Dandelion Botanical","id":"a62gczrem436","geo_precision":"city","address":null,"state":"Washington"},"type":"Feature","geometry":{"type":"Point","coordinates":[-122.332071,47.60621]}},{"properties":{"city":"Spokane","zip":"98201","geo_score":0.902,"description":"Dav Health &amp; Nutrition","id":"a62gczr4jsv4","geo_precision":"range","address":"2804 Grand Ave","state":"Washington"},"type":"Feature","geometry":{"type":"Point","coordinates":[-122.212876,47.980611]}},{"properties":{"city":"Ellensburg","zip":"98201","geo_score":0.457,"description":"Daybreak Natural Foods","id":"a62gczs6xgdo","geo_precision":"street","address":"2804 Grand Ave #M-7","state":"Washington"},"type":"Feature","geometry":{"type":"Point","coordinates":[-122.212173,48.006992]}},{"properties":{"city":"Edmonds","zip":"98501","geo_score":0.932,"description":"Edmonds Vitamin &amp; Herbs","id":"a62gczh7stpp","geo_precision":"range","address":"3405 Capitol Blvd S","state":"Washington"},"type":"Feature","geometry":{"type":"Point","coordinates":[-122.900292,47.01753]}},{"properties":{"city":"Auburn","zip":"98133","geo_score":0.913,"description":"Emerald City Smoothie","id":"a62gczrbut40","geo_precision":"range","address":"14355 Aurora Ave N","state":"Washington"},"type":"Feature","geometry":{"type":"Point","coordinates":[-122.345084,47.733138]}},{"properties":{"city":"Bellingham","zip":"98105","geo_score":0.902,"description":"Emerald City Smoothie","id":"a62gczri1aui","geo_precision":"range","address":"4336 Roosevelt Way NE","state":"Washington"},"type":"Feature","geometry":{"type":"Point","coordinates":[-122.317738,47.660113]}},{"properties":{"city":"Bonny Lake","zip":"98116","geo_score":0.92,"description":"Emerald City Smoothie","id":"a62gczokvr13","geo_precision":"range","address":"4700 California Ave SW","state":"Washington"},"type":"Feature","geometry":{"type":"Point","coordinates":[-122.386784,47.561111]}},{"properties":{"city":"Burien","zip":"98108","geo_score":0.932,"description":"Emerald City Smoothie","id":"a62gcze2anke","geo_precision":"range","address":"750 S Michigan St","state":"Washington"},"type":"Feature","geometry":{"type":"Point","coordinates":[-122.325038,47.546544]}},{"properties":{"city":"Federal Way","zip":"98177","geo_score":0.329,"description":"Emerald City Smoothie","id":"a62gczf26d1x","geo_precision":"street","address":"PO Box 77695","state":"Washington"},"type":"Feature","geometry":{"type":"Point","coordinates":[-122.308828,47.592341]}},{"properties":{"city":"Issaquah","zip":"99207","geo_score":0.916,"description":"Emerald City Smoothie","id":"a62gczje1wc0","geo_precision":"range","address":"2525 N Ruby St","state":"Washington"},"type":"Feature","geometry":{"type":"Point","coordinates":[-117.409892,47.681026]}},{"properties":{"city":"Kent","zip":"99212","geo_score":0.824,"description":"Emerald City Smoothie","id":"a62gczfhl0kq","geo_precision":"range","address":"6630 E Sprague Ave Ste C","state":"Washington"},"type":"Feature","geometry":{"type":"Point","coordinates":[-117.315814,47.656978]}},{"properties":{"city":"Kent","zip":"98406","geo_score":0.683,"description":"Emerald City Smoothie","id":"a62gczjlxot0","geo_precision":"range","address":"5902 6th Ave Ste A","state":"Washington"},"type":"Feature","geometry":{"type":"Point","coordinates":[-122.515956,47.255421]}},{"properties":{"city":"Lacey","zip":null,"geo_score":0.857,"description":"Emerald City Smoothie","id":"a62gczjxi75v","geo_precision":"city","address":null,"state":"Washington"},"type":"Feature","geometry":{"type":"Point","coordinates":[-122.796695,47.026418]}},{"properties":{"city":"Mill Creek","zip":"98823","geo_score":0.913,"description":"Emerald City Smoothie","id":"a62gczflzhg2","geo_precision":"range","address":"741 Basin St NW","state":"Washington"},"type":"Feature","geometry":{"type":"Point","coordinates":[-119.546834,47.327348]}},{"properties":{"city":"Orting","zip":"98532","geo_score":0.708,"description":"Emerald City Smoothie","id":"a62gczjp9wec","geo_precision":"street","address":"2100 N National Ave","state":"Washington"},"type":"Feature","geometry":{"type":"Point","coordinates":[-122.961219,46.684793]}},{"properties":{"city":"Redmond","zip":"98105","geo_score":0.912,"description":"Emerald City Smoothie","id":"a62gczcf5w0j","geo_precision":"range","address":"5270B University Way NE","state":"Washington"},"type":"Feature","geometry":{"type":"Point","coordinates":[-122.313047,47.666922]}},{"properties":{"city":"Renton","zip":"98273","geo_score":0.829,"description":"Emerald City Smoothie","id":"a62gczjloqo0","geo_precision":"range","address":"202 S 1st St","state":"Washington"},"type":"Feature","geometry":{"type":"Point","coordinates":[-122.336807,48.421236]}},{"properties":{"city":"Seattle","zip":"98273","geo_score":0.627,"description":"Emerald City Smoothie","id":"a62gczou7tmj","geo_precision":"street","address":"202 First St","state":"Washington"},"type":"Feature","geometry":{"type":"Point","coordinates":[-122.497103,48.390508]}},{"properties":{"city":"Seattle","zip":"98273","geo_score":0.841,"description":"Emerald City Smoothie","id":"a62gczqatqoo","geo_precision":"range","address":"202 S First St","state":"Washington"},"type":"Feature","geometry":{"type":"Point","coordinates":[-122.336807,48.421236]}},{"properties":{"city":"Vancouver","zip":null,"geo_score":0.857,"description":"Emerald City Smoothie","id":"a62gczkt67sa","geo_precision":"city","address":null,"state":"Washington"},"type":"Feature","geometry":{"type":"Point","coordinates":[-122.661486,45.638728]}},{"properties":{"city":"Seattle","zip":"98119","geo_score":0.902,"description":"Environmental Home Ctr","id":"a62gczmxi19a","geo_precision":"range","address":"1154 Elliott Ave West","state":"Washington"},"type":"Feature","geometry":{"type":"Point","coordinates":[-122.371345,47.628952]}},{"properties":{"city":"Bellevue","zip":"98055","geo_score":0.68,"description":"Evergreen Health Pantry","id":"a62gczol3xlo","geo_precision":"street","address":"707 Rainer Ave S","state":"Washington"},"type":"Feature","geometry":{"type":"Point","coordinates":[-122.218165,47.454657]}},{"properties":{"city":"Elma","zip":"98373","geo_score":0.744,"description":"Everybody's Health Market","id":"a62gczrdgiv0","geo_precision":"range","address":"4307 S Meridian St","state":"Washington"},"type":"Feature","geometry":{"type":"Point","coordinates":[-122.29317,47.164099]}},{"properties":{"city":"Deming","zip":"98516","geo_score":0.916,"description":"Everybody's Store - Where Upscale Meets Downhome.","id":"a62gczndx121","geo_precision":"range","address":"4104 Martin Way East","state":"Washington"},"type":"Feature","geometry":{"type":"Point","coordinates":[-122.833676,47.047937]}},{"properties":{"city":"Bellingham","zip":"98036","geo_score":0.652,"description":"Fairhaven Red Apple","id":"a62gczj3jqtr","geo_precision":"street","address":"19925 4th Ave West","state":"Washington"},"type":"Feature","geometry":{"type":"Point","coordinates":[-122.238566,47.821051]}},{"properties":{"city":"Federal Way","zip":"98499","geo_score":0.809,"description":"Family Pharmacy","id":"a62gczmag2b0","geo_precision":"range","address":"10011 Bridgeport Way SW Ste 1600","state":"Washington"},"type":"Feature","geometry":{"type":"Point","coordinates":[-122.509975,47.166597]}},{"properties":{"city":"Spokane","zip":"99336","geo_score":0.901,"description":"Farmers' Market","id":"a62gczjjy75l","geo_precision":"range","address":"5200 Clearwater Ave","state":"Washington"},"type":"Feature","geometry":{"type":"Point","coordinates":[-119.191792,46.21243]}},{"properties":{"city":"Republic","zip":"98028","geo_score":0.915,"description":"Ferry County Coop","id":"a62gczcjb0hw","geo_precision":"range","address":"6806 NE 175th St","state":"Washington"},"type":"Feature","geometry":{"type":"Point","coordinates":[-122.249718,47.757556]}},{"properties":{"city":"Republic","zip":"98003","geo_score":0.817,"description":"Ferry County Co-op - Organic &amp; Whole Foods -Wide variety of soy and rice products for wheat-free alternative diets.","id":"a62gczg9lljb","geo_precision":"range","address":"1401 S 348th St Ste M102","state":"Washington"},"type":"Feature","geometry":{"type":"Point","coordinates":[-122.316317,47.289713]}},{"properties":{"city":"Lynwood","zip":"98201","geo_score":0.902,"description":"First Choice Nutrition","id":"a62gczcw2c0w","geo_precision":"range","address":"4031 Colby Ave","state":"Washington"},"type":"Feature","geometry":{"type":"Point","coordinates":[-122.208,47.964262]}},{"properties":{"city":"Lynnwood","zip":"98233","geo_score":0.902,"description":"Food Emporium","id":"a62gczh310ss","geo_precision":"range","address":"1761 S Burlington Blvd","state":"Washington"},"type":"Feature","geometry":{"type":"Point","coordinates":[-122.335478,48.452696]}},{"properties":{"city":"Seattle","zip":"98310","geo_score":0.941,"description":"Food Markets NW","id":"a62gczkmymqt","geo_precision":"range","address":"3324 Wheaton Way","state":"Washington"},"type":"Feature","geometry":{"type":"Point","coordinates":[-122.629485,47.592855]}},{"properties":{"city":"Seattle","zip":"98225","geo_score":0.922,"description":"For Your Health","id":"a62gczn7e5eh","geo_precision":"range","address":"1300 Ellis St","state":"Washington"},"type":"Feature","geometry":{"type":"Point","coordinates":[-122.471776,48.745014]}},{"properties":{"city":"Tscoma","zip":"98007","geo_score":0.819,"description":"Forever Living Health","id":"a62gczrgi5m4","geo_precision":"range","address":"14733 NE 8th St","state":"Washington"},"type":"Feature","geometry":{"type":"Point","coordinates":[-122.144163,47.617049]}},{"properties":{"city":"Auburn","zip":"98101","geo_score":0.429,"description":"Fred Meyer Nutrition Center","id":"a62gczmi7ke1","geo_precision":"street","address":"1524 3rd Ave #B","state":"Washington"},"type":"Feature","geometry":{"type":"Point","coordinates":[-122.334674,47.606336]}},{"properties":{"city":"Battle Ground","zip":"98107","geo_score":0.878,"description":"Fred Meyer Nutrition Center","id":"a62gczm4n4pb","geo_precision":"range","address":"5607 20th Ave NW","state":"Washington"},"type":"Feature","geometry":{"type":"Point","coordinates":[-122.382125,47.669494]}},{"properties":{"city":"Bellevue","zip":"99214","geo_score":0.875,"description":"Fred Meyer Nutrition Center","id":"a62gczoj01s3","geo_precision":"zip","address":"PO Box 14686","state":"Washington"},"type":"Feature","geometry":{"type":"Point","coordinates":[-117.431742,47.653568]}},{"properties":{"city":"Bellingham","zip":null,"geo_score":0.857,"description":"Fred Meyer Nutrition Center","id":"a62gczgjte3s","geo_precision":"city","address":null,"state":"Washington"},"type":"Feature","geometry":{"type":"Point","coordinates":[-122.454297,48.747687]}},{"properties":{"city":"Bonney Lake","zip":"99216","geo_score":0.727,"description":"Fred Meyer Nutrition Center","id":"a62gczgj1sxy","geo_precision":"street","address":"14700 E Indiana Ave #1176","state":"Washington"},"type":"Feature","geometry":{"type":"Point","coordinates":[-117.239568,47.675497]}},{"properties":{"city":"Bothell","zip":"99207","geo_score":0.592,"description":"Fred Meyer Nutrition Center","id":"a62gczggo041","geo_precision":"zip","address":"4750 N DivisionSt #172","state":"Washington"},"type":"Feature","geometry":{"type":"Point","coordinates":[-117.314381,47.731837]}},{"properties":{"city":"Bremerton","zip":"99206","geo_score":0.44,"description":"Fred Meyer Nutrition Center","id":"a62gczdyujuj","geo_precision":"street","address":"9118 E Sprague Ave #B","state":"Washington"},"type":"Feature","geometry":{"type":"Point","coordinates":[-117.283355,47.656985]}},{"properties":{"city":"Burlington","zip":null,"geo_score":0.857,"description":"Fred Meyer Nutrition Center","id":"a62gczm6jj7e","geo_precision":"city","address":null,"state":"Washington"},"type":"Feature","geometry":{"type":"Point","coordinates":[-122.362337,48.533616]}},{"properties":{"city":"E Wenatchee","zip":null,"geo_score":0.843,"description":"Fred Meyer Nutrition Center","id":"a62gczhh2gio","geo_precision":"city","address":null,"state":"Washington"},"type":"Feature","geometry":{"type":"Point","coordinates":[-120.351884,47.573816]}},{"properties":{"city":"Ellensburg","zip":null,"geo_score":0.857,"description":"Fred Meyer Nutrition Center","id":"a62gczcd6uit","geo_precision":"city","address":null,"state":"Washington"},"type":"Feature","geometry":{"type":"Point","coordinates":[-120.48998,47.028084]}},{"properties":{"city":"Everett","zip":null,"geo_score":0.857,"description":"Fred Meyer Nutrition Center","id":"a62gczo9senh","geo_precision":"city","address":null,"state":"Washington"},"type":"Feature","geometry":{"type":"Point","coordinates":[-122.202079,47.978985]}},{"properties":{"city":"Everett","zip":null,"geo_score":0.857,"description":"Fred Meyer Nutrition Center","id":"a62gczkx1act","geo_precision":"city","address":null,"state":"Washington"},"type":"Feature","geometry":{"type":"Point","coordinates":[-122.202079,47.978985]}},{"properties":{"city":"Federal Way","zip":null,"geo_score":0.857,"description":"Fred Meyer Nutrition Center","id":"a62gczguwf0v","geo_precision":"city","address":null,"state":"Washington"},"type":"Feature","geometry":{"type":"Point","coordinates":[-121.803388,47.432251]}},{"properties":{"city":"Gig Harbor","zip":"99206","geo_score":0.44,"description":"Fred Meyer Nutrition Center","id":"a62gczfrs1cz","geo_precision":"street","address":"9118 E Sprague Ave #B","state":"Washington"},"type":"Feature","geometry":{"type":"Point","coordinates":[-117.283355,47.656985]}},{"properties":{"city":"Issaquah","zip":null,"geo_score":0.857,"description":"Fred Meyer Nutrition Center","id":"a62gczhi5jxx","geo_precision":"city","address":null,"state":"Washington"},"type":"Feature","geometry":{"type":"Point","coordinates":[-122.010699,47.497419]}},{"properties":{"city":"Kennewick","zip":"98034","geo_score":0.924,"description":"Fred Meyer Nutrition Center","id":"a62gczpdq1lh","geo_precision":"range","address":"12618 120th Ave NE","state":"Washington"},"type":"Feature","geometry":{"type":"Point","coordinates":[-122.179864,47.712839]}},{"properties":{"city":"Kent","zip":"98116","geo_score":0.683,"description":"Fred Meyer Nutrition Center","id":"a62gczruks38","geo_precision":"street","address":"4455 California SW","state":"Washington"},"type":"Feature","geometry":{"type":"Point","coordinates":[-122.38936,47.592146]}},{"properties":{"city":"Kirkland","zip":"98277","geo_score":0.911,"description":"Fred Meyer Nutrition Center","id":"a62gczpz5r8h","geo_precision":"range","address":"850 Bluewater Lane","state":"Washington"},"type":"Feature","geometry":{"type":"Point","coordinates":[-122.66229,48.260907]}},{"properties":{"city":"Lacey","zip":"98370","geo_score":0.837,"description":"Fred Meyer Nutrition Center","id":"a62gczqjjqid","geo_precision":"range","address":"20148 10th Ave NE","state":"Washington"},"type":"Feature","geometry":{"type":"Point","coordinates":[-122.637872,47.746202]}},{"properties":{"city":"Longview","zip":"98103","geo_score":0.929,"description":"Fred Meyer Nutrition Center","id":"a62gczmavmmb","geo_precision":"range","address":"9881 Aurora Ave N","state":"Washington"},"type":"Feature","geometry":{"type":"Point","coordinates":[-122.344645,47.700889]}},{"properties":{"city":"Lynnwood","zip":"98208","geo_score":0.476,"description":"Fred Meyer Nutrition Center","id":"a62gczfmtwam","geo_precision":"street","address":"309 E Casino Rd #A","state":"Washington"},"type":"Feature","geometry":{"type":"Point","coordinates":[-122.228046,47.921932]}},{"properties":{"city":"Marysville","zip":"98101","geo_score":0.922,"description":"Fred Meyer Nutrition Center","id":"a62gczceznwj","geo_precision":"range","address":"415 Pike St","state":"Washington"},"type":"Feature","geometry":{"type":"Point","coordinates":[-122.336578,47.610278]}},{"properties":{"city":"Monroe","zip":"98027","geo_score":0.854,"description":"Fred Meyer Nutrition Center","id":"a62gczpd7pss","geo_precision":"range","address":"1810 12th Ave NW","state":"Washington"},"type":"Feature","geometry":{"type":"Point","coordinates":[-122.057327,47.549428]}},{"properties":{"city":"Pt Orchard","zip":"98033","geo_score":0.778,"description":"Fred Meyer Nutrition Center","id":"a62gczkmznvq","geo_precision":"range","address":"10718 NE 68th","state":"Washington"},"type":"Feature","geometry":{"type":"Point","coordinates":[-122.197809,47.666752]}},{"properties":{"city":"Puyallup","zip":"98116","geo_score":0.911,"description":"Fred Meyer Nutrition Center","id":"a62gczp0vyn2","geo_precision":"range","address":"2749 California Ave SW","state":"Washington"},"type":"Feature","geometry":{"type":"Point","coordinates":[-122.386633,47.578933]}},{"properties":{"city":"Renton","zip":"98105","geo_score":0.912,"description":"Fred Meyer Nutrition Center","id":"a62gczek79sy","geo_precision":"range","address":"4201 Roosevelt Way NE","state":"Washington"},"type":"Feature","geometry":{"type":"Point","coordinates":[-122.317804,47.657512]}},{"properties":{"city":"Renton","zip":"98118","geo_score":0.902,"description":"Fred Meyer Nutrition Center","id":"a62gczhmsvpm","geo_precision":"range","address":"5041 Wilson Ave S","state":"Washington"},"type":"Feature","geometry":{"type":"Point","coordinates":[-122.270581,47.556453]}},{"properties":{"city":"Richland","zip":"98107","geo_score":0.683,"description":"Fred Meyer Nutrition Center","id":"a62gczjrp1z9","geo_precision":"range","address":"6234 6th","state":"Washington"},"type":"Feature","geometry":{"type":"Point","coordinates":[-122.36401,47.674378]}},{"properties":{"city":"Seattle","zip":"98115","geo_score":0.752,"description":"Fred Meyer Nutrition Center","id":"a62gczmb4h5q","geo_precision":"range","address":"6514 40th NE","state":"Washington"},"type":"Feature","geometry":{"type":"Point","coordinates":[-122.284908,47.67587]}},{"properties":{"city":"Seattle","zip":"98103","geo_score":0.819,"description":"Fred Meyer Nutrition Center","id":"a62gczdj5w7p","geo_precision":"range","address":"716 N 34th St","state":"Washington"},"type":"Feature","geometry":{"type":"Point","coordinates":[-122.349613,47.649536]}},{"properties":{"city":"Seattle","zip":"98103","geo_score":0.902,"description":"Fred Meyer Nutrition Center","id":"a62gczp2f7pi","geo_precision":"range","address":"7504 Aurora Ave N","state":"Washington"},"type":"Feature","geometry":{"type":"Point","coordinates":[-122.344486,47.68333]}},{"properties":{"city":"Shelton","zip":"98501","geo_score":0.829,"description":"Fred Meyer Nutrition Center","id":"a62gczrnd20w","geo_precision":"range","address":"113 5th Ave SE","state":"Washington"},"type":"Feature","geometry":{"type":"Point","coordinates":[-122.901448,47.044082]}},{"properties":{"city":"Shoreline","zip":"98112","geo_score":0.902,"description":"Fred Meyer Nutrition Center","id":"a62gczcse0a1","geo_precision":"range","address":"1463 E Republican St","state":"Washington"},"type":"Feature","geometry":{"type":"Point","coordinates":[-122.313464,47.623101]}},{"properties":{"city":"Spanaway","zip":null,"geo_score":0.857,"description":"Fred Meyer Nutrition Center","id":"a62gczhq0mhb","geo_precision":"city","address":null,"state":"Washington"},"type":"Feature","geometry":{"type":"Point","coordinates":[-122.41648,47.058452]}},{"properties":{"city":"Spokane","zip":"98112","geo_score":0.847,"description":"Fred Meyer Nutrition Center","id":"a62gczq37a3u","geo_precision":"range","address":"409 15th Ave E","state":"Washington"},"type":"Feature","geometry":{"type":"Point","coordinates":[-122.312643,47.62217]}},{"properties":{"city":"Spokane","zip":"98002","geo_score":0.704,"description":"Fred Meyer Nutrition Center","id":"a62gczrtqkxg","geo_precision":"street","address":"38629 Auburn Enumcaw Hwy","state":"Washington"},"type":"Feature","geometry":{"type":"Point","coordinates":[-122.192464,47.28836]}},{"properties":{"city":"Tacoma","zip":"98312","geo_score":0.92,"description":"Fred Meyer Nutrition Center","id":"a62gczpq47ay","geo_precision":"range","address":"6724 Kitsap Way","state":"Washington"},"type":"Feature","geometry":{"type":"Point","coordinates":[-122.703449,47.579489]}},{"properties":{"city":"Tacoma","zip":"98501","geo_score":0.493,"description":"Fred Meyer Nutrition Center","id":"a62gczh7esyp","geo_precision":"street","address":"3530 Pacific Ave SE #F1B","state":"Washington"},"type":"Feature","geometry":{"type":"Point","coordinates":[-122.869038,47.045632]}},{"properties":{"city":"Tacoma","zip":"98370","geo_score":0.808,"description":"Fred Meyer Nutrition Center","id":"a62gczg6q51p","geo_precision":"range","address":"20441 NE Viking Way","state":"Washington"},"type":"Feature","geometry":{"type":"Point","coordinates":[-122.654707,47.748804]}},{"properties":{"city":"Tumwater","zip":"99114","geo_score":0.915,"description":"Fred Meyer Nutrition Center","id":"a62gczmfobgq","geo_precision":"range","address":"111 N Main St","state":"Washington"},"type":"Feature","geometry":{"type":"Point","coordinates":[-117.905781,48.544544]}},{"properties":{"city":"Vancouver","zip":"99352","geo_score":0.7,"description":"Fred Meyer Nutrition Center","id":"a62gczgv61eu","geo_precision":"street","address":"1769 George Washington Wy","state":"Washington"},"type":"Feature","geometry":{"type":"Point","coordinates":[-119.273473,46.31198]}},{"properties":{"city":"Vancouver","zip":null,"geo_score":0.857,"description":"Fred Meyer Nutrition Center","id":"a62gcznqprvr","geo_precision":"city","address":null,"state":"Washington"},"type":"Feature","geometry":{"type":"Point","coordinates":[-122.661486,45.638728]}},{"properties":{"city":"Vancouver","zip":"99218","geo_score":0.919,"description":"Fred Meyer Nutrition Center","id":"a62gczq0kp3v","geo_precision":"range","address":"9414 N Division St","state":"Washington"},"type":"Feature","geometry":{"type":"Point","coordinates":[-117.411463,47.742559]}},{"properties":{"city":"Vancouver","zip":"99205","geo_score":0.913,"description":"Fred Meyer Nutrition Center","id":"a62gczcytd8q","geo_precision":"range","address":"1815 W Garland Ave","state":"Washington"},"type":"Feature","geometry":{"type":"Point","coordinates":[-117.437901,47.693508]}},{"properties":{"city":"Vancouver","zip":"98005","geo_score":0.913,"description":"Fred Meyer Nutrition Center","id":"a62gczphuu5k","geo_precision":"range","address":"1121 124th Ave NE","state":"Washington"},"type":"Feature","geometry":{"type":"Point","coordinates":[-122.174996,47.619967]}},{"properties":{"city":"Vancouver","zip":"98826","geo_score":0.827,"description":"Fred Meyer Nutrition Center","id":"a62gczrjr80p","geo_precision":"range","address":"11734 A Hwy 2","state":"Washington"},"type":"Feature","geometry":{"type":"Point","coordinates":[-120.648844,47.597523]}},{"properties":{"city":"Veradale","zip":"98826","geo_score":0.429,"description":"Fred Meyer Nutrition Center","id":"a62gczc77aks","geo_precision":"street","address":"11734 Hwy 2 #A","state":"Washington"},"type":"Feature","geometry":{"type":"Point","coordinates":[-120.6667,47.593371]}},{"properties":{"city":"Yakima","zip":"98250","geo_score":0.686,"description":"Fred Meyer Nutrition Center","id":"a62gczqbhkj5","geo_precision":"street","address":"1st Street","state":"Washington"},"type":"Feature","geometry":{"type":"Point","coordinates":[-123.017796,48.535821]}},{"properties":{"city":"Ephrata","zip":null,"geo_score":0.776,"description":"Freedom Health Corner","id":"a62gczf1twvz","geo_precision":"city","address":null,"state":"Washington"},"type":"Feature","geometry":{"type":"Point","coordinates":[-122.202079,47.978985]}},{"properties":{"city":"Centralia","zip":"98101","geo_score":0.527,"description":"Fuller Market Basket","id":"a62gczqabsz2","geo_precision":"street","address":"Pike Pl Market Lloer Level #416","state":"Washington"},"type":"Feature","geometry":{"type":"Point","coordinates":[-122.340558,47.608702]}},{"properties":{"city":"Seattle","zip":"98252","geo_score":0.446,"description":"George's Quality Supplements","id":"a62gcze4kr92","geo_precision":"street","address":"PO Box 990","state":"Washington"},"type":"Feature","geometry":{"type":"Point","coordinates":[-122.916939,48.709006]}},{"properties":{"city":"Twisp","zip":"98043","geo_score":0.835,"description":"Glover Street Market","id":"a62gczfnb88w","geo_precision":"range","address":"21911 64th Ave W","state":"Washington"},"type":"Feature","geometry":{"type":"Point","coordinates":[-122.319085,47.800617]}},{"properties":{"city":"Issaquah","zip":null,"geo_score":0.857,"description":"Good Health","id":"a62gczdpq506","geo_precision":"city","address":null,"state":"Washington"},"type":"Feature","geometry":{"type":"Point","coordinates":[-122.010699,47.497419]}},{"properties":{"city":"Sammamish","zip":null,"geo_score":0.857,"description":"Good Health","id":"a62gczfr9urx","geo_precision":"city","address":null,"state":"Washington"},"type":"Feature","geometry":{"type":"Point","coordinates":[-122.0804,47.641766]}},{"properties":{"city":"Centralia","zip":null,"geo_score":0.802,"description":"Good Health Nutrition Ctr","id":"a62gczktal5z","geo_precision":"city","address":null,"state":"Washington"},"type":"Feature","geometry":{"type":"Point","coordinates":[-122.649867,47.66315]}},{"properties":{"city":"Olympia","zip":null,"geo_score":0.857,"description":"Good Life Health Foods","id":"a62gczj128c5","geo_precision":"city","address":null,"state":"Washington"},"type":"Feature","geometry":{"type":"Point","coordinates":[-122.900695,47.037874]}},{"properties":{"city":"Port Angeles","zip":null,"geo_score":0.74,"description":"Good To Go! Natural Grocery","id":"a62gcze2ik8u","geo_precision":"city","address":null,"state":"Washington"},"type":"Feature","geometry":{"type":"Point","coordinates":[-122.62541,47.388985]}},{"properties":{"city":"Port Angeles","zip":null,"geo_score":0.74,"description":"Good To Go! Natural Grocery - Real Food, Real Fast.","id":"a62gcze5yx1j","geo_precision":"city","address":null,"state":"Washington"},"type":"Feature","geometry":{"type":"Point","coordinates":[-122.62541,47.388985]}},{"properties":{"city":"Tacoma","zip":null,"geo_score":0.857,"description":"Great Earth","id":"a62gczgqkzld","geo_precision":"city","address":null,"state":"Washington"},"type":"Feature","geometry":{"type":"Point","coordinates":[-122.444291,47.252877]}},{"properties":{"city":"Kirkland","zip":null,"geo_score":0.857,"description":"Green Line Organic Health - Health Food Store.","id":"a62gczcw3bpb","geo_precision":"city","address":null,"state":"Washington"},"type":"Feature","geometry":{"type":"Point","coordinates":[-122.208735,47.681488]}},{"properties":{"city":"Goldendale","zip":null,"geo_score":0.857,"description":"Grist Mill Health Food","id":"a62gczj9bzjo","geo_precision":"city","address":null,"state":"Washington"},"type":"Feature","geometry":{"type":"Point","coordinates":[-120.768762,45.840666]}},{"properties":{"city":"Bellingham","zip":"98052","geo_score":0.79,"description":"Haggen Food &amp; Pharmacy","id":"a62gczewkdir","geo_precision":"range","address":"11435 Avondale Rd NE","state":"Washington"},"type":"Feature","geometry":{"type":"Point","coordinates":[-122.092756,47.701469]}},{"properties":{"city":"Bellevue","zip":"98033","geo_score":0.829,"description":"Harvest Foods","id":"a62gczeqe9ud","geo_precision":"range","address":"10718 NE 68th St","state":"Washington"},"type":"Feature","geometry":{"type":"Point","coordinates":[-122.197809,47.666752]}},{"properties":{"city":"Spokane","zip":"98115","geo_score":0.837,"description":"Health Headquarters","id":"a62gczchbgs7","geo_precision":"range","address":"6514 40th Ave NE","state":"Washington"},"type":"Feature","geometry":{"type":"Point","coordinates":[-122.284908,47.67587]}},{"properties":{"city":"Walla Walla","zip":"98103","geo_score":0.771,"description":"Health Hut","id":"a62gczlkqr44","geo_precision":"range","address":"600 N 34th","state":"Washington"},"type":"Feature","geometry":{"type":"Point","coordinates":[-122.351305,47.649822]}},{"properties":{"city":"Snohomish","zip":null,"geo_score":0.857,"description":"Health Spot","id":"a62gczg7pxxx","geo_precision":"city","address":null,"state":"Washington"},"type":"Feature","geometry":{"type":"Point","coordinates":[-122.014722,47.954558]}},{"properties":{"city":"Vancouver","zip":"98421","geo_score":0.747,"description":"Healthline Nutrition Ctr","id":"a62gczowvumw","geo_precision":"range","address":"901 Alexander","state":"Washington"},"type":"Feature","geometry":{"type":"Point","coordinates":[-122.372989,47.249291]}},{"properties":{"city":"Vancouver","zip":null,"geo_score":0.857,"description":"Healthline Nutrition Ctr - mon to Friday 10- 6pm.","id":"a62gczbxc13e","geo_precision":"city","address":null,"state":"Washington"},"type":"Feature","geometry":{"type":"Point","coordinates":[-122.661486,45.638728]}},{"properties":{"city":"Lynnwood","zip":"98245","geo_score":0.924,"description":"Healthy Way Nutrition Ctr","id":"a62gczs40xms","geo_precision":"range","address":"138 N Beach Rd","state":"Washington"},"type":"Feature","geometry":{"type":"Point","coordinates":[-122.906359,48.694578]}},{"properties":{"city":"Silverdale","zip":"98030","geo_score":0.912,"description":"Helen's Health Foods","id":"a62gczjish88","geo_precision":"range","address":"12954 SE Kent Kangley Rd","state":"Washington"},"type":"Feature","geometry":{"type":"Point","coordinates":[-122.168467,47.358598]}},{"properties":{"city":"Hoodsport","zip":"98409","geo_score":0.803,"description":"Herb Alley","id":"a62gczgvjg6i","geo_precision":"range","address":"4502 S Steele St Ste 612","state":"Washington"},"type":"Feature","geometry":{"type":"Point","coordinates":[-122.467949,47.218106]}},{"properties":{"city":"Raymond","zip":null,"geo_score":0.857,"description":"Herb Thyme","id":"a62gczp10eey","geo_precision":"city","address":null,"state":"Washington"},"type":"Feature","geometry":{"type":"Point","coordinates":[-123.657572,46.653496]}},{"properties":{"city":"Spokane","zip":null,"geo_score":0.857,"description":"Herb Village","id":"a62gczg6oosm","geo_precision":"city","address":null,"state":"Washington"},"type":"Feature","geometry":{"type":"Point","coordinates":[-117.426047,47.65878]}},{"properties":{"city":"South Bend","zip":"98502","geo_score":0.913,"description":"Herbs 4 Health","id":"a62gczoqa1rn","geo_precision":"range","address":"921 Rogers St NW","state":"Washington"},"type":"Feature","geometry":{"type":"Point","coordinates":[-122.918404,47.052962]}},{"properties":{"city":"Kennewick","zip":"98501","geo_score":0.912,"description":"Highland Health Foods","id":"a62gczdf9vny","geo_precision":"range","address":"3111 Pacific Ave SE","state":"Washington"},"type":"Feature","geometry":{"type":"Point","coordinates":[-122.855134,47.04214]}},{"properties":{"city":"College Place","zip":null,"geo_score":0.857,"description":"HIS Garden and Bakery","id":"a62gcze5bail","geo_precision":"city","address":null,"state":"Washington"},"type":"Feature","geometry":{"type":"Point","coordinates":[-118.409275,46.047069]}},{"properties":{"city":"Spokane","zip":"99352","geo_score":0.507,"description":"Huckleberry's Fresh Market","id":"a62gczk6f5pb","geo_precision":"street","address":"560 Spengler Rd #T","state":"Washington"},"type":"Feature","geometry":{"type":"Point","coordinates":[-119.26368,46.318425]}},{"properties":{"city":"Spokane","zip":"98340","geo_score":0.347,"description":"Huckleberry's Fresh Market","id":"a62gcznyhaaa","geo_precision":"street","address":"PO Box 37","state":"Washington"},"type":"Feature","geometry":{"type":"Point","coordinates":[-122.764988,48.126765]}},{"properties":{"city":"Spokane","zip":"98604","geo_score":0.339,"description":"Huckleberry's Fresh Market - Natural Food Store.","id":"a62gczml66wq","geo_precision":"street","address":"PO Box 520","state":"Washington"},"type":"Feature","geometry":{"type":"Point","coordinates":[-122.335315,45.58779]}},{"properties":{"city":"Spokane","zip":"98206","geo_score":0.61,"description":"Humble Earth Natural Market","id":"a62gczknxb3p","geo_precision":"street","address":"23632 Hwy 99","state":"Washington"},"type":"Feature","geometry":{"type":"Point","coordinates":[-122.273709,47.873017]}},{"properties":{"city":"Brainbridge Island","zip":"98026","geo_score":0.831,"description":"Island Health Foods - Natural Food Store.","id":"a62gczfolmr4","geo_precision":"range","address":"8129 Lake Ballinger Way Unit 101","state":"Washington"},"type":"Feature","geometry":{"type":"Point","coordinates":[-122.342817,47.777789]}},{"properties":{"city":"Lakebay","zip":"98072","geo_score":0.913,"description":"JED's Good Stuff - Organic and Natural foods,Health and Beauty,Vitamins,and Supplements.","id":"a62gczlwcas6","geo_precision":"range","address":"14154 NE Woodinville Duvall Rd","state":"Washington"},"type":"Feature","geometry":{"type":"Point","coordinates":[-122.149797,47.754967]}},{"properties":{"city":"Woodinville","zip":"98004","geo_score":0.829,"description":"Jenny Craig Weight Loss Ctr","id":"a62gczinqe8e","geo_precision":"range","address":"10201 NE 10th St","state":"Washington"},"type":"Feature","geometry":{"type":"Point","coordinates":[-122.204379,47.61924]}},{"properties":{"city":"Seattle","zip":"98051","geo_score":0.72,"description":"Juice It","id":"a62gczidl7pg","geo_precision":"street","address":"34524 SE Green River Headworks Rd","state":"Washington"},"type":"Feature","geometry":{"type":"Point","coordinates":[-121.892332,47.314386]}},{"properties":{"city":"Olympia","zip":"98045","geo_score":0.339,"description":"J-Vee's Health Foods","id":"a62gczcxk90f","geo_precision":"street","address":"PO Box 313","state":"Washington"},"type":"Feature","geometry":{"type":"Point","coordinates":[-122.036588,47.528394]}},{"properties":{"city":"Bellevue","zip":null,"geo_score":0.857,"description":"Kang Acupuncture &amp; Herbal","id":"a62gczgfusss","geo_precision":"city","address":null,"state":"Washington"},"type":"Feature","geometry":{"type":"Point","coordinates":[-122.207221,47.615471]}},{"properties":{"city":"Kent","zip":"98031","geo_score":0.709,"description":"Key Pharmacy &amp; Home Health","id":"a62gczgt1dld","geo_precision":"street","address":"26011 104th Ave SE","state":"Washington"},"type":"Feature","geometry":{"type":"Point","coordinates":[-122.202293,47.367667]}},{"properties":{"city":"Lakewood","zip":"98028","geo_score":0.329,"description":"Lakewood Natural Foods","id":"a62gczdvwrky","geo_precision":"street","address":"P O Box 82421","state":"Washington"},"type":"Feature","geometry":{"type":"Point","coordinates":[-122.036588,47.528394]}},{"properties":{"city":"Kirkland","zip":"98366","geo_score":0.91,"description":"Larry's Market","id":"a62gczqx61lr","geo_precision":"range","address":"1700 SE Mile Hill Dr","state":"Washington"},"type":"Feature","geometry":{"type":"Point","coordinates":[-122.623452,47.533995]}},{"properties":{"city":"Seattle","zip":"98626","geo_score":0.92,"description":"Larry's Market","id":"a62gczfl994u","geo_precision":"range","address":"279 Painter Roth Rd","state":"Washington"},"type":"Feature","geometry":{"type":"Point","coordinates":[-122.826308,46.162772]}},{"properties":{"city":"Seattle","zip":"98584","geo_score":0.78,"description":"Larry's Market","id":"a62gczhl26nc","geo_precision":"range","address":"131 W Railroad Ave","state":"Washington"},"type":"Feature","geometry":{"type":"Point","coordinates":[-123.100436,47.212843]}},{"properties":{"city":"Bellingham","zip":"98855","geo_score":0.393,"description":"Living Earth Herb Store","id":"a62gczlebtv0","geo_precision":"street","address":"PO Box 591","state":"Washington"},"type":"Feature","geometry":{"type":"Point","coordinates":[-120.317385,47.406093]}},{"properties":{"city":"Langley","zip":"98248","geo_score":0.944,"description":"Living Green Natural Food","id":"a62gczkt374z","geo_precision":"range","address":"8084 Enterprise Rd","state":"Washington"},"type":"Feature","geometry":{"type":"Point","coordinates":[-122.574481,48.932081]}},{"properties":{"city":"Langley","zip":"99163","geo_score":0.707,"description":"Living Green Natural Food and Apothecary","id":"a62gczfmk5rx","geo_precision":"range","address":"588 SE Bishop Blvd Ste G","state":"Washington"},"type":"Feature","geometry":{"type":"Point","coordinates":[-117.173019,46.71387]}},{"properties":{"city":"Langley","zip":"98236","geo_score":0.925,"description":"Living Green Natural Food and Apothecary - Living Green Natural Food and Apothecary/Vegetarian Cafe.","id":"a62gczjntvri","geo_precision":"range","address":"11042 State Rte 525","state":"Washington"},"type":"Feature","geometry":{"type":"Point","coordinates":[-122.385853,47.982724]}},{"properties":{"city":"Langley","zip":null,"geo_score":0.857,"description":"Living Green Natural Foods","id":"a62gczpdrzlt","geo_precision":"city","address":null,"state":"Washington"},"type":"Feature","geometry":{"type":"Point","coordinates":[-122.458831,48.031815]}},{"properties":{"city":"Washougal","zip":"99114","geo_score":0.913,"description":"Lo Carb Outlet","id":"a62gczqxku1d","geo_precision":"range","address":"358 N Main St","state":"Washington"},"type":"Feature","geometry":{"type":"Point","coordinates":[-117.905825,48.547225]}},{"properties":{"city":"Spokane","zip":"98024","geo_score":0.339,"description":"Lorien Herbs &amp; Natural Foods","id":"a62gczovvxs7","geo_precision":"street","address":"PO Box 90","state":"Washington"},"type":"Feature","geometry":{"type":"Point","coordinates":[-122.036588,47.528394]}},{"properties":{"city":"Spokane","zip":"99139","geo_score":0.847,"description":"Lorien Herbs &amp; Natural Foods - Natural Foods and Herbs.","id":"a62gcziopkz8","geo_precision":"range","address":"205 Main","state":"Washington"},"type":"Feature","geometry":{"type":"Point","coordinates":[-117.41794,48.740925]}},{"properties":{"city":"Lynden","zip":"99218","geo_score":0.919,"description":"Lynden Nutrition Ctr","id":"a62gczdl8ib5","geo_precision":"range","address":"9984 N Newport Hwy","state":"Washington"},"type":"Feature","geometry":{"type":"Point","coordinates":[-117.403265,47.748319]}},{"properties":{"city":"Seattle","zip":"99223","geo_score":0.857,"description":"Madison Market - Natural Foods Cooperative.","id":"a62gczkahr2j","geo_precision":"range","address":"3001 E 29th Ave","state":"Washington"},"type":"Feature","geometry":{"type":"Point","coordinates":[-117.36743,47.628198]}},{"properties":{"city":"Seattle","zip":"99206","geo_score":0.932,"description":"Madison Market Central Co-op","id":"a62gczoy74qa","geo_precision":"range","address":"109 N University Rd","state":"Washington"},"type":"Feature","geometry":{"type":"Point","coordinates":[-117.261334,47.657796]}},{"properties":{"city":"Seattle","zip":"99019","geo_score":0.938,"description":"Madison Market/Central Coop Market","id":"a62gczoflv8x","geo_precision":"range","address":"1233 N Liberty Lake Rd #108","state":"Washington"},"type":"Feature","geometry":{"type":"Point","coordinates":[-117.10003,47.65822]}},{"properties":{"city":"Seattle","zip":"99206","geo_score":0.932,"description":"Madison Park Health","id":"a62gczkcy0g6","geo_precision":"range","address":"109 N University Rd","state":"Washington"},"type":"Feature","geometry":{"type":"Point","coordinates":[-117.261334,47.657796]}},{"properties":{"city":"Omak","zip":null,"geo_score":0.857,"description":"Main Street Market","id":"a62gczd852mu","geo_precision":"city","address":null,"state":"Washington"},"type":"Feature","geometry":{"type":"Point","coordinates":[-119.560672,48.426942]}},{"properties":{"city":"Mountlake Terrace","zip":null,"geo_score":0.857,"description":"Manna Mills","id":"a62gczpmku4i","geo_precision":"city","address":null,"state":"Washington"},"type":"Feature","geometry":{"type":"Point","coordinates":[-122.30764,47.793269]}},{"properties":{"city":"Mountlake Terrace","zip":"98109","geo_score":0.843,"description":"Manna Mills Natural Food Store - 100 % Organic Produce &amp; Organic Grain Fed Beef.","id":"a62gczqc8d3r","geo_precision":"range","address":"516 1st Ave N","state":"Washington"},"type":"Feature","geometry":{"type":"Point","coordinates":[-122.355416,47.623483]}},{"properties":{"city":"Aberdeen","zip":"99004","geo_score":0.817,"description":"Market Place","id":"a62gczozynsm","geo_precision":"range","address":"116 W 1st St","state":"Washington"},"type":"Feature","geometry":{"type":"Point","coordinates":[-117.580871,47.483065]}},{"properties":{"city":"Seattle","zip":"98055","geo_score":0.913,"description":"Marketime Foods","id":"a62gczqhzuf9","geo_precision":"range","address":"125 Airport Way S","state":"Washington"},"type":"Feature","geometry":{"type":"Point","coordinates":[-122.215381,47.485033]}},{"properties":{"city":"Tacoma","zip":"98055","geo_score":0.898,"description":"Marlene's Market","id":"a62gczhszbaf","geo_precision":"range","address":"125 Airport Way","state":"Washington"},"type":"Feature","geometry":{"type":"Point","coordinates":[-122.215381,47.485033]}},{"properties":{"city":"Tacoma","zip":"98070","geo_score":0.339,"description":"Marlene's Market &amp; Deli","id":"a62gczlzdjqi","geo_precision":"street","address":"PO Box 554","state":"Washington"},"type":"Feature","geometry":{"type":"Point","coordinates":[-122.036588,47.528394]}},{"properties":{"city":"Federal Way","zip":null,"geo_score":0.857,"description":"Marlene's Market &amp; Deli - Natural food store with restaurant, all organically grown produce, supplements, body care and more!.","id":"a62gczet5ouh","geo_precision":"city","address":null,"state":"Washington"},"type":"Feature","geometry":{"type":"Point","coordinates":[-121.803388,47.432251]}},{"properties":{"city":"Tacoma","zip":"98903","geo_score":0.925,"description":"Marlene's Market &amp; Deli - Organic. Natural. Independent. Local. Since 1976..","id":"a62gczlvb8c7","geo_precision":"range","address":"4315 Main St","state":"Washington"},"type":"Feature","geometry":{"type":"Point","coordinates":[-120.475997,46.544515]}},{"properties":{"city":"Federal Way","zip":null,"geo_score":0.857,"description":"Marlene's Market and Deli","id":"a62gczk00ju2","geo_precision":"city","address":null,"state":"Washington"},"type":"Feature","geometry":{"type":"Point","coordinates":[-121.803388,47.432251]}},{"properties":{"city":"Mazama","zip":"99141","geo_score":0.707,"description":"Mazama County Health Store","id":"a62gczkmrtvp","geo_precision":"range","address":"160 E Third","state":"Washington"},"type":"Feature","geometry":{"type":"Point","coordinates":[-118.055797,48.610898]}},{"properties":{"city":"Seattle","zip":"98406","geo_score":0.916,"description":"Medicine Man Pharmacy","id":"a62gczosa4nc","geo_precision":"range","address":"2420 N Proctor St","state":"Washington"},"type":"Feature","geometry":{"type":"Point","coordinates":[-122.488858,47.269391]}},{"properties":{"city":"Yakima","zip":"98023","geo_score":0.845,"description":"Medicine Mart","id":"a62gczmpf6ke","geo_precision":"range","address":"1618 SW Dash Point Rd","state":"Washington"},"type":"Feature","geometry":{"type":"Point","coordinates":[-122.354957,47.323478]}},{"properties":{"city":"Aberdeen","zip":"99301","geo_score":0.619,"description":"Medicine Shop","id":"a62gczid26q2","geo_precision":"street","address":"1121 W Ct St","state":"Washington"},"type":"Feature","geometry":{"type":"Point","coordinates":[-119.138336,46.241521]}},{"properties":{"city":"Burien","zip":"98372","geo_score":0.902,"description":"Medicine Shop","id":"a62gczn6nyj0","geo_precision":"range","address":"1210 E Main Ave","state":"Washington"},"type":"Feature","geometry":{"type":"Point","coordinates":[-122.277875,47.191845]}},{"properties":{"city":"E Wenatchee","zip":"98584","geo_score":0.932,"description":"Medicine Shop","id":"a62gcznam9l5","geo_precision":"range","address":"207 Professional Way","state":"Washington"},"type":"Feature","geometry":{"type":"Point","coordinates":[-123.112917,47.22458]}},{"properties":{"city":"Olympia","zip":"99201","geo_score":0.597,"description":"Medicine Shop","id":"a62gczk6lzlp","geo_precision":"street","address":"S 520 Pines Rd","state":"Washington"},"type":"Feature","geometry":{"type":"Point","coordinates":[-117.239786,47.656842]}},{"properties":{"city":"Pasco","zip":"99362","geo_score":0.909,"description":"Medicine Shop","id":"a62gczii0o43","geo_precision":"range","address":"25 S Colville St","state":"Washington"},"type":"Feature","geometry":{"type":"Point","coordinates":[-118.336509,46.067563]}},{"properties":{"city":"Puyallup","zip":"98040","geo_score":0.837,"description":"Medicine Shop","id":"a62gczfy2lhz","geo_precision":"range","address":"7611 SE 27th St","state":"Washington"},"type":"Feature","geometry":{"type":"Point","coordinates":[-122.237499,47.586741]}},{"properties":{"city":"Shelton","zip":"98109","geo_score":0.902,"description":"Medicine Shop","id":"a62gczgtj5tp","geo_precision":"range","address":"1908 Queen Ann Ave N","state":"Washington"},"type":"Feature","geometry":{"type":"Point","coordinates":[-122.356957,47.636003]}},{"properties":{"city":"Spokane","zip":"98116","geo_score":0.864,"description":"Medicine Shop","id":"a62gczdvwird","geo_precision":"range","address":"2320 42nd Ave SW","state":"Washington"},"type":"Feature","geometry":{"type":"Point","coordinates":[-122.385107,47.582871]}},{"properties":{"city":"Walla Walla","zip":"98105","geo_score":0.837,"description":"Medicine Shop","id":"a62gczl147rv","geo_precision":"range","address":"5250 40th Ave NE","state":"Washington"},"type":"Feature","geometry":{"type":"Point","coordinates":[-122.284815,47.667574]}},{"properties":{"city":"Mercer Island","zip":"98501","geo_score":0.919,"description":"Mercer Island Nutrition","id":"a62gcznkcyss","geo_precision":"range","address":"5531 Devonshire St SE","state":"Washington"},"type":"Feature","geometry":{"type":"Point","coordinates":[-122.850027,46.998397]}},{"properties":{"city":"Seattle","zip":"98520","geo_score":0.902,"description":"Metropolitan Market","id":"a62gczgqnisj","geo_precision":"range","address":"1812 Sumner Ave","state":"Washington"},"type":"Feature","geometry":{"type":"Point","coordinates":[-123.837717,46.97602]}},{"properties":{"city":"Seattle","zip":"98148","geo_score":0.61,"description":"Metropolitan Market","id":"a62gczex9ed9","geo_precision":"street","address":"3034 SW 118th Pl","state":"Washington"},"type":"Feature","geometry":{"type":"Point","coordinates":[-122.334966,47.497235]}},{"properties":{"city":"Seattle","zip":"98802","geo_score":0.675,"description":"Metropolitan Market","id":"a62gczhohhr4","geo_precision":"street","address":"620 19th St NE","state":"Washington"},"type":"Feature","geometry":{"type":"Point","coordinates":[-120.285455,47.435015]}},{"properties":{"city":"Federal Way","zip":"98103","geo_score":0.819,"description":"Metropolitian Market","id":"a62gczknxif5","geo_precision":"range","address":"323 N 85th St","state":"Washington"},"type":"Feature","geometry":{"type":"Point","coordinates":[-122.355095,47.690592]}},{"properties":{"city":"Tacoma","zip":"98902","geo_score":0.348,"description":"Metropolitian Market","id":"a62gczpzm03f","geo_precision":"street","address":"3909 Creekside Loop Ste 110","state":"Washington"},"type":"Feature","geometry":{"type":"Point","coordinates":[-119.920801,46.244851]}},{"properties":{"city":"Kettle Falls","zip":"98833","geo_score":0.858,"description":"Meyers Falls Market","id":"a62gczpz627v","geo_precision":"range","address":"50 Lost River Rd","state":"Washington"},"type":"Feature","geometry":{"type":"Point","coordinates":[-120.406178,48.593298]}},{"properties":{"city":"Kettle Falls","zip":"98003","geo_score":0.903,"description":"Meyers Falls Market - Natural Food Store and Deli located in beautiful Kettle Falls, Washington.","id":"a62gczndrrxh","geo_precision":"range","address":"2565 S Gateway Center Place","state":"Washington"},"type":"Feature","geometry":{"type":"Point","coordinates":[-122.298562,47.316955]}},{"properties":{"city":"Union Gap","zip":null,"geo_score":0.857,"description":"Mill Creek Natural Foods","id":"a62gczh4vh8c","geo_precision":"city","address":null,"state":"Washington"},"type":"Feature","geometry":{"type":"Point","coordinates":[-120.475064,46.557349]}},{"properties":{"city":"Union Gap","zip":null,"geo_score":0.857,"description":"Mill Creek Natural Foods, Inc - Just Better, Naturally!.","id":"a62gcze8hrh9","geo_precision":"city","address":null,"state":"Washington"},"type":"Feature","geometry":{"type":"Point","coordinates":[-120.475064,46.557349]}},{"properties":{"city":"Vashon Island","zip":"98409","geo_score":0.632,"description":"Minglement Marketplace","id":"a62gczc8232d","geo_precision":"street","address":"2951 S 38th St","state":"Washington"},"type":"Feature","geometry":{"type":"Point","coordinates":[-122.490743,47.222654]}},{"properties":{"city":"Renton","zip":"98103","geo_score":0.92,"description":"Minkler's Green Earth Nutrition","id":"a62gczqs9ys1","geo_precision":"range","address":"4416 Fremont Ave North","state":"Washington"},"type":"Feature","geometry":{"type":"Point","coordinates":[-122.35003,47.660525]}},{"properties":{"city":"Renton","zip":"98409","geo_score":0.642,"description":"Minkler's Green Earth Nutrition","id":"a62gczerm8jw","geo_precision":"street","address":"2951 S 38th St","state":"Washington"},"type":"Feature","geometry":{"type":"Point","coordinates":[-122.490743,47.222654]}},{"properties":{"city":"Cheney","zip":"98520","geo_score":0.196,"description":"Mitchell's IGA","id":"a62gczlxrmi9","geo_precision":"street","address":"PO Box 414","state":"Washington"},"type":"Feature","geometry":{"type":"Point","coordinates":[-123.180381,47.404987]}},{"properties":{"city":"Seattle","zip":null,"geo_score":0.857,"description":"Mother Nature's Natural Foods","id":"a62gczkw93nv","geo_precision":"city","address":null,"state":"Washington"},"type":"Feature","geometry":{"type":"Point","coordinates":[-122.332071,47.60621]}},{"properties":{"city":"Seattle","zip":"98043","geo_score":0.848,"description":"Mother Nature's Natural Health Store - Health Food Store.","id":"a62gczidd95j","geo_precision":"range","address":"21705 66th Ave W","state":"Washington"},"type":"Feature","geometry":{"type":"Point","coordinates":[-122.321941,47.802171]}},{"properties":{"city":"Spokane","zip":"98841","geo_score":0.381,"description":"Mother's Cupboard - Natural Food Store.","id":"a62gczo8obk4","geo_precision":"street","address":"PO Box 4217","state":"Washington"},"type":"Feature","geometry":{"type":"Point","coordinates":[-120.317385,47.406093]}},{"properties":{"city":"Spokane Valley","zip":"98112","geo_score":0.91,"description":"Mother's Cupboard Natural","id":"a62gczg51xbs","geo_precision":"range","address":"4126 E Madison St","state":"Washington"},"type":"Feature","geometry":{"type":"Point","coordinates":[-122.279382,47.634922]}},{"properties":{"city":"Liberty Lake","zip":"98264","geo_score":0.92,"description":"Mother's Cupboard Natural Food","id":"a62gczqs52b6","geo_precision":"range","address":"527 Front St","state":"Washington"},"type":"Feature","geometry":{"type":"Point","coordinates":[-122.453288,48.942666]}},{"properties":{"city":"Spokane","zip":null,"geo_score":0.857,"description":"Mother's Cupboard Natural Food","id":"a62gczg6uxdn","geo_precision":"city","address":null,"state":"Washington"},"type":"Feature","geometry":{"type":"Point","coordinates":[-117.426047,47.65878]}},{"properties":{"city":"Spokane","zip":"98112","geo_score":0.764,"description":"Mother's Cupboard Natural Food","id":"a62gczn9t4ct","geo_precision":"range","address":"1600 E Madison","state":"Washington"},"type":"Feature","geometry":{"type":"Point","coordinates":[-122.311229,47.615142]}},{"properties":{"city":"Spokane","zip":"98122","geo_score":0.93,"description":"Mother's Cupboard Natural Food","id":"a62gczl5mako","geo_precision":"range","address":"1600 E Madison St","state":"Washington"},"type":"Feature","geometry":{"type":"Point","coordinates":[-122.311229,47.615142]}},{"properties":{"city":"Ione","zip":null,"geo_score":0.857,"description":"Mountain Traders","id":"a62gczf2c1mf","geo_precision":"city","address":null,"state":"Washington"},"type":"Feature","geometry":{"type":"Point","coordinates":[-117.36469,48.737714]}},{"properties":{"city":"Fall City","zip":"99202","geo_score":0.902,"description":"Mountain View Nutrition Ctr","id":"a62gczc7c0dq","geo_precision":"range","address":"1102 S Perry St","state":"Washington"},"type":"Feature","geometry":{"type":"Point","coordinates":[-117.389931,47.645402]}},{"properties":{"city":"Colville","zip":"98671","geo_score":0.708,"description":"Mt Sunflower Natural Market","id":"a62gcznou5fs","geo_precision":"street","address":"954 South A St","state":"Washington"},"type":"Feature","geometry":{"type":"Point","coordinates":[-122.377122,45.578907]}},{"properties":{"city":"Colville","zip":"98260","geo_score":0.752,"description":"Mt Sunflower Natural Market - Health Food Store.","id":"a62gczhcm9pk","geo_precision":"range","address":"630 2nd St Ste A","state":"Washington"},"type":"Feature","geometry":{"type":"Point","coordinates":[-122.413841,48.040127]}},{"properties":{"city":"Clinton","zip":null,"geo_score":0.857,"description":"Myers Family Ltd","id":"a62gczl6qe88","geo_precision":"city","address":null,"state":"Washington"},"type":"Feature","geometry":{"type":"Point","coordinates":[-122.417721,47.956934]}},{"properties":{"city":"Pullman","zip":"98260","geo_score":0.797,"description":"N22 Nutrition","id":"a62gczmmczr4","geo_precision":"range","address":"630A 2nd St","state":"Washington"},"type":"Feature","geometry":{"type":"Point","coordinates":[-122.413841,48.040127]}},{"properties":{"city":"Frerndale","zip":"98260","geo_score":0.493,"description":"Natural Edge Vitamins","id":"a62gczbxd4hq","geo_precision":"street","address":"PO Box 1111","state":"Washington"},"type":"Feature","geometry":{"type":"Point","coordinates":[-122.511413,48.095254]}},{"properties":{"city":"Tonasket","zip":"98225","geo_score":0.915,"description":"Natural Foods Coop","id":"a62gczfvaoc3","geo_precision":"range","address":"1230 Bay St","state":"Washington"},"type":"Feature","geometry":{"type":"Point","coordinates":[-122.482309,48.750473]}},{"properties":{"city":"Pt Orchard","zip":"98168","geo_score":0.915,"description":"Natural Health","id":"a62gczidfiue","geo_precision":"range","address":"3725 S 144th St","state":"Washington"},"type":"Feature","geometry":{"type":"Point","coordinates":[-122.285758,47.474244]}},{"properties":{"city":"Kelso","zip":"98109","geo_score":0.913,"description":"Nature Plus","id":"a62gczlng3qq","geo_precision":"range","address":"100 Mercer St","state":"Washington"},"type":"Feature","geometry":{"type":"Point","coordinates":[-122.355406,47.624576]}},{"properties":{"city":"Shelton","zip":"98034","geo_score":0.902,"description":"Nature's Best Natural Foods","id":"a62gczgxbk04","geo_precision":"range","address":"12321 120th Ave NE","state":"Washington"},"type":"Feature","geometry":{"type":"Point","coordinates":[-122.185044,47.709918]}},{"properties":{"city":"Kenmore","zip":"98498","geo_score":0.902,"description":"Nature's Connection","id":"a62gczrcgt5k","geo_precision":"range","address":"8322 Maybelle Ln SW","state":"Washington"},"type":"Feature","geometry":{"type":"Point","coordinates":[-122.548616,47.154009]}},{"properties":{"city":"Kent","zip":"98032","geo_score":0.917,"description":"Nature's Market","id":"a62gczeqvezu","geo_precision":"range","address":"23422 Pacific Hwy S","state":"Washington"},"type":"Feature","geometry":{"type":"Point","coordinates":[-122.295245,47.391246]}},{"properties":{"city":"Kent","zip":"98005","geo_score":0.646,"description":"Nature's Market - Natural Food Store.","id":"a62gcze2721r","geo_precision":"street","address":"13400 NE 20th St #3","state":"Washington"},"type":"Feature","geometry":{"type":"Point","coordinates":[-122.171062,47.628502]}},{"properties":{"city":"N Bend","zip":"98501","geo_score":0.922,"description":"Nature's Marketplace","id":"a62gczft1iq8","geo_precision":"range","address":"3720 Pacific Ave SE","state":"Washington"},"type":"Feature","geometry":{"type":"Point","coordinates":[-122.841325,47.040966]}},{"properties":{"city":"Ravensdale","zip":"98101","geo_score":0.932,"description":"Nature's Own","id":"a62gczcfk07t","geo_precision":"range","address":"725 Pike St","state":"Washington"},"type":"Feature","geometry":{"type":"Point","coordinates":[-122.333173,47.611719]}},{"properties":{"city":"Bellevue","zip":"98072","geo_score":0.924,"description":"Nature's Pantry","id":"a62gczfk5fa0","geo_precision":"range","address":"14239 NE Woodinville Duvall Rd","state":"Washington"},"type":"Feature","geometry":{"type":"Point","coordinates":[-122.149069,47.756042]}},{"properties":{"city":"Woodinville","zip":null,"geo_score":0.857,"description":"Nature's Remedy","id":"a62gczhh3rz5","geo_precision":"city","address":null,"state":"Washington"},"type":"Feature","geometry":{"type":"Point","coordinates":[-122.090874,47.740741]}},{"properties":{"city":"Edmonds","zip":null,"geo_score":0.857,"description":"Natureway Nutrition","id":"a62gczj6qkf2","geo_precision":"city","address":null,"state":"Washington"},"type":"Feature","geometry":{"type":"Point","coordinates":[-122.372401,47.806068]}},{"properties":{"city":"Edmonds","zip":"99205","geo_score":0.902,"description":"Natureway/Pilgrims","id":"a62gczn48rey","geo_precision":"range","address":"2308 W Crown Ave","state":"Washington"},"type":"Feature","geometry":{"type":"Point","coordinates":[-117.444459,47.705324]}},{"properties":{"city":"Battle Ground","zip":null,"geo_score":0.857,"description":"Northwest Best Nutrition","id":"a62gczckpt98","geo_precision":"city","address":null,"state":"Washington"},"type":"Feature","geometry":{"type":"Point","coordinates":[-122.531645,45.803592]}},{"properties":{"city":"Richland","zip":"99209","geo_score":0.893,"description":"Nutrition For Life","id":"a62gczrlcc1r","geo_precision":"zip","address":"PO Box 9000","state":"Washington"},"type":"Feature","geometry":{"type":"Point","coordinates":[-117.793734,47.646148]}},{"properties":{"city":"Hansville","zip":"99204","geo_score":0.924,"description":"Nutrition Works","id":"a62gcziwqfvg","geo_precision":"range","address":"926 S Monroe St","state":"Washington"},"type":"Feature","geometry":{"type":"Point","coordinates":[-117.426297,47.64703]}},{"properties":{"city":"Tonasket","zip":"99324","geo_score":0.772,"description":"Okanogan River Natural Foods Co-op - Travelers are often amazed and always pleased to find us out here : ).","id":"a62gczdm2l79","geo_precision":"range","address":"28 SE 12th","state":"Washington"},"type":"Feature","geometry":{"type":"Point","coordinates":[-118.388228,46.038421]}},{"properties":{"city":"Olympia","zip":"98586","geo_score":0.196,"description":"Olympia Food Coop","id":"a62gczk13zk5","geo_precision":"street","address":"PO Box 164","state":"Washington"},"type":"Feature","geometry":{"type":"Point","coordinates":[-123.180381,47.404987]}},{"properties":{"city":"Olympia","zip":"99336","geo_score":0.849,"description":"Olympia Food Coop","id":"a62gczi15ycj","geo_precision":"range","address":"101 Vista Way","state":"Washington"},"type":"Feature","geometry":{"type":"Point","coordinates":[-119.156836,46.210851]}},{"properties":{"city":"Olympia","zip":"99205","geo_score":0.799,"description":"Olympia Food Co-op - (West) - Member owned Co-op.","id":"a62gczejjtm1","geo_precision":"range","address":"1818 West Francis Ave Ste 141","state":"Washington"},"type":"Feature","geometry":{"type":"Point","coordinates":[-117.437914,47.715444]}},{"properties":{"city":"Olympia","zip":"98577","geo_score":0.93,"description":"Olympia Food Co-op East - The Olympia Food Coop operates two stores.","id":"a62gczddudcv","geo_precision":"range","address":"326 Commercial St","state":"Washington"},"type":"Feature","geometry":{"type":"Point","coordinates":[-123.733036,46.68558]}},{"properties":{"city":"Tacoma","zip":"98548","geo_score":0.492,"description":"Olympic Health","id":"a62gczq6psoe","geo_precision":"street","address":"PO Box 1015","state":"Washington"},"type":"Feature","geometry":{"type":"Point","coordinates":[-123.11326,47.45361]}},{"properties":{"city":"Kent","zip":"98383","geo_score":0.429,"description":"Optimal Health Supplements","id":"a62gczqkwl7p","geo_precision":"street","address":"PO Box 3388","state":"Washington"},"type":"Feature","geometry":{"type":"Point","coordinates":[-122.714708,47.636949]}},{"properties":{"city":"Eastsound","zip":"98035","geo_score":0.629,"description":"Orcas Home Grown Market and Deli","id":"a62gczi830g9","geo_precision":"range","address":"19725 40th Ave West Ste D","state":"Washington"},"type":"Feature","geometry":{"type":"Point","coordinates":[-122.28709,47.819966]}},{"properties":{"city":"Eastsound","zip":null,"geo_score":0.857,"description":"Orcas Home Grown Market and Deli - Natural Food Store and Deli.","id":"a62gczql18wm","geo_precision":"city","address":null,"state":"Washington"},"type":"Feature","geometry":{"type":"Point","coordinates":[-122.867603,48.659128]}},{"properties":{"city":"Tacoma","zip":"98665","geo_score":0.851,"description":"Organic Oasis","id":"a62gczlph9gj","geo_precision":"range","address":"7902 NE 6th Ave","state":"Washington"},"type":"Feature","geometry":{"type":"Point","coordinates":[-122.666255,45.679383]}},{"properties":{"city":"Olympia","zip":"98290","geo_score":0.796,"description":"Organics To Go - Organics To Go - Your Online Grocer.","id":"a62gczgy8nje","geo_precision":"range","address":"428 Pine Ave Ste 1","state":"Washington"},"type":"Feature","geometry":{"type":"Point","coordinates":[-122.08597,47.916125]}},{"properties":{"city":"Seattle","zip":"99224","geo_score":0.865,"description":"PCC Natural Market","id":"a62gczjd8xl0","geo_precision":"range","address":"731 S Basalt St","state":"Washington"},"type":"Feature","geometry":{"type":"Point","coordinates":[-117.488109,47.649683]}},{"properties":{"city":"Seattle","zip":"99362","geo_score":0.52,"description":"PCC Natural Market","id":"a62gczimqtjy","geo_precision":"street","address":"228 E Main St #A","state":"Washington"},"type":"Feature","geometry":{"type":"Point","coordinates":[-118.337856,46.067455]}},{"properties":{"city":"Kirkland","zip":"98226","geo_score":0.612,"description":"PCC Natural Markets","id":"a62gczqd2h2c","geo_precision":"zip","address":"2211 Rimland Dr #400","state":"Washington"},"type":"Feature","geometry":{"type":"Point","coordinates":[-122.414611,48.766777]}},{"properties":{"city":"Redmond","zip":"98005","geo_score":0.841,"description":"PCC Natural Markets","id":"a62gczg6otjp","geo_precision":"range","address":"13405 SE 30th St","state":"Washington"},"type":"Feature","geometry":{"type":"Point","coordinates":[-122.162493,47.583751]}},{"properties":{"city":"Seattle","zip":"98620","geo_score":0.915,"description":"PCC Natural Markets - Fremont - Full-line natural foods co-op grocery serving the Seattle area..","id":"a62gcznp7s8u","geo_precision":"range","address":"121 W Main St","state":"Washington"},"type":"Feature","geometry":{"type":"Point","coordinates":[-120.823016,45.822216]}},{"properties":{"city":"Seattle","zip":null,"geo_score":0.857,"description":"PCC Natural Markets - Greenlake - Full-line natural foods grocery co-op serving the Seattle area..","id":"a62gczmy7cr6","geo_precision":"city","address":null,"state":"Washington"},"type":"Feature","geometry":{"type":"Point","coordinates":[-122.332071,47.60621]}},{"properties":{"city":"Issaquah","zip":"98409","geo_score":0.911,"description":"PCC Natural Markets - Issaquah - Full-line natural foods co-op grocery serving the Seattle area..","id":"a62gczjevn31","geo_precision":"range","address":"4502 S Steele St","state":"Washington"},"type":"Feature","geometry":{"type":"Point","coordinates":[-122.467949,47.218106]}},{"properties":{"city":"Kirkland","zip":null,"geo_score":0.857,"description":"PCC Natural Markets - Kirkland - Full-line natural foods grocery co-op serving the Seattle area..","id":"a62gczizx6oj","geo_precision":"city","address":null,"state":"Washington"},"type":"Feature","geometry":{"type":"Point","coordinates":[-122.208735,47.681488]}},{"properties":{"city":"Redmond","zip":"98362","geo_score":0.917,"description":"PCC Natural Markets - Redmond - Full-line natural foods co-op grocery serving the Seattle area..","id":"a62gczcwiysj","geo_precision":"range","address":"1105 S Eunice St","state":"Washington"},"type":"Feature","geometry":{"type":"Point","coordinates":[-123.430456,48.105836]}},{"properties":{"city":"Seattle","zip":"98502","geo_score":0.892,"description":"PCC Natural Markets - Seward Park - Full-line natural foods co-op grocery serving the Seattle area..","id":"a62gczje93dm","geo_precision":"range","address":"236 N Division St NW","state":"Washington"},"type":"Feature","geometry":{"type":"Point","coordinates":[-122.925863,47.046518]}},{"properties":{"city":"Seattle","zip":"98531","geo_score":0.912,"description":"PCC Natural Markets - View Ridge - Full-line natural foods co-op grocery serving the Seattle area..","id":"a62gczl1ehgh","geo_precision":"range","address":"503 Harrison Ave","state":"Washington"},"type":"Feature","geometry":{"type":"Point","coordinates":[-122.96895,46.722222]}},{"properties":{"city":"Seattle","zip":"98075","geo_score":0.873,"description":"PCC Natural Markets - West Seattle - Full-line natural foods co-op grocery serving the Seattle area..","id":"a62gczltih0w","geo_precision":"range","address":"3050 Issaquah Pine Lake Rd","state":"Washington"},"type":"Feature","geometry":{"type":"Point","coordinates":[-122.033062,47.58143]}},{"properties":{"city":"Seattle","zip":"98029","geo_score":0.829,"description":"PCC Natural Markets (Puget Consumers Co-op, Inc.) - Seattle-area chain of natural foods stores.","id":"a62gczfm7bug","geo_precision":"range","address":"3050 Issaquah Pine Lake Rd SE","state":"Washington"},"type":"Feature","geometry":{"type":"Point","coordinates":[-122.033062,47.58143]}},{"properties":{"city":"Mountlake Terrace","zip":"98856","geo_score":0.393,"description":"Penhollow Markets","id":"a62gczqolp3j","geo_precision":"street","address":"PO Box 947","state":"Washington"},"type":"Feature","geometry":{"type":"Point","coordinates":[-120.317385,47.406093]}},{"properties":{"city":"Granite Falls","zip":"98148","geo_score":0.721,"description":"Pharm-A-Save","id":"a62gczmspkpy","geo_precision":"range","address":"17684 1st Ave South","state":"Washington"},"type":"Feature","geometry":{"type":"Point","coordinates":[-122.334175,47.443505]}},{"properties":{"city":"Seattle","zip":"98531","geo_score":0.443,"description":"Pike Place Natural Foods","id":"a62gczheqwlb","geo_precision":"street","address":"PO Box 929","state":"Washington"},"type":"Feature","geometry":{"type":"Point","coordinates":[-122.95131,46.736779]}},{"properties":{"city":"Seattle","zip":"98823","geo_score":0.902,"description":"Pike Place Natural Foods - Health Food Store.","id":"a62gczlakh9r","geo_precision":"range","address":"1105 Basin St SW","state":"Washington"},"type":"Feature","geometry":{"type":"Point","coordinates":[-119.558876,47.310616]}},{"properties":{"city":"Seattle","zip":"99037","geo_score":0.845,"description":"Pilgram's Nature Way","id":"a62gczpfcdxv","geo_precision":"range","address":"15609 Sprague Rd","state":"Washington"},"type":"Feature","geometry":{"type":"Point","coordinates":[-117.195098,47.657016]}},{"properties":{"city":"Seattle","zip":"98908","geo_score":0.733,"description":"Pilgram's Nature Way","id":"a62gczpr80ed","geo_precision":"range","address":"1206 North 40th","state":"Washington"},"type":"Feature","geometry":{"type":"Point","coordinates":[-120.56211,46.6181]}},{"properties":{"city":"Spokane","zip":"98685","geo_score":0.902,"description":"Pilgrim's Fine Foods","id":"a62gczfeqa7w","geo_precision":"range","address":"800 NE Tenney Rd","state":"Washington"},"type":"Feature","geometry":{"type":"Point","coordinates":[-122.666874,45.721759]}},{"properties":{"city":"Spokane","zip":"98665","geo_score":0.83,"description":"Pilgrim's Fine Foods - Natural Food Store.","id":"a62gczdo2r3x","geo_precision":"range","address":"7700 Hwy 99","state":"Washington"},"type":"Feature","geometry":{"type":"Point","coordinates":[-122.662184,45.677871]}},{"properties":{"city":"Spokane","zip":"98683","geo_score":0.913,"description":"Pilgrim's Natural Foods Mkt","id":"a62gczirqvvs","geo_precision":"range","address":"16600 SE McGillivray Blvd","state":"Washington"},"type":"Feature","geometry":{"type":"Point","coordinates":[-122.501656,45.604361]}},{"properties":{"city":"Spokane","zip":"98661","geo_score":0.86,"description":"Pilgrim's Natural Foods Mkt","id":"a62gczm8krln","geo_precision":"range","address":"2201 Grand Blvd NE","state":"Washington"},"type":"Feature","geometry":{"type":"Point","coordinates":[-122.641817,45.637321]}},{"properties":{"city":"Spokane","zip":"98662","geo_score":0.911,"description":"Pilgrim's Natural Foods Mkt","id":"a62gczrzwk4r","geo_precision":"range","address":"7411 NE 117th Ave","state":"Washington"},"type":"Feature","geometry":{"type":"Point","coordinates":[-122.552543,45.676909]}},{"properties":{"city":"Seattle","zip":"98684","geo_score":0.913,"description":"Pilgrim's Natural Foods Mkt - Health Food Store.","id":"a62gczpgyho5","geo_precision":"range","address":"11325 SE Mill Plain Blvd","state":"Washington"},"type":"Feature","geometry":{"type":"Point","coordinates":[-122.55625,45.621012]}},{"properties":{"city":"Spokane","zip":"98466","geo_score":0.819,"description":"Pilgrim's Natural Foods Mkt - Natural Food Store.","id":"a62gczckz7y3","geo_precision":"range","address":"6901 South 19th St","state":"Washington"},"type":"Feature","geometry":{"type":"Point","coordinates":[-122.527807,47.242703]}},{"properties":{"city":"Spokane","zip":"98408","geo_score":0.721,"description":"Pilgrim's Natural Foods Mkt - Natural Food Store.","id":"a62gczrzkl6n","geo_precision":"street","address":"7250 Pacific Ave","state":"Washington"},"type":"Feature","geometry":{"type":"Point","coordinates":[-122.433987,47.211783]}},{"properties":{"city":"Spokane","zip":"98512","geo_score":0.849,"description":"Pilgrim's Natural Foods Mkt - Natural Food Store.","id":"a62gczdwhhoz","geo_precision":"range","address":"555 Trosper Rd","state":"Washington"},"type":"Feature","geometry":{"type":"Point","coordinates":[-122.914,46.999959]}},{"properties":{"city":"Spokane","zip":"98405","geo_score":0.749,"description":"Pilgrim's Natural Foods Mkt - Natural Foods Store.","id":"a62gcznybbku","geo_precision":"range","address":"4505 South 19th","state":"Washington"},"type":"Feature","geometry":{"type":"Point","coordinates":[-122.498487,47.242857]}},{"properties":{"city":"Everett","zip":"99207","geo_score":0.776,"description":"Pilgrim's Nature Way - Health Food and Natural Food Store.","id":"a62gczi1q2pd","geo_precision":"street","address":"East 525 Francis Ave","state":"Washington"},"type":"Feature","geometry":{"type":"Point","coordinates":[-117.408542,47.715084]}},{"properties":{"city":"Spokane Valley","zip":"99202","geo_score":0.955,"description":"Pilgrim's Nutrition","id":"a62gczoqyrgj","geo_precision":"range","address":"400 S Thor St","state":"Washington"},"type":"Feature","geometry":{"type":"Point","coordinates":[-117.360354,47.652708]}},{"properties":{"city":"Oak Harbor","zip":"98387","geo_score":0.913,"description":"Pilgrim's Nutrition Center - Health Food Store.","id":"a62gczn9lahz","geo_precision":"range","address":"22303 Mountain Hwy East","state":"Washington"},"type":"Feature","geometry":{"type":"Point","coordinates":[-122.399561,47.054552]}},{"properties":{"city":"Kirkland","zip":"98584","geo_score":0.927,"description":"Pilgrim's/Natureway","id":"a62gczes8gfk","geo_precision":"range","address":"301 E Wallace Kneeland Blvd","state":"Washington"},"type":"Feature","geometry":{"type":"Point","coordinates":[-123.123725,47.231632]}},{"properties":{"city":"Seattle","zip":"98133","geo_score":0.935,"description":"Pilgrim's/Natureway","id":"a62gczgm7et5","geo_precision":"range","address":"18325 Aurora Ave North","state":"Washington"},"type":"Feature","geometry":{"type":"Point","coordinates":[-122.346076,47.76131]}},{"properties":{"city":"Oak Harbor","zip":"98107","geo_score":0.862,"description":"Pioneer Natural Foods","id":"a62gczk1pjsy","geo_precision":"range","address":"915 NW 45th St","state":"Washington"},"type":"Feature","geometry":{"type":"Point","coordinates":[-122.369081,47.661465]}},{"properties":{"city":"Poulsbo","zip":"98125","geo_score":0.902,"description":"Poulsbo Central Market","id":"a62gczg9pdca","geo_precision":"range","address":"13000 Lake City Way NE","state":"Washington"},"type":"Feature","geometry":{"type":"Point","coordinates":[-122.293192,47.7229]}},{"properties":{"city":"Seattle","zip":"98117","geo_score":0.84,"description":"Pro Body Discount Nutrition","id":"a62gczqoq0de","geo_precision":"range","address":"100 NW 85th St","state":"Washington"},"type":"Feature","geometry":{"type":"Point","coordinates":[-122.357982,47.690608]}},{"properties":{"city":"Everett","zip":"99352","geo_score":0.919,"description":"Pro Discount Body Nutrition","id":"a62gczgehm0a","geo_precision":"range","address":"101 Wellsian Way","state":"Washington"},"type":"Feature","geometry":{"type":"Point","coordinates":[-119.284897,46.262345]}},{"properties":{"city":"Seattle","zip":"98055","geo_score":0.764,"description":"Protein Planet","id":"a62gczincw01","geo_precision":"range","address":"365 Renton Ctr Way SW","state":"Washington"},"type":"Feature","geometry":{"type":"Point","coordinates":[-122.218428,47.477574]}},{"properties":{"city":"Issaquah","zip":"98055","geo_score":0.708,"description":"Puget Consumers Co-Op","id":"a62gcze3gftf","geo_precision":"street","address":"17801 106th Ave SE","state":"Washington"},"type":"Feature","geometry":{"type":"Point","coordinates":[-122.199533,47.448682]}},{"properties":{"city":"Kirkland","zip":"98034","geo_score":0.935,"description":"Puget Consumer's Coop","id":"a62gczdbtueb","geo_precision":"range","address":"12221 120th Ave NE","state":"Washington"},"type":"Feature","geometry":{"type":"Point","coordinates":[-122.183833,47.709536]}},{"properties":{"city":"Seattle","zip":"98503","geo_score":0.882,"description":"Puget Consumer's Coop","id":"a62gczfj3jb4","geo_precision":"range","address":"700 Sleater-Kinney Dr SE","state":"Washington"},"type":"Feature","geometry":{"type":"Point","coordinates":[-122.833766,47.041976]}},{"properties":{"city":"Seattle","zip":"98632","geo_score":0.922,"description":"Puget Consumer's Coop","id":"a62gczh5mm8h","geo_precision":"range","address":"3184 Ocean Beach Hwy","state":"Washington"},"type":"Feature","geometry":{"type":"Point","coordinates":[-122.966088,46.147977]}},{"properties":{"city":"Seattle","zip":"98036","geo_score":0.727,"description":"Puget Consumer's Coop","id":"a62gczjzgldv","geo_precision":"street","address":"4615-A 196th St SW #175","state":"Washington"},"type":"Feature","geometry":{"type":"Point","coordinates":[-122.257024,47.820451]}},{"properties":{"city":"Seattle","zip":"98270","geo_score":0.924,"description":"Puget Consumer's Coop","id":"a62gczfkscwh","geo_precision":"range","address":"9925 State Ave","state":"Washington"},"type":"Feature","geometry":{"type":"Point","coordinates":[-122.172278,48.085394]}},{"properties":{"city":"Seattle","zip":"98272","geo_score":0.902,"description":"Puget Consumer's Coop","id":"a62gczi061nv","geo_precision":"range","address":"18805 State Rte 2","state":"Washington"},"type":"Feature","geometry":{"type":"Point","coordinates":[-121.978219,47.860988]}},{"properties":{"city":"Seattle","zip":"98366","geo_score":0.6,"description":"Puget Consumer's Coop","id":"a62gczdmzcdx","geo_precision":"zip","address":"1900 SE Sedwick Rd","state":"Washington"},"type":"Feature","geometry":{"type":"Point","coordinates":[-122.54819,47.586208]}},{"properties":{"city":"Seattle","zip":"98373","geo_score":0.656,"description":"Puget Consumer's Coop","id":"a62gczpqf2d1","geo_precision":"street","address":"17404 Meridian East","state":"Washington"},"type":"Feature","geometry":{"type":"Point","coordinates":[-122.293088,47.16139]}},{"properties":{"city":"Olympia","zip":"98031","geo_score":0.902,"description":"Radiance Herbs &amp; Massage","id":"a62gczlj97pr","geo_precision":"range","address":"10201 SE 240th St","state":"Washington"},"type":"Feature","geometry":{"type":"Point","coordinates":[-122.205164,47.386956]}},{"properties":{"city":"Seattle","zip":"99336","geo_score":0.859,"description":"Rainbow Natural Grocery","id":"a62gczencgva","geo_precision":"range","address":"2811 West 10th Ave","state":"Washington"},"type":"Feature","geometry":{"type":"Point","coordinates":[-119.159321,46.198619]}},{"properties":{"city":"Seattle","zip":"98029","geo_score":0.667,"description":"Rainbow Natural Grocery - Your Independent Natural Food Store.","id":"a62gczhjhzuy","geo_precision":"street","address":"6100 E Lake Sammamish","state":"Washington"},"type":"Feature","geometry":{"type":"Point","coordinates":[-122.082914,47.595398]}},{"properties":{"city":"Seattle","zip":"98335","geo_score":0.823,"description":"Rainbow Natural Remedies","id":"a62gczdm0g3h","geo_precision":"range","address":"5500 Olympic Dr Ste B","state":"Washington"},"type":"Feature","geometry":{"type":"Point","coordinates":[-122.583711,47.306459]}},{"properties":{"city":"Auburn","zip":"98023","geo_score":0.847,"description":"Rainier Natural Foods","id":"a62gczjr2cb8","geo_precision":"range","address":"33702 21st Ave SW","state":"Washington"},"type":"Feature","geometry":{"type":"Point","coordinates":[-122.360901,47.300406]}},{"properties":{"city":"Bremerton","zip":"98204","geo_score":0.74,"description":"Ralph's Red Apple","id":"a62gczmh7ood","geo_precision":"street","address":"8530 Evergreen Way","state":"Washington"},"type":"Feature","geometry":{"type":"Point","coordinates":[-122.233138,47.916475]}},{"properties":{"city":"Olympia","zip":"98208","geo_score":0.885,"description":"Randy's Nutrition Ctr","id":"a62gczhah9gg","geo_precision":"range","address":"12906 Bothel-Everett Hwy","state":"Washington"},"type":"Feature","geometry":{"type":"Point","coordinates":[-122.206779,47.881226]}},{"properties":{"city":"Poulsbo","zip":"98926","geo_score":0.829,"description":"Red Apple Health Store","id":"a62gcznpgj2h","geo_precision":"range","address":"201 S Water","state":"Washington"},"type":"Feature","geometry":{"type":"Point","coordinates":[-120.549745,46.991268]}},{"properties":{"city":"Colville","zip":"98802","geo_score":0.873,"description":"Richards Nutrition","id":"a62gczh15wmg","geo_precision":"range","address":"11 W Grant Rd","state":"Washington"},"type":"Feature","geometry":{"type":"Point","coordinates":[-120.289464,47.406033]}},{"properties":{"city":"Richland","zip":"98233","geo_score":0.915,"description":"Richland Health Foods","id":"a62gczkvjwyl","geo_precision":"range","address":"920 S Burlington Blvd","state":"Washington"},"type":"Feature","geometry":{"type":"Point","coordinates":[-122.335731,48.467519]}},{"properties":{"city":"Spokane","zip":"98311","geo_score":0.857,"description":"Rocket Market - Natural Food Store.","id":"a62gczk60199","geo_precision":"range","address":"5050 State Hwy 303 NE","state":"Washington"},"type":"Feature","geometry":{"type":"Point","coordinates":[-122.628773,47.610362]}},{"properties":{"city":"Spokane","zip":"98021","geo_score":0.922,"description":"Rosauers Market","id":"a62gczjlq4nq","geo_precision":"range","address":"21045 Bothell-Everett Hwy","state":"Washington"},"type":"Feature","geometry":{"type":"Point","coordinates":[-122.207736,47.807303]}},{"properties":{"city":"Spokane","zip":"98390","geo_score":0.503,"description":"Rosauers Supermarkets","id":"a62gczn2x9fw","geo_precision":"street","address":"20904 Hwy 410","state":"Washington"},"type":"Feature","geometry":{"type":"Point","coordinates":[-122.170959,47.170089]}},{"properties":{"city":"Bellevue","zip":"98226","geo_score":0.807,"description":"Safeway - Seattle Division","id":"a62gczjiqhc4","geo_precision":"street","address":"800 Lakeway Dr","state":"Washington"},"type":"Feature","geometry":{"type":"Point","coordinates":[-122.464824,48.744972]}},{"properties":{"city":"Leavenworth","zip":"98604","geo_score":0.864,"description":"Sage Mountain Natural Foods","id":"a62gczcf8dsb","geo_precision":"range","address":"401 NW 12th Ave","state":"Washington"},"type":"Feature","geometry":{"type":"Point","coordinates":[-122.549816,45.784847]}},{"properties":{"city":"Leavenworth","zip":"98007","geo_score":0.619,"description":"Sage Mountain Natural Foods","id":"a62gczn8k3nf","geo_precision":"street","address":"2041 148th St","state":"Washington"},"type":"Feature","geometry":{"type":"Point","coordinates":[-122.142194,47.599529]}},{"properties":{"city":"Friday Harbor","zip":"98002","geo_score":0.919,"description":"San Juan Farmers Market","id":"a62gczqokahu","geo_precision":"range","address":"801 Auburn Way North","state":"Washington"},"type":"Feature","geometry":{"type":"Point","coordinates":[-122.224154,47.314937]}},{"properties":{"city":"Bellevue","zip":"98503","geo_score":0.427,"description":"Seattle SuperSupplements","id":"a62gcze6wbt2","geo_precision":"street","address":"719 Sleather Kinney Rd","state":"Washington"},"type":"Feature","geometry":{"type":"Point","coordinates":[-122.98985,46.988744]}},{"properties":{"city":"Bellingham","zip":"98012","geo_score":0.647,"description":"Seattle SuperSupplements","id":"a62gczqxzpxo","geo_precision":"street","address":"15704 Mill Creek Blvd Ste 12","state":"Washington"},"type":"Feature","geometry":{"type":"Point","coordinates":[-122.214565,47.856778]}},{"properties":{"city":"Bremerton","zip":"98360","geo_score":0.668,"description":"Seattle SuperSupplements","id":"a62gczmdbjca","geo_precision":"street","address":"215 Whitesel St NW Ste B-108","state":"Washington"},"type":"Feature","geometry":{"type":"Point","coordinates":[-122.209389,47.098138]}},{"properties":{"city":"Burlington","zip":"98052","geo_score":0.759,"description":"Seattle SuperSupplements","id":"a62gczpcuhz7","geo_precision":"street","address":"16805 Redmond Way","state":"Washington"},"type":"Feature","geometry":{"type":"Point","coordinates":[-122.116253,47.672388]}},{"properties":{"city":"Everett","zip":"98055","geo_score":0.816,"description":"Seattle SuperSupplements","id":"a62gczoukvhh","geo_precision":"range","address":"220 SW Sunset Blvd Ste 103","state":"Washington"},"type":"Feature","geometry":{"type":"Point","coordinates":[-122.221182,47.47864]}},{"properties":{"city":"Federal Way","zip":"98101","geo_score":0.922,"description":"Seattle SuperSupplements","id":"a62gczkb290w","geo_precision":"range","address":"1202 Stewart St","state":"Washington"},"type":"Feature","geometry":{"type":"Point","coordinates":[-122.331848,47.617622]}},{"properties":{"city":"Kenmore","zip":"98102","geo_score":0.717,"description":"Seattle SuperSupplements","id":"a62gczlptzgh","geo_precision":"street","address":"428 Broadway Ave E","state":"Washington"},"type":"Feature","geometry":{"type":"Point","coordinates":[-122.321028,47.625111]}},{"properties":{"city":"Kennewick","zip":"98682","geo_score":0.645,"description":"Seattle SuperSupplements","id":"a62gczhkitlt","geo_precision":"street","address":"13504 NE 84th St #101","state":"Washington"},"type":"Feature","geometry":{"type":"Point","coordinates":[-122.532903,45.684189]}},{"properties":{"city":"Lakewood","zip":"98134","geo_score":0.819,"description":"Seattle SuperSupplements","id":"a62gczeevdl9","geo_precision":"range","address":"4121 1st Ave South","state":"Washington"},"type":"Feature","geometry":{"type":"Point","coordinates":[-122.334209,47.567061]}},{"properties":{"city":"Lynnwood","zip":"98005","geo_score":0.902,"description":"Seattle SuperSupplements","id":"a62gczgmdaso","geo_precision":"range","address":"1645 140th Ave NE","state":"Washington"},"type":"Feature","geometry":{"type":"Point","coordinates":[-122.153686,47.624768]}},{"properties":{"city":"Olympia","zip":"98541","geo_score":0.651,"description":"Seattle SuperSupplements","id":"a62gczir5vlw","geo_precision":"street","address":"325 S 5th St","state":"Washington"},"type":"Feature","geometry":{"type":"Point","coordinates":[-123.408084,47.000983]}},{"properties":{"city":"Puyallop","zip":null,"geo_score":0.839,"description":"Seattle SuperSupplements","id":"a62gczdb2u5o","geo_precision":"city","address":null,"state":"Washington"},"type":"Feature","geometry":{"type":"Point","coordinates":[-122.317148,47.212822]}},{"properties":{"city":"Renton","zip":"98225","geo_score":0.818,"description":"Seattle SuperSupplements","id":"a62gczj7bf3o","geo_precision":"range","address":"1401 12th St","state":"Washington"},"type":"Feature","geometry":{"type":"Point","coordinates":[-122.502216,48.719338]}},{"properties":{"city":"Seattle","zip":"98003","geo_score":0.449,"description":"Seattle SuperSupplements","id":"a62gcze2rtit","geo_precision":"street","address":"30809 1st Ave S #K","state":"Washington"},"type":"Feature","geometry":{"type":"Point","coordinates":[-122.334929,47.259572]}},{"properties":{"city":"Seattle","zip":"99201","geo_score":0.847,"description":"Seattle SuperSupplements","id":"a62gczlg037e","geo_precision":"range","address":"20 W 2nd Ave Spokane","state":"Washington"},"type":"Feature","geometry":{"type":"Point","coordinates":[-117.412122,47.654553]}},{"properties":{"city":"Seattle","zip":"99166","geo_score":0.733,"description":"Seattle SuperSupplements","id":"a62gczodwwqz","geo_precision":"street","address":"34 N Clark Ave","state":"Washington"},"type":"Feature","geometry":{"type":"Point","coordinates":[-118.738191,48.648695]}},{"properties":{"city":"Seattle","zip":null,"geo_score":0.857,"description":"Seattle SuperSupplements","id":"a62gczcf69u0","geo_precision":"city","address":null,"state":"Washington"},"type":"Feature","geometry":{"type":"Point","coordinates":[-122.332071,47.60621]}},{"properties":{"city":"Seattle","zip":"98036","geo_score":0.951,"description":"Seattle SuperSupplements","id":"a62gczr8u3tl","geo_precision":"range","address":"21314 Cypress Way","state":"Washington"},"type":"Feature","geometry":{"type":"Point","coordinates":[-122.259244,47.806241]}},{"properties":{"city":"Seattle","zip":"98037","geo_score":0.805,"description":"Seattle SuperSupplements","id":"a62gczkydu50","geo_precision":"range","address":"13619 Mukilteo Speedway","state":"Washington"},"type":"Feature","geometry":{"type":"Point","coordinates":[-122.275972,47.875021]}},{"properties":{"city":"Spokane","zip":"98106","geo_score":0.725,"description":"Seattle SuperSupplements","id":"a62gczmcvq8g","geo_precision":"street","address":"4025 Delridge Way SW #210","state":"Washington"},"type":"Feature","geometry":{"type":"Point","coordinates":[-122.362289,47.569779]}},{"properties":{"city":"Spokane","zip":"98133","geo_score":0.946,"description":"Seattle SuperSupplements","id":"a62gcznqx0yj","geo_precision":"range","address":"13500 Linden Ave North","state":"Washington"},"type":"Feature","geometry":{"type":"Point","coordinates":[-122.347677,47.726909]}},{"properties":{"city":"Tacoma","zip":"98444","geo_score":0.902,"description":"Seattle SuperSupplements","id":"a62gczl7ye47","geo_precision":"range","address":"11803 C St South","state":"Washington"},"type":"Feature","geometry":{"type":"Point","coordinates":[-122.437018,47.149693]}},{"properties":{"city":"Ephrata","zip":"98032","geo_score":0.917,"description":"Settler's Country Market - Natural &amp; Organic.","id":"a62gczihl5hk","geo_precision":"range","address":"1428 W Meeker St","state":"Washington"},"type":"Feature","geometry":{"type":"Point","coordinates":[-122.252038,47.381272]}},{"properties":{"city":"Ephrata","zip":"98030","geo_score":0.863,"description":"Settler's Market","id":"a62gczkxmeqg","geo_precision":"range","address":"13036 SE Kent Kangley","state":"Washington"},"type":"Feature","geometry":{"type":"Point","coordinates":[-122.167603,47.358322]}},{"properties":{"city":"Chehalis","zip":"98027","geo_score":0.833,"description":"Shop N Kart Health Store","id":"a62gczhepj8d","geo_precision":"range","address":"1590 NW Gilman Blvd Ste E-6","state":"Washington"},"type":"Feature","geometry":{"type":"Point","coordinates":[-122.060256,47.545685]}},{"properties":{"city":"Seattle","zip":"98003","geo_score":0.858,"description":"SideCar for Pigs Peace","id":"a62gcziggalv","geo_precision":"range","address":"2020 S 320th Ste E","state":"Washington"},"type":"Feature","geometry":{"type":"Point","coordinates":[-122.308279,47.315119]}},{"properties":{"city":"Mt Vernon","zip":"98166","geo_score":0.783,"description":"Skagit Valley Food Coop","id":"a62gczo7gwaz","geo_precision":"range","address":"126 SW 148th St Ste C-170","state":"Washington"},"type":"Feature","geometry":{"type":"Point","coordinates":[-122.334319,47.470485]}},{"properties":{"city":"Mount Vernon","zip":"98229","geo_score":0.929,"description":"Skagit Valley Food Co-op","id":"a62gczmo9s6h","geo_precision":"range","address":"1058 Lakeway Dr","state":"Washington"},"type":"Feature","geometry":{"type":"Point","coordinates":[-122.461995,48.744937]}},{"properties":{"city":"Mount Vernon","zip":"98390","geo_score":0.577,"description":"Skagit Valley Food Co-op","id":"a62gczo5pd9x","geo_precision":"street","address":"20075 SR 410 E A-108","state":"Washington"},"type":"Feature","geometry":{"type":"Point","coordinates":[-122.191382,47.179747]}},{"properties":{"city":"Mount Vernon","zip":"98001","geo_score":0.794,"description":"Skagit Valley Food Co-op - Full line natural foods with sitdown deli.","id":"a62gczrolxgs","geo_precision":"range","address":"1118 Super Mall Way SW Ste 103","state":"Washington"},"type":"Feature","geometry":{"type":"Point","coordinates":[-122.247557,47.301566]}},{"properties":{"city":"Tumwater","zip":"98020","geo_score":0.532,"description":"Smart Nutrition","id":"a62gczo25erv","geo_precision":"street","address":"420 5th Ave S #B-1","state":"Washington"},"type":"Feature","geometry":{"type":"Point","coordinates":[-122.370853,47.803269]}},{"properties":{"city":"Everett","zip":"98926","geo_score":0.916,"description":"Sno-Isle Natural Foods Coop","id":"a62gczcjcr6z","geo_precision":"range","address":"11810 Manastash Rd","state":"Washington"},"type":"Feature","geometry":{"type":"Point","coordinates":[-120.719967,46.967262]}},{"properties":{"city":"Everett","zip":"99212","geo_score":0.902,"description":"Sno-Isle Natural Foods Co-op","id":"a62gczcnvk5b","geo_precision":"range","address":"8918 E Boone Ave","state":"Washington"},"type":"Feature","geometry":{"type":"Point","coordinates":[-117.285335,47.667846]}},{"properties":{"city":"Everett","zip":"98107","geo_score":0.902,"description":"SnoIsle Natural Foods Co-op - Sno-Isle Natural Foods Co-op.","id":"a62gczhf0y40","geo_precision":"range","address":"5424 Ballard Ave NW","state":"Washington"},"type":"Feature","geometry":{"type":"Point","coordinates":[-122.385083,47.667841]}},{"properties":{"city":"Spokane","zip":"98362","geo_score":0.827,"description":"Spokane Vitamin &amp; Mineral","id":"a62gczpq00yh","geo_precision":"range","address":"117 E 1st St","state":"Washington"},"type":"Feature","geometry":{"type":"Point","coordinates":[-123.433219,48.118894]}},{"properties":{"city":"Spokane","zip":"98632","geo_score":0.888,"description":"Spokane Vitamin and Mineral - Natural Food Store.","id":"a62gczo1lgm4","geo_precision":"range","address":"711 Vandercooke Way","state":"Washington"},"type":"Feature","geometry":{"type":"Point","coordinates":[-122.923995,46.145615]}},{"properties":{"city":"Langley","zip":"98292","geo_score":0.744,"description":"Star Store Basics","id":"a62gczkt6y7k","geo_precision":"range","address":"26477 72nd Ave NW Ste 101","state":"Washington"},"type":"Feature","geometry":{"type":"Point","coordinates":[-122.330242,48.236169]}},{"properties":{"city":"Sequim","zip":null,"geo_score":0.857,"description":"Sunny Farms Country Store","id":"a62gczjr757y","geo_precision":"city","address":null,"state":"Washington"},"type":"Feature","geometry":{"type":"Point","coordinates":[-123.080362,48.06773]}},{"properties":{"city":"Kent","zip":"98225","geo_score":0.915,"description":"Sunshine Cormers","id":"a62gczqli6ma","geo_precision":"range","address":"1220 N Forest St","state":"Washington"},"type":"Feature","geometry":{"type":"Point","coordinates":[-122.477363,48.746919]}},{"properties":{"city":"Federal Way","zip":"98225","geo_score":0.85,"description":"Super Natural Nutrition","id":"a62gczfr7cqh","geo_precision":"range","address":"1220 N Forest","state":"Washington"},"type":"Feature","geometry":{"type":"Point","coordinates":[-122.477363,48.746919]}},{"properties":{"city":"Ft Townsend","zip":"98466","geo_score":0.838,"description":"Swan Farms Whole Foods","id":"a62gcznov6bg","geo_precision":"range","address":"6718 19th St W","state":"Washington"},"type":"Feature","geometry":{"type":"Point","coordinates":[-122.52654,47.242708]}},{"properties":{"city":"Aberdeen","zip":"98104","geo_score":0.721,"description":"Swanson's Foods","id":"a62gczl32jsn","geo_precision":"street","address":"316 Maynard Ave S #106","state":"Washington"},"type":"Feature","geometry":{"type":"Point","coordinates":[-122.325054,47.600027]}},{"properties":{"city":"Kenton","zip":"98133","geo_score":0.895,"description":"Tacoma Clinic Nutrition Ctr","id":"a62gczije816","geo_precision":"range","address":"15505 Westminister Way N","state":"Washington"},"type":"Feature","geometry":{"type":"Point","coordinates":[-122.348876,47.740861]}},{"properties":{"city":"Bellingham","zip":"98133","geo_score":0.912,"description":"Terra Organica","id":"a62gczenragw","geo_precision":"range","address":"15505 Westminster Way N","state":"Washington"},"type":"Feature","geometry":{"type":"Point","coordinates":[-122.348876,47.740861]}},{"properties":{"city":"Bellingham","zip":"98012","geo_score":0.805,"description":"Terra Organica - Organic Market Place.","id":"a62gczn8k47i","geo_precision":"range","address":"15605 Main St","state":"Washington"},"type":"Feature","geometry":{"type":"Point","coordinates":[-122.132202,47.609811]}},{"properties":{"city":"Long Beach","zip":"98371","geo_score":0.829,"description":"THC Organic Market","id":"a62gczeecoxa","geo_precision":"range","address":"810 17th St NW","state":"Washington"},"type":"Feature","geometry":{"type":"Point","coordinates":[-122.316367,47.198557]}},{"properties":{"city":"Port Townsend","zip":"98108","geo_score":0.329,"description":"The Food Co-op","id":"a62gczdma7cs","geo_precision":"street","address":"PO Box 80271","state":"Washington"},"type":"Feature","geometry":{"type":"Point","coordinates":[-122.308828,47.592341]}},{"properties":{"city":"Port Townsend","zip":"98926","geo_score":0.827,"description":"The Food Co-op - Specializing in organic whole foods.","id":"a62gczenk50x","geo_precision":"range","address":"111 W 6th Ave","state":"Washington"},"type":"Feature","geometry":{"type":"Point","coordinates":[-120.547428,46.997581]}},{"properties":{"city":"Sequim","zip":"99206","geo_score":0.917,"description":"The Good Doctor","id":"a62gczlgdu7y","geo_precision":"range","address":"613 S Pines Rd","state":"Washington"},"type":"Feature","geometry":{"type":"Point","coordinates":[-117.239852,47.650957]}},{"properties":{"city":"Friday Harbor","zip":"98908","geo_score":0.846,"description":"The Gourmet's Galley","id":"a62gczi8fk27","geo_precision":"range","address":"215 N 77th Ave","state":"Washington"},"type":"Feature","geometry":{"type":"Point","coordinates":[-120.611006,46.60047]}},{"properties":{"city":"Seattle","zip":"98903","geo_score":0.834,"description":"The Grainery","id":"a62gczethmg6","geo_precision":"range","address":"2415 S 14th St","state":"Washington"},"type":"Feature","geometry":{"type":"Point","coordinates":[-120.482848,46.568057]}},{"properties":{"city":"Burien","zip":null,"geo_score":0.857,"description":"The Grainery - Health Food Store.","id":"a62gczln3x69","geo_precision":"city","address":null,"state":"Washington"},"type":"Feature","geometry":{"type":"Point","coordinates":[-122.346792,47.470377]}},{"properties":{"city":"Moses Lake","zip":null,"geo_score":0.806,"description":"The Health Pantry","id":"a62gczkld477","geo_precision":"city","address":null,"state":"Washington"},"type":"Feature","geometry":{"type":"Point","coordinates":[-119.31719,47.194328]}},{"properties":{"city":"Seattle","zip":"98816","geo_score":0.381,"description":"The Herbalist","id":"a62gczdo58l3","geo_precision":"street","address":"PO Box 2118","state":"Washington"},"type":"Feature","geometry":{"type":"Point","coordinates":[-120.317385,47.406093]}},{"properties":{"city":"Seattle","zip":"98502","geo_score":0.428,"description":"The Herbalist - Celebrating 20 Year of Quality Herbal Products.","id":"a62gczi8bggp","geo_precision":"street","address":"516 W 4th","state":"Washington"},"type":"Feature","geometry":{"type":"Point","coordinates":[-122.912356,47.044228]}},{"properties":{"city":"Spokane","zip":"98134","geo_score":0.93,"description":"The Rocket Market","id":"a62gczo0299g","geo_precision":"range","address":"4727 Denver Ave S","state":"Washington"},"type":"Feature","geometry":{"type":"Point","coordinates":[-122.335086,47.561916]}},{"properties":{"city":"Monroe","zip":"99206","geo_score":0.73,"description":"Thyme for Help","id":"a62gczou148g","geo_precision":"street","address":"11205 E Dishman Mica Rd","state":"Washington"},"type":"Feature","geometry":{"type":"Point","coordinates":[-117.241171,47.573623]}},{"properties":{"city":"Seattle","zip":"98155","geo_score":0.935,"description":"To Your Health","id":"a62gczgeckzb","geo_precision":"range","address":"20036 Ballinger Way NE","state":"Washington"},"type":"Feature","geometry":{"type":"Point","coordinates":[-122.309321,47.774606]}},{"properties":{"city":"Aberdeen","zip":null,"geo_score":0.79,"description":"Top Food","id":"a62gczl5mmnk","geo_precision":"city","address":null,"state":"Washington"},"type":"Feature","geometry":{"type":"Point","coordinates":[-123.779611,47.062592]}},{"properties":{"city":"Auburn","zip":null,"geo_score":0.857,"description":"Top Food","id":"a62gczir5olx","geo_precision":"city","address":null,"state":"Washington"},"type":"Feature","geometry":{"type":"Point","coordinates":[-122.228453,47.307323]}},{"properties":{"city":"Bellevue","zip":null,"geo_score":0.857,"description":"Top Food","id":"a62gczbutc73","geo_precision":"city","address":null,"state":"Washington"},"type":"Feature","geometry":{"type":"Point","coordinates":[-122.207221,47.615471]}},{"properties":{"city":"Edmonds","zip":null,"geo_score":0.857,"description":"Top Food","id":"a62gczek4sy8","geo_precision":"city","address":null,"state":"Washington"},"type":"Feature","geometry":{"type":"Point","coordinates":[-122.372401,47.806068]}},{"properties":{"city":"Everett","zip":"98501","geo_score":0.902,"description":"Top Food","id":"a62gczdgqsa6","geo_precision":"range","address":"5018 Viewridge Dr SE","state":"Washington"},"type":"Feature","geometry":{"type":"Point","coordinates":[-122.836921,47.002982]}},{"properties":{"city":"Federal Way","zip":"98362","geo_score":0.917,"description":"Top Food","id":"a62gczfj3ud8","geo_precision":"range","address":"151 Conner Rd","state":"Washington"},"type":"Feature","geometry":{"type":"Point","coordinates":[-123.277951,48.065387]}},{"properties":{"city":"Kent","zip":"98270","geo_score":0.796,"description":"Top Food","id":"a62gczrbmqhg","geo_precision":"range","address":"1528 3rd St","state":"Washington"},"type":"Feature","geometry":{"type":"Point","coordinates":[-122.176599,48.050919]}},{"properties":{"city":"Lacey","zip":"99006","geo_score":0.406,"description":"Top Food","id":"a62gczlad62m","geo_precision":"street","address":"843 S Main St POB 639","state":"Washington"},"type":"Feature","geometry":{"type":"Point","coordinates":[-117.476923,47.947005]}},{"properties":{"city":"Olympia","zip":"99218","geo_score":0.717,"description":"Top Food","id":"a62gczn7fljd","geo_precision":"range","address":"10220 N Nevada St Ste 70","state":"Washington"},"type":"Feature","geometry":{"type":"Point","coordinates":[-117.395208,47.7504]}},{"properties":{"city":"Shoreline","zip":"98221","geo_score":0.807,"description":"Top Food","id":"a62gczninw7g","geo_precision":"range","address":"1020 7th St","state":"Washington"},"type":"Feature","geometry":{"type":"Point","coordinates":[-122.612843,48.516664]}},{"properties":{"city":"Snohomish","zip":"99325","geo_score":0.583,"description":"Top Food","id":"a62gczn111u7","geo_precision":"street","address":"1117 S College Ave","state":"Washington"},"type":"Feature","geometry":{"type":"Point","coordinates":[-122.485014,48.707257]}},{"properties":{"city":"Tacoma","zip":null,"geo_score":0.857,"description":"Top Food","id":"a62gczks5atq","geo_precision":"city","address":null,"state":"Washington"},"type":"Feature","geometry":{"type":"Point","coordinates":[-122.444291,47.252877]}},{"properties":{"city":"Wenatchee","zip":"98201","geo_score":0.823,"description":"Top Food","id":"a62gczg35kyr","geo_precision":"range","address":"2531 Broadway Ste D-1","state":"Washington"},"type":"Feature","geometry":{"type":"Point","coordinates":[-122.201441,47.984094]}},{"properties":{"city":"Woodinville","zip":"98223","geo_score":0.902,"description":"Top Food","id":"a62gczjqq84u","geo_precision":"range","address":"317 N Olympic Ave","state":"Washington"},"type":"Feature","geometry":{"type":"Point","coordinates":[-122.126436,48.195073]}},{"properties":{"city":"Yakima","zip":"98579","geo_score":0.735,"description":"Top Food","id":"a62gczqngqqz","geo_precision":"range","address":"10333 Highway 12 SW","state":"Washington"},"type":"Feature","geometry":{"type":"Point","coordinates":[-123.099286,46.821958]}},{"properties":{"city":"Spokane","zip":null,"geo_score":0.857,"description":"Top O' The Line Total Health","id":"a62gczdk1wmx","geo_precision":"city","address":null,"state":"Washington"},"type":"Feature","geometry":{"type":"Point","coordinates":[-117.426047,47.65878]}},{"properties":{"city":"Long Beach","zip":null,"geo_score":0.857,"description":"Total Health Center","id":"a62gczq4im3v","geo_precision":"city","address":null,"state":"Washington"},"type":"Feature","geometry":{"type":"Point","coordinates":[-123.995591,46.376798]}},{"properties":{"city":"Bainbridge Island","zip":null,"geo_score":0.741,"description":"Town &amp; Country Market","id":"a62gczrd2l57","geo_precision":"city","address":null,"state":"Washington"},"type":"Feature","geometry":{"type":"Point","coordinates":[-119.223349,46.239302]}},{"properties":{"city":"Seattle","zip":null,"geo_score":0.857,"description":"Town &amp; Country Market","id":"a62gczrmavsq","geo_precision":"city","address":null,"state":"Washington"},"type":"Feature","geometry":{"type":"Point","coordinates":[-122.332071,47.60621]}},{"properties":{"city":"Bothell","zip":null,"geo_score":0.857,"description":"TruHealth","id":"a62gczo04zqk","geo_precision":"city","address":null,"state":"Washington"},"type":"Feature","geometry":{"type":"Point","coordinates":[-122.205404,47.76232]}},{"properties":{"city":"Bothell","zip":null,"geo_score":0.857,"description":"TruHealth - Quality Nutritional Products - A Truly Healthy Health Food Store.","id":"a62gczgf4v38","geo_precision":"city","address":null,"state":"Washington"},"type":"Feature","geometry":{"type":"Point","coordinates":[-122.205404,47.76232]}},{"properties":{"city":"Bothell","zip":null,"geo_score":0.857,"description":"Truhealth Northwest","id":"a62gczqj6dne","geo_precision":"city","address":null,"state":"Washington"},"type":"Feature","geometry":{"type":"Point","coordinates":[-122.205404,47.76232]}},{"properties":{"city":"Port Townsend","zip":null,"geo_score":0.738,"description":"Uptown Nutrition","id":"a62gczm4g1sj","geo_precision":"city","address":null,"state":"Washington"},"type":"Feature","geometry":{"type":"Point","coordinates":[-122.62541,47.388985]}},{"properties":{"city":"Blaine","zip":null,"geo_score":0.786,"description":"USA Healthy Solutions","id":"a62gczpmyy5n","geo_precision":"city","address":null,"state":"Washington"},"type":"Feature","geometry":{"type":"Point","coordinates":[-123.006008,48.022313]}},{"properties":{"city":"Mt Vernon","zip":null,"geo_score":0.75,"description":"Valley Pharmacy &amp; Nutrition Ctr","id":"a62gczg7bhgl","geo_precision":"city","address":null,"state":"Washington"},"type":"Feature","geometry":{"type":"Point","coordinates":[-117.240392,47.834074]}},{"properties":{"city":"Vashon","zip":null,"geo_score":0.857,"description":"Vashon Thriftway","id":"a62gczlbqp88","geo_precision":"city","address":null,"state":"Washington"},"type":"Feature","geometry":{"type":"Point","coordinates":[-121.803388,47.432251]}},{"properties":{"city":"Sunnyside","zip":null,"geo_score":0.857,"description":"Vibrant Health Foods","id":"a62gczng46ox","geo_precision":"city","address":null,"state":"Washington"},"type":"Feature","geometry":{"type":"Point","coordinates":[-120.01059,46.373611]}},{"properties":{"city":"Puyallup","zip":null,"geo_score":0.857,"description":"Vitalady","id":"a62gczmcac2x","geo_precision":"city","address":null,"state":"Washington"},"type":"Feature","geometry":{"type":"Point","coordinates":[-122.317148,47.212822]}},{"properties":{"city":"Sumas","zip":null,"geo_score":0.857,"description":"Vitamin Depot","id":"a62gczqxq6d3","geo_precision":"city","address":null,"state":"Washington"},"type":"Feature","geometry":{"type":"Point","coordinates":[-122.19886,48.953377]}},{"properties":{"city":"Redmond","zip":null,"geo_score":0.857,"description":"Vitamin Life","id":"a62gczce62h5","geo_precision":"city","address":null,"state":"Washington"},"type":"Feature","geometry":{"type":"Point","coordinates":[-122.121512,47.673988]}},{"properties":{"city":"Kirkland","zip":null,"geo_score":0.857,"description":"Vitamin Plus","id":"a62gczqloxwy","geo_precision":"city","address":null,"state":"Washington"},"type":"Feature","geometry":{"type":"Point","coordinates":[-122.208735,47.681488]}},{"properties":{"city":"Issaquah","zip":null,"geo_score":0.857,"description":"Vitamin Shoppe","id":"a62gczidipsn","geo_precision":"city","address":null,"state":"Washington"},"type":"Feature","geometry":{"type":"Point","coordinates":[-122.010699,47.497419]}},{"properties":{"city":"Olympia","zip":null,"geo_score":0.857,"description":"Vitamin Shoppe","id":"a62gczcfkffy","geo_precision":"city","address":null,"state":"Washington"},"type":"Feature","geometry":{"type":"Point","coordinates":[-122.900695,47.037874]}},{"properties":{"city":"Redmond","zip":null,"geo_score":0.857,"description":"Vitamin Shoppe","id":"a62gczdrbsqn","geo_precision":"city","address":null,"state":"Washington"},"type":"Feature","geometry":{"type":"Point","coordinates":[-122.121512,47.673988]}},{"properties":{"city":"Tukwila","zip":null,"geo_score":0.857,"description":"Vitamin Shoppe","id":"a62gczd1wlnm","geo_precision":"city","address":null,"state":"Washington"},"type":"Feature","geometry":{"type":"Point","coordinates":[-122.260956,47.473988]}},{"properties":{"city":"Auburn","zip":null,"geo_score":0.857,"description":"Vitamin World","id":"a62gczdhm6tn","geo_precision":"city","address":null,"state":"Washington"},"type":"Feature","geometry":{"type":"Point","coordinates":[-122.228453,47.307323]}},{"properties":{"city":"Bellingham","zip":null,"geo_score":0.857,"description":"Vitamin World","id":"a62gczlranw2","geo_precision":"city","address":null,"state":"Washington"},"type":"Feature","geometry":{"type":"Point","coordinates":[-122.454297,48.747687]}},{"properties":{"city":"Burlington","zip":null,"geo_score":0.857,"description":"Vitamin World","id":"a62gczptd6t7","geo_precision":"city","address":null,"state":"Washington"},"type":"Feature","geometry":{"type":"Point","coordinates":[-122.362337,48.533616]}},{"properties":{"city":"Centralia","zip":null,"geo_score":0.802,"description":"Vitamin World","id":"a62gczn1tiba","geo_precision":"city","address":null,"state":"Washington"},"type":"Feature","geometry":{"type":"Point","coordinates":[-122.649867,47.66315]}},{"properties":{"city":"Custer","zip":null,"geo_score":0.857,"description":"Vitamin World","id":"a62gczorxwq7","geo_precision":"city","address":null,"state":"Washington"},"type":"Feature","geometry":{"type":"Point","coordinates":[-122.625235,48.941068]}},{"properties":{"city":"Kennewick","zip":null,"geo_score":0.857,"description":"Vitamin World","id":"a62gczpvif7u","geo_precision":"city","address":null,"state":"Washington"},"type":"Feature","geometry":{"type":"Point","coordinates":[-119.155671,46.212306]}},{"properties":{"city":"Lynden","zip":null,"geo_score":0.857,"description":"Vitamin World","id":"a62gczp9q0ey","geo_precision":"city","address":null,"state":"Washington"},"type":"Feature","geometry":{"type":"Point","coordinates":[-122.436249,48.932328]}},{"properties":{"city":"Lynnwood","zip":null,"geo_score":0.857,"description":"Vitamin World","id":"a62gczm4vocl","geo_precision":"city","address":null,"state":"Washington"},"type":"Feature","geometry":{"type":"Point","coordinates":[-122.315131,47.82093]}},{"properties":{"city":"North Bend","zip":null,"geo_score":0.857,"description":"Vitamin World","id":"a62gczk79vk2","geo_precision":"city","address":null,"state":"Washington"},"type":"Feature","geometry":{"type":"Point","coordinates":[-121.687506,47.467224]}},{"properties":{"city":"Puyallup","zip":null,"geo_score":0.857,"description":"Vitamin World","id":"a62gczj9dkfz","geo_precision":"city","address":null,"state":"Washington"},"type":"Feature","geometry":{"type":"Point","coordinates":[-122.317148,47.212822]}},{"properties":{"city":"Redmond","zip":null,"geo_score":0.857,"description":"Vitamin World","id":"a62gczejcvaf","geo_precision":"city","address":null,"state":"Washington"},"type":"Feature","geometry":{"type":"Point","coordinates":[-122.121512,47.673988]}},{"properties":{"city":"Silverdale","zip":null,"geo_score":0.8,"description":"Vitamin World","id":"a62gczixfd1g","geo_precision":"city","address":null,"state":"Washington"},"type":"Feature","geometry":{"type":"Point","coordinates":[-121.567062,48.07844]}},{"properties":{"city":"Silverdale","zip":null,"geo_score":0.8,"description":"Vitamin World","id":"a62gczlgmjxk","geo_precision":"city","address":null,"state":"Washington"},"type":"Feature","geometry":{"type":"Point","coordinates":[-121.567062,48.07844]}},{"properties":{"city":"Tulalip","zip":null,"geo_score":0.857,"description":"Vitamin World","id":"a62gczfcey39","geo_precision":"city","address":null,"state":"Washington"},"type":"Feature","geometry":{"type":"Point","coordinates":[-122.29181,48.068429]}},{"properties":{"city":"Clarkston","zip":null,"geo_score":0.795,"description":"Wasem's Natural Pharmacy","id":"a62gczmugnan","geo_precision":"city","address":null,"state":"Washington"},"type":"Feature","geometry":{"type":"Point","coordinates":[-117.082381,46.396272]}},{"properties":{"city":"Wenatchee","zip":null,"geo_score":0.857,"description":"Wenatchee Natural Foods","id":"a62gczl3napl","geo_precision":"city","address":null,"state":"Washington"},"type":"Feature","geometry":{"type":"Point","coordinates":[-120.351884,47.573816]}},{"properties":{"city":"Wenatchee","zip":null,"geo_score":0.857,"description":"Wenatchee Natural Foods - health food grocery store.","id":"a62gczjuycec","geo_precision":"city","address":null,"state":"Washington"},"type":"Feature","geometry":{"type":"Point","coordinates":[-120.351884,47.573816]}},{"properties":{"city":"Seattle","zip":null,"geo_score":0.857,"description":"West Seattle Thriftway","id":"a62gcziwp83y","geo_precision":"city","address":null,"state":"Washington"},"type":"Feature","geometry":{"type":"Point","coordinates":[-122.332071,47.60621]}},{"properties":{"city":"Tacoma","zip":null,"geo_score":0.857,"description":"Westgate Nutrition Ctr","id":"a62gcze60ifi","geo_precision":"city","address":null,"state":"Washington"},"type":"Feature","geometry":{"type":"Point","coordinates":[-122.444291,47.252877]}},{"properties":{"city":"Bellevue","zip":null,"geo_score":0.857,"description":"Whole Foods Market","id":"a62gczfynqd5","geo_precision":"city","address":null,"state":"Washington"},"type":"Feature","geometry":{"type":"Point","coordinates":[-122.207221,47.615471]}},{"properties":{"city":"Gig Harbor","zip":null,"geo_score":0.857,"description":"Whole Foods Market","id":"a62gczgouipo","geo_precision":"city","address":null,"state":"Washington"},"type":"Feature","geometry":{"type":"Point","coordinates":[-122.715346,47.369501]}},{"properties":{"city":"Redmond","zip":null,"geo_score":0.857,"description":"Whole Foods Market","id":"a62gczs2s3ys","geo_precision":"city","address":null,"state":"Washington"},"type":"Feature","geometry":{"type":"Point","coordinates":[-122.121512,47.673988]}},{"properties":{"city":"Redmond","zip":null,"geo_score":0.857,"description":"Whole Foods Market","id":"a62gcznibpwy","geo_precision":"city","address":null,"state":"Washington"},"type":"Feature","geometry":{"type":"Point","coordinates":[-122.121512,47.673988]}},{"properties":{"city":"Seattle","zip":null,"geo_score":0.857,"description":"Whole Foods Market","id":"a62gczf6afr8","geo_precision":"city","address":null,"state":"Washington"},"type":"Feature","geometry":{"type":"Point","coordinates":[-122.332071,47.60621]}},{"properties":{"city":"Seattle","zip":null,"geo_score":0.857,"description":"Whole Foods Market","id":"a62gczkfwmjo","geo_precision":"city","address":null,"state":"Washington"},"type":"Feature","geometry":{"type":"Point","coordinates":[-122.332071,47.60621]}},{"properties":{"city":"Tacoma","zip":null,"geo_score":0.857,"description":"Whole Foods Market","id":"a62gczkbw14p","geo_precision":"city","address":null,"state":"Washington"},"type":"Feature","geometry":{"type":"Point","coordinates":[-122.444291,47.252877]}},{"properties":{"city":"Vancouver","zip":null,"geo_score":0.857,"description":"Whole Foods Market","id":"a62gczggf9ss","geo_precision":"city","address":null,"state":"Washington"},"type":"Feature","geometry":{"type":"Point","coordinates":[-122.661486,45.638728]}},{"properties":{"city":"Bellevue","zip":null,"geo_score":0.857,"description":"Wild Oats Market","id":"a62gczcwckqd","geo_precision":"city","address":null,"state":"Washington"},"type":"Feature","geometry":{"type":"Point","coordinates":[-122.207221,47.615471]}},{"properties":{"city":"Vancouver","zip":null,"geo_score":0.857,"description":"Wild Oats Market","id":"a62gczj202pd","geo_precision":"city","address":null,"state":"Washington"},"type":"Feature","geometry":{"type":"Point","coordinates":[-122.661486,45.638728]}},{"properties":{"city":"Bainbridge Island","zip":null,"geo_score":0.741,"description":"Willow's Naturally","id":"a62gczftazwm","geo_precision":"city","address":null,"state":"Washington"},"type":"Feature","geometry":{"type":"Point","coordinates":[-119.223349,46.239302]}},{"properties":{"city":"Bainbridge Island","zip":null,"geo_score":0.741,"description":"Willow's Naturally - Health Food Store.","id":"a62gczpk1dfo","geo_precision":"city","address":null,"state":"Washington"},"type":"Feature","geometry":{"type":"Point","coordinates":[-119.223349,46.239302]}},{"properties":{"city":"Bellingham","zip":null,"geo_score":0.857,"description":"Wonderland Herbs &amp; Spice","id":"a62gczgyrhde","geo_precision":"city","address":null,"state":"Washington"},"type":"Feature","geometry":{"type":"Point","coordinates":[-122.454297,48.747687]}},{"properties":{"city":"Yelm","zip":null,"geo_score":0.857,"description":"Yelm Food Co-op - .","id":"a62gczci16gb","geo_precision":"city","address":null,"state":"Washington"},"type":"Feature","geometry":{"type":"Point","coordinates":[-122.562689,46.882364]}},{"properties":{"city":"Mead","zip":null,"geo_score":0.857,"description":"Yoke's Fresh Market","id":"a62gcze9cmip","geo_precision":"city","address":null,"state":"Washington"},"type":"Feature","geometry":{"type":"Point","coordinates":[-117.240392,47.834074]}},{"properties":{"city":"Spokane","zip":null,"geo_score":0.857,"description":"Yoke's Washington Foods","id":"a62gczotfz7v","geo_precision":"city","address":null,"state":"Washington"},"type":"Feature","geometry":{"type":"Point","coordinates":[-117.426047,47.65878]}},{"properties":{"city":"Puyallup","zip":null,"geo_score":0.857,"description":"Your Health","id":"a62gczgwc962","geo_precision":"city","address":null,"state":"Washington"},"type":"Feature","geometry":{"type":"Point","coordinates":[-122.317148,47.212822]}},{"properties":{"city":"Puyallup","zip":null,"geo_score":0.857,"description":"Your Health","id":"a62gczjnkdyi","geo_precision":"city","address":null,"state":"Washington"},"type":"Feature","geometry":{"type":"Point","coordinates":[-122.317148,47.212822]}},{"properties":{"city":"Vancouver","zip":null,"geo_score":0.857,"description":"Zupan's Markets","id":"a62gczmkm80y","geo_precision":"city","address":null,"state":"Washington"},"type":"Feature","geometry":{"type":"Point","coordinates":[-122.661486,45.638728]}}],"is_temporal":false,"author":{"url":"","metadata":"","contact_name":"","contact_address":"","source":"","contact_phone":""},"source":"","pagination":{"sort":null,"start":0,"total":510,"limit":1000000},"state":"complete","tags":"","published":"2011-02-03T00:21:53Z","id":90338}