{"type":"FeatureCollection","data_type":"Dataset","url_type":null,"permissions":[{"permissions":{"download":true,"view":true},"group_id":"everyone"}],"classification":null,"title":"Board Reports","count":329,"stream_id":90495,"contributor":{"url":"http://geocommons.com/users/21658","name":"petereit"},"data_attributes":null,"calculation_params":null,"icon_link":null,"link":"http://geocommons.com/overlays/90495.json","extent":[-96.6989,30.4213,-76.2133,39.7201],"geometry_types":["point"],"unique_name":null,"name":"Board Reports","feature_count":329,"description":"","next_feature":null,"is_raster":false,"short_classification":"Y","stats":{"employees":{"max":1757,"mean":15.1914893617021,"variance":10159.1735858848,"stdev":100.792725857994,"min":1,"median":2}},"features":[{"properties":{"city":"COWARD","process_level":"FDTN","geo_score":0.857,"employees":1,"id":"a6fwefts9b2a","geo_precision":"city","state":"SC"},"type":"Feature","geometry":{"type":"Point","coordinates":[-79.756816,33.980551]}},{"properties":{"city":"DARLINGTON","process_level":"FDTN","geo_score":0.857,"employees":1,"id":"a6fwefqonhrx","geo_precision":"city","state":"SC"},"type":"Feature","geometry":{"type":"Point","coordinates":[-79.931655,34.317738]}},{"properties":{"city":"FLORENCE","process_level":"FDTN","geo_score":0.857,"employees":4,"id":"a6fwefnk9woc","geo_precision":"city","state":"SC"},"type":"Feature","geometry":{"type":"Point","coordinates":[-79.685361,34.049849]}},{"properties":{"city":"MYRTLE BEACH","process_level":"FDTN","geo_score":0.857,"employees":1,"id":"a6fwefu0yan4","geo_precision":"city","state":"SC"},"type":"Feature","geometry":{"type":"Point","coordinates":[-78.852005,33.711741]}},{"properties":{"city":"BENNETTSVILLE","process_level":"MBH","geo_score":0.857,"employees":1,"id":"a6fwefye99kb","geo_precision":"city","state":"SC"},"type":"Feature","geometry":{"type":"Point","coordinates":[-79.707693,34.598755]}},{"properties":{"city":"DARLINGTON","process_level":"MBH","geo_score":0.857,"employees":1,"id":"a6fwefn792au","geo_precision":"city","state":"SC"},"type":"Feature","geometry":{"type":"Point","coordinates":[-79.931655,34.317738]}},{"properties":{"city":"DILLON","process_level":"MBH","geo_score":0.857,"employees":2,"id":"a6fwefw5s234","geo_precision":"city","state":"SC"},"type":"Feature","geometry":{"type":"Point","coordinates":[-79.341359,34.422187]}},{"properties":{"city":"EFFINGHAM","process_level":"MBH","geo_score":0.857,"employees":1,"id":"a6fwefqttlv5","geo_precision":"city","state":"SC"},"type":"Feature","geometry":{"type":"Point","coordinates":[-79.733541,34.063272]}},{"properties":{"city":"FLORENCE","process_level":"MBH","geo_score":0.857,"employees":19,"id":"a6fwefw9zh6f","geo_precision":"city","state":"SC"},"type":"Feature","geometry":{"type":"Point","coordinates":[-79.685361,34.049849]}},{"properties":{"city":"FORK","process_level":"MBH","geo_score":0.857,"employees":1,"id":"a6fwefmc30xk","geo_precision":"city","state":"SC"},"type":"Feature","geometry":{"type":"Point","coordinates":[-79.276529,34.375384]}},{"properties":{"city":"HARTSVILLE","process_level":"MBH","geo_score":0.857,"employees":1,"id":"a6fwefuykd9l","geo_precision":"city","state":"SC"},"type":"Feature","geometry":{"type":"Point","coordinates":[-80.073953,34.345106]}},{"properties":{"city":"MARION","process_level":"MBH","geo_score":0.857,"employees":1,"id":"a6fwefmebw23","geo_precision":"city","state":"SC"},"type":"Feature","geometry":{"type":"Point","coordinates":[-79.363948,34.164144]}},{"properties":{"city":"MULLINS","process_level":"MBH","geo_score":0.857,"employees":1,"id":"a6fwefog1r83","geo_precision":"city","state":"SC"},"type":"Feature","geometry":{"type":"Point","coordinates":[-79.273221,34.159262]}},{"properties":{"city":"PAMPLICO","process_level":"MBH","geo_score":0.857,"employees":1,"id":"a6fwefswb9o3","geo_precision":"city","state":"SC"},"type":"Feature","geometry":{"type":"Point","coordinates":[-79.59917,33.972437]}},{"properties":{"city":"SURFSIDE BEACH","process_level":"MBH","geo_score":0.857,"employees":1,"id":"a6fwefr132q7","geo_precision":"city","state":"SC"},"type":"Feature","geometry":{"type":"Point","coordinates":[-78.973089,33.606003]}},{"properties":{"city":"TIMMONSVILLE","process_level":"MBH","geo_score":0.857,"employees":1,"id":"a6fwefr5lyq6","geo_precision":"city","state":"SC"},"type":"Feature","geometry":{"type":"Point","coordinates":[-79.933777,34.062595]}},{"properties":{"city":"BISHOPVILLE","process_level":"MHFC2","geo_score":0.857,"employees":1,"id":"a6fwefypvrlh","geo_precision":"city","state":"SC"},"type":"Feature","geometry":{"type":"Point","coordinates":[-80.306569,34.207324]}},{"properties":{"city":"CHERAW","process_level":"MHFC2","geo_score":0.857,"employees":1,"id":"a6fwefwhsfrc","geo_precision":"city","state":"SC"},"type":"Feature","geometry":{"type":"Point","coordinates":[-79.943741,34.691548]}},{"properties":{"city":"DARLINGTON","process_level":"MHFC2","geo_score":0.857,"employees":9,"id":"a6fwefyw7c5y","geo_precision":"city","state":"SC"},"type":"Feature","geometry":{"type":"Point","coordinates":[-79.931655,34.317738]}},{"properties":{"city":"DILLON","process_level":"MHFC2","geo_score":0.857,"employees":1,"id":"a6fwefob7cum","geo_precision":"city","state":"SC"},"type":"Feature","geometry":{"type":"Point","coordinates":[-79.341359,34.422187]}},{"properties":{"city":"EFFINGHAM","process_level":"MHFC2","geo_score":0.857,"employees":4,"id":"a6fwefq5nag5","geo_precision":"city","state":"SC"},"type":"Feature","geometry":{"type":"Point","coordinates":[-79.733541,34.063272]}},{"properties":{"city":"FLORENCE","process_level":"MHFC2","geo_score":0.857,"employees":90,"id":"a6fwefsp34gh","geo_precision":"city","state":"SC"},"type":"Feature","geometry":{"type":"Point","coordinates":[-79.685361,34.049849]}},{"properties":{"city":"HARTSVILLE","process_level":"MHFC2","geo_score":0.857,"employees":6,"id":"a6fwefpjwllb","geo_precision":"city","state":"SC"},"type":"Feature","geometry":{"type":"Point","coordinates":[-80.073953,34.345106]}},{"properties":{"city":"KINGSTREE","process_level":"MHFC2","geo_score":0.857,"employees":1,"id":"a6fwefr2etxy","geo_precision":"city","state":"SC"},"type":"Feature","geometry":{"type":"Point","coordinates":[-79.837756,33.663869]}},{"properties":{"city":"MARION","process_level":"MHFC2","geo_score":0.857,"employees":1,"id":"a6fwefm3miek","geo_precision":"city","state":"SC"},"type":"Feature","geometry":{"type":"Point","coordinates":[-79.363948,34.164144]}},{"properties":{"city":"MULLINS","process_level":"MHFC2","geo_score":0.857,"employees":2,"id":"a6fwefrplnre","geo_precision":"city","state":"SC"},"type":"Feature","geometry":{"type":"Point","coordinates":[-79.273221,34.159262]}},{"properties":{"city":"QUINBY","process_level":"MHFC2","geo_score":0.857,"employees":1,"id":"a6fwefxx2sdu","geo_precision":"city","state":"SC"},"type":"Feature","geometry":{"type":"Point","coordinates":[-79.734505,34.236543]}},{"properties":{"city":"SUMMERTON","process_level":"MHFC2","geo_score":0.857,"employees":1,"id":"a6fwefsybhmo","geo_precision":"city","state":"SC"},"type":"Feature","geometry":{"type":"Point","coordinates":[-80.322756,33.55156]}},{"properties":{"city":"SUMTER","process_level":"MHFC2","geo_score":0.857,"employees":1,"id":"a6fwefriufyl","geo_precision":"city","state":"SC"},"type":"Feature","geometry":{"type":"Point","coordinates":[-80.46839,33.974741]}},{"properties":{"city":"TIMMONSVILLE","process_level":"MHFC2","geo_score":0.857,"employees":4,"id":"a6fwefthhv70","geo_precision":"city","state":"SC"},"type":"Feature","geometry":{"type":"Point","coordinates":[-79.933777,34.062595]}},{"properties":{"city":"AYNOR","process_level":"MHHI2","geo_score":0.857,"employees":1,"id":"a6fweftfpo1q","geo_precision":"city","state":"SC"},"type":"Feature","geometry":{"type":"Point","coordinates":[-79.041027,33.939968]}},{"properties":{"city":"BISHOPVILLE","process_level":"MHHI2","geo_score":0.857,"employees":1,"id":"a6fwefxv4l8x","geo_precision":"city","state":"SC"},"type":"Feature","geometry":{"type":"Point","coordinates":[-80.306569,34.207324]}},{"properties":{"city":"CHESTERFIELD","process_level":"MHHI2","geo_score":0.857,"employees":2,"id":"a6fwefw2zv1x","geo_precision":"city","state":"SC"},"type":"Feature","geometry":{"type":"Point","coordinates":[-80.129515,34.755564]}},{"properties":{"city":"DARLINGTON","process_level":"MHHI2","geo_score":0.857,"employees":4,"id":"a6fwefv3w2zx","geo_precision":"city","state":"SC"},"type":"Feature","geometry":{"type":"Point","coordinates":[-79.931655,34.317738]}},{"properties":{"city":"DILLON","process_level":"MHHI2","geo_score":0.857,"employees":5,"id":"a6fweftv4cum","geo_precision":"city","state":"SC"},"type":"Feature","geometry":{"type":"Point","coordinates":[-79.341359,34.422187]}},{"properties":{"city":"EFFINGHAM","process_level":"MHHI2","geo_score":0.857,"employees":4,"id":"a6fwefrhy0jl","geo_precision":"city","state":"SC"},"type":"Feature","geometry":{"type":"Point","coordinates":[-79.733541,34.063272]}},{"properties":{"city":"FLORENCE","process_level":"MHHI2","geo_score":0.857,"employees":31,"id":"a6fwefs07yxi","geo_precision":"city","state":"SC"},"type":"Feature","geometry":{"type":"Point","coordinates":[-79.685361,34.049849]}},{"properties":{"city":"HEMINGWAY","process_level":"MHHI2","geo_score":0.857,"employees":1,"id":"a6fwefu3qazi","geo_precision":"city","state":"SC"},"type":"Feature","geometry":{"type":"Point","coordinates":[-79.430945,33.732071]}},{"properties":{"city":"JOHNSONVILLE","process_level":"MHHI2","geo_score":0.857,"employees":1,"id":"a6fwefveimam","geo_precision":"city","state":"SC"},"type":"Feature","geometry":{"type":"Point","coordinates":[-79.489745,33.886864]}},{"properties":{"city":"LAKE CITY","process_level":"MHHI2","geo_score":0.75,"employees":2,"id":"a6fwefowogf1","geo_precision":"city","state":"SC"},"type":"Feature","geometry":{"type":"Point","coordinates":[-81.127601,33.321822]}},{"properties":{"city":"LAKE VIEW","process_level":"MHHI2","geo_score":0.732,"employees":1,"id":"a6fwefy5c3w2","geo_precision":"city","state":"SC"},"type":"Feature","geometry":{"type":"Point","coordinates":[-80.731308,34.260265]}},{"properties":{"city":"LAMAR","process_level":"MHHI2","geo_score":0.857,"employees":2,"id":"a6fwefpewtub","geo_precision":"city","state":"SC"},"type":"Feature","geometry":{"type":"Point","coordinates":[-80.005897,34.269558]}},{"properties":{"city":"LATTA","process_level":"MHHI2","geo_score":0.771,"employees":1,"id":"a6fwefug4nda","geo_precision":"city","state":"SC"},"type":"Feature","geometry":{"type":"Point","coordinates":[-80.100896,34.278255]}},{"properties":{"city":"LYDIA","process_level":"MHHI2","geo_score":0.857,"employees":1,"id":"a6fwefzh07jg","geo_precision":"city","state":"SC"},"type":"Feature","geometry":{"type":"Point","coordinates":[-80.100896,34.278255]}},{"properties":{"city":"MARION","process_level":"MHHI2","geo_score":0.857,"employees":7,"id":"a6fwefu6jpol","geo_precision":"city","state":"SC"},"type":"Feature","geometry":{"type":"Point","coordinates":[-79.363948,34.164144]}},{"properties":{"city":"MC BEE","process_level":"MHHI2","geo_score":0.857,"employees":1,"id":"a6fweg1c4yjx","geo_precision":"city","state":"SC"},"type":"Feature","geometry":{"type":"Point","coordinates":[-80.256814,34.470238]}},{"properties":{"city":"NICHOLS","process_level":"MHHI2","geo_score":0.857,"employees":1,"id":"a6fwefyab8xa","geo_precision":"city","state":"SC"},"type":"Feature","geometry":{"type":"Point","coordinates":[-79.14865,34.233775]}},{"properties":{"city":"PAMPLICO","process_level":"MHHI2","geo_score":0.857,"employees":2,"id":"a6fweg13d1v6","geo_precision":"city","state":"SC"},"type":"Feature","geometry":{"type":"Point","coordinates":[-79.59917,33.972437]}},{"properties":{"city":"SCRANTON","process_level":"MHHI2","geo_score":0.857,"employees":1,"id":"a6fwefnto2sw","geo_precision":"city","state":"SC"},"type":"Feature","geometry":{"type":"Point","coordinates":[-79.769899,33.937275]}},{"properties":{"city":"TIMMONSVILLE","process_level":"MHHI2","geo_score":0.857,"employees":5,"id":"a6fweg1ed40h","geo_precision":"city","state":"SC"},"type":"Feature","geometry":{"type":"Point","coordinates":[-79.933777,34.062595]}},{"properties":{"city":"HUDSON","process_level":"MHIC","geo_score":0.857,"employees":1,"id":"a6fwefslih27","geo_precision":"city","state":"NC"},"type":"Feature","geometry":{"type":"Point","coordinates":[-81.479726,35.839777]}},{"properties":{"city":"LAURINBURG","process_level":"MHIC","geo_score":0.857,"employees":1,"id":"a6fweftu8j3t","geo_precision":"city","state":"NC"},"type":"Feature","geometry":{"type":"Point","coordinates":[-79.475606,34.796929]}},{"properties":{"city":"WADESBORO","process_level":"MHIC","geo_score":0.857,"employees":1,"id":"a6fwefs9ji22","geo_precision":"city","state":"NC"},"type":"Feature","geometry":{"type":"Point","coordinates":[-80.05003,34.924469]}},{"properties":{"city":"AYNOR","process_level":"MHIC","geo_score":0.857,"employees":1,"id":"a6fwefzzmurp","geo_precision":"city","state":"SC"},"type":"Feature","geometry":{"type":"Point","coordinates":[-79.041027,33.939968]}},{"properties":{"city":"BENNETTSVILLE","process_level":"MHIC","geo_score":0.857,"employees":1,"id":"a6fweftuoyyy","geo_precision":"city","state":"SC"},"type":"Feature","geometry":{"type":"Point","coordinates":[-79.707693,34.598755]}},{"properties":{"city":"BISHOPVILLE","process_level":"MHIC","geo_score":0.857,"employees":2,"id":"a6fwefrbomi5","geo_precision":"city","state":"SC"},"type":"Feature","geometry":{"type":"Point","coordinates":[-80.306569,34.207324]}},{"properties":{"city":"BLENHEIM","process_level":"MHIC","geo_score":0.857,"employees":1,"id":"a6fwefryj6ih","geo_precision":"city","state":"SC"},"type":"Feature","geometry":{"type":"Point","coordinates":[-79.644187,34.517149]}},{"properties":{"city":"CADES","process_level":"MHIC","geo_score":0.762,"employees":1,"id":"a6fwefv46slh","geo_precision":"city","state":"SC"},"type":"Feature","geometry":{"type":"Point","coordinates":[-81.967339,34.168462]}},{"properties":{"city":"CHERAW","process_level":"MHIC","geo_score":0.857,"employees":2,"id":"a6fwefuewuoz","geo_precision":"city","state":"SC"},"type":"Feature","geometry":{"type":"Point","coordinates":[-79.943741,34.691548]}},{"properties":{"city":"COWARD","process_level":"MHIC","geo_score":0.857,"employees":3,"id":"a6fwefqcpqkt","geo_precision":"city","state":"SC"},"type":"Feature","geometry":{"type":"Point","coordinates":[-79.756816,33.980551]}},{"properties":{"city":"DALZELL","process_level":"MHIC","geo_score":0.857,"employees":2,"id":"a6fwefovn0i6","geo_precision":"city","state":"SC"},"type":"Feature","geometry":{"type":"Point","coordinates":[-80.478151,34.025111]}},{"properties":{"city":"DARLINGTON","process_level":"MHIC","geo_score":0.857,"employees":28,"id":"a6fweg25y60p","geo_precision":"city","state":"SC"},"type":"Feature","geometry":{"type":"Point","coordinates":[-79.931655,34.317738]}},{"properties":{"city":"DILLON","process_level":"MHIC","geo_score":0.857,"employees":10,"id":"a6fwefobifs7","geo_precision":"city","state":"SC"},"type":"Feature","geometry":{"type":"Point","coordinates":[-79.341359,34.422187]}},{"properties":{"city":"EFFINGHAM","process_level":"MHIC","geo_score":0.857,"employees":11,"id":"a6fwefxrapqy","geo_precision":"city","state":"SC"},"type":"Feature","geometry":{"type":"Point","coordinates":[-79.733541,34.063272]}},{"properties":{"city":"FLORENCE","process_level":"MHIC","geo_score":0.857,"employees":275,"id":"a6fwefz9gyab","geo_precision":"city","state":"SC"},"type":"Feature","geometry":{"type":"Point","coordinates":[-79.685361,34.049849]}},{"properties":{"city":"GALIVANTS FERRY","process_level":"MHIC","geo_score":0.857,"employees":1,"id":"a6fwefm1ecjt","geo_precision":"city","state":"SC"},"type":"Feature","geometry":{"type":"Point","coordinates":[-78.994502,33.953007]}},{"properties":{"city":"GEORGETOWN","process_level":"MHIC","geo_score":0.857,"employees":1,"id":"a6fwefyh5w6v","geo_precision":"city","state":"SC"},"type":"Feature","geometry":{"type":"Point","coordinates":[-79.367525,33.439327]}},{"properties":{"city":"GRESHAM","process_level":"MHIC","geo_score":0.857,"employees":1,"id":"a6fwefoyl7uu","geo_precision":"city","state":"SC"},"type":"Feature","geometry":{"type":"Point","coordinates":[-79.360418,33.952411]}},{"properties":{"city":"HAMER","process_level":"MHIC","geo_score":0.857,"employees":3,"id":"a6fwefx8to4v","geo_precision":"city","state":"SC"},"type":"Feature","geometry":{"type":"Point","coordinates":[-79.350207,34.484912]}},{"properties":{"city":"HARTSVILLE","process_level":"MHIC","geo_score":0.857,"employees":14,"id":"a6fwefymuz86","geo_precision":"city","state":"SC"},"type":"Feature","geometry":{"type":"Point","coordinates":[-80.073953,34.345106]}},{"properties":{"city":"HEATH SPRINGS","process_level":"MHIC","geo_score":0.75,"employees":1,"id":"a6fwefs5zxq1","geo_precision":"city","state":"SC"},"type":"Feature","geometry":{"type":"Point","coordinates":[-80.438411,34.151543]}},{"properties":{"city":"HEMINGWAY","process_level":"MHIC","geo_score":0.857,"employees":1,"id":"a6fwefzvpya4","geo_precision":"city","state":"SC"},"type":"Feature","geometry":{"type":"Point","coordinates":[-79.430945,33.732071]}},{"properties":{"city":"JOHNSONVILLE","process_level":"MHIC","geo_score":0.857,"employees":1,"id":"a6fwefuh47r5","geo_precision":"city","state":"SC"},"type":"Feature","geometry":{"type":"Point","coordinates":[-79.489745,33.886864]}},{"properties":{"city":"KINGSTREE","process_level":"MHIC","geo_score":0.857,"employees":1,"id":"a6fwefwokxl9","geo_precision":"city","state":"SC"},"type":"Feature","geometry":{"type":"Point","coordinates":[-79.837756,33.663869]}},{"properties":{"city":"LAKE CITY","process_level":"MHIC","geo_score":0.75,"employees":6,"id":"a6fwefrdypzx","geo_precision":"city","state":"SC"},"type":"Feature","geometry":{"type":"Point","coordinates":[-81.127601,33.321822]}},{"properties":{"city":"LAKE VIEW","process_level":"MHIC","geo_score":0.732,"employees":2,"id":"a6fwefsz64mb","geo_precision":"city","state":"SC"},"type":"Feature","geometry":{"type":"Point","coordinates":[-80.731308,34.260265]}},{"properties":{"city":"LAMAR","process_level":"MHIC","geo_score":0.857,"employees":2,"id":"a6fwefth5h29","geo_precision":"city","state":"SC"},"type":"Feature","geometry":{"type":"Point","coordinates":[-80.005897,34.269558]}},{"properties":{"city":"LATTA","process_level":"MHIC","geo_score":0.771,"employees":2,"id":"a6fwefromenc","geo_precision":"city","state":"SC"},"type":"Feature","geometry":{"type":"Point","coordinates":[-80.100896,34.278255]}},{"properties":{"city":"LYNCHBURG","process_level":"MHIC","geo_score":0.857,"employees":2,"id":"a6fwefonc93g","geo_precision":"city","state":"SC"},"type":"Feature","geometry":{"type":"Point","coordinates":[-80.043417,34.049335]}},{"properties":{"city":"MANNING","process_level":"MHIC","geo_score":0.857,"employees":1,"id":"a6fwefw3kn47","geo_precision":"city","state":"SC"},"type":"Feature","geometry":{"type":"Point","coordinates":[-80.21155,33.618408]}},{"properties":{"city":"MARION","process_level":"MHIC","geo_score":0.857,"employees":6,"id":"a6fwefw4rawm","geo_precision":"city","state":"SC"},"type":"Feature","geometry":{"type":"Point","coordinates":[-79.363948,34.164144]}},{"properties":{"city":"MULLINS","process_level":"MHIC","geo_score":0.857,"employees":1,"id":"a6fwefx11ssm","geo_precision":"city","state":"SC"},"type":"Feature","geometry":{"type":"Point","coordinates":[-79.273221,34.159262]}},{"properties":{"city":"MURRELLS INLET","process_level":"MHIC","geo_score":0.857,"employees":1,"id":"a6fwefwch9bb","geo_precision":"city","state":"SC"},"type":"Feature","geometry":{"type":"Point","coordinates":[-79.04822,33.529642]}},{"properties":{"city":"NICHOLS","process_level":"MHIC","geo_score":0.857,"employees":1,"id":"a6fwefvwfcvy","geo_precision":"city","state":"SC"},"type":"Feature","geometry":{"type":"Point","coordinates":[-79.14865,34.233775]}},{"properties":{"city":"OLANTA","process_level":"MHIC","geo_score":0.857,"employees":5,"id":"a6fwefp97ecj","geo_precision":"city","state":"SC"},"type":"Feature","geometry":{"type":"Point","coordinates":[-79.903726,33.937811]}},{"properties":{"city":"PAMPLICO","process_level":"MHIC","geo_score":0.857,"employees":11,"id":"a6fwefq4a5kc","geo_precision":"city","state":"SC"},"type":"Feature","geometry":{"type":"Point","coordinates":[-79.59917,33.972437]}},{"properties":{"city":"PATRICK","process_level":"MHIC","geo_score":0.857,"employees":2,"id":"a6fwefo9urke","geo_precision":"city","state":"SC"},"type":"Feature","geometry":{"type":"Point","coordinates":[-80.170691,34.591849]}},{"properties":{"city":"PAWLEYS ISLAND","process_level":"MHIC","geo_score":0.747,"employees":1,"id":"a6fwefygz3cv","geo_precision":"city","state":"SC"},"type":"Feature","geometry":{"type":"Point","coordinates":[-80.948043,32.946307]}},{"properties":{"city":"QUINBY","process_level":"MHIC","geo_score":0.857,"employees":1,"id":"a6fwefod447n","geo_precision":"city","state":"SC"},"type":"Feature","geometry":{"type":"Point","coordinates":[-79.734505,34.236543]}},{"properties":{"city":"RAINS","process_level":"MHIC","geo_score":0.857,"employees":1,"id":"a6fwefx3yhkt","geo_precision":"city","state":"SC"},"type":"Feature","geometry":{"type":"Point","coordinates":[-79.322116,34.105265]}},{"properties":{"city":"REMBERT","process_level":"MHIC","geo_score":0.857,"employees":1,"id":"a6fweft9rt0j","geo_precision":"city","state":"SC"},"type":"Feature","geometry":{"type":"Point","coordinates":[-80.513051,34.059796]}},{"properties":{"city":"SCRANTON","process_level":"MHIC","geo_score":0.857,"employees":9,"id":"a6fwefwlspy4","geo_precision":"city","state":"SC"},"type":"Feature","geometry":{"type":"Point","coordinates":[-79.769899,33.937275]}},{"properties":{"city":"SOCIETY HILL","process_level":"MHIC","geo_score":0.857,"employees":1,"id":"a6fwefm2i1ei","geo_precision":"city","state":"SC"},"type":"Feature","geometry":{"type":"Point","coordinates":[-79.880497,34.442018]}},{"properties":{"city":"SURFSIDE BEACH","process_level":"MHIC","geo_score":0.857,"employees":1,"id":"a6fwefp9hspn","geo_precision":"city","state":"SC"},"type":"Feature","geometry":{"type":"Point","coordinates":[-78.973089,33.606003]}},{"properties":{"city":"TIMMONSVILLE","process_level":"MHIC","geo_score":0.857,"employees":20,"id":"a6fwefqth3au","geo_precision":"city","state":"SC"},"type":"Feature","geometry":{"type":"Point","coordinates":[-79.933777,34.062595]}},{"properties":{"city":"PLANO","process_level":"MHIC","geo_score":0.857,"employees":1,"id":"a6fwefwdbm73","geo_precision":"city","state":"TX"},"type":"Feature","geometry":{"type":"Point","coordinates":[-96.698886,33.019843]}},{"properties":{"city":"DURHAM","process_level":"MPAII","geo_score":0.857,"employees":1,"id":"a6fwefv4judn","geo_precision":"city","state":"NC"},"type":"Feature","geometry":{"type":"Point","coordinates":[-78.898619,35.994033]}},{"properties":{"city":"FAIRMONT","process_level":"MPAII","geo_score":0.804,"employees":1,"id":"a6fwefmjivfa","geo_precision":"city","state":"NC"},"type":"Feature","geometry":{"type":"Point","coordinates":[-77.979026,35.469355]}},{"properties":{"city":"LUMBERTON","process_level":"MPAII","geo_score":0.81,"employees":1,"id":"a6fwefwgju0u","geo_precision":"city","state":"NC"},"type":"Feature","geometry":{"type":"Point","coordinates":[-80.359507,35.313476]}},{"properties":{"city":"MAXTON","process_level":"MPAII","geo_score":0.857,"employees":1,"id":"a6fweg0eq36n","geo_precision":"city","state":"NC"},"type":"Feature","geometry":{"type":"Point","coordinates":[-79.318072,34.711437]}},{"properties":{"city":"MILL SPRING","process_level":"MPAII","geo_score":0.771,"employees":1,"id":"a6fwefvsou3s","geo_precision":"city","state":"NC"},"type":"Feature","geometry":{"type":"Point","coordinates":[-78.740574,34.151281]}},{"properties":{"city":"OCEAN ISLE BCH","process_level":"MPAII","geo_score":0.762,"employees":1,"id":"a6fwefnur8t4","geo_precision":"city","state":"NC"},"type":"Feature","geometry":{"type":"Point","coordinates":[-82.470127,35.711779]}},{"properties":{"city":"SUNSET BEACH","process_level":"MPAII","geo_score":0.766,"employees":2,"id":"a6fweg1kqegk","geo_precision":"city","state":"NC"},"type":"Feature","geometry":{"type":"Point","coordinates":[-82.470127,35.711779]}},{"properties":{"city":"WHITEVILLE","process_level":"MPAII","geo_score":0.8,"employees":1,"id":"a6fwefsln9sr","geo_precision":"city","state":"NC"},"type":"Feature","geometry":{"type":"Point","coordinates":[-80.479782,36.501803]}},{"properties":{"city":"AYNOR","process_level":"MPAII","geo_score":0.857,"employees":1,"id":"a6fwefopzcdd","geo_precision":"city","state":"SC"},"type":"Feature","geometry":{"type":"Point","coordinates":[-79.041027,33.939968]}},{"properties":{"city":"BENNETTSVILLE","process_level":"MPAII","geo_score":0.857,"employees":3,"id":"a6fweftvp84f","geo_precision":"city","state":"SC"},"type":"Feature","geometry":{"type":"Point","coordinates":[-79.707693,34.598755]}},{"properties":{"city":"BETHUNE","process_level":"MPAII","geo_score":0.816,"employees":2,"id":"a6fwefm9ozti","geo_precision":"city","state":"SC"},"type":"Feature","geometry":{"type":"Point","coordinates":[-81.30619,35.117079]}},{"properties":{"city":"BISHOPVILLE","process_level":"MPAII","geo_score":0.857,"employees":2,"id":"a6fwefx3nzic","geo_precision":"city","state":"SC"},"type":"Feature","geometry":{"type":"Point","coordinates":[-80.306569,34.207324]}},{"properties":{"city":"CADES","process_level":"MPAII","geo_score":0.762,"employees":1,"id":"a6fwefzqiuh1","geo_precision":"city","state":"SC"},"type":"Feature","geometry":{"type":"Point","coordinates":[-81.967339,34.168462]}},{"properties":{"city":"CAMDEN","process_level":"MPAII","geo_score":0.857,"employees":1,"id":"a6fweg2at3m1","geo_precision":"city","state":"SC"},"type":"Feature","geometry":{"type":"Point","coordinates":[-80.612489,34.313477]}},{"properties":{"city":"CASSATT","process_level":"MPAII","geo_score":0.857,"employees":1,"id":"a6fwefw18trh","geo_precision":"city","state":"SC"},"type":"Feature","geometry":{"type":"Point","coordinates":[-80.54149,34.35723]}},{"properties":{"city":"CHERAW","process_level":"MPAII","geo_score":0.857,"employees":3,"id":"a6fwefsrnrrd","geo_precision":"city","state":"SC"},"type":"Feature","geometry":{"type":"Point","coordinates":[-79.943741,34.691548]}},{"properties":{"city":"CHESTERFIELD","process_level":"MPAII","geo_score":0.857,"employees":1,"id":"a6fwefq29re4","geo_precision":"city","state":"SC"},"type":"Feature","geometry":{"type":"Point","coordinates":[-80.129515,34.755564]}},{"properties":{"city":"CONWAY","process_level":"MPAII","geo_score":0.857,"employees":1,"id":"a6fwefnifhcy","geo_precision":"city","state":"SC"},"type":"Feature","geometry":{"type":"Point","coordinates":[-78.948287,33.868775]}},{"properties":{"city":"COWARD","process_level":"MPAII","geo_score":0.857,"employees":2,"id":"a6fwefr4vhzy","geo_precision":"city","state":"SC"},"type":"Feature","geometry":{"type":"Point","coordinates":[-79.756816,33.980551]}},{"properties":{"city":"DARLINGTON","process_level":"MPAII","geo_score":0.857,"employees":42,"id":"a6fwefw8zzk6","geo_precision":"city","state":"SC"},"type":"Feature","geometry":{"type":"Point","coordinates":[-79.931655,34.317738]}},{"properties":{"city":"DILLON","process_level":"MPAII","geo_score":0.857,"employees":11,"id":"a6fweg1pjkya","geo_precision":"city","state":"SC"},"type":"Feature","geometry":{"type":"Point","coordinates":[-79.341359,34.422187]}},{"properties":{"city":"EFFINGHAM","process_level":"MPAII","geo_score":0.857,"employees":14,"id":"a6fwefz547rg","geo_precision":"city","state":"SC"},"type":"Feature","geometry":{"type":"Point","coordinates":[-79.733541,34.063272]}},{"properties":{"city":"ELGIN","process_level":"MPAII","geo_score":0.857,"employees":1,"id":"a6fwefvuhwp7","geo_precision":"city","state":"SC"},"type":"Feature","geometry":{"type":"Point","coordinates":[-80.718958,34.672927]}},{"properties":{"city":"FLORENCE","process_level":"MPAII","geo_score":0.857,"employees":245,"id":"a6fwefve1130","geo_precision":"city","state":"SC"},"type":"Feature","geometry":{"type":"Point","coordinates":[-79.685361,34.049849]}},{"properties":{"city":"GREEN SEA","process_level":"MPAII","geo_score":0.857,"employees":1,"id":"a6fwefyjp0e6","geo_precision":"city","state":"SC"},"type":"Feature","geometry":{"type":"Point","coordinates":[-78.958922,34.166757]}},{"properties":{"city":"GREENVILLE","process_level":"MPAII","geo_score":0.857,"employees":1,"id":"a6fwefna8f3e","geo_precision":"city","state":"SC"},"type":"Feature","geometry":{"type":"Point","coordinates":[-82.402871,34.848567]}},{"properties":{"city":"GRESHAM","process_level":"MPAII","geo_score":0.857,"employees":1,"id":"a6fweft0lwm5","geo_precision":"city","state":"SC"},"type":"Feature","geometry":{"type":"Point","coordinates":[-79.360418,33.952411]}},{"properties":{"city":"HAMER","process_level":"MPAII","geo_score":0.857,"employees":2,"id":"a6fwefqsrn8y","geo_precision":"city","state":"SC"},"type":"Feature","geometry":{"type":"Point","coordinates":[-79.350207,34.484912]}},{"properties":{"city":"HARTSVILLE","process_level":"MPAII","geo_score":0.857,"employees":19,"id":"a6fwefmhhu2i","geo_precision":"city","state":"SC"},"type":"Feature","geometry":{"type":"Point","coordinates":[-80.073953,34.345106]}},{"properties":{"city":"HEMINGWAY","process_level":"MPAII","geo_score":0.857,"employees":7,"id":"a6fwefteuhor","geo_precision":"city","state":"SC"},"type":"Feature","geometry":{"type":"Point","coordinates":[-79.430945,33.732071]}},{"properties":{"city":"HILTON HEAD","process_level":"MPAII","geo_score":0.8,"employees":1,"id":"a6fwefq2cq7h","geo_precision":"city","state":"SC"},"type":"Feature","geometry":{"type":"Point","coordinates":[-81.306209,34.137092]}},{"properties":{"city":"JOHNSONVILLE","process_level":"MPAII","geo_score":0.857,"employees":2,"id":"a6fweg01wpqx","geo_precision":"city","state":"SC"},"type":"Feature","geometry":{"type":"Point","coordinates":[-79.489745,33.886864]}},{"properties":{"city":"KINGSTREE","process_level":"MPAII","geo_score":0.857,"employees":1,"id":"a6fwefxugxxp","geo_precision":"city","state":"SC"},"type":"Feature","geometry":{"type":"Point","coordinates":[-79.837756,33.663869]}},{"properties":{"city":"LAKE CITY","process_level":"MPAII","geo_score":0.75,"employees":10,"id":"a6fwefsfzfb7","geo_precision":"city","state":"SC"},"type":"Feature","geometry":{"type":"Point","coordinates":[-81.127601,33.321822]}},{"properties":{"city":"LAKE VIEW","process_level":"MPAII","geo_score":0.732,"employees":5,"id":"a6fwefovlqk2","geo_precision":"city","state":"SC"},"type":"Feature","geometry":{"type":"Point","coordinates":[-80.731308,34.260265]}},{"properties":{"city":"LANE","process_level":"MPAII","geo_score":0.786,"employees":1,"id":"a6fweg1qu9b4","geo_precision":"city","state":"SC"},"type":"Feature","geometry":{"type":"Point","coordinates":[-81.215103,32.753503]}},{"properties":{"city":"LATTA","process_level":"MPAII","geo_score":0.771,"employees":7,"id":"a6fweft5wref","geo_precision":"city","state":"SC"},"type":"Feature","geometry":{"type":"Point","coordinates":[-80.100896,34.278255]}},{"properties":{"city":"LEXINGTON","process_level":"MPAII","geo_score":0.857,"employees":1,"id":"a6fwefu40hlv","geo_precision":"city","state":"SC"},"type":"Feature","geometry":{"type":"Point","coordinates":[-81.248345,33.925183]}},{"properties":{"city":"LONGS","process_level":"MPAII","geo_score":0.857,"employees":1,"id":"a6fwefqb2icn","geo_precision":"city","state":"SC"},"type":"Feature","geometry":{"type":"Point","coordinates":[-78.885268,33.833574]}},{"properties":{"city":"LORIS","process_level":"MPAII","geo_score":0.81,"employees":1,"id":"a6fwefmpfio4","geo_precision":"city","state":"SC"},"type":"Feature","geometry":{"type":"Point","coordinates":[-81.239253,34.804026]}},{"properties":{"city":"LYDIA","process_level":"MPAII","geo_score":0.857,"employees":1,"id":"a6fwefn35rvw","geo_precision":"city","state":"SC"},"type":"Feature","geometry":{"type":"Point","coordinates":[-80.100896,34.278255]}},{"properties":{"city":"MANNING","process_level":"MPAII","geo_score":0.857,"employees":1,"id":"a6fweft251t9","geo_precision":"city","state":"SC"},"type":"Feature","geometry":{"type":"Point","coordinates":[-80.21155,33.618408]}},{"properties":{"city":"MARION","process_level":"MPAII","geo_score":0.857,"employees":12,"id":"a6fwefstztr1","geo_precision":"city","state":"SC"},"type":"Feature","geometry":{"type":"Point","coordinates":[-79.363948,34.164144]}},{"properties":{"city":"MAYESVILLE","process_level":"MPAII","geo_score":0.857,"employees":1,"id":"a6fwefw7vgtd","geo_precision":"city","state":"SC"},"type":"Feature","geometry":{"type":"Point","coordinates":[-80.217283,33.950173]}},{"properties":{"city":"MULLINS","process_level":"MPAII","geo_score":0.857,"employees":14,"id":"a6fweftbn48u","geo_precision":"city","state":"SC"},"type":"Feature","geometry":{"type":"Point","coordinates":[-79.273221,34.159262]}},{"properties":{"city":"MYRTLE BEACH","process_level":"MPAII","geo_score":0.857,"employees":3,"id":"a6fwefujsbil","geo_precision":"city","state":"SC"},"type":"Feature","geometry":{"type":"Point","coordinates":[-78.852005,33.711741]}},{"properties":{"city":"NICHOLS","process_level":"MPAII","geo_score":0.857,"employees":2,"id":"a6fwefsiub7i","geo_precision":"city","state":"SC"},"type":"Feature","geometry":{"type":"Point","coordinates":[-79.14865,34.233775]}},{"properties":{"city":"OLANTA","process_level":"MPAII","geo_score":0.857,"employees":5,"id":"a6fwefzof6sx","geo_precision":"city","state":"SC"},"type":"Feature","geometry":{"type":"Point","coordinates":[-79.903726,33.937811]}},{"properties":{"city":"PAMPLICO","process_level":"MPAII","geo_score":0.857,"employees":15,"id":"a6fwefxz7l3j","geo_precision":"city","state":"SC"},"type":"Feature","geometry":{"type":"Point","coordinates":[-79.59917,33.972437]}},{"properties":{"city":"PINEVILLE","process_level":"MPAII","geo_score":0.857,"employees":1,"id":"a6fwefndmcjh","geo_precision":"city","state":"SC"},"type":"Feature","geometry":{"type":"Point","coordinates":[-80.071194,33.411753]}},{"properties":{"city":"QUINBY","process_level":"MPAII","geo_score":0.857,"employees":1,"id":"a6fwefzmcv82","geo_precision":"city","state":"SC"},"type":"Feature","geometry":{"type":"Point","coordinates":[-79.734505,34.236543]}},{"properties":{"city":"SCRANTON","process_level":"MPAII","geo_score":0.857,"employees":5,"id":"a6fwefomzc8p","geo_precision":"city","state":"SC"},"type":"Feature","geometry":{"type":"Point","coordinates":[-79.769899,33.937275]}},{"properties":{"city":"SOCIETY HILL","process_level":"MPAII","geo_score":0.857,"employees":4,"id":"a6fwefvw1fdp","geo_precision":"city","state":"SC"},"type":"Feature","geometry":{"type":"Point","coordinates":[-79.880497,34.442018]}},{"properties":{"city":"SUMTER","process_level":"MPAII","geo_score":0.857,"employees":8,"id":"a6fwefzesxtb","geo_precision":"city","state":"SC"},"type":"Feature","geometry":{"type":"Point","coordinates":[-80.46839,33.974741]}},{"properties":{"city":"TIMMONSVILLE","process_level":"MPAII","geo_score":0.857,"employees":28,"id":"a6fwefum75mq","geo_precision":"city","state":"SC"},"type":"Feature","geometry":{"type":"Point","coordinates":[-79.933777,34.062595]}},{"properties":{"city":"TURBEVILLE","process_level":"MPAII","geo_score":0.857,"employees":2,"id":"a6fwefofvn9w","geo_precision":"city","state":"SC"},"type":"Feature","geometry":{"type":"Point","coordinates":[-80.022566,33.884239]}},{"properties":{"city":"EFFINGHAM","process_level":"MRE","geo_score":0.857,"employees":1,"id":"a6fwefo5wm8f","geo_precision":"city","state":"SC"},"type":"Feature","geometry":{"type":"Point","coordinates":[-79.733541,34.063272]}},{"properties":{"city":"FLORENCE","process_level":"MRE","geo_score":0.857,"employees":2,"id":"a6fwefshjivw","geo_precision":"city","state":"SC"},"type":"Feature","geometry":{"type":"Point","coordinates":[-79.685361,34.049849]}},{"properties":{"city":"LAKE CITY","process_level":"MRE","geo_score":0.75,"employees":1,"id":"a6fwefvoz1f3","geo_precision":"city","state":"SC"},"type":"Feature","geometry":{"type":"Point","coordinates":[-81.127601,33.321822]}},{"properties":{"city":"HOOVER","process_level":"MRMC","geo_score":0.857,"employees":1,"id":"a6fwefzpbdsy","geo_precision":"city","state":"AL"},"type":"Feature","geometry":{"type":"Point","coordinates":[-86.811378,33.405387]}},{"properties":{"city":"PENSACOLA","process_level":"MRMC","geo_score":0.857,"employees":1,"id":"a6fwefqb2wlv","geo_precision":"city","state":"FL"},"type":"Feature","geometry":{"type":"Point","coordinates":[-87.216915,30.421309]}},{"properties":{"city":"FORT CAMPBELL","process_level":"MRMC","geo_score":0.738,"employees":1,"id":"a6fwefu2uizb","geo_precision":"city","state":"KY"},"type":"Feature","geometry":{"type":"Point","coordinates":[-83.219065,36.848701]}},{"properties":{"city":"LEXINGTON","process_level":"MRMC","geo_score":0.857,"employees":1,"id":"a6fwefnyguza","geo_precision":"city","state":"KY"},"type":"Feature","geometry":{"type":"Point","coordinates":[-84.477715,37.988689]}},{"properties":{"city":"PARKTON","process_level":"MRMC","geo_score":0.825,"employees":1,"id":"a6fwefwgjaxy","geo_precision":"city","state":"MD"},"type":"Feature","geometry":{"type":"Point","coordinates":[-76.523576,39.373718]}},{"properties":{"city":"CHAPEL HILL","process_level":"MRMC","geo_score":0.857,"employees":1,"id":"a6fwefpnpmxi","geo_precision":"city","state":"NC"},"type":"Feature","geometry":{"type":"Point","coordinates":[-79.038605,35.926939]}},{"properties":{"city":"CHARLOTTE","process_level":"MRMC","geo_score":0.857,"employees":1,"id":"a6fwefqfo035","geo_precision":"city","state":"NC"},"type":"Feature","geometry":{"type":"Point","coordinates":[-80.843127,35.227087]}},{"properties":{"city":"CONCORD","process_level":"MRMC","geo_score":0.857,"employees":1,"id":"a6fwefwy9mrk","geo_precision":"city","state":"NC"},"type":"Feature","geometry":{"type":"Point","coordinates":[-79.066402,36.445974]}},{"properties":{"city":"EURE","process_level":"MRMC","geo_score":0.857,"employees":1,"id":"a6fwefpetxto","geo_precision":"city","state":"NC"},"type":"Feature","geometry":{"type":"Point","coordinates":[-76.797951,36.416392]}},{"properties":{"city":"FAIR BLUFF","process_level":"MRMC","geo_score":0.762,"employees":1,"id":"a6fwefy8sph1","geo_precision":"city","state":"NC"},"type":"Feature","geometry":{"type":"Point","coordinates":[-78.642781,35.944038]}},{"properties":{"city":"FAYETTEVILLE","process_level":"MRMC","geo_score":0.857,"employees":1,"id":"a6fwefs13p4u","geo_precision":"city","state":"NC"},"type":"Feature","geometry":{"type":"Point","coordinates":[-78.878359,35.052664]}},{"properties":{"city":"HICKORY","process_level":"MRMC","geo_score":0.857,"employees":1,"id":"a6fweg23f7f7","geo_precision":"city","state":"NC"},"type":"Feature","geometry":{"type":"Point","coordinates":[-81.308224,35.758221]}},{"properties":{"city":"KANNAPOLIS","process_level":"MRMC","geo_score":0.857,"employees":1,"id":"a6fwefpc14xh","geo_precision":"city","state":"NC"},"type":"Feature","geometry":{"type":"Point","coordinates":[-80.672531,35.462981]}},{"properties":{"city":"LAURINBURG","process_level":"MRMC","geo_score":0.857,"employees":1,"id":"a6fwefmy1g94","geo_precision":"city","state":"NC"},"type":"Feature","geometry":{"type":"Point","coordinates":[-79.475606,34.796929]}},{"properties":{"city":"LOCUST","process_level":"MRMC","geo_score":0.857,"employees":1,"id":"a6fwefpimipb","geo_precision":"city","state":"NC"},"type":"Feature","geometry":{"type":"Point","coordinates":[-80.424512,35.262131]}},{"properties":{"city":"LUMBERTON","process_level":"MRMC","geo_score":0.81,"employees":3,"id":"a6fwefrd9vc5","geo_precision":"city","state":"NC"},"type":"Feature","geometry":{"type":"Point","coordinates":[-80.359507,35.313476]}},{"properties":{"city":"MATTHEWS","process_level":"MRMC","geo_score":0.857,"employees":1,"id":"a6fwefn1wmbe","geo_precision":"city","state":"NC"},"type":"Feature","geometry":{"type":"Point","coordinates":[-80.704424,35.089042]}},{"properties":{"city":"MONROE","process_level":"MRMC","geo_score":0.857,"employees":1,"id":"a6fwefzjzxlr","geo_precision":"city","state":"NC"},"type":"Feature","geometry":{"type":"Point","coordinates":[-80.527827,35.074176]}},{"properties":{"city":"MOREHEAD CITY","process_level":"MRMC","geo_score":0.738,"employees":1,"id":"a6fwefzbj6ut","geo_precision":"city","state":"NC"},"type":"Feature","geometry":{"type":"Point","coordinates":[-80.106157,35.711804]}},{"properties":{"city":"PARKTON","process_level":"MRMC","geo_score":0.839,"employees":1,"id":"a6fwefvx448i","geo_precision":"city","state":"NC"},"type":"Feature","geometry":{"type":"Point","coordinates":[-78.141658,36.313204]}},{"properties":{"city":"RALEIGH","process_level":"MRMC","geo_score":0.857,"employees":1,"id":"a6fwefqv1ik5","geo_precision":"city","state":"NC"},"type":"Feature","geometry":{"type":"Point","coordinates":[-78.638615,35.772096]}},{"properties":{"city":"SUPPLY","process_level":"MRMC","geo_score":0.857,"employees":1,"id":"a6fwefzjp5yt","geo_precision":"city","state":"NC"},"type":"Feature","geometry":{"type":"Point","coordinates":[-78.223678,34.002551]}},{"properties":{"city":"WHITEVILLE","process_level":"MRMC","geo_score":0.8,"employees":1,"id":"a6fweg0wk553","geo_precision":"city","state":"NC"},"type":"Feature","geometry":{"type":"Point","coordinates":[-80.479782,36.501803]}},{"properties":{"city":"WEST DEPTFORD","process_level":"MRMC","geo_score":0.0,"employees":1,"id":"a6fweg1edhur","geo_precision":"unmatched","state":"NJ"},"type":"Feature","geometry":null},{"properties":{"city":"LIBERTY TOWNSHIP","process_level":"MRMC","geo_score":0.781,"employees":1,"id":"a6fwefpkzpmq","geo_precision":"city","state":"OH"},"type":"Feature","geometry":{"type":"Point","coordinates":[-84.324944,39.720057]}},{"properties":{"city":"AIKEN","process_level":"MRMC","geo_score":0.857,"employees":1,"id":"a6fwefsv0ti7","geo_precision":"city","state":"SC"},"type":"Feature","geometry":{"type":"Point","coordinates":[-81.69588,33.554433]}},{"properties":{"city":"ALCOLU","process_level":"MRMC","geo_score":0.857,"employees":1,"id":"a6fwefo0e1t8","geo_precision":"city","state":"SC"},"type":"Feature","geometry":{"type":"Point","coordinates":[-80.190733,33.685155]}},{"properties":{"city":"ANDREWS","process_level":"MRMC","geo_score":0.857,"employees":5,"id":"a6fwefuetxbo","geo_precision":"city","state":"SC"},"type":"Feature","geometry":{"type":"Point","coordinates":[-79.409083,33.435562]}},{"properties":{"city":"AYNOR","process_level":"MRMC","geo_score":0.857,"employees":5,"id":"a6fwefpb6n7o","geo_precision":"city","state":"SC"},"type":"Feature","geometry":{"type":"Point","coordinates":[-79.041027,33.939968]}},{"properties":{"city":"BARNWELL","process_level":"MRMC","geo_score":0.857,"employees":1,"id":"a6fwefrd489u","geo_precision":"city","state":"SC"},"type":"Feature","geometry":{"type":"Point","coordinates":[-81.349595,33.249806]}},{"properties":{"city":"BENNETTSVILLE","process_level":"MRMC","geo_score":0.857,"employees":19,"id":"a6fweg000czj","geo_precision":"city","state":"SC"},"type":"Feature","geometry":{"type":"Point","coordinates":[-79.707693,34.598755]}},{"properties":{"city":"BETHUNE","process_level":"MRMC","geo_score":0.816,"employees":3,"id":"a6fwefull2l5","geo_precision":"city","state":"SC"},"type":"Feature","geometry":{"type":"Point","coordinates":[-81.30619,35.117079]}},{"properties":{"city":"BISHOPVILLE","process_level":"MRMC","geo_score":0.857,"employees":10,"id":"a6fwefxlkd1g","geo_precision":"city","state":"SC"},"type":"Feature","geometry":{"type":"Point","coordinates":[-80.306569,34.207324]}},{"properties":{"city":"BLENHEIM","process_level":"MRMC","geo_score":0.857,"employees":2,"id":"a6fwefrto3m0","geo_precision":"city","state":"SC"},"type":"Feature","geometry":{"type":"Point","coordinates":[-79.644187,34.517149]}},{"properties":{"city":"BRITTONS NECK","process_level":"MRMC","geo_score":0.857,"employees":1,"id":"a6fwefu869it","geo_precision":"city","state":"SC"},"type":"Feature","geometry":{"type":"Point","coordinates":[-79.341439,33.912665]}},{"properties":{"city":"CADES","process_level":"MRMC","geo_score":0.762,"employees":4,"id":"a6fwefm8wlhd","geo_precision":"city","state":"SC"},"type":"Feature","geometry":{"type":"Point","coordinates":[-81.967339,34.168462]}},{"properties":{"city":"CAMDEN","process_level":"MRMC","geo_score":0.857,"employees":4,"id":"a6fwefzidcaz","geo_precision":"city","state":"SC"},"type":"Feature","geometry":{"type":"Point","coordinates":[-80.612489,34.313477]}},{"properties":{"city":"CHAPIN","process_level":"MRMC","geo_score":0.857,"employees":1,"id":"a6fweftvti89","geo_precision":"city","state":"SC"},"type":"Feature","geometry":{"type":"Point","coordinates":[-81.334355,34.135909]}},{"properties":{"city":"CHARLESTON","process_level":"MRMC","geo_score":0.798,"employees":2,"id":"a6fwefnub186","geo_precision":"city","state":"SC"},"type":"Feature","geometry":{"type":"Point","coordinates":[-79.970643,32.85712]}},{"properties":{"city":"CHERAW","process_level":"MRMC","geo_score":0.857,"employees":18,"id":"a6fweftuiigh","geo_precision":"city","state":"SC"},"type":"Feature","geometry":{"type":"Point","coordinates":[-79.943741,34.691548]}},{"properties":{"city":"CHESTERFIELD","process_level":"MRMC","geo_score":0.857,"employees":8,"id":"a6fwefmbuk8z","geo_precision":"city","state":"SC"},"type":"Feature","geometry":{"type":"Point","coordinates":[-80.129515,34.755564]}},{"properties":{"city":"CLEVELAND","process_level":"MRMC","geo_score":0.857,"employees":1,"id":"a6fwefm96u67","geo_precision":"city","state":"SC"},"type":"Feature","geometry":{"type":"Point","coordinates":[-82.507625,35.078914]}},{"properties":{"city":"CLIO","process_level":"MRMC","geo_score":0.743,"employees":1,"id":"a6fwefo7wmbp","geo_precision":"city","state":"SC"},"type":"Feature","geometry":{"type":"Point","coordinates":[-81.597043,34.812355]}},{"properties":{"city":"COLUMBIA","process_level":"MRMC","geo_score":0.857,"employees":7,"id":"a6fwefsgjkj0","geo_precision":"city","state":"SC"},"type":"Feature","geometry":{"type":"Point","coordinates":[-81.024864,33.987454]}},{"properties":{"city":"CONWAY","process_level":"MRMC","geo_score":0.857,"employees":14,"id":"a6fwefpc2sfy","geo_precision":"city","state":"SC"},"type":"Feature","geometry":{"type":"Point","coordinates":[-78.948287,33.868775]}},{"properties":{"city":"COWARD","process_level":"MRMC","geo_score":0.857,"employees":20,"id":"a6fwefpbwutx","geo_precision":"city","state":"SC"},"type":"Feature","geometry":{"type":"Point","coordinates":[-79.756816,33.980551]}},{"properties":{"city":"DALZELL","process_level":"MRMC","geo_score":0.857,"employees":2,"id":"a6fwefod7vrh","geo_precision":"city","state":"SC"},"type":"Feature","geometry":{"type":"Point","coordinates":[-80.478151,34.025111]}},{"properties":{"city":"DARLINGTON","process_level":"MRMC","geo_score":0.857,"employees":220,"id":"a6fwefsr39hi","geo_precision":"city","state":"SC"},"type":"Feature","geometry":{"type":"Point","coordinates":[-79.931655,34.317738]}},{"properties":{"city":"DILLON","process_level":"MRMC","geo_score":0.857,"employees":32,"id":"a6fweg27tf9f","geo_precision":"city","state":"SC"},"type":"Feature","geometry":{"type":"Point","coordinates":[-79.341359,34.422187]}},{"properties":{"city":"EFFINGHAM","process_level":"MRMC","geo_score":0.857,"employees":153,"id":"a6fwefy5cpqd","geo_precision":"city","state":"SC"},"type":"Feature","geometry":{"type":"Point","coordinates":[-79.733541,34.063272]}},{"properties":{"city":"ELGIN","process_level":"MRMC","geo_score":0.857,"employees":1,"id":"a6fweflwmeqr","geo_precision":"city","state":"SC"},"type":"Feature","geometry":{"type":"Point","coordinates":[-80.718958,34.672927]}},{"properties":{"city":"ELLIOTT","process_level":"MRMC","geo_score":0.857,"employees":1,"id":"a6fwefok7idf","geo_precision":"city","state":"SC"},"type":"Feature","geometry":{"type":"Point","coordinates":[-80.240955,34.15998]}},{"properties":{"city":"FLORENCE","process_level":"MRMC","geo_score":0.857,"employees":1757,"id":"a6fwefxd6j4x","geo_precision":"city","state":"SC"},"type":"Feature","geometry":{"type":"Point","coordinates":[-79.685361,34.049849]}},{"properties":{"city":"GABLE","process_level":"MRMC","geo_score":0.857,"employees":3,"id":"a6fwefx5f5vs","geo_precision":"city","state":"SC"},"type":"Feature","geometry":{"type":"Point","coordinates":[-80.208109,33.688373]}},{"properties":{"city":"GALIVANTS FERRY","process_level":"MRMC","geo_score":0.857,"employees":9,"id":"a6fweg0oybmf","geo_precision":"city","state":"SC"},"type":"Feature","geometry":{"type":"Point","coordinates":[-78.994502,33.953007]}},{"properties":{"city":"GEORGETOWN","process_level":"MRMC","geo_score":0.857,"employees":3,"id":"a6fwefwf2mb4","geo_precision":"city","state":"SC"},"type":"Feature","geometry":{"type":"Point","coordinates":[-79.367525,33.439327]}},{"properties":{"city":"GREENVILLE","process_level":"MRMC","geo_score":0.857,"employees":2,"id":"a6fwefxwlncw","geo_precision":"city","state":"SC"},"type":"Feature","geometry":{"type":"Point","coordinates":[-82.402871,34.848567]}},{"properties":{"city":"GREER","process_level":"MRMC","geo_score":0.857,"employees":1,"id":"a6fwefpq7qve","geo_precision":"city","state":"SC"},"type":"Feature","geometry":{"type":"Point","coordinates":[-82.368415,34.948738]}},{"properties":{"city":"GRESHAM","process_level":"MRMC","geo_score":0.857,"employees":8,"id":"a6fwefn0y9ed","geo_precision":"city","state":"SC"},"type":"Feature","geometry":{"type":"Point","coordinates":[-79.360418,33.952411]}},{"properties":{"city":"HAMER","process_level":"MRMC","geo_score":0.857,"employees":7,"id":"a6fwefn15uda","geo_precision":"city","state":"SC"},"type":"Feature","geometry":{"type":"Point","coordinates":[-79.350207,34.484912]}},{"properties":{"city":"HARTSVILLE","process_level":"MRMC","geo_score":0.857,"employees":106,"id":"a6fwefnre28j","geo_precision":"city","state":"SC"},"type":"Feature","geometry":{"type":"Point","coordinates":[-80.073953,34.345106]}},{"properties":{"city":"HEMINGWAY","process_level":"MRMC","geo_score":0.857,"employees":19,"id":"a6fweftkisap","geo_precision":"city","state":"SC"},"type":"Feature","geometry":{"type":"Point","coordinates":[-79.430945,33.732071]}},{"properties":{"city":"JAMESTOWN","process_level":"MRMC","geo_score":0.857,"employees":1,"id":"a6fwefovoafy","geo_precision":"city","state":"SC"},"type":"Feature","geometry":{"type":"Point","coordinates":[-79.714992,33.183389]}},{"properties":{"city":"JEFFERSON","process_level":"MRMC","geo_score":0.857,"employees":2,"id":"a6fwefqvji2h","geo_precision":"city","state":"SC"},"type":"Feature","geometry":{"type":"Point","coordinates":[-80.392891,34.71154]}},{"properties":{"city":"JOHNSONVILLE","process_level":"MRMC","geo_score":0.857,"employees":37,"id":"a6fwefwzbwo4","geo_precision":"city","state":"SC"},"type":"Feature","geometry":{"type":"Point","coordinates":[-79.489745,33.886864]}},{"properties":{"city":"KINGSTREE","process_level":"MRMC","geo_score":0.857,"employees":22,"id":"a6fwefw0uu0y","geo_precision":"city","state":"SC"},"type":"Feature","geometry":{"type":"Point","coordinates":[-79.837756,33.663869]}},{"properties":{"city":"LAKE CITY","process_level":"MRMC","geo_score":0.75,"employees":92,"id":"a6fwefxdwzjq","geo_precision":"city","state":"SC"},"type":"Feature","geometry":{"type":"Point","coordinates":[-81.127601,33.321822]}},{"properties":{"city":"LAKE VIEW","process_level":"MRMC","geo_score":0.732,"employees":5,"id":"a6fwefonhlnd","geo_precision":"city","state":"SC"},"type":"Feature","geometry":{"type":"Point","coordinates":[-80.731308,34.260265]}},{"properties":{"city":"LAMAR","process_level":"MRMC","geo_score":0.857,"employees":39,"id":"a6fwefy4laz0","geo_precision":"city","state":"SC"},"type":"Feature","geometry":{"type":"Point","coordinates":[-80.005897,34.269558]}},{"properties":{"city":"LANE","process_level":"MRMC","geo_score":0.786,"employees":1,"id":"a6fweft9gdio","geo_precision":"city","state":"SC"},"type":"Feature","geometry":{"type":"Point","coordinates":[-81.215103,32.753503]}},{"properties":{"city":"LATTA","process_level":"MRMC","geo_score":0.771,"employees":29,"id":"a6fwefvzf5yk","geo_precision":"city","state":"SC"},"type":"Feature","geometry":{"type":"Point","coordinates":[-80.100896,34.278255]}},{"properties":{"city":"LEXINGTON","process_level":"MRMC","geo_score":0.857,"employees":1,"id":"a6fwefmm8qrm","geo_precision":"city","state":"SC"},"type":"Feature","geometry":{"type":"Point","coordinates":[-81.248345,33.925183]}},{"properties":{"city":"LITTLE RIVER","process_level":"MRMC","geo_score":0.857,"employees":2,"id":"a6fwefxj2j4g","geo_precision":"city","state":"SC"},"type":"Feature","geometry":{"type":"Point","coordinates":[-78.758018,33.816472]}},{"properties":{"city":"LITTLE ROCK","process_level":"MRMC","geo_score":0.857,"employees":2,"id":"a6fwefxvlvca","geo_precision":"city","state":"SC"},"type":"Feature","geometry":{"type":"Point","coordinates":[-79.348165,34.495502]}},{"properties":{"city":"LONGS","process_level":"MRMC","geo_score":0.857,"employees":3,"id":"a6fwefs2nv6y","geo_precision":"city","state":"SC"},"type":"Feature","geometry":{"type":"Point","coordinates":[-78.885268,33.833574]}},{"properties":{"city":"LORIS","process_level":"MRMC","geo_score":0.81,"employees":4,"id":"a6fwefnrlr61","geo_precision":"city","state":"SC"},"type":"Feature","geometry":{"type":"Point","coordinates":[-81.239253,34.804026]}},{"properties":{"city":"LUGOFF","process_level":"MRMC","geo_score":0.857,"employees":2,"id":"a6fweg1qiy8b","geo_precision":"city","state":"SC"},"type":"Feature","geometry":{"type":"Point","coordinates":[-80.731308,34.260265]}},{"properties":{"city":"LYDIA","process_level":"MRMC","geo_score":0.857,"employees":1,"id":"a6fwefu151rq","geo_precision":"city","state":"SC"},"type":"Feature","geometry":{"type":"Point","coordinates":[-80.100896,34.278255]}},{"properties":{"city":"LYNCHBURG","process_level":"MRMC","geo_score":0.857,"employees":19,"id":"a6fwefrerf6l","geo_precision":"city","state":"SC"},"type":"Feature","geometry":{"type":"Point","coordinates":[-80.043417,34.049335]}},{"properties":{"city":"MANNING","process_level":"MRMC","geo_score":0.857,"employees":4,"id":"a6fwefwwx6m0","geo_precision":"city","state":"SC"},"type":"Feature","geometry":{"type":"Point","coordinates":[-80.21155,33.618408]}},{"properties":{"city":"MARION","process_level":"MRMC","geo_score":0.857,"employees":97,"id":"a6fweflyyiz3","geo_precision":"city","state":"SC"},"type":"Feature","geometry":{"type":"Point","coordinates":[-79.363948,34.164144]}},{"properties":{"city":"MAYESVILLE","process_level":"MRMC","geo_score":0.857,"employees":2,"id":"a6fwefr835rc","geo_precision":"city","state":"SC"},"type":"Feature","geometry":{"type":"Point","coordinates":[-80.217283,33.950173]}},{"properties":{"city":"MC BEE","process_level":"MRMC","geo_score":0.857,"employees":5,"id":"a6fwefz5eie6","geo_precision":"city","state":"SC"},"type":"Feature","geometry":{"type":"Point","coordinates":[-80.256814,34.470238]}},{"properties":{"city":"MC COLL","process_level":"MRMC","geo_score":0.738,"employees":3,"id":"a6fweg18ttb4","geo_precision":"city","state":"SC"},"type":"Feature","geometry":{"type":"Point","coordinates":[-81.597043,34.812355]}},{"properties":{"city":"MOUNT PLEASANT","process_level":"MRMC","geo_score":0.745,"employees":1,"id":"a6fweg19mdbo","geo_precision":"city","state":"SC"},"type":"Feature","geometry":{"type":"Point","coordinates":[-82.396234,34.802063]}},{"properties":{"city":"MULLINS","process_level":"MRMC","geo_score":0.857,"employees":52,"id":"a6fweg1rkq13","geo_precision":"city","state":"SC"},"type":"Feature","geometry":{"type":"Point","coordinates":[-79.273221,34.159262]}},{"properties":{"city":"MURRELLS INLET","process_level":"MRMC","geo_score":0.857,"employees":1,"id":"a6fweftwrw1l","geo_precision":"city","state":"SC"},"type":"Feature","geometry":{"type":"Point","coordinates":[-79.04822,33.529642]}},{"properties":{"city":"MYRTLE BEACH","process_level":"MRMC","geo_score":0.857,"employees":28,"id":"a6fweftle4uu","geo_precision":"city","state":"SC"},"type":"Feature","geometry":{"type":"Point","coordinates":[-78.852005,33.711741]}},{"properties":{"city":"N CHARLESTON","process_level":"MRMC","geo_score":0.79,"employees":1,"id":"a6fwefpmfbwu","geo_precision":"city","state":"SC"},"type":"Feature","geometry":{"type":"Point","coordinates":[-79.970643,32.85712]}},{"properties":{"city":"NESMITH","process_level":"MRMC","geo_score":0.857,"employees":3,"id":"a6fwefrgj2wg","geo_precision":"city","state":"SC"},"type":"Feature","geometry":{"type":"Point","coordinates":[-79.709369,33.598355]}},{"properties":{"city":"NEW ZION","process_level":"MRMC","geo_score":0.796,"employees":1,"id":"a6fwefue3ocx","geo_precision":"city","state":"SC"},"type":"Feature","geometry":{"type":"Point","coordinates":[-79.317826,34.259882]}},{"properties":{"city":"NICHOLS","process_level":"MRMC","geo_score":0.857,"employees":10,"id":"a6fweg1ak3dy","geo_precision":"city","state":"SC"},"type":"Feature","geometry":{"type":"Point","coordinates":[-79.14865,34.233775]}},{"properties":{"city":"NORTH MYRTLE BEACH","process_level":"MRMC","geo_score":0.812,"employees":4,"id":"a6fweg1y4i9o","geo_precision":"city","state":"SC"},"type":"Feature","geometry":{"type":"Point","coordinates":[-78.852005,33.711741]}},{"properties":{"city":"OLANTA","process_level":"MRMC","geo_score":0.857,"employees":11,"id":"a6fwefmoopf1","geo_precision":"city","state":"SC"},"type":"Feature","geometry":{"type":"Point","coordinates":[-79.903726,33.937811]}},{"properties":{"city":"PAMPLICO","process_level":"MRMC","geo_score":0.857,"employees":71,"id":"a6fwefnapg7l","geo_precision":"city","state":"SC"},"type":"Feature","geometry":{"type":"Point","coordinates":[-79.59917,33.972437]}},{"properties":{"city":"PATRICK","process_level":"MRMC","geo_score":0.857,"employees":1,"id":"a6fweftl3w5o","geo_precision":"city","state":"SC"},"type":"Feature","geometry":{"type":"Point","coordinates":[-80.170691,34.591849]}},{"properties":{"city":"PAWLEYS ISLAND","process_level":"MRMC","geo_score":0.747,"employees":1,"id":"a6fwefvo900i","geo_precision":"city","state":"SC"},"type":"Feature","geometry":{"type":"Point","coordinates":[-80.948043,32.946307]}},{"properties":{"city":"QUINBY","process_level":"MRMC","geo_score":0.857,"employees":17,"id":"a6fwefy9f8mt","geo_precision":"city","state":"SC"},"type":"Feature","geometry":{"type":"Point","coordinates":[-79.734505,34.236543]}},{"properties":{"city":"RAINS","process_level":"MRMC","geo_score":0.857,"employees":5,"id":"a6fwefvssfa3","geo_precision":"city","state":"SC"},"type":"Feature","geometry":{"type":"Point","coordinates":[-79.322116,34.105265]}},{"properties":{"city":"REMBERT","process_level":"MRMC","geo_score":0.857,"employees":3,"id":"a6fwefohpvvy","geo_precision":"city","state":"SC"},"type":"Feature","geometry":{"type":"Point","coordinates":[-80.513051,34.059796]}},{"properties":{"city":"ROCK HILL","process_level":"MRMC","geo_score":0.857,"employees":3,"id":"a6fwefyccy3m","geo_precision":"city","state":"SC"},"type":"Feature","geometry":{"type":"Point","coordinates":[-81.052437,34.909109]}},{"properties":{"city":"RUBY","process_level":"MRMC","geo_score":0.857,"employees":1,"id":"a6fwefonubxh","geo_precision":"city","state":"SC"},"type":"Feature","geometry":{"type":"Point","coordinates":[-80.18961,34.721259]}},{"properties":{"city":"SAINT STEPHEN","process_level":"MRMC","geo_score":0.786,"employees":1,"id":"a6fwefzj8h07","geo_precision":"city","state":"SC"},"type":"Feature","geometry":{"type":"Point","coordinates":[-80.782531,33.466571]}},{"properties":{"city":"SALLEY","process_level":"MRMC","geo_score":0.857,"employees":1,"id":"a6fweg0sn764","geo_precision":"city","state":"SC"},"type":"Feature","geometry":{"type":"Point","coordinates":[-81.365813,33.605723]}},{"properties":{"city":"SALTERS","process_level":"MRMC","geo_score":0.857,"employees":3,"id":"a6fwefztbfcr","geo_precision":"city","state":"SC"},"type":"Feature","geometry":{"type":"Point","coordinates":[-79.709369,33.598355]}},{"properties":{"city":"SCRANTON","process_level":"MRMC","geo_score":0.857,"employees":47,"id":"a6fweg0enyne","geo_precision":"city","state":"SC"},"type":"Feature","geometry":{"type":"Point","coordinates":[-79.769899,33.937275]}},{"properties":{"city":"SELLERS","process_level":"MRMC","geo_score":0.857,"employees":6,"id":"a6fweg1e880h","geo_precision":"city","state":"SC"},"type":"Feature","geometry":{"type":"Point","coordinates":[-79.478292,34.258011]}},{"properties":{"city":"SOCIETY HILL","process_level":"MRMC","geo_score":0.857,"employees":8,"id":"a6fwefxcsz5g","geo_precision":"city","state":"SC"},"type":"Feature","geometry":{"type":"Point","coordinates":[-79.880497,34.442018]}},{"properties":{"city":"SUMMERVILLE","process_level":"MRMC","geo_score":0.857,"employees":2,"id":"a6fwefy51cim","geo_precision":"city","state":"SC"},"type":"Feature","geometry":{"type":"Point","coordinates":[-80.431751,33.040201]}},{"properties":{"city":"SUMTER","process_level":"MRMC","geo_score":0.857,"employees":26,"id":"a6fweg0667wq","geo_precision":"city","state":"SC"},"type":"Feature","geometry":{"type":"Point","coordinates":[-80.46839,33.974741]}},{"properties":{"city":"SURFSIDE BEACH","process_level":"MRMC","geo_score":0.857,"employees":3,"id":"a6fwefsu7l0k","geo_precision":"city","state":"SC"},"type":"Feature","geometry":{"type":"Point","coordinates":[-78.973089,33.606003]}},{"properties":{"city":"TEGA CAY","process_level":"MRMC","geo_score":0.857,"employees":1,"id":"a6fwefrfpb7m","geo_precision":"city","state":"SC"},"type":"Feature","geometry":{"type":"Point","coordinates":[-81.027855,35.024312]}},{"properties":{"city":"TIMMONSVILLE","process_level":"MRMC","geo_score":0.857,"employees":144,"id":"a6fwefr2b9r0","geo_precision":"city","state":"SC"},"type":"Feature","geometry":{"type":"Point","coordinates":[-79.933777,34.062595]}},{"properties":{"city":"TURBEVILLE","process_level":"MRMC","geo_score":0.857,"employees":10,"id":"a6fwefxt8r2p","geo_precision":"city","state":"SC"},"type":"Feature","geometry":{"type":"Point","coordinates":[-80.022566,33.884239]}},{"properties":{"city":"WALLACE","process_level":"MRMC","geo_score":0.857,"employees":3,"id":"a6fwefxjfwuq","geo_precision":"city","state":"SC"},"type":"Feature","geometry":{"type":"Point","coordinates":[-79.829665,34.732322]}},{"properties":{"city":"WEDGEFIELD","process_level":"MRMC","geo_score":0.857,"employees":1,"id":"a6fwefxfvnoi","geo_precision":"city","state":"SC"},"type":"Feature","geometry":{"type":"Point","coordinates":[-80.498019,33.895272]}},{"properties":{"city":"COLUMBIA","process_level":"MRMC","geo_score":0.857,"employees":1,"id":"a6fwefxx9e7e","geo_precision":"city","state":"TN"},"type":"Feature","geometry":{"type":"Point","coordinates":[-87.00404,35.623997]}},{"properties":{"city":"DANIELS","process_level":"MRMC","geo_score":0.857,"employees":1,"id":"a6fwefzhu8yn","geo_precision":"city","state":"WV"},"type":"Feature","geometry":{"type":"Point","coordinates":[-81.216077,37.693341]}},{"properties":{"city":"CERRO GORDO","process_level":"SEMC2","geo_score":0.857,"employees":2,"id":"a6fwefta7cif","geo_precision":"city","state":"NC"},"type":"Feature","geometry":{"type":"Point","coordinates":[-78.725768,34.301907]}},{"properties":{"city":"CHADBOURN","process_level":"SEMC2","geo_score":0.857,"employees":3,"id":"a6fweftpsx5f","geo_precision":"city","state":"NC"},"type":"Feature","geometry":{"type":"Point","coordinates":[-78.891483,34.316747]}},{"properties":{"city":"CLARENDON","process_level":"SEMC2","geo_score":0.857,"employees":1,"id":"a6fwefybsfb2","geo_precision":"city","state":"NC"},"type":"Feature","geometry":{"type":"Point","coordinates":[-78.789061,34.165516]}},{"properties":{"city":"ELIZABETHTOWN","process_level":"SEMC2","geo_score":0.813,"employees":1,"id":"a6fwefphiypk","geo_precision":"city","state":"NC"},"type":"Feature","geometry":{"type":"Point","coordinates":[-76.213284,36.285388]}},{"properties":{"city":"EVERGREEN","process_level":"SEMC2","geo_score":0.857,"employees":3,"id":"a6fwefqnwjfk","geo_precision":"city","state":"NC"},"type":"Feature","geometry":{"type":"Point","coordinates":[-78.894652,34.420379]}},{"properties":{"city":"FAIRMONT","process_level":"SEMC2","geo_score":0.804,"employees":17,"id":"a6fwefv17ouu","geo_precision":"city","state":"NC"},"type":"Feature","geometry":{"type":"Point","coordinates":[-77.979026,35.469355]}},{"properties":{"city":"FAYETTEVILLE","process_level":"SEMC2","geo_score":0.857,"employees":1,"id":"a6fwefye13b7","geo_precision":"city","state":"NC"},"type":"Feature","geometry":{"type":"Point","coordinates":[-78.878359,35.052664]}},{"properties":{"city":"LAUREL HILL","process_level":"SEMC2","geo_score":0.857,"employees":1,"id":"a6fwefr7stqb","geo_precision":"city","state":"NC"},"type":"Feature","geometry":{"type":"Point","coordinates":[-79.571125,34.77465]}},{"properties":{"city":"LUMBERTON","process_level":"SEMC2","geo_score":0.81,"employees":6,"id":"a6fwefo89yi9","geo_precision":"city","state":"NC"},"type":"Feature","geometry":{"type":"Point","coordinates":[-80.359507,35.313476]}},{"properties":{"city":"MAXTON","process_level":"SEMC2","geo_score":0.857,"employees":1,"id":"a6fwefrnjvns","geo_precision":"city","state":"NC"},"type":"Feature","geometry":{"type":"Point","coordinates":[-79.318072,34.711437]}},{"properties":{"city":"ORRUM","process_level":"SEMC2","geo_score":0.857,"employees":6,"id":"a6fwefppsmcj","geo_precision":"city","state":"NC"},"type":"Feature","geometry":{"type":"Point","coordinates":[-79.034509,34.473204]}},{"properties":{"city":"PEMBROKE","process_level":"SEMC2","geo_score":0.857,"employees":2,"id":"a6fwefyqk50c","geo_precision":"city","state":"NC"},"type":"Feature","geometry":{"type":"Point","coordinates":[-79.127951,34.716443]}},{"properties":{"city":"RED SPRINGS","process_level":"SEMC2","geo_score":0.743,"employees":2,"id":"a6fweg1cag85","geo_precision":"city","state":"NC"},"type":"Feature","geometry":{"type":"Point","coordinates":[-79.742808,36.165968]}},{"properties":{"city":"ROCKINGHAM","process_level":"SEMC2","geo_score":0.857,"employees":1,"id":"a6fweg0zjp51","geo_precision":"city","state":"NC"},"type":"Feature","geometry":{"type":"Point","coordinates":[-79.724173,34.974134]}},{"properties":{"city":"ROWLAND","process_level":"SEMC2","geo_score":0.816,"employees":12,"id":"a6fweg1ykgat","geo_precision":"city","state":"NC"},"type":"Feature","geometry":{"type":"Point","coordinates":[-76.623281,36.2771]}},{"properties":{"city":"SHANNON","process_level":"SEMC2","geo_score":0.857,"employees":1,"id":"a6fwefydhva0","geo_precision":"city","state":"NC"},"type":"Feature","geometry":{"type":"Point","coordinates":[-79.031674,34.765637]}},{"properties":{"city":"BENNETTSVILLE","process_level":"SEMC2","geo_score":0.857,"employees":3,"id":"a6fwefwmg41j","geo_precision":"city","state":"SC"},"type":"Feature","geometry":{"type":"Point","coordinates":[-79.707693,34.598755]}},{"properties":{"city":"CLIO","process_level":"SEMC2","geo_score":0.743,"employees":2,"id":"a6fweft3vbck","geo_precision":"city","state":"SC"},"type":"Feature","geometry":{"type":"Point","coordinates":[-81.597043,34.812355]}},{"properties":{"city":"COLUMBIA","process_level":"SEMC2","geo_score":0.857,"employees":1,"id":"a6fwefpbcqw4","geo_precision":"city","state":"SC"},"type":"Feature","geometry":{"type":"Point","coordinates":[-81.024864,33.987454]}},{"properties":{"city":"DARLINGTON","process_level":"SEMC2","geo_score":0.857,"employees":1,"id":"a6fwefvpg0pd","geo_precision":"city","state":"SC"},"type":"Feature","geometry":{"type":"Point","coordinates":[-79.931655,34.317738]}},{"properties":{"city":"DILLON","process_level":"SEMC2","geo_score":0.857,"employees":143,"id":"a6fwefoqel9u","geo_precision":"city","state":"SC"},"type":"Feature","geometry":{"type":"Point","coordinates":[-79.341359,34.422187]}},{"properties":{"city":"EFFINGHAM","process_level":"SEMC2","geo_score":0.857,"employees":1,"id":"a6fwefyo8uix","geo_precision":"city","state":"SC"},"type":"Feature","geometry":{"type":"Point","coordinates":[-79.733541,34.063272]}},{"properties":{"city":"FLORENCE","process_level":"SEMC2","geo_score":0.857,"employees":16,"id":"a6fwefsa2fu5","geo_precision":"city","state":"SC"},"type":"Feature","geometry":{"type":"Point","coordinates":[-79.685361,34.049849]}},{"properties":{"city":"FORK","process_level":"SEMC2","geo_score":0.857,"employees":2,"id":"a6fweg0vnmqk","geo_precision":"city","state":"SC"},"type":"Feature","geometry":{"type":"Point","coordinates":[-79.276529,34.375384]}},{"properties":{"city":"GRESHAM","process_level":"SEMC2","geo_score":0.857,"employees":1,"id":"a6fweg1c8z1j","geo_precision":"city","state":"SC"},"type":"Feature","geometry":{"type":"Point","coordinates":[-79.360418,33.952411]}},{"properties":{"city":"HAMER","process_level":"SEMC2","geo_score":0.857,"employees":26,"id":"a6fwefrp9y30","geo_precision":"city","state":"SC"},"type":"Feature","geometry":{"type":"Point","coordinates":[-79.350207,34.484912]}},{"properties":{"city":"LAKE VIEW","process_level":"SEMC2","geo_score":0.732,"employees":14,"id":"a6fwefy3s9en","geo_precision":"city","state":"SC"},"type":"Feature","geometry":{"type":"Point","coordinates":[-80.731308,34.260265]}},{"properties":{"city":"LATTA","process_level":"SEMC2","geo_score":0.771,"employees":32,"id":"a6fweftm1fcw","geo_precision":"city","state":"SC"},"type":"Feature","geometry":{"type":"Point","coordinates":[-80.100896,34.278255]}},{"properties":{"city":"LITTLE ROCK","process_level":"SEMC2","geo_score":0.857,"employees":5,"id":"a6fwefp9usaa","geo_precision":"city","state":"SC"},"type":"Feature","geometry":{"type":"Point","coordinates":[-79.348165,34.495502]}},{"properties":{"city":"LONGS","process_level":"SEMC2","geo_score":0.857,"employees":5,"id":"a6fwefty3mrd","geo_precision":"city","state":"SC"},"type":"Feature","geometry":{"type":"Point","coordinates":[-78.885268,33.833574]}},{"properties":{"city":"MARION","process_level":"SEMC2","geo_score":0.857,"employees":10,"id":"a6fwefnky1tx","geo_precision":"city","state":"SC"},"type":"Feature","geometry":{"type":"Point","coordinates":[-79.363948,34.164144]}},{"properties":{"city":"MC COLL","process_level":"SEMC2","geo_score":0.738,"employees":3,"id":"a6fweg06tfir","geo_precision":"city","state":"SC"},"type":"Feature","geometry":{"type":"Point","coordinates":[-81.597043,34.812355]}},{"properties":{"city":"MULLINS","process_level":"SEMC2","geo_score":0.857,"employees":16,"id":"a6fwefwu60h0","geo_precision":"city","state":"SC"},"type":"Feature","geometry":{"type":"Point","coordinates":[-79.273221,34.159262]}},{"properties":{"city":"NICHOLS","process_level":"SEMC2","geo_score":0.857,"employees":11,"id":"a6fwefseaxil","geo_precision":"city","state":"SC"},"type":"Feature","geometry":{"type":"Point","coordinates":[-79.14865,34.233775]}},{"properties":{"city":"NORTH MYRTLE BEACH","process_level":"SEMC2","geo_score":0.812,"employees":3,"id":"a6fwefo2tinl","geo_precision":"city","state":"SC"},"type":"Feature","geometry":{"type":"Point","coordinates":[-78.852005,33.711741]}},{"properties":{"city":"QUINBY","process_level":"SEMC2","geo_score":0.857,"employees":1,"id":"a6fweg2645m3","geo_precision":"city","state":"SC"},"type":"Feature","geometry":{"type":"Point","coordinates":[-79.734505,34.236543]}},{"properties":{"city":"RAINS","process_level":"SEMC2","geo_score":0.857,"employees":2,"id":"a6fwefum8yhy","geo_precision":"city","state":"SC"},"type":"Feature","geometry":{"type":"Point","coordinates":[-79.322116,34.105265]}},{"properties":{"city":"SELLERS","process_level":"SEMC2","geo_score":0.857,"employees":2,"id":"a6fwefrxr9l1","geo_precision":"city","state":"SC"},"type":"Feature","geometry":{"type":"Point","coordinates":[-79.478292,34.258011]}},{"properties":{"city":"SURFSIDE BEACH","process_level":"SEMC2","geo_score":0.857,"employees":1,"id":"a6fweg24yvbm","geo_precision":"city","state":"SC"},"type":"Feature","geometry":{"type":"Point","coordinates":[-78.973089,33.606003]}},{"properties":{"city":"BENNETTSVILLE","process_level":"WILS","geo_score":0.857,"employees":3,"id":"a6fwefq4cnvi","geo_precision":"city","state":"SC"},"type":"Feature","geometry":{"type":"Point","coordinates":[-79.707693,34.598755]}},{"properties":{"city":"BISHOPVILLE","process_level":"WILS","geo_score":0.857,"employees":1,"id":"a6fwefyu107v","geo_precision":"city","state":"SC"},"type":"Feature","geometry":{"type":"Point","coordinates":[-80.306569,34.207324]}},{"properties":{"city":"CAMDEN","process_level":"WILS","geo_score":0.857,"employees":1,"id":"a6fweg1ta1bc","geo_precision":"city","state":"SC"},"type":"Feature","geometry":{"type":"Point","coordinates":[-80.612489,34.313477]}},{"properties":{"city":"CHERAW","process_level":"WILS","geo_score":0.857,"employees":5,"id":"a6fweg10hlyo","geo_precision":"city","state":"SC"},"type":"Feature","geometry":{"type":"Point","coordinates":[-79.943741,34.691548]}},{"properties":{"city":"CHESTERFIELD","process_level":"WILS","geo_score":0.857,"employees":1,"id":"a6fwefz6sr6a","geo_precision":"city","state":"SC"},"type":"Feature","geometry":{"type":"Point","coordinates":[-80.129515,34.755564]}},{"properties":{"city":"DARLINGTON","process_level":"WILS","geo_score":0.857,"employees":45,"id":"a6fwefqmywad","geo_precision":"city","state":"SC"},"type":"Feature","geometry":{"type":"Point","coordinates":[-79.931655,34.317738]}},{"properties":{"city":"EFFINGHAM","process_level":"WILS","geo_score":0.857,"employees":2,"id":"a6fweg1gnzau","geo_precision":"city","state":"SC"},"type":"Feature","geometry":{"type":"Point","coordinates":[-79.733541,34.063272]}},{"properties":{"city":"FLORENCE","process_level":"WILS","geo_score":0.857,"employees":40,"id":"a6fwefn28e7l","geo_precision":"city","state":"SC"},"type":"Feature","geometry":{"type":"Point","coordinates":[-79.685361,34.049849]}},{"properties":{"city":"GALIVANTS FERRY","process_level":"WILS","geo_score":0.857,"employees":1,"id":"a6fwefzhsr8l","geo_precision":"city","state":"SC"},"type":"Feature","geometry":{"type":"Point","coordinates":[-78.994502,33.953007]}},{"properties":{"city":"HARTSVILLE","process_level":"WILS","geo_score":0.857,"employees":13,"id":"a6fwefyob1pl","geo_precision":"city","state":"SC"},"type":"Feature","geometry":{"type":"Point","coordinates":[-80.073953,34.345106]}},{"properties":{"city":"JOHNSONVILLE","process_level":"WILS","geo_score":0.857,"employees":1,"id":"a6fwefy5653z","geo_precision":"city","state":"SC"},"type":"Feature","geometry":{"type":"Point","coordinates":[-79.489745,33.886864]}},{"properties":{"city":"LAKE CITY","process_level":"WILS","geo_score":0.75,"employees":3,"id":"a6fweg02o70r","geo_precision":"city","state":"SC"},"type":"Feature","geometry":{"type":"Point","coordinates":[-81.127601,33.321822]}},{"properties":{"city":"LAMAR","process_level":"WILS","geo_score":0.857,"employees":2,"id":"a6fwefzguln9","geo_precision":"city","state":"SC"},"type":"Feature","geometry":{"type":"Point","coordinates":[-80.005897,34.269558]}},{"properties":{"city":"MARION","process_level":"WILS","geo_score":0.857,"employees":1,"id":"a6fwefqj2po0","geo_precision":"city","state":"SC"},"type":"Feature","geometry":{"type":"Point","coordinates":[-79.363948,34.164144]}},{"properties":{"city":"MULLINS","process_level":"WILS","geo_score":0.857,"employees":1,"id":"a6fweft2z5jt","geo_precision":"city","state":"SC"},"type":"Feature","geometry":{"type":"Point","coordinates":[-79.273221,34.159262]}},{"properties":{"city":"SOCIETY HILL","process_level":"WILS","geo_score":0.857,"employees":1,"id":"a6fwefxse0og","geo_precision":"city","state":"SC"},"type":"Feature","geometry":{"type":"Point","coordinates":[-79.880497,34.442018]}},{"properties":{"city":"TIMMONSVILLE","process_level":"WILS","geo_score":0.857,"employees":7,"id":"a6fwefyclhnb","geo_precision":"city","state":"SC"},"type":"Feature","geometry":{"type":"Point","coordinates":[-79.933777,34.062595]}}],"is_temporal":false,"author":{"url":"","metadata":"","contact_name":"","contact_address":"","source":"","contact_phone":""},"source":"","pagination":{"sort":null,"start":0,"total":329,"limit":1000000},"state":"complete","tags":"","published":"2014-08-10T11:40:26-04:00","id":90495}