{"type":"FeatureCollection","data_type":"Dataset","url_type":null,"permissions":[{"permissions":{"download":true,"view":true},"group_id":"everyone"}],"classification":null,"title":"HTLCMS Elders","count":71,"stream_id":90549,"contributor":{"url":"http://geocommons.com/users/21664","name":"cpearson3@gmail.com"},"data_attributes":null,"calculation_params":null,"icon_link":null,"link":"http://geocommons.com/overlays/90549.json","extent":[-118.51,33.6521,-117.465,34.3781],"geometry_types":["point"],"unique_name":null,"name":"HTLCMS Elders","feature_count":71,"description":"","next_feature":null,"is_raster":false,"short_classification":"Y","stats":{},"features":[{"properties":{"city":"Pasadena","zip":"91106","elder":"Lindquist","geo_score":0.737,"last":"BAITIS","first":"Jeff","phone":"406-370-4484","id":"a6bb6p0oer52","geo_precision":"range","address":"330 S. Mentor Ave. #136","children":null,"state":"CA","email":"jeff@baitis.net"},"type":"Feature","geometry":{"type":"Point","coordinates":[-118.130832,34.143843]}},{"properties":{"city":"Whittier","zip":"90603","elder":"Hassebrock","geo_score":0.737,"last":"BALL","first":"Kathy","phone":"562-947-1717","id":"a6bb6oxze6mm","geo_precision":"range","address":"10738 Lindesmith","children":null,"state":"CA","email":"redred.wine@verizon.net"},"type":"Feature","geometry":{"type":"Point","coordinates":[-117.981747,33.937213]}},{"properties":{"city":"Anaheim","zip":"92806","elder":"Castillo","geo_score":0.476,"last":"BAMATTRE","first":"Bob and Cyndi","phone":"714-630-8791","id":"a6bb6otfsijc","geo_precision":"street","address":"1102 S. Marjan","children":null,"state":"CA","email":"cbam@pacbell.net"},"type":"Feature","geometry":{"type":"Point","coordinates":[-117.873628,33.834146]}},{"properties":{"city":"Hacienda Heights","zip":"91745","elder":"Pollock","geo_score":0.92,"last":"BANKS","first":"Florence","phone":"626-333-9969","id":"a6bb6p0zreob","geo_precision":"range","address":"915 Galemont","children":null,"state":"CA","email":"none"},"type":"Feature","geometry":{"type":"Point","coordinates":[-117.963943,34.013112]}},{"properties":{"city":"Hacienda Heights","zip":"91745","elder":"Pearson","geo_score":1.0,"last":"BENDLIN","first":"Ed and (Camellia)","phone":"626-330-7154","id":"a6bb6ov044k4","geo_precision":"range","address":"2742 Caricia Drive","children":null,"state":"CA","email":"highaims@aol.com"},"type":"Feature","geometry":{"type":"Point","coordinates":[-117.972741,33.98715]}},{"properties":{"city":"Hacienda Heights","zip":"91745","elder":"Pollock","geo_score":1.0,"last":"BOHLKE","first":"Ann","phone":"626-330-4673","id":"a6bb6p29087a","geo_precision":"range","address":"16285 Canelones Drive","children":null,"state":"CA","email":"babyruth121212@yahoo.com"},"type":"Feature","geometry":{"type":"Point","coordinates":[-117.957215,33.985049]}},{"properties":{"city":"Valley Village","zip":"91607","elder":"Castillo","geo_score":0.756,"last":"CARON","first":"Dawn","phone":"818-515-3025","id":"a6bb6p9uvoe6","geo_precision":"street","address":"5227 Corteen Pl. #7","children":null,"state":"CA","email":"dawn.caron@gmail.com"},"type":"Feature","geometry":{"type":"Point","coordinates":[-118.401965,34.16487]}},{"properties":{"city":"Hacienda Heights","zip":"91745","elder":"Castillo","geo_score":1.0,"last":"CARON","first":"Bob and Fran","phone":"626-336-7679","id":"a6bb6p5ciajd","geo_precision":"range","address":"1423 Armington Avenue","children":null,"state":"CA","email":"caron11238@msn.com"},"type":"Feature","geometry":{"type":"Point","coordinates":[-117.956754,34.0035]}},{"properties":{"city":"Pomona","zip":"91767","elder":"Hassebrock","geo_score":1.0,"last":"CASTILLO","first":"John and Jennifer","phone":"909-482-0777","id":"a6bb6owr37xs","geo_precision":"range","address":"3728 Towne Park Circle","children":"Bethany Jordan Brianna","state":"CA","email":"johncastillo63@aol.com"},"type":"Feature","geometry":{"type":"Point","coordinates":[-117.737815,34.109001]}},{"properties":{"city":"Hacienda Heights","zip":"91745","elder":"Lindquist","geo_score":1.0,"last":"CHU","first":"Eric","phone":"949-910-6742","id":"a6bb6p6nrnmw","geo_precision":"range","address":"15729 Novak St.","children":null,"state":"CA","email":null},"type":"Feature","geometry":{"type":"Point","coordinates":[-117.963354,34.013729]}},{"properties":{"city":"Hacienda Heights","zip":"91745","elder":"Pollock","geo_score":1.0,"last":"COMOUCHE","first":"Toni and (Dan)","phone":"626-336-1012","id":"a6bb6p8ug536","geo_precision":"range","address":"2431 Amelgado Dr.","children":"Christopher Nicholas","state":"CA","email":null},"type":"Feature","geometry":{"type":"Point","coordinates":[-117.961164,33.989448]}},{"properties":{"city":"Hacienda Heights","zip":"91745","elder":"Pearson","geo_score":0.973,"last":"CULBERTSON","first":"Bonnie","phone":"562-696-5782","id":"a6bb6p5g8svt","geo_precision":"range","address":"15137 Los Altos Dr.","children":null,"state":"CA","email":null},"type":"Feature","geometry":{"type":"Point","coordinates":[-117.98789,33.993318]}},{"properties":{"city":"Hacienda Heights","zip":"91745","elder":"Castillo","geo_score":1.0,"last":"CWIRLA","first":"William and Karen","phone":"626-336-3249","id":"a6bb6p0ok4o4","geo_precision":"range","address":"1843 Pontenova Ave.","children":null,"state":"CA","email":"wcwirla@verizon.net"},"type":"Feature","geometry":{"type":"Point","coordinates":[-117.964642,33.998714]}},{"properties":{"city":"Hacienda Heights","zip":"91745","elder":"Ostby","geo_score":1.0,"last":"DE GRAAF","first":"Anne-Lize and (Paul)","phone":"626-333-5489","id":"a6bb6owng3xo","geo_precision":"range","address":"2947 Leopold Ave.","children":null,"state":"CA","email":"ajdegraaf@juno.com"},"type":"Feature","geometry":{"type":"Point","coordinates":[-117.964278,33.982726]}},{"properties":{"city":"Rancho Cucamonga","zip":"91730","elder":"Castillo","geo_score":0.571,"last":"DE LOACH","first":"Andrew","phone":"909-635-9007","id":"a6bb6ov7y7y6","geo_precision":"street","address":"11201 5th St. #J201","children":null,"state":"CA","email":"andrewrdeloach@gmail.com"},"type":"Feature","geometry":{"type":"Point","coordinates":[-117.587291,34.081109]}},{"properties":{"city":"Temple City","zip":"91780","elder":"Castillo","geo_score":0.916,"last":"ERICKSON","first":"Wayne and Nancy","phone":"626-444-7444","id":"a6bb6p9iu660","geo_precision":"range","address":"10503 Olive","children":null,"state":"CA","email":null},"type":"Feature","geometry":{"type":"Point","coordinates":[-118.041839,34.100315]}},{"properties":{"city":"Corona","zip":"91720","elder":"Pearson","geo_score":0.61,"last":"ESTRADA","first":"Joan","phone":"909-273-9787","id":"a6bb6ozawtdf","geo_precision":"street","address":"904 Primrose Ln","children":"Katrina Joseph","state":"CA","email":"tedeum563@cs.com"},"type":"Feature","geometry":{"type":"Point","coordinates":[-117.662682,34.155474]}},{"properties":{"city":"Chino","zip":"91710","elder":"Castillo","geo_score":0.919,"last":"FERRIS","first":"Chris and Bertha","phone":"909-590-0534","id":"a6bb6oy9qe0q","geo_precision":"range","address":"12353 Delphey Ave.","children":"Daniel Rebekah Samuel Susana","state":"CA","email":"cpferris@verizon.net"},"type":"Feature","geometry":{"type":"Point","coordinates":[-117.704652,34.028378]}},{"properties":{"city":"Rowland Heights","zip":"91748","elder":"Pollock","geo_score":0.923,"last":"GARDNER","first":"Jim and Lavina","phone":"626-965-0431","id":"a6bb6oybrvtw","geo_precision":"range","address":"18676 Bellorita St.","children":null,"state":"CA","email":null},"type":"Feature","geometry":{"type":"Point","coordinates":[-117.896904,33.978023]}},{"properties":{"city":"Buena Park","zip":"90620","elder":"Hassebrock","geo_score":0.427,"last":"GILBERT","first":"Richard","phone":"714-470-3656","id":"a6bb6oxzgfn0","geo_precision":"street","address":"9315 Via Vista Dr.","children":null,"state":"CA","email":"thegimper@roadrunner.com"},"type":"Feature","geometry":{"type":"Point","coordinates":[-117.926699,33.948457]}},{"properties":{"city":"Hacienda Heights","zip":"91745","elder":"Pollock","geo_score":1.0,"last":"GREENLEES","first":"Jerry and Judy","phone":"626-330-9349","id":"a6bb6ov6fxj3","geo_precision":"range","address":"2334 Jurado Avenue","children":"Tabitha Matthew","state":"CA","email":"jgreenlees@earthlink.net"},"type":"Feature","geometry":{"type":"Point","coordinates":[-117.978435,33.995784]}},{"properties":{"city":"Walnut","zip":"91789","elder":"Castillo","geo_score":0.602,"last":"HALLETT","first":"Tom and Diana","phone":"909-595-0915","id":"a6bb6otupnxr","geo_precision":"street","address":"873 N. White Horse Circle","children":null,"state":"CA","email":"nonadeedee@aol.com"},"type":"Feature","geometry":{"type":"Point","coordinates":[-117.868841,34.029607]}},{"properties":{"city":"Fullerton","zip":"92831","elder":"Pearson","geo_score":1.0,"last":"HASSEBROCK","first":"Richard and Lynn","phone":"714-446-0899","id":"a6bb6p59smrk","geo_precision":"range","address":"824 Maertin Ln","children":"Joshua Bryan Kevin","state":"CA","email":"hasserl@netzero.net"},"type":"Feature","geometry":{"type":"Point","coordinates":[-117.89742,33.877678]}},{"properties":{"city":"Diamond Bar","zip":"91765","elder":"Pearson","geo_score":1.0,"last":"HEIDEMAN","first":"Doug and Charlotte","phone":"909-861-6066","id":"a6bb6p9rkjh6","geo_precision":"range","address":"656 Blenfield Place","children":"Sarah Kimberly","state":"CA","email":"heideman@earthlink.net"},"type":"Feature","geometry":{"type":"Point","coordinates":[-117.789008,34.018072]}},{"properties":{"city":"Mission Viejo","zip":"92691","elder":"Castillo","geo_score":0.617,"last":"HOLDER","first":"Scott and Lai","phone":"949-855-8791","id":"a6bb6oz517uq","geo_precision":"street","address":"23151 Los Alisos #84","children":null,"state":"CA","email":"scott.and.lai@gmail.com"},"type":"Feature","geometry":{"type":"Point","coordinates":[-117.64922,33.65212]}},{"properties":{"city":"La Mirada","zip":"90638","elder":"Hassebrock","geo_score":0.976,"last":"HOLDERBAUM","first":"Rick and Geri","phone":"714-523-4379","id":"a6bb6otjbb0h","geo_precision":"range","address":"14722 San Esteban Dr.","children":null,"state":"CA","email":"svdbyxp@earthlink.net"},"type":"Feature","geometry":{"type":"Point","coordinates":[-118.018538,33.897376]}},{"properties":{"city":"Pasadena","zip":"91107","elder":"Ostby","geo_score":0.87,"last":"HOUBEIN","first":"Pierre and (Beverly)","phone":"626-398-3705","id":"a6bb6p6ek776","geo_precision":"range","address":"990 Del Rey","children":"Nathan","state":"CA","email":null},"type":"Feature","geometry":{"type":"Point","coordinates":[-118.097226,34.163872]}},{"properties":{"city":"Hacienda Heights","zip":"91745","elder":"Lindquist","geo_score":1.0,"last":"HOUSE","first":"Charles and Martha","phone":"626-336-4100","id":"a6bb6oy5yaop","geo_precision":"range","address":"1534 Deerhaven Drive","children":null,"state":"CA","email":"cmassoc2@compuserve.com"},"type":"Feature","geometry":{"type":"Point","coordinates":[-117.976456,34.006307]}},{"properties":{"city":"Hacienda Heights","zip":"91745","elder":"Ostby","geo_score":1.0,"last":"HUDSON","first":"Margie","phone":"626-336-8387","id":"a6bb6otzcec3","geo_precision":"range","address":"14821 Rockhill Dr.","children":null,"state":"CA","email":null},"type":"Feature","geometry":{"type":"Point","coordinates":[-117.993427,34.003531]}},{"properties":{"city":"San Dimas","zip":"91773","elder":"Castillo","geo_score":1.0,"last":"JADRICH","first":"Rich and Debbie","phone":"909-599-4285","id":"a6bb6otg5kiv","geo_precision":"range","address":"105 Calle Renata","children":null,"state":"CA","email":"tygerlyly50@hotmail.com"},"type":"Feature","geometry":{"type":"Point","coordinates":[-117.817965,34.066161]}},{"properties":{"city":"La Mirada","zip":"90638","elder":"Pollock","geo_score":0.576,"last":"KAPKO","first":"Mike","phone":"562-941-0168","id":"a6bb6outrpgx","geo_precision":"street","address":"13001 La Mirada Bl. #239","children":null,"state":"CA","email":"kapkosr@aol.com"},"type":"Feature","geometry":{"type":"Point","coordinates":[-117.990208,33.899846]}},{"properties":{"city":"Hacienda Heights","zip":"91745","elder":"Pearson","geo_score":1.0,"last":"KLEINPELL","first":"Jim and Geri","phone":"562-698-8669","id":"a6bb6p8pjznt","geo_precision":"range","address":"4235 Miramar Dr.","children":null,"state":"CA","email":"jkleinpell@aol.com"},"type":"Feature","geometry":{"type":"Point","coordinates":[-117.986118,33.975722]}},{"properties":{"city":"Hacienda Heights","zip":"91745","elder":"Pollock","geo_score":1.0,"last":"KUHLMAN","first":"Ruth and (Ted)","phone":"626-330-9611","id":"a6bb6p002fmz","geo_precision":"range","address":"2806 Montellano Ave.","children":null,"state":"CA","email":null},"type":"Feature","geometry":{"type":"Point","coordinates":[-117.985598,33.9901]}},{"properties":{"city":"Riverside","zip":"92509","elder":"Rose","geo_score":0.922,"last":"LEE","first":"Robin and Joanne","phone":"951-681-9948","id":"a6bb6p1b5yjq","geo_precision":"range","address":"8268 Bridle Path Cir.","children":"Fiona Davis","state":"CA","email":null},"type":"Feature","geometry":{"type":"Point","coordinates":[-117.465378,33.99669]}},{"properties":{"city":"Hacienda Heights","zip":"91745","elder":"Bendlin","geo_score":1.0,"last":"LEWIS","first":"Janice","phone":"626-968-1064","id":"a6bb6p9h5rpi","geo_precision":"range","address":"3269 Thaxton Ave.","children":null,"state":"CA","email":null},"type":"Feature","geometry":{"type":"Point","coordinates":[-117.968774,33.978698]}},{"properties":{"city":"Hacienda Heights","zip":"91745","elder":"Lindquist","geo_score":0.454,"last":"LI","first":"Jason and Jane","phone":"626-333-5900","id":"a6bb6ovb4es0","geo_precision":"street","address":"2743 Sarandi Grande Dr.","children":"Justus","state":"CA","email":"jasonli.htlc@verizon.net"},"type":"Feature","geometry":{"type":"Point","coordinates":[-117.872397,34.075508]}},{"properties":{"city":"Santa Ana","zip":"92705","elder":"Hassebrock","geo_score":0.928,"last":"LINDQUIST","first":"Bob and Joyce","phone":"714-633-8849","id":"a6bb6p73yrvc","geo_precision":"range","address":"13072 Eton Place","children":null,"state":"CA","email":null},"type":"Feature","geometry":{"type":"Point","coordinates":[-117.809731,33.772417]}},{"properties":{"city":"Newhall","zip":"91321","elder":"Ostby","geo_score":0.735,"last":"LOUIS","first":"Yolanda","phone":"661-645-1284","id":"a6bb6oylil4b","geo_precision":"street","address":"24421 Flaxwood Ln #201","children":"David Davetta","state":"CA","email":null},"type":"Feature","geometry":{"type":"Point","coordinates":[-118.509807,34.378132]}},{"properties":{"city":"Hacienda Heights","zip":"91745","elder":"Hassebrock","geo_score":1.0,"last":"LUCHT","first":"Darleen","phone":"626-333-4765","id":"a6bb6ovshx91","geo_precision":"range","address":"3250 Pozo Drive","children":null,"state":"CA","email":"dlucht4@aol.com"},"type":"Feature","geometry":{"type":"Point","coordinates":[-117.953516,33.975143]}},{"properties":{"city":"Hacienda Heights","zip":"91745","elder":"Pollock","geo_score":0.427,"last":"MACINTOSH","first":"Peggy and (Don)","phone":"626-330-0714","id":"a6bb6p3tzu8n","geo_precision":"street","address":"15870 La Monde","children":null,"state":"CA","email":"macparents@aol.com"},"type":"Feature","geometry":{"type":"Point","coordinates":[-117.823875,34.079212]}},{"properties":{"city":"Alta Loma","zip":"91701","elder":"Hassebrock","geo_score":1.0,"last":"MACLAIN","first":"Danielle","phone":null,"id":"a6bb6p426yon","geo_precision":"range","address":"6438 Zircon Ave.","children":null,"state":"CA","email":null},"type":"Feature","geometry":{"type":"Point","coordinates":[-117.609978,34.137386]}},{"properties":{"city":"Hacienda Heights","zip":"91745","elder":"Pearson","geo_score":1.0,"last":"MAINE,","first":"Kristina and (Alan)","phone":"626-968-8350","id":"a6bb6p8k74e9","geo_precision":"range","address":"14514 Eadbrook Dr.","children":"Tyler Logan Zachary","state":"CA","email":null},"type":"Feature","geometry":{"type":"Point","coordinates":[-117.997353,34.008088]}},{"properties":{"city":"Garden Grove","zip":"92843","elder":"Pearson","geo_score":1.0,"last":"MCLANE","first":"Jolie","phone":"714-530-3324","id":"a6bb6owaofae","geo_precision":"range","address":"13751 Bowen St.","children":null,"state":"CA","email":null},"type":"Feature","geometry":{"type":"Point","coordinates":[-117.949425,33.763089]}},{"properties":{"city":"Sunland","zip":"91040","elder":"Castillo","geo_score":1.0,"last":"MONRO","first":"Andy and (Leslie)","phone":"818-951-6910","id":"a6bb6owk3nrj","geo_precision":"range","address":"10325 Nassau Ave.","children":null,"state":"CA","email":"amonro@ca.rr.com"},"type":"Feature","geometry":{"type":"Point","coordinates":[-118.310484,34.257036]}},{"properties":{"city":"Los Angeles","zip":"90066","elder":"Castillo","geo_score":0.912,"last":"MORSCH","first":"Steven","phone":"310-391-9951","id":"a6bb6ovjglps","geo_precision":"range","address":"11914 Atlantic Ave.","children":null,"state":"CA","email":"stevenmorsch@earthlink.net"},"type":"Feature","geometry":{"type":"Point","coordinates":[-118.420477,33.998584]}},{"properties":{"city":"Alhambra","zip":"91801","elder":"Pearson","geo_score":1.0,"last":"OSTBY","first":"Gary","phone":"626-457-9110","id":"a6bb6p9wxsq8","geo_precision":"range","address":"2415 Birch Street","children":"Jason Matthew","state":"CA","email":"gary.ozby91801@yahoo.com"},"type":"Feature","geometry":{"type":"Point","coordinates":[-118.149439,34.097509]}},{"properties":{"city":"Hacienda Heights","zip":"91745","elder":"Lindquist","geo_score":0.463,"last":"OSTBY","first":"Marilyn","phone":"626-961-6178","id":"a6bb6p8oj7l4","geo_precision":"street","address":"15723-4 La Subida Drive","children":null,"state":"CA","email":null},"type":"Feature","geometry":{"type":"Point","coordinates":[-117.906347,33.974793]}},{"properties":{"city":"La Puente","zip":"91744","elder":"Pollock","geo_score":0.521,"last":"PARENT","first":"Cheryl","phone":"626-336-6528","id":"a6bb6oxnj4nt","geo_precision":"street","address":"219 N. Stimson Ave.","children":null,"state":"CA","email":null},"type":"Feature","geometry":{"type":"Point","coordinates":[-117.949041,34.020103]}},{"properties":{"city":"Placentia","zip":"92870","elder":"Hassebrock","geo_score":0.732,"last":"PAUGE","first":"Warren and Agnes","phone":"714-996-1832","id":"a6bb6p0g6eu4","geo_precision":"range","address":"1112 N. Bradford Ave. #114","children":null,"state":"CA","email":null},"type":"Feature","geometry":{"type":"Point","coordinates":[-117.870375,33.872381]}},{"properties":{"city":"Orange","zip":"92869","elder":"Ostby","geo_score":0.976,"last":"PEARSON","first":"Chuck and Jani","phone":"714-997-7048","id":"a6bb6oylrxvd","geo_precision":"range","address":"366 Brook Glen Ln.","children":"Amelia Audrey","state":"CA","email":"chuck.pearson3@yahoo.com"},"type":"Feature","geometry":{"type":"Point","coordinates":[-117.769918,33.792994]}},{"properties":{"city":"Whittier","zip":"90604","elder":"Hassebrock","geo_score":0.683,"last":"PERI","first":"Bob and Ronda","phone":"562-943-7497","id":"a6bb6p9lihz4","geo_precision":"zip","address":"15903 Richdale Dr.","children":null,"state":"CA","email":null},"type":"Feature","geometry":{"type":"Point","coordinates":[-118.009085,33.932663]}},{"properties":{"city":"La Habra","zip":"90631","elder":"Hassebrock","geo_score":0.951,"last":"PERI","first":"Carol","phone":"562-697-6062","id":"a6bb6p71fvya","geo_precision":"range","address":"2100 Lakeview Dr.","children":null,"state":"CA","email":null},"type":"Feature","geometry":{"type":"Point","coordinates":[-117.922818,33.928007]}},{"properties":{"city":"Hacienda Heights","zip":"91745","elder":"Pearson","geo_score":1.0,"last":"POLLOCK","first":"Ray and Dorothy","phone":"626-968-7748","id":"a6bb6oye8njg","geo_precision":"range","address":"3362 Budleigh Drive","children":null,"state":"CA","email":"dorothypollock@roadrunner.com"},"type":"Feature","geometry":{"type":"Point","coordinates":[-117.965974,33.978228]}},{"properties":{"city":"Hacienda Heights","zip":"91745","elder":"Castillo","geo_score":1.0,"last":"POPENEY","first":"Elaine","phone":"626-336-8205","id":"a6bb6owkbxr1","geo_precision":"range","address":"1320 Riderwood Ave.","children":null,"state":"CA","email":"goeep@sbcglobal.net"},"type":"Feature","geometry":{"type":"Point","coordinates":[-117.984534,34.013979]}},{"properties":{"city":"Santa Ana","zip":"92705","elder":"Lindquist","geo_score":0.506,"last":"PRENTICE","first":"William","phone":"714-543-4956","id":"a6bb6p0j75x0","geo_precision":"street","address":"2308 E. Buffalo","children":null,"state":"CA","email":"prentice.will@gmail.com"},"type":"Feature","geometry":{"type":"Point","coordinates":[-117.855379,33.766712]}},{"properties":{"city":"Upland","zip":"91784","elder":"Pearson","geo_score":1.0,"last":"ROSE","first":"Charles and Christine","phone":"909-982-2432","id":"a6bb6oubhz69","geo_precision":"range","address":"2522 Wildrose Lane","children":"Alexis","state":"CA","email":null},"type":"Feature","geometry":{"type":"Point","coordinates":[-117.664591,34.155842]}},{"properties":{"city":"La Puente","zip":"91744","elder":"Hassebrock","geo_score":0.939,"last":"RUIZ","first":"Melchor and Elizabeth","phone":"626-590-3965","id":"a6bb6p1r3kip","geo_precision":"range","address":"512 Chatterton Ave.","children":"Lauren Denise Melchor Brianna","state":"CA","email":null},"type":"Feature","geometry":{"type":"Point","coordinates":[-117.932345,34.013508]}},{"properties":{"city":"Diamond Bar","zip":"91765","elder":"Pearson","geo_score":1.0,"last":"RUMPH,","first":"Claude","phone":"909-861-6066","id":"a6bb6p6djd28","geo_precision":"range","address":"656 Blenfield Place","children":null,"state":"CA","email":"clauderumph@aol.com"},"type":"Feature","geometry":{"type":"Point","coordinates":[-117.789008,34.018072]}},{"properties":{"city":"Hacienda Heights","zip":"91745","elder":"Pollock","geo_score":0.927,"last":"SANCHEZ","first":"Heidi and (George)","phone":"626-968-4124","id":"a6bb6p795ehs","geo_precision":"range","address":"2972 Garona","children":"Jennifer Amanda Rick Stephen","state":"CA","email":null},"type":"Feature","geometry":{"type":"Point","coordinates":[-117.952806,33.977871]}},{"properties":{"city":"Rowland Heights","zip":"91748","elder":"Hassebrock","geo_score":0.729,"last":"SANTAR","first":"Jean","phone":"626-964-1632","id":"a6bb6ouahx4v","geo_precision":"street","address":"1345 Jellick Ave.","children":null,"state":"CA","email":null},"type":"Feature","geometry":{"type":"Point","coordinates":[-117.90113,33.98872]}},{"properties":{"city":"Hacienda Heights","zip":"91745","elder":"Pearson","geo_score":0.607,"last":"SAUER","first":"Marcella and (Ed)","phone":"626-333-9108","id":"a6bb6p1p76ov","geo_precision":"street","address":"15378 E. Manzanita","children":null,"state":"CA","email":null},"type":"Feature","geometry":{"type":"Point","coordinates":[-117.978662,34.003153]}},{"properties":{"city":"Anaheim Hills","zip":"92807","elder":"Castillo","geo_score":0.619,"last":"SCHLEICHER","first":"Robert","phone":"714-342-3455","id":"a6bb6owhqfw2","geo_precision":"street","address":"6693 E. Paseo Fiesta","children":null,"state":"CA","email":null},"type":"Feature","geometry":{"type":"Point","coordinates":[-117.763536,33.849308]}},{"properties":{"city":"Hacienda Heights","zip":"91745","elder":"Castillo","geo_score":1.0,"last":"SEELEY,","first":"Theo and (Natalia)","phone":"626-369-0595","id":"a6bb6p9hpd1b","geo_precision":"range","address":"2517 Glenstone Ave.","children":"Daniel Alexandra","state":"CA","email":null},"type":"Feature","geometry":{"type":"Point","coordinates":[-117.975509,33.992853]}},{"properties":{"city":"Glendora","zip":"91741","elder":"Hassebrock","geo_score":0.958,"last":"SIMPSON","first":"Andrew and Lisa","phone":"626-963-7508","id":"a6bb6p6elg4c","geo_precision":"range","address":"717 Bubbling Well Road","children":"Kristin Chase Colin","state":"CA","email":"dynaandrew@yahoo.com"},"type":"Feature","geometry":{"type":"Point","coordinates":[-117.869212,34.147218]}},{"properties":{"city":"Hacienda Heights","zip":"91745","elder":"Castillo","geo_score":0.916,"last":"TEWES","first":"Rick and Marilyn","phone":"626-968-6775","id":"a6bb6ovprdid","geo_precision":"range","address":"2841 Punte Del Este Drive","children":null,"state":"CA","email":null},"type":"Feature","geometry":{"type":"Point","coordinates":[-117.955064,33.981125]}},{"properties":{"city":"Hacienda Heights","zip":"91745","elder":"Castillo","geo_score":1.0,"last":"WAITE","first":"Charlotte and (Robert)","phone":"626-333-4117","id":"a6bb6owagfp1","geo_precision":"range","address":"14435 Autumn Moon Dr.","children":null,"state":"CA","email":null},"type":"Feature","geometry":{"type":"Point","coordinates":[-117.995801,34.013792]}},{"properties":{"city":"La Habra","zip":"90631","elder":"Pearson","geo_score":0.951,"last":"WELLS","first":"Kimberlee","phone":"562-330-1322","id":"a6bb6p6ulynv","geo_precision":"range","address":"731 Ridgehaven Dr.","children":null,"state":"CA","email":"kimberlee.wells@yahoo.com"},"type":"Feature","geometry":{"type":"Point","coordinates":[-117.974947,33.924468]}},{"properties":{"city":"Orange","zip":"92866","elder":"Hassebrock","geo_score":0.625,"last":"WHITE","first":"Derek and Annie","phone":"949-939-8171","id":"a6bb6p2r1ubl","geo_precision":"street","address":"152 N. Olive St. #F","children":null,"state":"CA","email":null},"type":"Feature","geometry":{"type":"Point","coordinates":[-117.854173,33.789688]}},{"properties":{"city":"Hacienda Heights","zip":"91745","elder":"Bendlin","geo_score":1.0,"last":"WILEY","first":"Patti","phone":"626-333-9969","id":"a6bb6ouv8niu","geo_precision":"range","address":"915 Galemont Ave.","children":null,"state":"CA","email":null},"type":"Feature","geometry":{"type":"Point","coordinates":[-117.963943,34.013112]}},{"properties":{"city":"Fountain Valley","zip":"92708","elder":"Ostby","geo_score":1.0,"last":"WITKAMP","first":"Ted and Hong","phone":"626-372-0931","id":"a6bb6p0bi4rq","geo_precision":"range","address":"16630 Terrel St.","children":null,"state":"CA","email":"twitkamp@yahoo.com"},"type":"Feature","geometry":{"type":"Point","coordinates":[-117.924174,33.722303]}},{"properties":{"city":"Alhambra","zip":"91803","elder":"Lindquist","geo_score":0.602,"last":"ZHOU","first":"Amy","phone":"626-308-1657","id":"a6bb6oxir7s1","geo_precision":"street","address":"915 S. Marguerita Ave. #H","children":null,"state":"CA","email":null},"type":"Feature","geometry":{"type":"Point","coordinates":[-118.138235,34.08315]}}],"is_temporal":false,"author":{"url":"","metadata":"","contact_name":"","contact_address":"","source":"","contact_phone":""},"source":"","pagination":{"sort":null,"start":0,"total":71,"limit":1000000},"state":"complete","tags":"","published":"2014-08-10T11:46:36-04:00","id":90549}