{"type":"FeatureCollection","data_type":"Dataset","url_type":null,"permissions":[{"permissions":{"download":true,"view":true},"group_id":"everyone"}],"classification":null,"title":"publiclibraries.com, Minnesota Public Libraries, Minnesota, 1.2008","count":357,"stream_id":907,"contributor":{"url":"http://geocommons.com/users/2","name":"data"},"data_attributes":null,"calculation_params":null,"icon_link":null,"link":"http://geocommons.com/overlays/907.json","extent":[-97.025,43.5046,-90.3359,48.9057],"geometry_types":["point"],"unique_name":null,"name":"publiclibraries.com, Minnesota Public Libraries, Minnesota, 1.2008","feature_count":357,"description":"This dataset displays the locations of all the public libraries in the state of Minnesota. The data included is the name of the library, name of the library system, library's address, phone, and lat/lon coordinates. The data came from publiclibraries.com which is a updated directory of all the public libraries throughout the United States.\n","next_feature":null,"is_raster":false,"short_classification":"Y","stats":{"lon":{"max":-90.335874,"mean":-93.9860074397759,"variance":1.64191712220858,"stdev":1.28137313933474,"min":-97.024957,"median":-93.66629},"lat":{"max":48.905731,"mean":45.2415691260504,"variance":1.46954009947883,"stdev":1.21224589068341,"min":43.504612,"median":44.971698}},"features":[{"properties":{"city":"Ada","lon":-96.513055,"zip":"","librarysystem":"Lake Agassiz Regional Library","id":"a6334d9ynlkj","address":"107 4th Avenue E","lat":47.300254,"libraryname":"Ada Public Library","state":"MN"},"type":"Feature","geometry":{"type":"Point","coordinates":[-96.513055,47.300254]}},{"properties":{"city":"Adrian","lon":-95.932951,"zip":"","librarysystem":"Plum Creek Library System","id":"a6334dcovh3z","address":"214 Maine Avenue","lat":43.634821,"libraryname":"Adrian Branch Library","state":"MN"},"type":"Feature","geometry":{"type":"Point","coordinates":[-95.932951,43.634821]}},{"properties":{"city":"Aitkin","lon":-93.704944,"zip":"","librarysystem":"East Central Regional Library","id":"a6334d3nwxkz","address":"110 1st Avenue NE","lat":46.532547,"libraryname":"Aitkin Public Library","state":"MN"},"type":"Feature","geometry":{"type":"Point","coordinates":[-93.704944,46.532547]}},{"properties":{"city":"Albany","lon":-94.568515,"zip":"","librarysystem":"Great River Regional Library","id":"a6334d8jcsso","address":"400 Railroad Avenue","lat":45.629796,"libraryname":"Albany Branch Library","state":"MN"},"type":"Feature","geometry":{"type":"Point","coordinates":[-94.568515,45.629796]}},{"properties":{"city":"Albert Lea","lon":-93.367057,"zip":"","librarysystem":"Albert Lea Public Library","id":"a6334d4fpwo5","address":"211 E Clark Street","lat":43.649908,"libraryname":"Albert Lea Public Library","state":"MN"},"type":"Feature","geometry":{"type":"Point","coordinates":[-93.367057,43.649908]}},{"properties":{"city":"Annandale","lon":-94.123486,"zip":"","librarysystem":"Great River Regional Library","id":"a6334dfavp8b","address":"30 Cedar Street East","lat":45.263569,"libraryname":"Annandale Branch Library","state":"MN"},"type":"Feature","geometry":{"type":"Point","coordinates":[-94.123486,45.263569]}},{"properties":{"city":"Appleton","lon":-96.021516,"zip":"","librarysystem":"Pioneerland Library System","id":"a6334d08s75o","address":"323 W Schlieman Avenue","lat":45.200131,"libraryname":"Appleton Public Library","state":"MN"},"type":"Feature","geometry":{"type":"Point","coordinates":[-96.021516,45.200131]}},{"properties":{"city":"Arden Hills","lon":-96.364199,"zip":"","librarysystem":"Ramsey County Library","id":"a6334d4t2nga","address":"1941 W County Rd E-2","lat":43.52793,"libraryname":"Arden Hills Library","state":"MN"},"type":"Feature","geometry":{"type":"Point","coordinates":[-96.364199,43.52793]}},{"properties":{"city":"Saint Paul","lon":-93.071205,"zip":"","librarysystem":"Saint Paul Public Library","id":"a6334d7k23e1","address":"1105 Greenbrier Street","lat":44.974546,"libraryname":"Arlington Hills Branch Library","state":"MN"},"type":"Feature","geometry":{"type":"Point","coordinates":[-93.071205,44.974546]}},{"properties":{"city":"Arlington","lon":-94.080673,"zip":"","librarysystem":"Sibley County Library System","id":"a6334d5d6y4v","address":"321 West Main Street","lat":44.607337,"libraryname":"Arlington Public Library","state":"MN"},"type":"Feature","geometry":{"type":"Point","coordinates":[-94.080673,44.607337]}},{"properties":{"city":"Atwater","lon":-94.781233,"zip":"","librarysystem":"Pioneerland Library System","id":"a6334dc9wfiy","address":"318 Atlantic Avenue West","lat":45.137209,"libraryname":"Atwater Public Library","state":"MN"},"type":"Feature","geometry":{"type":"Point","coordinates":[-94.781233,45.137209]}},{"properties":{"city":"Richfield","lon":-93.278381,"zip":"","librarysystem":"Hennepin County Public Library","id":"a6334d51n11f","address":"7100 Nicollet Avenue","lat":44.874307,"libraryname":"Augsburg Park Library","state":"MN"},"type":"Feature","geometry":{"type":"Point","coordinates":[-93.278381,44.874307]}},{"properties":{"city":"Aurora","lon":-92.237317,"zip":"","librarysystem":"Aurora Public Library","id":"a6334d7gr1l8","address":"14 West Second Avenue","lat":47.529074,"libraryname":"Aurora Public Library","state":"MN"},"type":"Feature","geometry":{"type":"Point","coordinates":[-92.237317,47.529074]}},{"properties":{"city":"Austin","lon":-92.971807,"zip":"","librarysystem":"Austin Public Library","id":"a6334df5wiwm","address":"323 Fourth Avenue NE","lat":43.670126,"libraryname":"Austin Public Library","state":"MN"},"type":"Feature","geometry":{"type":"Point","coordinates":[-92.971807,43.670126]}},{"properties":{"city":"Babbitt","lon":-91.943156,"zip":"","librarysystem":"Babbitt Public Library","id":"a6334ddg7zav","address":"71 South Drive","lat":47.708083,"libraryname":"Babbitt Public Library","state":"MN"},"type":"Feature","geometry":{"type":"Point","coordinates":[-91.943156,47.708083]}},{"properties":{"city":"Bagley","lon":-95.398519,"zip":"","librarysystem":"Lake Agassiz Regional Library","id":"a6334dg5txl6","address":"21 Main Avenue N","lat":47.52182,"libraryname":"Bagley Public Library","state":"MN"},"type":"Feature","geometry":{"type":"Point","coordinates":[-95.398519,47.52182]}},{"properties":{"city":"Balaton","lon":-95.871855,"zip":"","librarysystem":"Marshall-Lyon County Library","id":"a6334d78h308","address":"134 3rd Street","lat":44.233899,"libraryname":"Balaton Community Library","state":"MN"},"type":"Feature","geometry":{"type":"Point","coordinates":[-95.871855,44.233899]}},{"properties":{"city":"Barnesville","lon":-96.419896,"zip":"","librarysystem":"Lake Agassiz Regional Library","id":"a6334d6k1gkn","address":"104 N. Front Street","lat":46.653506,"libraryname":"Barnesville Public Library","state":"MN"},"type":"Feature","geometry":{"type":"Point","coordinates":[-96.419896,46.653506]}},{"properties":{"city":"Baudette","lon":-94.601504,"zip":"","librarysystem":"Baudette Public Library","id":"a6334d560y55","address":"110 1st Avenue SW","lat":48.7123,"libraryname":"Baudette Public Library","state":"MN"},"type":"Feature","geometry":{"type":"Point","coordinates":[-94.601504,48.7123]}},{"properties":{"city":"Bayport","lon":-92.78123,"zip":"","librarysystem":"Bayport Public Library","id":"a6334ddrtz53","address":"582 N 4th Street","lat":45.02121,"libraryname":"Bayport Public Library","state":"MN"},"type":"Feature","geometry":{"type":"Point","coordinates":[-92.78123,45.02121]}},{"properties":{"city":"Becker","lon":-93.871059,"zip":"","librarysystem":"Great River Regional Library","id":"a6334d0x7fsh","address":"1150 Sherburne Avenue","lat":45.41963,"libraryname":"Becker Branch Library","state":"MN"},"type":"Feature","geometry":{"type":"Point","coordinates":[-93.871059,45.41963]}},{"properties":{"city":"Belle Plaine","lon":-93.768732,"zip":"","librarysystem":"Scott County Library System","id":"a6334d9qmf1s","address":"125 W Main","lat":44.622864,"libraryname":"Belle Plaine Branch Library","state":"MN"},"type":"Feature","geometry":{"type":"Point","coordinates":[-93.768732,44.622864]}},{"properties":{"city":"Bemidji","lon":-94.884455,"zip":"","librarysystem":"Kitchigami Regional Library System","id":"a6334d2mmgyz","address":"509 America Avenue","lat":47.471834,"libraryname":"Bemidji Public Library","state":"MN"},"type":"Feature","geometry":{"type":"Point","coordinates":[-94.884455,47.471834]}},{"properties":{"city":"Benson","lon":-95.599746,"zip":"","librarysystem":"Pioneerland Library System","id":"a6334d9pfgfu","address":"200 13th Street North","lat":45.315358,"libraryname":"Benson Public Library","state":"MN"},"type":"Feature","geometry":{"type":"Point","coordinates":[-95.599746,45.315358]}},{"properties":{"city":"Big Lake","lon":-93.745756,"zip":"","librarysystem":"Great River Regional Library","id":"a6334d3as3ga","address":"160 Lake Street North","lat":45.333307,"libraryname":"Big Lake Branch Library","state":"MN"},"type":"Feature","geometry":{"type":"Point","coordinates":[-93.745756,45.333307]}},{"properties":{"city":"Bird Island","lon":-94.895154,"zip":"","librarysystem":"Pioneerland Library System","id":"a6334d2gq69w","address":"260 S. Main","lat":44.765828,"libraryname":"Bird Island Public Library","state":"MN"},"type":"Feature","geometry":{"type":"Point","coordinates":[-94.895154,44.765828]}},{"properties":{"city":"Blackduck","lon":-94.546809,"zip":"","librarysystem":"Kitchigami Regional Library System","id":"a6334dcknayf","address":"1st Street East","lat":47.733501,"libraryname":"Blackduck Public Library","state":"MN"},"type":"Feature","geometry":{"type":"Point","coordinates":[-94.546809,47.733501]}},{"properties":{"city":"Blooming Prairie","lon":-93.049317,"zip":"","librarysystem":"Owatonna-Steele County Library","id":"a6334d5v7d66","address":"138 Highway Ave South","lat":43.866159,"libraryname":"Blooming Prairie Public Library","state":"MN"},"type":"Feature","geometry":{"type":"Point","coordinates":[-93.049317,43.866159]}},{"properties":{"city":"Blue Earth","lon":-94.102815,"zip":"","librarysystem":"Blue Earth Community Library","id":"a6334d2chf96","address":"124 West 7th Street","lat":43.637716,"libraryname":"Blue Earth Community Library","state":"MN"},"type":"Feature","geometry":{"type":"Point","coordinates":[-94.102815,43.637716]}},{"properties":{"city":"Mankato","lon":-94.003025,"zip":"","librarysystem":"Blue Earth County Library","id":"a6334d0q9yab","address":"100 East Main Street","lat":44.167831,"libraryname":"Blue Earth County Library","state":"MN"},"type":"Feature","geometry":{"type":"Point","coordinates":[-94.003025,44.167831]}},{"properties":{"city":"Bovey","lon":-93.416288,"zip":"","librarysystem":"Bovey Public Library","id":"a6334dcqska3","address":"402 2nd Street","lat":47.295424,"libraryname":"Bovey Public Library","state":"MN"},"type":"Feature","geometry":{"type":"Point","coordinates":[-93.416288,47.295424]}},{"properties":{"city":"Brainerd","lon":-94.202382,"zip":"","librarysystem":"Kitchigami Regional Library System","id":"a6334d84jd1m","address":"416 S 5th Street","lat":46.354464,"libraryname":"Brainerd Public Library","state":"MN"},"type":"Feature","geometry":{"type":"Point","coordinates":[-94.202382,46.354464]}},{"properties":{"city":"Breckenridge","lon":-96.585306,"zip":"","librarysystem":"Lake Agassiz Regional Library","id":"a6334d4x2xkj","address":"205 7th Street N","lat":46.264738,"libraryname":"Breckenridge Public Library","state":"MN"},"type":"Feature","geometry":{"type":"Point","coordinates":[-96.585306,46.264738]}},{"properties":{"city":"Brooklyn Center","lon":-93.309494,"zip":"","librarysystem":"Hennepin County Public Library","id":"a6334d3j6wke","address":"6125 Shingle Creek Pkwy","lat":45.065737,"libraryname":"Brookdale-Hennepin Area Library","state":"MN"},"type":"Feature","geometry":{"type":"Point","coordinates":[-93.309494,45.065737]}},{"properties":{"city":"Brooklyn Park","lon":-93.356292,"zip":"","librarysystem":"Hennepin County Public Library","id":"a6334ddmxwqa","address":"8600 Zane Avenue North","lat":45.110421,"libraryname":"Brooklyn Park Library","state":"MN"},"type":"Feature","geometry":{"type":"Point","coordinates":[-93.356292,45.110421]}},{"properties":{"city":"Browns Valley","lon":-96.832499,"zip":"","librarysystem":"Browns Valley Public Library","id":"a6334db1erus","address":"15 3rd Street S","lat":45.59377,"libraryname":"Browns Valley Public Library","state":"MN"},"type":"Feature","geometry":{"type":"Point","coordinates":[-96.832499,45.59377]}},{"properties":{"city":"Brownsdale","lon":-92.869174,"zip":"","librarysystem":"Brownsdale Public Library","id":"a6334dal6bqb","address":"103 E Main Street","lat":43.740966,"libraryname":"Brownsdale Public Library","state":"MN"},"type":"Feature","geometry":{"type":"Point","coordinates":[-92.869174,43.740966]}},{"properties":{"city":"Brownton","lon":-94.350375,"zip":"","librarysystem":"Pioneerland Library System","id":"a6334daqwn9f","address":"528 2nd Street N","lat":44.733211,"libraryname":"Brownton Public Library","state":"MN"},"type":"Feature","geometry":{"type":"Point","coordinates":[-94.350375,44.733211]}},{"properties":{"city":"Sauk Centre","lon":-94.95212,"zip":"","librarysystem":"Great River Regional Library","id":"a6334d7yf6ah","address":"403 Main Street","lat":45.745288,"libraryname":"Bryant Public Library","state":"MN"},"type":"Feature","geometry":{"type":"Point","coordinates":[-94.95212,45.745288]}},{"properties":{"city":"Faribault","lon":-93.268165,"zip":"","librarysystem":"Buckham Memorial Library","id":"a6334dam3w8x","address":"11 Division Street East","lat":44.290522,"libraryname":"Buckham Memorial Library","state":"MN"},"type":"Feature","geometry":{"type":"Point","coordinates":[-93.268165,44.290522]}},{"properties":{"city":"Buffalo","lon":-93.876582,"zip":"","librarysystem":"Great River Regional Library","id":"a6334d6jdptu","address":"18 NW Lake Blvd","lat":45.172955,"libraryname":"Buffalo Branch Library","state":"MN"},"type":"Feature","geometry":{"type":"Point","coordinates":[-93.876582,45.172955]}},{"properties":{"city":"Buhl","lon":-92.776623,"zip":"","librarysystem":"Buhl Public Library","id":"a6334czt7ylm","address":"400 Jones Avenue","lat":47.495634,"libraryname":"Buhl Public Library","state":"MN"},"type":"Feature","geometry":{"type":"Point","coordinates":[-92.776623,47.495634]}},{"properties":{"city":"Burnsville","lon":-93.295337,"zip":"","librarysystem":"Dakota County Library","id":"a6334d7shmvm","address":"1101 W County Road 42","lat":44.74628,"libraryname":"Burnhaven Community Library","state":"MN"},"type":"Feature","geometry":{"type":"Point","coordinates":[-93.295337,44.74628]}},{"properties":{"city":"Butterfield","lon":-94.794654,"zip":"","librarysystem":"Watonwan County Library","id":"a6334d9tz5sx","address":"111 2nd Street N","lat":43.957955,"libraryname":"Butterfield Branch Library","state":"MN"},"type":"Feature","geometry":{"type":"Point","coordinates":[-94.794654,43.957955]}},{"properties":{"city":"Caledonia","lon":-91.495439,"zip":"","librarysystem":"Caledonia Public Library","id":"a6334d1oxat4","address":"231 E Main Street","lat":43.634806,"libraryname":"Caledonia Public Library","state":"MN"},"type":"Feature","geometry":{"type":"Point","coordinates":[-91.495439,43.634806]}},{"properties":{"city":"Calumet","lon":-93.277069,"zip":"","librarysystem":"Calumet Public Library","id":"a6334d0yfo53","address":"Gary Street And Third Avenue","lat":47.32376,"libraryname":"Calumet Public Library","state":"MN"},"type":"Feature","geometry":{"type":"Point","coordinates":[-93.277069,47.32376]}},{"properties":{"city":"Cambridge","lon":-93.226493,"zip":"","librarysystem":"East Central Regional Library","id":"a6334da4nb58","address":"244 South Birch","lat":45.571154,"libraryname":"Cambridge Public Library","state":"MN"},"type":"Feature","geometry":{"type":"Point","coordinates":[-93.226493,45.571154]}},{"properties":{"city":"Canby","lon":-96.274921,"zip":"","librarysystem":"Pioneerland Library System","id":"a6334d6zp2p9","address":"110 Oscar Avenue N","lat":44.707885,"libraryname":"Canby Public Library","state":"MN"},"type":"Feature","geometry":{"type":"Point","coordinates":[-96.274921,44.707885]}},{"properties":{"city":"Cannon Falls","lon":-92.904502,"zip":"","librarysystem":"Cannon Falls Library","id":"a6334d2bpgrj","address":"306 W. Mill St.","lat":44.508052,"libraryname":"Cannon Falls Library","state":"MN"},"type":"Feature","geometry":{"type":"Point","coordinates":[-92.904502,44.508052]}},{"properties":{"city":"Carlton","lon":-92.42447,"zip":"","librarysystem":"Carlton Public Library","id":"a6334d8oogw2","address":"310 Chestnut Street","lat":46.66388,"libraryname":"Carlton Public Library","state":"MN"},"type":"Feature","geometry":{"type":"Point","coordinates":[-92.42447,46.66388]}},{"properties":{"city":"Cass Lake","lon":-94.606064,"zip":"","librarysystem":"Kitchigami Regional Library System","id":"a6334dasfcs5","address":"223 Cedar","lat":47.37975,"libraryname":"Cass Lake Community Library","state":"MN"},"type":"Feature","geometry":{"type":"Point","coordinates":[-94.606064,47.37975]}},{"properties":{"city":"Circle Pines","lon":-93.155386,"zip":"","librarysystem":"Anoka County Public Library","id":"a6334d8dp6ez","address":"100 Civic Heights Circle","lat":45.144148,"libraryname":"Centennial Branch Library","state":"MN"},"type":"Feature","geometry":{"type":"Point","coordinates":[-93.155386,45.144148]}},{"properties":{"city":"Fairmont","lon":-94.461022,"zip":"","librarysystem":"Martin County Library","id":"a6334df3ec1t","address":"110 North Park Street","lat":43.653228,"libraryname":"Central Library","state":"MN"},"type":"Feature","geometry":{"type":"Point","coordinates":[-94.461022,43.653228]}},{"properties":{"city":"Ceylon","lon":-94.631836,"zip":"","librarysystem":"Martin County Library","id":"a6334d5nggp5","address":"108 West Main Street","lat":43.533806,"libraryname":"Ceylon Branch Library","state":"MN"},"type":"Feature","geometry":{"type":"Point","coordinates":[-94.631836,43.533806]}},{"properties":{"city":"Champlin","lon":-93.395144,"zip":"","librarysystem":"Hennepin County Public Library","id":"a6334db90fq7","address":"12154 Ensign Avenue North","lat":45.174575,"libraryname":"Champlin Community Library","state":"MN"},"type":"Feature","geometry":{"type":"Point","coordinates":[-93.395144,45.174575]}},{"properties":{"city":"Chanhassen","lon":-93.541679,"zip":"","librarysystem":"Carver County Library System","id":"a6334ddszkz1","address":"7711 Kerber Blvd","lat":44.86676,"libraryname":"Chanhassen Public Library","state":"MN"},"type":"Feature","geometry":{"type":"Point","coordinates":[-93.541679,44.86676]}},{"properties":{"city":"Chaska","lon":-93.601325,"zip":"","librarysystem":"Carver County Library System","id":"a6334d9xcth1","address":"3 City Hall Plaza","lat":44.787394,"libraryname":"Chaska Public Library","state":"MN"},"type":"Feature","geometry":{"type":"Point","coordinates":[-93.601325,44.787394]}},{"properties":{"city":"Chatfield","lon":-92.17847,"zip":"","librarysystem":"Chatfield Public Library","id":"a6334dc5q6mc","address":"314 S Main Street","lat":43.838609,"libraryname":"Chatfield Public Library","state":"MN"},"type":"Feature","geometry":{"type":"Point","coordinates":[-92.17847,43.838609]}},{"properties":{"city":"Chisholm","lon":-92.884046,"zip":"","librarysystem":"Chisholm Public Library","id":"a6334d1yn1os","address":"300 W Lake Street","lat":47.489388,"libraryname":"Chisholm Public Library","state":"MN"},"type":"Feature","geometry":{"type":"Point","coordinates":[-92.884046,47.489388]}},{"properties":{"city":"Clara City","lon":-95.366601,"zip":"","librarysystem":"Pioneerland Library System","id":"a6334d5psr6a","address":"42 West Center Avenue","lat":44.956196,"libraryname":"Clara City Library","state":"MN"},"type":"Feature","geometry":{"type":"Point","coordinates":[-95.366601,44.956196]}},{"properties":{"city":"Clarkfield","lon":-95.801787,"zip":"","librarysystem":"Clarkfield Public Library","id":"a6334dfn0soc","address":"812 10th Avenue","lat":44.79089,"libraryname":"Clarkfield Public Library","state":"MN"},"type":"Feature","geometry":{"type":"Point","coordinates":[-95.801787,44.79089]}},{"properties":{"city":"Clearwater","lon":-94.050039,"zip":"","librarysystem":"Great River Regional Library","id":"a6334d8qmrse","address":"822 Clearwater Center","lat":45.415345,"libraryname":"Clearwater Public Library-Stickney Crossing","state":"MN"},"type":"Feature","geometry":{"type":"Point","coordinates":[-94.050039,45.415345]}},{"properties":{"city":"Cleveland","lon":-93.837414,"zip":"","librarysystem":"Waseca-Le Sueur Regional Library","id":"a6334dciomiz","address":"205 4th Street","lat":44.32531,"libraryname":"Cleveland Public Library","state":"MN"},"type":"Feature","geometry":{"type":"Point","coordinates":[-93.837414,44.32531]}},{"properties":{"city":"Climax","lon":-96.817509,"zip":"","librarysystem":"Lake Agassiz Regional Library","id":"a6334d9w68qy","address":"104 W. Broadway","lat":47.60778,"libraryname":"Climax Public Library","state":"MN"},"type":"Feature","geometry":{"type":"Point","coordinates":[-96.817509,47.60778]}},{"properties":{"city":"Cloquet","lon":-92.448914,"zip":"","librarysystem":"Cloquet Public Library","id":"a6334d7h03lu","address":"320 14th Street","lat":46.717418,"libraryname":"Cloquet Public Library","state":"MN"},"type":"Feature","geometry":{"type":"Point","coordinates":[-92.448914,46.717418]}},{"properties":{"city":"Cokato","lon":-94.191401,"zip":"","librarysystem":"Great River Regional Library","id":"a6334d85e45v","address":"175 4th Street West","lat":45.07537,"libraryname":"Cokato Branch Library","state":"MN"},"type":"Feature","geometry":{"type":"Point","coordinates":[-94.191401,45.07537]}},{"properties":{"city":"Cold Spring","lon":-94.429193,"zip":"","librarysystem":"Great River Regional Library","id":"a6334d3jpnrw","address":"27 Red River Road","lat":45.456168,"libraryname":"Cold Spring Branch Library","state":"MN"},"type":"Feature","geometry":{"type":"Point","coordinates":[-94.429193,45.456168]}},{"properties":{"city":"Coleraine","lon":-93.423453,"zip":"","librarysystem":"Coleraine Public Library","id":"a6334d1v5ztf","address":"203 Cole Avenue","lat":47.287026,"libraryname":"Coleraine Public Library","state":"MN"},"type":"Feature","geometry":{"type":"Point","coordinates":[-93.423453,47.287026]}},{"properties":{"city":"Columbia Heights","lon":-93.250296,"zip":"","librarysystem":"Columbia Heights Public Library","id":"a6334dfu6bhv","address":"820 40th Avenue NE","lat":45.04077,"libraryname":"Columbia Heights Public Library","state":"MN"},"type":"Feature","geometry":{"type":"Point","coordinates":[-93.250296,45.04077]}},{"properties":{"city":"Comfrey","lon":-94.907644,"zip":"","librarysystem":"Comfrey Community Library","id":"a6334dg29a1i","address":"306 Brown Street W","lat":44.109749,"libraryname":"Comfrey Community Library","state":"MN"},"type":"Feature","geometry":{"type":"Point","coordinates":[-94.907644,44.109749]}},{"properties":{"city":"Cook","lon":-92.688957,"zip":"","librarysystem":"Cook Public Library","id":"a6334d1ik1r1","address":"103 South River St.","lat":47.847334,"libraryname":"Cook Public Library","state":"MN"},"type":"Feature","geometry":{"type":"Point","coordinates":[-92.688957,47.847334]}},{"properties":{"city":"Cosmos","lon":-94.696619,"zip":"","librarysystem":"Pioneerland Library System","id":"a6334d8mir3k","address":"209 Milkyway Street S","lat":44.93199,"libraryname":"Cosmos Public Library","state":"MN"},"type":"Feature","geometry":{"type":"Point","coordinates":[-94.696619,44.93199]}},{"properties":{"city":"Cottonwood","lon":-95.673445,"zip":"","librarysystem":"Marshall-Lyon County Library","id":"a6334dcy4lz2","address":"86 West Main Street","lat":44.608964,"libraryname":"Cottonwood Community Library","state":"MN"},"type":"Feature","geometry":{"type":"Point","coordinates":[-95.673445,44.608964]}},{"properties":{"city":"Coon Rapids","lon":-93.338053,"zip":"","librarysystem":"Anoka County Public Library","id":"a6334d0ncjgi","address":"11440 Crooked Lake Blvd NW","lat":45.179026,"libraryname":"Crooked Lake Branch Library","state":"MN"},"type":"Feature","geometry":{"type":"Point","coordinates":[-93.338053,45.179026]}},{"properties":{"city":"Crookston","lon":-96.605093,"zip":"","librarysystem":"Lake Agassiz Regional Library","id":"a6334ddaoej3","address":"110 N Ash","lat":47.773547,"libraryname":"Crookston Public Library","state":"MN"},"type":"Feature","geometry":{"type":"Point","coordinates":[-96.605093,47.773547]}},{"properties":{"city":"Darfur","lon":-94.838137,"zip":"","librarysystem":"Watonwan County Library","id":"a6334d0brnlz","address":"205 Adrian St.","lat":44.051696,"libraryname":"Darfur Branch Library","state":"MN"},"type":"Feature","geometry":{"type":"Point","coordinates":[-94.838137,44.051696]}},{"properties":{"city":"Dassel","lon":-94.309574,"zip":"","librarysystem":"Pioneerland Library System","id":"a6334d0jo0b1","address":"460 Third St. N","lat":45.081759,"libraryname":"Dassel Public Library","state":"MN"},"type":"Feature","geometry":{"type":"Point","coordinates":[-94.309574,45.081759]}},{"properties":{"city":"Dawson","lon":-96.055713,"zip":"","librarysystem":"Pioneerland Library System","id":"a6334dag2qxa","address":"676 Pine Street","lat":44.929059,"libraryname":"Dawson Public Library","state":"MN"},"type":"Feature","geometry":{"type":"Point","coordinates":[-96.055713,44.929059]}},{"properties":{"city":"Delano","lon":-93.788693,"zip":"","librarysystem":"Great River Regional Library","id":"a6334ddo4c5e","address":"140 Bridge Avenue East","lat":45.042076,"libraryname":"Delano Branch Library","state":"MN"},"type":"Feature","geometry":{"type":"Point","coordinates":[-93.788693,45.042076]}},{"properties":{"city":"Detroit Lakes","lon":-95.845557,"zip":"","librarysystem":"Lake Agassiz Regional Library","id":"a6334d4m95sr","address":"1000 Washington Avenue","lat":46.815731,"libraryname":"Detroit Lakes Public Library","state":"MN"},"type":"Feature","geometry":{"type":"Point","coordinates":[-95.845557,46.815731]}},{"properties":{"city":"Dodge Center","lon":-92.85647,"zip":"","librarysystem":"Dodge Center Public Library","id":"a6334dfzlbyw","address":"13 1st Avenue NW","lat":44.028296,"libraryname":"Dodge Center Public Library","state":"MN"},"type":"Feature","geometry":{"type":"Point","coordinates":[-92.85647,44.028296]}},{"properties":{"city":"Alexandria","lon":-95.3794,"zip":"","librarysystem":"Douglas County Library","id":"a6334d5v2p9x","address":"720 Fillmore Street","lat":45.884502,"libraryname":"Douglas County Library","state":"MN"},"type":"Feature","geometry":{"type":"Point","coordinates":[-95.3794,45.884502]}},{"properties":{"city":"Duluth","lon":-92.104671,"zip":"","librarysystem":"Duluth Public Library","id":"a6334d5sbh8k","address":"520 West Superior Street","lat":46.781794,"libraryname":"Duluth Public Library","state":"MN"},"type":"Feature","geometry":{"type":"Point","coordinates":[-92.104671,46.781794]}},{"properties":{"city":"Dunnell","lon":-94.775387,"zip":"","librarysystem":"Martin County Library","id":"a6334db0rq8b","address":"145 West Wenberg","lat":43.55905,"libraryname":"Dunnell Branch Library","state":"MN"},"type":"Feature","geometry":{"type":"Point","coordinates":[-94.775387,43.55905]}},{"properties":{"city":"Sleepy Eye","lon":-94.726423,"zip":"","librarysystem":"Dyckman Free Library","id":"a6334d1duowu","address":"345 West Main Street","lat":44.297072,"libraryname":"Dyckman Free Library","state":"MN"},"type":"Feature","geometry":{"type":"Point","coordinates":[-94.726423,44.297072]}},{"properties":{"city":"Eagle Bend","lon":-95.035988,"zip":"","librarysystem":"Great River Regional Library","id":"a6334d4g7j4p","address":"127 East Main","lat":46.165024,"libraryname":"Eagle Bend Public Library","state":"MN"},"type":"Feature","geometry":{"type":"Point","coordinates":[-95.035988,46.165024]}},{"properties":{"city":"East Grand Forks","lon":-97.024957,"zip":"","librarysystem":"East Grand Forks-Campbell Library","id":"a6334d7tpk5o","address":"422 4th Street Northwest","lat":47.930258,"libraryname":"East Grand Forks-Campbell Library","state":"MN"},"type":"Feature","geometry":{"type":"Point","coordinates":[-97.024957,47.930258]}},{"properties":{"city":"Minneapolis","lon":-93.232668,"zip":"","librarysystem":"Minneapolis Public Library","id":"a6334d7mp9ng","address":"2727 E Lake Street","lat":44.948239,"libraryname":"East Lake Community Library","state":"MN"},"type":"Feature","geometry":{"type":"Point","coordinates":[-93.232668,44.948239]}},{"properties":{"city":"Eden Prairie","lon":-93.425863,"zip":"","librarysystem":"Hennepin County Public Library","id":"a6334d1qbe4u","address":"479 Prairie Center Drive","lat":44.850743,"libraryname":"Eden Prairie Community Library","state":"MN"},"type":"Feature","geometry":{"type":"Point","coordinates":[-93.425863,44.850743]}},{"properties":{"city":"Edina","lon":-93.355396,"zip":"","librarysystem":"Hennepin County Public Library","id":"a6334d96j3qh","address":"5280 Grandview Square","lat":44.907182,"libraryname":"Edina Community Library","state":"MN"},"type":"Feature","geometry":{"type":"Point","coordinates":[-93.355396,44.907182]}},{"properties":{"city":"Elk River","lon":-93.577596,"zip":"","librarysystem":"Great River Regional Library","id":"a6334ddarf9p","address":"413 Proctor Avenue","lat":45.305862,"libraryname":"Elk River Branch Library","state":"MN"},"type":"Feature","geometry":{"type":"Point","coordinates":[-93.577596,45.305862]}},{"properties":{"city":"Elmore","lon":-94.08477,"zip":"","librarysystem":"Elmore Library","id":"a6334dedn2d2","address":"302 E. Willis Street","lat":43.504612,"libraryname":"Elmore Library","state":"MN"},"type":"Feature","geometry":{"type":"Point","coordinates":[-94.08477,43.504612]}},{"properties":{"city":"Ely","lon":-91.865302,"zip":"","librarysystem":"Ely Public Library","id":"a6334derdyaj","address":"30 S 1st Ave E","lat":47.901979,"libraryname":"Ely Public Library","state":"MN"},"type":"Feature","geometry":{"type":"Point","coordinates":[-91.865302,47.901979]}},{"properties":{"city":"Elysian","lon":-93.675967,"zip":"","librarysystem":"Waseca-Le Sueur Regional Library","id":"a6334d0l82sy","address":"106 West Main Street","lat":44.198837,"libraryname":"Elysian Public Library","state":"MN"},"type":"Feature","geometry":{"type":"Point","coordinates":[-93.675967,44.198837]}},{"properties":{"city":"Eveleth","lon":-92.536072,"zip":"","librarysystem":"Eveleth Public Library","id":"a6334ddd2jbb","address":"614 Pierce Street","lat":47.462502,"libraryname":"Eveleth Public Library","state":"MN"},"type":"Feature","geometry":{"type":"Point","coordinates":[-92.536072,47.462502]}},{"properties":{"city":"Excelsior","lon":-93.568186,"zip":"","librarysystem":"Hennepin County Public Library","id":"a6334czpowl0","address":"343 Third Street","lat":44.902773,"libraryname":"Excelsior Community Library","state":"MN"},"type":"Feature","geometry":{"type":"Point","coordinates":[-93.568186,44.902773]}},{"properties":{"city":"Fairfax","lon":-94.718939,"zip":"","librarysystem":"Pioneerland Library System","id":"a6334d74o0e9","address":"124 First Street SE","lat":44.52447,"libraryname":"Fairfax Public Library","state":"MN"},"type":"Feature","geometry":{"type":"Point","coordinates":[-94.718939,44.52447]}},{"properties":{"city":"Blue Earth","lon":-94.10257,"zip":"","librarysystem":"Faribault County Library","id":"a6334d0m7ulh","address":"120 S Main","lat":43.638364,"libraryname":"Faribault County Library","state":"MN"},"type":"Feature","geometry":{"type":"Point","coordinates":[-94.10257,43.638364]}},{"properties":{"city":"Farmington","lon":-93.145402,"zip":"","librarysystem":"Dakota County Library","id":"a6334dab3svx","address":"508 Third Street","lat":44.637755,"libraryname":"Farmington Community Library","state":"MN"},"type":"Feature","geometry":{"type":"Point","coordinates":[-93.145402,44.637755]}},{"properties":{"city":"Fergus Falls","lon":-96.07214,"zip":"","librarysystem":"Fergus Falls Public Library","id":"a6334dfb7paf","address":"205 East Hampden","lat":46.278802,"libraryname":"Fergus Falls Public Library","state":"MN"},"type":"Feature","geometry":{"type":"Point","coordinates":[-96.07214,46.278802]}},{"properties":{"city":"Fertile","lon":-96.28043,"zip":"","librarysystem":"Lake Agassiz Regional Library","id":"a6334d1rdii4","address":"101 S Mill Street","lat":47.53392,"libraryname":"Fertile Public Library","state":"MN"},"type":"Feature","geometry":{"type":"Point","coordinates":[-96.28043,47.53392]}},{"properties":{"city":"Foley","lon":-93.911637,"zip":"","librarysystem":"Great River Regional Library","id":"a6334d79eg8x","address":"251 North 4th Avenue","lat":45.664725,"libraryname":"Foley Branch Library","state":"MN"},"type":"Feature","geometry":{"type":"Point","coordinates":[-93.911637,45.664725]}},{"properties":{"city":"Forest Lake","lon":-92.984476,"zip":"","librarysystem":"Washington County Library","id":"a6334d1alo81","address":"220 North Lake","lat":45.281727,"libraryname":"Forest Lake Branch Library","state":"MN"},"type":"Feature","geometry":{"type":"Point","coordinates":[-92.984476,45.281727]}},{"properties":{"city":"Fosston","lon":-95.746143,"zip":"","librarysystem":"Lake Agassiz Regional Library","id":"a6334d7ogkeo","address":"403 Foss Ave N","lat":47.578355,"libraryname":"Fosston Public Library","state":"MN"},"type":"Feature","geometry":{"type":"Point","coordinates":[-95.746143,47.578355]}},{"properties":{"city":"Minneapolis","lon":-93.256219,"zip":"","librarysystem":"Minneapolis Public Library","id":"a6334d1k8f54","address":"1308 E Franklin Av","lat":44.96293,"libraryname":"Franklin Community Library","state":"MN"},"type":"Feature","geometry":{"type":"Point","coordinates":[-93.256219,44.96293]}},{"properties":{"city":"Fulda","lon":-95.600038,"zip":"","librarysystem":"Fulda Memorial Library","id":"a6334dfxzj7f","address":"101 3rd St. NE","lat":43.871685,"libraryname":"Fulda Memorial Library","state":"MN"},"type":"Feature","geometry":{"type":"Point","coordinates":[-95.600038,43.871685]}},{"properties":{"city":"Apple Valley","lon":-93.20763,"zip":"","librarysystem":"Dakota County Library","id":"a6334d3x0p9z","address":"14355 Galaxie Avenue","lat":44.741038,"libraryname":"Galaxie Library","state":"MN"},"type":"Feature","geometry":{"type":"Point","coordinates":[-93.20763,44.741038]}},{"properties":{"city":"Gaylord","lon":-94.219701,"zip":"","librarysystem":"Sibley County Library System","id":"a6334d6m08o0","address":"332 W. Main Avenue","lat":44.553208,"libraryname":"Gaylord Public Library","state":"MN"},"type":"Feature","geometry":{"type":"Point","coordinates":[-94.219701,44.553208]}},{"properties":{"city":"Gibbon","lon":-94.525343,"zip":"","librarysystem":"Sibley County Library System","id":"a6334ddbe4vr","address":"1050 Adams Avenue","lat":44.533159,"libraryname":"Gibbon Public Library","state":"MN"},"type":"Feature","geometry":{"type":"Point","coordinates":[-94.525343,44.533159]}},{"properties":{"city":"Gilbert","lon":-92.466144,"zip":"","librarysystem":"Gilbert Public Library","id":"a6334d0r44pv","address":"17 N Broadway","lat":47.487421,"libraryname":"Gilbert Public Library","state":"MN"},"type":"Feature","geometry":{"type":"Point","coordinates":[-92.466144,47.487421]}},{"properties":{"city":"Glencoe","lon":-94.152781,"zip":"","librarysystem":"Pioneerland Library System","id":"a6334dco6x69","address":"719 13th St. E","lat":44.772187,"libraryname":"Glencoe Public Library","state":"MN"},"type":"Feature","geometry":{"type":"Point","coordinates":[-94.152781,44.772187]}},{"properties":{"city":"Glenwood","lon":-95.388167,"zip":"","librarysystem":"Glenwood Public Library","id":"a6334ddyrwzl","address":"108 Se First Avenue","lat":45.649197,"libraryname":"Glenwood Public Library","state":"MN"},"type":"Feature","geometry":{"type":"Point","coordinates":[-95.388167,45.649197]}},{"properties":{"city":"Warren","lon":-96.768786,"zip":"","librarysystem":"Northwest Regional Library","id":"a6334d3ij8ru","address":"314 East Johnson","lat":48.19793,"libraryname":"Godel Memorial Library","state":"MN"},"type":"Feature","geometry":{"type":"Point","coordinates":[-96.768786,48.19793]}},{"properties":{"city":"Golden Valley","lon":-93.380108,"zip":"","librarysystem":"Hennepin County Public Library","id":"a6334dcuczpy","address":"830 Winnetka Avenue North","lat":44.987563,"libraryname":"Golden Valley Community Library","state":"MN"},"type":"Feature","geometry":{"type":"Point","coordinates":[-93.380108,44.987563]}},{"properties":{"city":"Graceville","lon":-96.437899,"zip":"","librarysystem":"Pioneerland Library System","id":"a6334dcbf8sl","address":"415 Studdart Avenue","lat":45.567839,"libraryname":"Graceville Public Library","state":"MN"},"type":"Feature","geometry":{"type":"Point","coordinates":[-96.437899,45.567839]}},{"properties":{"city":"Grand Marais","lon":-90.335874,"zip":"","librarysystem":"Grand Marais Public Library","id":"a6334d2s5cr1","address":"104 2nd Avenue W","lat":47.750719,"libraryname":"Grand Marais Public Library","state":"MN"},"type":"Feature","geometry":{"type":"Point","coordinates":[-90.335874,47.750719]}},{"properties":{"city":"Grand Meadow","lon":-92.572303,"zip":"","librarysystem":"Grand Meadow Public Library","id":"a6334d2dxfqw","address":"125 Grand Ave E","lat":43.705946,"libraryname":"Grand Meadow Public Library","state":"MN"},"type":"Feature","geometry":{"type":"Point","coordinates":[-92.572303,43.705946]}},{"properties":{"city":"Grand Rapids","lon":-93.526009,"zip":"","librarysystem":"Grand Rapids Area Library","id":"a6334dfc3t2c","address":"140 NE 2nd Street","lat":47.233658,"libraryname":"Grand Rapids Area Library","state":"MN"},"type":"Feature","geometry":{"type":"Point","coordinates":[-93.526009,47.233658]}},{"properties":{"city":"Granite Falls","lon":-95.539075,"zip":"","librarysystem":"Pioneerland Library System","id":"a6334dcdytje","address":"155 Seventh Avenue","lat":44.811224,"libraryname":"Granite Falls Public Library","state":"MN"},"type":"Feature","geometry":{"type":"Point","coordinates":[-95.539075,44.811224]}},{"properties":{"city":"Greenbush","lon":-96.181564,"zip":"","librarysystem":"Northwest Regional Library","id":"a6334dfhtoyi","address":"234 Main Street North","lat":48.701048,"libraryname":"Greenbush Public Library","state":"MN"},"type":"Feature","geometry":{"type":"Point","coordinates":[-96.181564,48.701048]}},{"properties":{"city":"Grey Eagle","lon":-94.749126,"zip":"","librarysystem":"Great River Regional Library","id":"a6334d58pp7q","address":"118 State Street East","lat":45.824667,"libraryname":"Grey Eagle Branch Library","state":"MN"},"type":"Feature","geometry":{"type":"Point","coordinates":[-94.749126,45.824667]}},{"properties":{"city":"Grove City","lon":-94.688908,"zip":"","librarysystem":"Pioneerland Library System","id":"a6334dbcqp8o","address":"210 Atlantic Avenue W","lat":45.148235,"libraryname":"Grove City Public Library","state":"MN"},"type":"Feature","geometry":{"type":"Point","coordinates":[-94.688908,45.148235]}},{"properties":{"city":"Hallock","lon":-96.944676,"zip":"","librarysystem":"Northwest Regional Library","id":"a6334d3vq27s","address":"163 South 3rd","lat":48.773713,"libraryname":"Hallock Public Library","state":"MN"},"type":"Feature","geometry":{"type":"Point","coordinates":[-96.944676,48.773713]}},{"properties":{"city":"Saint Paul","lon":-93.166177,"zip":"","librarysystem":"Saint Paul Public Library","id":"a6334d5sf5yt","address":"1558 West Minnehaha Avenue","lat":44.96276,"libraryname":"Hamline Midway Branch Library","state":"MN"},"type":"Feature","geometry":{"type":"Point","coordinates":[-93.166177,44.96276]}},{"properties":{"city":"Hancock","lon":-95.794228,"zip":"","librarysystem":"Hancock Community Library","id":"a6334d0cr6u5","address":"662 6th Street","lat":45.498576,"libraryname":"Hancock Community Library","state":"MN"},"type":"Feature","geometry":{"type":"Point","coordinates":[-95.794228,45.498576]}},{"properties":{"city":"Hanska","lon":-94.495513,"zip":"","librarysystem":"Hanska Public Library","id":"a6334d8nh6df","address":"201 West 2nd Street","lat":44.148765,"libraryname":"Hanska Public Library","state":"MN"},"type":"Feature","geometry":{"type":"Point","coordinates":[-94.495513,44.148765]}},{"properties":{"city":"Harmony","lon":-92.013886,"zip":"","librarysystem":"Harmony Public Library","id":"a6334d3u3wj4","address":"225 3rd Avenue SW","lat":43.552009,"libraryname":"Harmony Public Library","state":"MN"},"type":"Feature","geometry":{"type":"Point","coordinates":[-92.013886,43.552009]}},{"properties":{"city":"Hawley","lon":-96.314492,"zip":"","librarysystem":"Lake Agassiz Regional Library","id":"a6334dao45gu","address":"421 Hartford Street","lat":46.882045,"libraryname":"Hawley Public Library","state":"MN"},"type":"Feature","geometry":{"type":"Point","coordinates":[-96.314492,46.882045]}},{"properties":{"city":"Saint Paul","lon":-93.025104,"zip":"","librarysystem":"Saint Paul Public Library","id":"a6334dczqiad","address":"1456 White Bear Avenue","lat":44.985234,"libraryname":"Hayden Heights Branch Library","state":"MN"},"type":"Feature","geometry":{"type":"Point","coordinates":[-93.025104,44.985234]}},{"properties":{"city":"Hector","lon":-94.715415,"zip":"","librarysystem":"Pioneerland Library System","id":"a6334dfq4l5e","address":"126 Main St S","lat":44.744693,"libraryname":"Hector Public Library","state":"MN"},"type":"Feature","geometry":{"type":"Point","coordinates":[-94.715415,44.744693]}},{"properties":{"city":"Henderson","lon":-93.908495,"zip":"","librarysystem":"Sibley County Library System","id":"a6334ddhrqqy","address":"111 South 6th Street","lat":44.527795,"libraryname":"Henderson Public Library","state":"MN"},"type":"Feature","geometry":{"type":"Point","coordinates":[-93.908495,44.527795]}},{"properties":{"city":"Lakeville","lon":-93.240881,"zip":"","librarysystem":"Dakota County Library","id":"a6334d7ckjpx","address":"20085 Heritage Drive","lat":44.657798,"libraryname":"Heritage Library","state":"MN"},"type":"Feature","geometry":{"type":"Point","coordinates":[-93.240881,44.657798]}},{"properties":{"city":"Heron Lake","lon":-95.316917,"zip":"","librarysystem":"Jackson County Library","id":"a6334d9qon0f","address":"401 9th Street","lat":43.794168,"libraryname":"Heron Lake Public Library","state":"MN"},"type":"Feature","geometry":{"type":"Point","coordinates":[-95.316917,43.794168]}},{"properties":{"city":"Hibbing","lon":-92.936359,"zip":"","librarysystem":"Hibbing Public Library","id":"a6334da79jv2","address":"2020 East 5th Avenue","lat":47.427155,"libraryname":"Hibbing Public Library","state":"MN"},"type":"Feature","geometry":{"type":"Point","coordinates":[-92.936359,47.427155]}},{"properties":{"city":"Saint Paul","lon":-93.183658,"zip":"","librarysystem":"Saint Paul Public Library","id":"a6334d0ktdba","address":"1974 Ford Parkway","lat":44.91773,"libraryname":"Highland Branch Library","state":"MN"},"type":"Feature","geometry":{"type":"Point","coordinates":[-93.183658,44.91773]}},{"properties":{"city":"Hinckley","lon":-92.942742,"zip":"","librarysystem":"East Central Regional Library","id":"a6334ddqrhnh","address":"106 1st SE","lat":46.01455,"libraryname":"Hinckley Public Library","state":"MN"},"type":"Feature","geometry":{"type":"Point","coordinates":[-92.942742,46.01455]}},{"properties":{"city":"Hokah","lon":-91.347619,"zip":"","librarysystem":"Hokah Public Library","id":"a6334ddvxi0m","address":"57 Main","lat":43.758403,"libraryname":"Hokah Public Library","state":"MN"},"type":"Feature","geometry":{"type":"Point","coordinates":[-91.347619,43.758403]}},{"properties":{"city":"Hopkins","lon":-93.414116,"zip":"","librarysystem":"Hennepin County Public Library","id":"a6334d83lr7s","address":"22 11th Avenue North","lat":44.924842,"libraryname":"Hopkins Community Library","state":"MN"},"type":"Feature","geometry":{"type":"Point","coordinates":[-93.414116,44.924842]}},{"properties":{"city":"Minneapolis","lon":-93.27098,"zip":"","librarysystem":"Minneapolis Public Library","id":"a6334d74ygq7","address":"347 E 36th Street","lat":44.937619,"libraryname":"Hosmer Community Library","state":"MN"},"type":"Feature","geometry":{"type":"Point","coordinates":[-93.27098,44.937619]}},{"properties":{"city":"Houston","lon":-91.567307,"zip":"","librarysystem":"Houston Public Library","id":"a6334d8fimte","address":"202 East Cedar Street","lat":43.763158,"libraryname":"Houston Public Library","state":"MN"},"type":"Feature","geometry":{"type":"Point","coordinates":[-91.567307,43.763158]}},{"properties":{"city":"Howard Lake","lon":-94.06782,"zip":"","librarysystem":"Great River Regional Library","id":"a6334d369rce","address":"617 6th Avenue","lat":45.060988,"libraryname":"Howard Lake Branch Library","state":"MN"},"type":"Feature","geometry":{"type":"Point","coordinates":[-94.06782,45.060988]}},{"properties":{"city":"Hoyt Lakes","lon":-92.162311,"zip":"","librarysystem":"Hoyt Lakes Public Library","id":"a6334d8yvsxr","address":"206 Kennedy Memorial Dr","lat":47.518269,"libraryname":"Hoyt Lakes Public Library","state":"MN"},"type":"Feature","geometry":{"type":"Point","coordinates":[-92.162311,47.518269]}},{"properties":{"city":"Hutchinson","lon":-94.368019,"zip":"","librarysystem":"Pioneerland Library System","id":"a6334d9dhoig","address":"50 Hassan Street SE","lat":44.891698,"libraryname":"Hutchinson Public Library","state":"MN"},"type":"Feature","geometry":{"type":"Point","coordinates":[-94.368019,44.891698]}},{"properties":{"city":"International Falls","lon":-93.410499,"zip":"","librarysystem":"International Falls Public Library","id":"a6334d0rg3my","address":"750 4th Street","lat":48.60184,"libraryname":"International Falls Public Library","state":"MN"},"type":"Feature","geometry":{"type":"Point","coordinates":[-93.410499,48.60184]}},{"properties":{"city":"Inver Grove Heights","lon":-93.052937,"zip":"","librarysystem":"Dakota County Library","id":"a6334dg263w4","address":"8098 Blaine Avenue","lat":44.832179,"libraryname":"Inver Glen Library","state":"MN"},"type":"Feature","geometry":{"type":"Point","coordinates":[-93.052937,44.832179]}},{"properties":{"city":"Ivanhoe","lon":-96.245893,"zip":"","librarysystem":"Ivanhoe Public Library","id":"a6334d1jybwy","address":"401 N Harold","lat":44.46337,"libraryname":"Ivanhoe Public Library","state":"MN"},"type":"Feature","geometry":{"type":"Point","coordinates":[-96.245893,44.46337]}},{"properties":{"city":"Jackson","lon":-94.988762,"zip":"","librarysystem":"Jackson County Library","id":"a6334d7akrix","address":"311 Third Street","lat":43.620267,"libraryname":"Jackson County Library","state":"MN"},"type":"Feature","geometry":{"type":"Point","coordinates":[-94.988762,43.620267]}},{"properties":{"city":"Janesville","lon":-93.707736,"zip":"","librarysystem":"Waseca-Le Sueur Regional Library","id":"a6334d9r4d2j","address":"102 W Second","lat":44.117434,"libraryname":"Janesville Public Library","state":"MN"},"type":"Feature","geometry":{"type":"Point","coordinates":[-93.707736,44.117434]}},{"properties":{"city":"Crosby","lon":-93.950209,"zip":"","librarysystem":"Jessie F. Hallett Memorial Library","id":"a6334dbedgus","address":"101 1st Street SE","lat":46.48164,"libraryname":"Jessie F. Hallett Memorial Library","state":"MN"},"type":"Feature","geometry":{"type":"Point","coordinates":[-93.950209,46.48164]}},{"properties":{"city":"Blaine","lon":-93.245133,"zip":"","librarysystem":"Anoka County Public Library","id":"a6334d9hvq0w","address":"12461 Oak Park Blvd NE","lat":45.196656,"libraryname":"Johnsville Branch Library","state":"MN"},"type":"Feature","geometry":{"type":"Point","coordinates":[-93.245133,45.196656]}},{"properties":{"city":"Jordan","lon":-93.626173,"zip":"","librarysystem":"Scott County Library System","id":"a6334d6xe2nd","address":"230 S Broadway","lat":44.665332,"libraryname":"Jordan Branch Library","state":"MN"},"type":"Feature","geometry":{"type":"Point","coordinates":[-93.626173,44.665332]}},{"properties":{"city":"Kasson","lon":-92.749287,"zip":"","librarysystem":"Kasson Public Library","id":"a6334d17o1h1","address":"16 First Avenue NW","lat":44.0297,"libraryname":"Kasson Public Library","state":"MN"},"type":"Feature","geometry":{"type":"Point","coordinates":[-92.749287,44.0297]}},{"properties":{"city":"Keewatin","lon":-93.076094,"zip":"","librarysystem":"Keewatin Public Library","id":"a6334d2de2y7","address":"125 W 3rd Avenue","lat":47.398749,"libraryname":"Keewatin Public Library","state":"MN"},"type":"Feature","geometry":{"type":"Point","coordinates":[-93.076094,47.398749]}},{"properties":{"city":"Kenyon","lon":-92.984998,"zip":"","librarysystem":"Kenyon Public Library","id":"a6334d8g8643","address":"709 2nd Street","lat":44.271822,"libraryname":"Kenyon Public Library","state":"MN"},"type":"Feature","geometry":{"type":"Point","coordinates":[-92.984998,44.271822]}},{"properties":{"city":"Kerkhoven","lon":-95.315882,"zip":"","librarysystem":"Pioneerland Library System","id":"a6334d1uzw2c","address":"208 N. 10th Street","lat":45.191545,"libraryname":"Kerkhoven Public Library","state":"MN"},"type":"Feature","geometry":{"type":"Point","coordinates":[-95.315882,45.191545]}},{"properties":{"city":"Kimball","lon":-94.300642,"zip":"","librarysystem":"Great River Regional Library","id":"a6334d0hthfj","address":"5 Main Street North","lat":45.312695,"libraryname":"Kimball Branch Library","state":"MN"},"type":"Feature","geometry":{"type":"Point","coordinates":[-94.300642,45.312695]}},{"properties":{"city":"Kinney","lon":-92.729332,"zip":"","librarysystem":"Kinney Public Library","id":"a6334dfet7tm","address":"400 Main Street","lat":47.514092,"libraryname":"Kinney Public Library","state":"MN"},"type":"Feature","geometry":{"type":"Point","coordinates":[-92.729332,47.514092]}},{"properties":{"city":"La Crescent","lon":-91.304579,"zip":"","librarysystem":"La Crescent Public Library","id":"a6334dfljpf3","address":"321 Main Street","lat":43.829013,"libraryname":"La Crescent Public Library","state":"MN"},"type":"Feature","geometry":{"type":"Point","coordinates":[-91.304579,43.829013]}},{"properties":{"city":"Lake Benton","lon":-96.292792,"zip":"","librarysystem":"Lake Benton Public Library","id":"a6334dbfqmu3","address":"112 W Benton","lat":44.261089,"libraryname":"Lake Benton Public Library","state":"MN"},"type":"Feature","geometry":{"type":"Point","coordinates":[-96.292792,44.261089]}},{"properties":{"city":"Lake City","lon":-92.265789,"zip":"","librarysystem":"Lake City Public Library","id":"a6334d6e6x89","address":"201 S High Street","lat":44.447817,"libraryname":"Lake City Public Library","state":"MN"},"type":"Feature","geometry":{"type":"Point","coordinates":[-92.265789,44.447817]}},{"properties":{"city":"Lake Crystal","lon":-94.215301,"zip":"","librarysystem":"Blue Earth County Library","id":"a6334d8qi7u1","address":"100 Robinson Street","lat":44.114916,"libraryname":"Lake Crystal Public Library","state":"MN"},"type":"Feature","geometry":{"type":"Point","coordinates":[-94.215301,44.114916]}},{"properties":{"city":"Lake Elmo","lon":-92.879889,"zip":"","librarysystem":"Washington County Library","id":"a6334dcaj8cd","address":"3459 Lake Elmo Avenue N","lat":44.999007,"libraryname":"Lake Elmo Branch Library","state":"MN"},"type":"Feature","geometry":{"type":"Point","coordinates":[-92.879889,44.999007]}},{"properties":{"city":"Lake Lillian","lon":-94.880273,"zip":"","librarysystem":"Pioneerland Library System","id":"a6334d7f3c6x","address":"450 Lakeview Street","lat":44.94437,"libraryname":"Lake Lillian Public Library","state":"MN"},"type":"Feature","geometry":{"type":"Point","coordinates":[-94.880273,44.94437]}},{"properties":{"city":"Lakefield","lon":-95.171859,"zip":"","librarysystem":"Jackson County Library","id":"a6334d41siri","address":"410 Main Street","lat":43.678722,"libraryname":"Lakefield Public Library","state":"MN"},"type":"Feature","geometry":{"type":"Point","coordinates":[-95.171859,43.678722]}},{"properties":{"city":"Lamberton","lon":-95.264052,"zip":"","librarysystem":"Lamberton Public Library","id":"a6334deknp9z","address":"101 E 2nd Avenue","lat":44.231328,"libraryname":"Lamberton Public Library","state":"MN"},"type":"Feature","geometry":{"type":"Point","coordinates":[-95.264052,44.231328]}},{"properties":{"city":"Lanesboro","lon":-91.976762,"zip":"","librarysystem":"Lanesboro Public Library","id":"a6334dczbvpv","address":"202 Parkway Ave. S.","lat":43.719859,"libraryname":"Lanesboro Public Library","state":"MN"},"type":"Feature","geometry":{"type":"Point","coordinates":[-91.976762,43.719859]}},{"properties":{"city":"Le Center","lon":-93.731747,"zip":"","librarysystem":"Waseca-Le Sueur Regional Library","id":"a6334d4f0xo3","address":"10 W Tyrone Street","lat":44.390888,"libraryname":"Le Center Public Library","state":"MN"},"type":"Feature","geometry":{"type":"Point","coordinates":[-93.731747,44.390888]}},{"properties":{"city":"Le Roy","lon":-92.505939,"zip":"","librarysystem":"Le Roy Public Library","id":"a6334d2dc991","address":"605 N Broadway","lat":43.5075,"libraryname":"Le Roy Public Library","state":"MN"},"type":"Feature","geometry":{"type":"Point","coordinates":[-92.505939,43.5075]}},{"properties":{"city":"Le Sueur","lon":-93.916204,"zip":"","librarysystem":"Waseca-Le Sueur Regional Library","id":"a6334d2k1dvj","address":"118 E Ferry Street","lat":44.460084,"libraryname":"Le Sueur Public Library","state":"MN"},"type":"Feature","geometry":{"type":"Point","coordinates":[-93.916204,44.460084]}},{"properties":{"city":"Lewisville","lon":-94.433952,"zip":"","librarysystem":"Watonwan County Library","id":"a6334dbvgys3","address":"117 East Martin Street","lat":43.922647,"libraryname":"Lewisville Branch Library","state":"MN"},"type":"Feature","geometry":{"type":"Point","coordinates":[-94.433952,43.922647]}},{"properties":{"city":"Saint Paul","lon":-93.145673,"zip":"","librarysystem":"Saint Paul Public Library","id":"a6334d1j398p","address":"1080 University Avenue","lat":44.95547,"libraryname":"Lexington Branch Library","state":"MN"},"type":"Feature","geometry":{"type":"Point","coordinates":[-93.145673,44.95547]}},{"properties":{"city":"Minneapolis","lon":-93.316186,"zip":"","librarysystem":"Minneapolis Public Library","id":"a6334d6r2hor","address":"2900 W 43rd Street","lat":44.924862,"libraryname":"Linden Hills Community Library","state":"MN"},"type":"Feature","geometry":{"type":"Point","coordinates":[-93.316186,44.924862]}},{"properties":{"city":"Lindstrom","lon":-92.849699,"zip":"","librarysystem":"East Central Regional Library","id":"a6334d69lwpy","address":"30525 Linden St.","lat":45.389327,"libraryname":"Lindstrom Public Library","state":"MN"},"type":"Feature","geometry":{"type":"Point","coordinates":[-92.849699,45.389327]}},{"properties":{"city":"Litchfield","lon":-94.52645,"zip":"","librarysystem":"Pioneerland Library System","id":"a6334dbhtn9l","address":"216 North Marshall","lat":45.127709,"libraryname":"Litchfield Public Library","state":"MN"},"type":"Feature","geometry":{"type":"Point","coordinates":[-94.52645,45.127709]}},{"properties":{"city":"Little Falls","lon":-94.35911,"zip":"","librarysystem":"Great River Regional Library","id":"a6334dajkbp5","address":"108 NE 3rd Street","lat":45.976184,"libraryname":"Little Falls Public Library","state":"MN"},"type":"Feature","geometry":{"type":"Point","coordinates":[-94.35911,45.976184]}},{"properties":{"city":"Long Lake","lon":-93.571232,"zip":"","librarysystem":"Hennepin County Public Library","id":"a6334deytqrj","address":"1865 Wayzata Blvd West","lat":44.986025,"libraryname":"Long Lake Community Library","state":"MN"},"type":"Feature","geometry":{"type":"Point","coordinates":[-93.571232,44.986025]}},{"properties":{"city":"Long Prairie","lon":-94.860331,"zip":"","librarysystem":"Great River Regional Library","id":"a6334dch0fvy","address":"42 3rd Street North","lat":45.97465,"libraryname":"Long Prairie Branch Library","state":"MN"},"type":"Feature","geometry":{"type":"Point","coordinates":[-94.860331,45.97465]}},{"properties":{"city":"Mabel","lon":-91.769528,"zip":"","librarysystem":"Mabel Public Library","id":"a6334d75azoa","address":"110 E Newburg","lat":43.521419,"libraryname":"Mabel Public Library","state":"MN"},"type":"Feature","geometry":{"type":"Point","coordinates":[-91.769528,43.521419]}},{"properties":{"city":"Madelia","lon":-94.416233,"zip":"","librarysystem":"Watonwan County Library","id":"a6334dd0ojph","address":"23 1st Street","lat":44.05194,"libraryname":"Madelia Branch Library","state":"MN"},"type":"Feature","geometry":{"type":"Point","coordinates":[-94.416233,44.05194]}},{"properties":{"city":"Madison","lon":-96.193218,"zip":"","librarysystem":"Pioneerland Library System","id":"a6334ddpodn2","address":"401 Sixth Avenue","lat":45.012361,"libraryname":"Madison Public Library","state":"MN"},"type":"Feature","geometry":{"type":"Point","coordinates":[-96.193218,45.012361]}},{"properties":{"city":"Mahnomen","lon":-95.96846,"zip":"","librarysystem":"Lake Agassiz Regional Library","id":"a6334dfk9lqc","address":"203 S Main St","lat":47.314106,"libraryname":"Mahnomen Public Library","state":"MN"},"type":"Feature","geometry":{"type":"Point","coordinates":[-95.96846,47.314106]}},{"properties":{"city":"Maple Grove","lon":-93.451488,"zip":"","librarysystem":"Hennepin County Public Library","id":"a6334dcpzbrn","address":"8351 Elm Creek Boulevard","lat":45.106169,"libraryname":"Maple Grove Community Library","state":"MN"},"type":"Feature","geometry":{"type":"Point","coordinates":[-93.451488,45.106169]}},{"properties":{"city":"Maple Plain","lon":-93.655455,"zip":"","librarysystem":"Hennepin County Public Library","id":"a6334d6sq26p","address":"5184 Main Street East","lat":45.007705,"libraryname":"Maple Plain Community Library","state":"MN"},"type":"Feature","geometry":{"type":"Point","coordinates":[-93.655455,45.007705]}},{"properties":{"city":"Mapleton","lon":-93.957622,"zip":"","librarysystem":"Blue Earth County Library","id":"a6334d3youl4","address":"104 1st Avenue","lat":43.927889,"libraryname":"Mapleton Public Library","state":"MN"},"type":"Feature","geometry":{"type":"Point","coordinates":[-93.957622,43.927889]}},{"properties":{"city":"Maplewood","lon":-93.029205,"zip":"","librarysystem":"Ramsey County Library","id":"a6334d3ec1t9","address":"1670 Beam Avenue","lat":45.02776,"libraryname":"Maplewood Library","state":"MN"},"type":"Feature","geometry":{"type":"Point","coordinates":[-93.029205,45.02776]}},{"properties":{"city":"Marble","lon":-93.291236,"zip":"","librarysystem":"Marble Public Library","id":"a6334dbyfrxh","address":"302 Alice Avenue","lat":47.318884,"libraryname":"Marble Public Library","state":"MN"},"type":"Feature","geometry":{"type":"Point","coordinates":[-93.291236,47.318884]}},{"properties":{"city":"Longville","lon":-94.321199,"zip":"","librarysystem":"Kitchigami Regional Library System","id":"a6334d31nugh","address":"Highway 84 North","lat":46.890166,"libraryname":"Margaret Welch Memorial Library","state":"MN"},"type":"Feature","geometry":{"type":"Point","coordinates":[-94.321199,46.890166]}},{"properties":{"city":"Marine","lon":-92.769629,"zip":"","librarysystem":"Washington County Library","id":"a6334dadk0lu","address":"121 Judd St.","lat":45.198697,"libraryname":"Marine Branch Library","state":"MN"},"type":"Feature","geometry":{"type":"Point","coordinates":[-92.769629,45.198697]}},{"properties":{"city":"Marshall","lon":-95.789068,"zip":"","librarysystem":"Marshall-Lyon County Library","id":"a6334d4qe7oi","address":"301 West Lyon Street","lat":44.448465,"libraryname":"Marshall","state":"MN"},"type":"Feature","geometry":{"type":"Point","coordinates":[-95.789068,44.448465]}},{"properties":{"city":"Maynard","lon":-95.469989,"zip":"","librarysystem":"Pioneerland Library System","id":"a6334dcoxkmi","address":"123 Mabel Avenue","lat":44.90643,"libraryname":"Maynard Public Library","state":"MN"},"type":"Feature","geometry":{"type":"Point","coordinates":[-95.469989,44.90643]}},{"properties":{"city":"Mcgregor","lon":-93.302094,"zip":"","librarysystem":"East Central Regional Library","id":"a6334d3lh6j2","address":"Center Street.","lat":46.606788,"libraryname":"Mcgregor Public Library","state":"MN"},"type":"Feature","geometry":{"type":"Point","coordinates":[-93.302094,46.606788]}},{"properties":{"city":"Mcintosh","lon":-95.887505,"zip":"","librarysystem":"Lake Agassiz Regional Library","id":"a6334d9vl8np","address":"115 Broadway NW","lat":47.637088,"libraryname":"Mcintosh Public Library","state":"MN"},"type":"Feature","geometry":{"type":"Point","coordinates":[-95.887505,47.637088]}},{"properties":{"city":"Mckinley","lon":-92.411074,"zip":"","librarysystem":"Mckinley Public Library","id":"a6334dax1sc3","address":"5454 Grand Avenue","lat":47.512105,"libraryname":"Mckinley Public Library","state":"MN"},"type":"Feature","geometry":{"type":"Point","coordinates":[-92.411074,47.512105]}},{"properties":{"city":"Pipestone","lon":-96.332757,"zip":"","librarysystem":"Meinders Community Library","id":"a6334d82ftbn","address":"1401 7th Street SW","lat":43.994372,"libraryname":"Meinders Community Library","state":"MN"},"type":"Feature","geometry":{"type":"Point","coordinates":[-96.332757,43.994372]}},{"properties":{"city":"Melrose","lon":-94.811314,"zip":"","librarysystem":"Great River Regional Library","id":"a6334dcbcour","address":"225 East 1st Street","lat":45.675669,"libraryname":"Melrose Branch Library","state":"MN"},"type":"Feature","geometry":{"type":"Point","coordinates":[-94.811314,45.675669]}},{"properties":{"city":"Saint Paul","lon":-93.177698,"zip":"","librarysystem":"Saint Paul Public Library","id":"a6334d2y1h4w","address":"1831 Marshall Avenue","lat":44.9486,"libraryname":"Merriam Park Branch Library","state":"MN"},"type":"Feature","geometry":{"type":"Point","coordinates":[-93.177698,44.9486]}},{"properties":{"city":"Milaca","lon":-93.651237,"zip":"","librarysystem":"East Central Regional Library","id":"a6334d83fjxd","address":"145 S. Central","lat":45.754485,"libraryname":"Milaca Community Library","state":"MN"},"type":"Feature","geometry":{"type":"Point","coordinates":[-93.651237,45.754485]}},{"properties":{"city":"Milan","lon":-95.911582,"zip":"","librarysystem":"Pioneerland Library System","id":"a6334d7iago3","address":"212 E Main Street","lat":45.110118,"libraryname":"Milan Public Library","state":"MN"},"type":"Feature","geometry":{"type":"Point","coordinates":[-95.911582,45.110118]}},{"properties":{"city":"Isle","lon":-93.469163,"zip":"","librarysystem":"East Central Regional Library","id":"a6334d931gtn","address":"285 2nd Avenue S","lat":46.13776,"libraryname":"Mille Lacs Community Library","state":"MN"},"type":"Feature","geometry":{"type":"Point","coordinates":[-93.469163,46.13776]}},{"properties":{"city":"Minneapolis","lon":-93.267413,"zip":"","librarysystem":"Minneapolis Public Library","id":"a6334d946vox","address":"250 S. Marquette","lat":44.980697,"libraryname":"Minneapolis Public Library -Central Library","state":"MN"},"type":"Feature","geometry":{"type":"Point","coordinates":[-93.267413,44.980697]}},{"properties":{"city":"Minneota","lon":-95.988595,"zip":"","librarysystem":"Minneota Public Library","id":"a6334d92iwjt","address":"103 N Jefferson","lat":44.560329,"libraryname":"Minneota Public Library","state":"MN"},"type":"Feature","geometry":{"type":"Point","coordinates":[-95.988595,44.560329]}},{"properties":{"city":"Minnetonka","lon":-93.501182,"zip":"","librarysystem":"Hennepin County Public Library","id":"a6334d5gu245","address":"17524 Excelsior Boulevard","lat":44.907871,"libraryname":"Minnetonka Community Library","state":"MN"},"type":"Feature","geometry":{"type":"Point","coordinates":[-93.501182,44.907871]}},{"properties":{"city":"Fridley","lon":-93.260216,"zip":"","librarysystem":"Anoka County Public Library","id":"a6334ddurkup","address":"410 Mississippi St NE","lat":45.086014,"libraryname":"Mississippi Branch Library","state":"MN"},"type":"Feature","geometry":{"type":"Point","coordinates":[-93.260216,45.086014]}},{"properties":{"city":"Montevideo","lon":-95.723825,"zip":"","librarysystem":"Pioneerland Library System","id":"a6334dccf5dg","address":"224 South First Street","lat":44.944296,"libraryname":"Montevideo Public Library","state":"MN"},"type":"Feature","geometry":{"type":"Point","coordinates":[-95.723825,44.944296]}},{"properties":{"city":"Montgomery","lon":-93.582651,"zip":"","librarysystem":"Waseca-Le Sueur Regional Library","id":"a6334d2m4g4v","address":"201 Ash Avenue SW","lat":44.437825,"libraryname":"Montgomery Public Library","state":"MN"},"type":"Feature","geometry":{"type":"Point","coordinates":[-93.582651,44.437825]}},{"properties":{"city":"Monticello","lon":-93.797006,"zip":"","librarysystem":"Great River Regional Library","id":"a6334dbhqk3v","address":"404 Walnut Street","lat":45.303875,"libraryname":"Monticello Branch Library","state":"MN"},"type":"Feature","geometry":{"type":"Point","coordinates":[-93.797006,45.303875]}},{"properties":{"city":"Moorhead","lon":-96.77217,"zip":"","librarysystem":"Lake Agassiz Regional Library","id":"a6334d5qvu8t","address":"118 S 5th Street","lat":46.873551,"libraryname":"Moorhead Public Library","state":"MN"},"type":"Feature","geometry":{"type":"Point","coordinates":[-96.77217,46.873551]}},{"properties":{"city":"Moose Lake","lon":-92.761642,"zip":"","librarysystem":"Moose Lake Public Library","id":"a6334d59bzc3","address":"313 Elm Avenue","lat":46.453091,"libraryname":"Moose Lake Public Library","state":"MN"},"type":"Feature","geometry":{"type":"Point","coordinates":[-92.761642,46.453091]}},{"properties":{"city":"Mora","lon":-93.298711,"zip":"","librarysystem":"East Central Regional Library","id":"a6334d7x56to","address":"200 W. Maple","lat":45.87788,"libraryname":"Mora Public Library","state":"MN"},"type":"Feature","geometry":{"type":"Point","coordinates":[-93.298711,45.87788]}},{"properties":{"city":"Morgan","lon":-94.926573,"zip":"","librarysystem":"Morgan Public Library","id":"a6334d69s2lz","address":"210 Vernon Avenue","lat":44.416353,"libraryname":"Morgan Public Library","state":"MN"},"type":"Feature","geometry":{"type":"Point","coordinates":[-94.926573,44.416353]}},{"properties":{"city":"Morris","lon":-95.913222,"zip":"","librarysystem":"Morris Public Library","id":"a6334d4dijzy","address":"102 E 6th Street","lat":45.587785,"libraryname":"Morris Public Library","state":"MN"},"type":"Feature","geometry":{"type":"Point","coordinates":[-95.913222,45.587785]}},{"properties":{"city":"Mounds View","lon":-93.212156,"zip":"","librarysystem":"Ramsey County Library","id":"a6334daduv60","address":"2576 County Road 10","lat":45.106678,"libraryname":"Mounds View Library","state":"MN"},"type":"Feature","geometry":{"type":"Point","coordinates":[-93.212156,45.106678]}},{"properties":{"city":"Duluth","lon":-92.074469,"zip":"","librarysystem":"Duluth Public Library","id":"a6334d8vlczk","address":"105 Mt. Royal Shopping Circle","lat":46.821123,"libraryname":"Mount Royal Branch Library","state":"MN"},"type":"Feature","geometry":{"type":"Point","coordinates":[-92.074469,46.821123]}},{"properties":{"city":"Mountain Iron","lon":-92.622003,"zip":"","librarysystem":"Mountain Iron Public Library","id":"a6334d7pnqnn","address":"5742 Mountain Avenue","lat":47.5318,"libraryname":"Mountain Iron Public Library","state":"MN"},"type":"Feature","geometry":{"type":"Point","coordinates":[-92.622003,47.5318]}},{"properties":{"city":"Mountain Lake","lon":-94.929541,"zip":"","librarysystem":"Mountain Lake Public Library","id":"a6334d94o4vm","address":"1054 4th Avenue","lat":43.940055,"libraryname":"Mountain Lake Public Library","state":"MN"},"type":"Feature","geometry":{"type":"Point","coordinates":[-94.929541,43.940055]}},{"properties":{"city":"Winnebago","lon":-94.16558,"zip":"","librarysystem":"Muir Library","id":"a6334d002zzi","address":"36 Main St. N","lat":43.768206,"libraryname":"Muir Library","state":"MN"},"type":"Feature","geometry":{"type":"Point","coordinates":[-94.16558,43.768206]}},{"properties":{"city":"Belgrade","lon":-95.004049,"zip":"","librarysystem":"Great River Regional Library","id":"a6334d0rqrjg","address":"324 Washburn Avenue","lat":45.454099,"libraryname":"Myrtle Mabee Library","state":"MN"},"type":"Feature","geometry":{"type":"Point","coordinates":[-95.004049,45.454099]}},{"properties":{"city":"New London","lon":-94.943199,"zip":"","librarysystem":"Pioneerland Library System","id":"a6334d73iyck","address":"15 Ash Street South","lat":45.29621,"libraryname":"New London Public Library","state":"MN"},"type":"Feature","geometry":{"type":"Point","coordinates":[-94.943199,45.29621]}},{"properties":{"city":"New Market","lon":-93.351488,"zip":"","librarysystem":"Scott County Library System","id":"a6334d6hr26k","address":"50 Church Street","lat":44.572611,"libraryname":"New Market Branch Library","state":"MN"},"type":"Feature","geometry":{"type":"Point","coordinates":[-93.351488,44.572611]}},{"properties":{"city":"New Prague","lon":-93.571191,"zip":"","librarysystem":"Scott County Library System","id":"a6334dcra3am","address":"400 E Main Street","lat":44.543478,"libraryname":"New Prague Branch Library","state":"MN"},"type":"Feature","geometry":{"type":"Point","coordinates":[-93.571191,44.543478]}},{"properties":{"city":"New Richland","lon":-93.493752,"zip":"","librarysystem":"Waseca-Le Sueur Regional Library","id":"a6334d85wt0g","address":"129 S Broadway","lat":43.893514,"libraryname":"New Richland Public Library","state":"MN"},"type":"Feature","geometry":{"type":"Point","coordinates":[-93.493752,43.893514]}},{"properties":{"city":"New Ulm","lon":-94.460839,"zip":"","librarysystem":"New Ulm Public Library","id":"a6334de9ih2b","address":"17 North Broadway","lat":44.31273,"libraryname":"New Ulm Public Library","state":"MN"},"type":"Feature","geometry":{"type":"Point","coordinates":[-94.460839,44.31273]}},{"properties":{"city":"New York Mills","lon":-95.375922,"zip":"","librarysystem":"New York Mills Public Library","id":"a6334d63zn7j","address":"30 North Main","lat":46.51843,"libraryname":"New York Mills Public Library","state":"MN"},"type":"Feature","geometry":{"type":"Point","coordinates":[-95.375922,46.51843]}},{"properties":{"city":"Newport","lon":-92.999729,"zip":"","librarysystem":"Washington County Library","id":"a6334d5zsc62","address":"405 Seventh Ave","lat":44.859884,"libraryname":"Newport Branch Library","state":"MN"},"type":"Feature","geometry":{"type":"Point","coordinates":[-92.999729,44.859884]}},{"properties":{"city":"Worthington","lon":-95.595268,"zip":"","librarysystem":"Plum Creek Library System","id":"a6334d31dsx0","address":"407 12th Street","lat":43.621932,"libraryname":"Nobles County Library","state":"MN"},"type":"Feature","geometry":{"type":"Point","coordinates":[-95.595268,43.621932]}},{"properties":{"city":"Minneapolis","lon":-93.222964,"zip":"","librarysystem":"Minneapolis Public Library","id":"a6334da0db2x","address":"5100 34th Avenue S","lat":44.910671,"libraryname":"Nokomis Community Library","state":"MN"},"type":"Feature","geometry":{"type":"Point","coordinates":[-93.222964,44.910671]}},{"properties":{"city":"North Branch","lon":-92.996819,"zip":"","librarysystem":"East Central Regional Library","id":"a6334d4re2hj","address":"6381 Main Street","lat":45.51022,"libraryname":"North Branch Area Library","state":"MN"},"type":"Feature","geometry":{"type":"Point","coordinates":[-92.996819,45.51022]}},{"properties":{"city":"Ham Lake","lon":-93.23341,"zip":"","librarysystem":"Anoka County Public Library","id":"a6334de393ah","address":"17565 Central Avenue NE","lat":45.28895,"libraryname":"North Central Branch Library","state":"MN"},"type":"Feature","geometry":{"type":"Point","coordinates":[-93.23341,45.28895]}},{"properties":{"city":"North Mankato","lon":-94.027443,"zip":"","librarysystem":"North Mankato Taylor Library","id":"a6334d0guj8m","address":"1001 Belgrade Ave","lat":44.168523,"libraryname":"North Mankato Taylor Library","state":"MN"},"type":"Feature","geometry":{"type":"Point","coordinates":[-94.027443,44.168523]}},{"properties":{"city":"Minneapolis","lon":-93.295863,"zip":"","librarysystem":"Minneapolis Public Library","id":"a6334dajks1v","address":"1315 Lowry Avenue N","lat":45.01301,"libraryname":"North Regional Community Library","state":"MN"},"type":"Feature","geometry":{"type":"Point","coordinates":[-93.295863,45.01301]}},{"properties":{"city":"Coon Rapids","lon":-93.276908,"zip":"","librarysystem":"Anoka County Public Library","id":"a6334df7py8x","address":"408 Northdale Blvd","lat":45.176394,"libraryname":"Northdale Branch Library","state":"MN"},"type":"Feature","geometry":{"type":"Point","coordinates":[-93.276908,45.176394]}},{"properties":{"city":"Minneapolis","lon":-93.247444,"zip":"","librarysystem":"Minneapolis Public Library","id":"a6334d1c1gvh","address":"2200 Central Av NE","lat":45.009986,"libraryname":"Northeast Community Library","state":"MN"},"type":"Feature","geometry":{"type":"Point","coordinates":[-93.247444,45.009986]}},{"properties":{"city":"Northfield","lon":-93.158786,"zip":"","librarysystem":"Northfield Public Library","id":"a6334derleut","address":"210 Washington St.","lat":44.45827,"libraryname":"Northfield Public Library","state":"MN"},"type":"Feature","geometry":{"type":"Point","coordinates":[-93.158786,44.45827]}},{"properties":{"city":"Blaine","lon":-93.253854,"zip":"","librarysystem":"Anoka County Public Library","id":"a6334df3ql9z","address":"711 County Rd 10 NE","lat":45.127159,"libraryname":"Northtown Library","state":"MN"},"type":"Feature","geometry":{"type":"Point","coordinates":[-93.253854,45.127159]}},{"properties":{"city":"Norwood","lon":-93.914841,"zip":"","librarysystem":"Carver County Library System","id":"a6334d90mkh0","address":"102 Main Street E","lat":44.783351,"libraryname":"Norwood Young America Public Library","state":"MN"},"type":"Feature","geometry":{"type":"Point","coordinates":[-93.914841,44.783351]}},{"properties":{"city":"Oakdale","lon":-92.948371,"zip":"","librarysystem":"Washington County Library","id":"a6334d91f0jf","address":"1010 Heron Avenue N","lat":44.964196,"libraryname":"Oakdale Branch Library","state":"MN"},"type":"Feature","geometry":{"type":"Point","coordinates":[-92.948371,44.964196]}},{"properties":{"city":"Olivia","lon":-94.990873,"zip":"","librarysystem":"Pioneerland Library System","id":"a6334dels6cc","address":"405 South 10th Street","lat":44.773184,"libraryname":"Olivia Public Library","state":"MN"},"type":"Feature","geometry":{"type":"Point","coordinates":[-94.990873,44.773184]}},{"properties":{"city":"Ortonville","lon":-96.448301,"zip":"","librarysystem":"Pioneerland Library System","id":"a6334dcem3z3","address":"412 NW 2nd Street","lat":45.308327,"libraryname":"Ortonville Public Library","state":"MN"},"type":"Feature","geometry":{"type":"Point","coordinates":[-96.448301,45.308327]}},{"properties":{"city":"Osseo","lon":-93.402312,"zip":"","librarysystem":"Hennepin County Public Library","id":"a6334d3ydww5","address":"415 Central Avenue","lat":45.120499,"libraryname":"Osseo Community Library","state":"MN"},"type":"Feature","geometry":{"type":"Point","coordinates":[-93.402312,45.120499]}},{"properties":{"city":"Owatonna","lon":-93.223376,"zip":"","librarysystem":"Owatonna-Steele County Library","id":"a6334d10vtav","address":"105 N Elm Avenue","lat":44.084941,"libraryname":"Owatonna Public Library","state":"MN"},"type":"Feature","geometry":{"type":"Point","coordinates":[-93.223376,44.084941]}},{"properties":{"city":"Bloomington","lon":-93.26819,"zip":"","librarysystem":"Hennepin County Public Library","id":"a6334d5s30d9","address":"8801 Portland Avenue South","lat":44.844206,"libraryname":"Oxboro Community Library","state":"MN"},"type":"Feature","geometry":{"type":"Point","coordinates":[-93.26819,44.844206]}},{"properties":{"city":"Cottage Grove","lon":-92.952823,"zip":"","librarysystem":"Washington County Library","id":"a6334d3bv8o2","address":"7900 Hemingway Avenue S","lat":44.834927,"libraryname":"Park Grove Branch Library","state":"MN"},"type":"Feature","geometry":{"type":"Point","coordinates":[-92.952823,44.834927]}},{"properties":{"city":"Park Rapids","lon":-95.060331,"zip":"","librarysystem":"Kitchigami Regional Library System","id":"a6334d0ymtit","address":"210 W 1st Street","lat":46.922,"libraryname":"Park Rapids Public Library","state":"MN"},"type":"Feature","geometry":{"type":"Point","coordinates":[-95.060331,46.922]}},{"properties":{"city":"Paynesville","lon":-94.713262,"zip":"","librarysystem":"Great River Regional Library","id":"a6334dddzsq3","address":"119 Washburn Avenue","lat":45.38245,"libraryname":"Paynesville Branch Library","state":"MN"},"type":"Feature","geometry":{"type":"Point","coordinates":[-94.713262,45.38245]}},{"properties":{"city":"Pelican Rapids","lon":-96.084118,"zip":"","librarysystem":"Pelican Rapids Public Library","id":"a6334dfx9r6i","address":"25 West Mill Avenue","lat":46.569221,"libraryname":"Pelican Rapids Public Library","state":"MN"},"type":"Feature","geometry":{"type":"Point","coordinates":[-96.084118,46.569221]}},{"properties":{"city":"Bloomington","lon":-93.308917,"zip":"","librarysystem":"Hennepin County Public Library","id":"a6334d7zfu0j","address":"8800 Penn Avenue South","lat":44.844269,"libraryname":"Penn Lake Community Library","state":"MN"},"type":"Feature","geometry":{"type":"Point","coordinates":[-93.308917,44.844269]}},{"properties":{"city":"Perham","lon":-95.570442,"zip":"","librarysystem":"Perham Area Public Library","id":"a6334d4px3e9","address":"225 2nd Av NE","lat":46.594856,"libraryname":"Perham Area Public Library","state":"MN"},"type":"Feature","geometry":{"type":"Point","coordinates":[-95.570442,46.594856]}},{"properties":{"city":"Minneapolis","lon":-93.269634,"zip":"","librarysystem":"Minneapolis Public Library","id":"a6334dcucsb0","address":"55 Broadway St. NE","lat":44.99889,"libraryname":"Pierre Bottineau Community Library","state":"MN"},"type":"Feature","geometry":{"type":"Point","coordinates":[-93.269634,44.99889]}},{"properties":{"city":"Pierz","lon":-94.104848,"zip":"","librarysystem":"Great River Regional Library","id":"a6334d8eudt2","address":"220 Main Street","lat":45.982144,"libraryname":"Pierz Branch Library","state":"MN"},"type":"Feature","geometry":{"type":"Point","coordinates":[-94.104848,45.982144]}},{"properties":{"city":"Pine City","lon":-92.969452,"zip":"","librarysystem":"East Central Regional Library","id":"a6334d80wqyu","address":"300 5th St.","lat":45.826512,"libraryname":"Pine City Public Library","state":"MN"},"type":"Feature","geometry":{"type":"Point","coordinates":[-92.969452,45.826512]}},{"properties":{"city":"Pine River","lon":-94.407494,"zip":"","librarysystem":"Kitchigami Regional Library System","id":"a6334d1au8r6","address":"212 Park Avenue","lat":46.722313,"libraryname":"Pine River Public Library","state":"MN"},"type":"Feature","geometry":{"type":"Point","coordinates":[-94.407494,46.722313]}},{"properties":{"city":"Plainview","lon":-92.170547,"zip":"","librarysystem":"Plainview Public Library","id":"a6334db8rwdg","address":"345 1st Ave NW","lat":44.165871,"libraryname":"Plainview Public Library","state":"MN"},"type":"Feature","geometry":{"type":"Point","coordinates":[-92.170547,44.165871]}},{"properties":{"city":"Hastings","lon":-92.88574,"zip":"","librarysystem":"Dakota County Library","id":"a6334db1ou0l","address":"1490 Frontage Road","lat":44.738776,"libraryname":"Pleasant Hill Library","state":"MN"},"type":"Feature","geometry":{"type":"Point","coordinates":[-92.88574,44.738776]}},{"properties":{"city":"Plymouth","lon":-93.480146,"zip":"","librarysystem":"Hennepin County Public Library","id":"a6334d4ffccb","address":"15700 36th Avenue North","lat":45.02243,"libraryname":"Plymouth Community Library","state":"MN"},"type":"Feature","geometry":{"type":"Point","coordinates":[-93.480146,45.02243]}},{"properties":{"city":"Preston","lon":-92.083464,"zip":"","librarysystem":"Preston Public Library","id":"a6334ddb9cub","address":"101 St Paul St NW","lat":43.671278,"libraryname":"Preston Public Library","state":"MN"},"type":"Feature","geometry":{"type":"Point","coordinates":[-92.083464,43.671278]}},{"properties":{"city":"Princeton","lon":-93.578479,"zip":"","librarysystem":"East Central Regional Library","id":"a6334d643rsu","address":"100 S. 4th Avenue","lat":45.569583,"libraryname":"Princeton Area Library","state":"MN"},"type":"Feature","geometry":{"type":"Point","coordinates":[-93.578479,45.569583]}},{"properties":{"city":"Prior Lake","lon":-93.425818,"zip":"","librarysystem":"Scott County Library System","id":"a6334d5dhnay","address":"16210 Eagle Creek Avenue SE","lat":44.714123,"libraryname":"Prior Lake Branch Library","state":"MN"},"type":"Feature","geometry":{"type":"Point","coordinates":[-93.425818,44.714123]}},{"properties":{"city":"Raymond","lon":-95.23852,"zip":"","librarysystem":"Pioneerland Library System","id":"a6334d71fska","address":"208 Spicer Avenue","lat":45.017345,"libraryname":"Raymond Public Library","state":"MN"},"type":"Feature","geometry":{"type":"Point","coordinates":[-95.23852,45.017345]}},{"properties":{"city":"Red Lake Falls","lon":-96.275138,"zip":"","librarysystem":"Northwest Regional Library","id":"a6334d7zzvtz","address":"105 Champagne Avenue SW","lat":47.883151,"libraryname":"Red Lake Falls Public Library","state":"MN"},"type":"Feature","geometry":{"type":"Point","coordinates":[-96.275138,47.883151]}},{"properties":{"city":"Red Wing","lon":-92.536043,"zip":"","librarysystem":"Red Wing Public Library","id":"a6334d9osu9m","address":"225 East Avenue","lat":44.564835,"libraryname":"Red Wing Public Library","state":"MN"},"type":"Feature","geometry":{"type":"Point","coordinates":[-92.536043,44.564835]}},{"properties":{"city":"Redwood Falls","lon":-95.114457,"zip":"","librarysystem":"Redwood Falls Public Library","id":"a6334dcq5g58","address":"509 South Lincoln Street","lat":44.53767,"libraryname":"Redwood Falls Public Library","state":"MN"},"type":"Feature","geometry":{"type":"Point","coordinates":[-95.114457,44.53767]}},{"properties":{"city":"Renville","lon":-95.212144,"zip":"","librarysystem":"Pioneerland Library System","id":"a6334d1g36ej","address":"221 N. Main Street","lat":44.793415,"libraryname":"Renville Public Library","state":"MN"},"type":"Feature","geometry":{"type":"Point","coordinates":[-95.212144,44.793415]}},{"properties":{"city":"Woodbury","lon":-92.933414,"zip":"","librarysystem":"Washington County Library","id":"a6334d5puujw","address":"8595 Central Park Place","lat":44.9173,"libraryname":"Rh Stafford Branch Library","state":"MN"},"type":"Feature","geometry":{"type":"Point","coordinates":[-92.933414,44.9173]}},{"properties":{"city":"Saint Paul","lon":-93.106183,"zip":"","librarysystem":"Saint Paul Public Library","id":"a6334d4jl8e3","address":"1011 Rice Street","lat":44.971698,"libraryname":"Rice Street Branch Library","state":"MN"},"type":"Feature","geometry":{"type":"Point","coordinates":[-93.106183,44.971698]}},{"properties":{"city":"Richmond","lon":-94.520197,"zip":"","librarysystem":"Great River Regional Library","id":"a6334ddf3yno","address":"63 Hall Avenue SW","lat":45.453401,"libraryname":"Richmond Branch Library","state":"MN"},"type":"Feature","geometry":{"type":"Point","coordinates":[-94.520197,45.453401]}},{"properties":{"city":"Minnetonka","lon":-93.440138,"zip":"","librarysystem":"Hennepin County Public Library","id":"a6334d9aoz1r","address":"12601 Ridgedale Drive","lat":44.965499,"libraryname":"Ridgedale-Hennepin Area Library","state":"MN"},"type":"Feature","geometry":{"type":"Point","coordinates":[-93.440138,44.965499]}},{"properties":{"city":"Saint Paul","lon":-93.084994,"zip":"","librarysystem":"Saint Paul Public Library","id":"a6334d565s5m","address":"1 East George Street","lat":44.929793,"libraryname":"Riverview Branch Library","state":"MN"},"type":"Feature","geometry":{"type":"Point","coordinates":[-93.084994,44.929793]}},{"properties":{"city":"Rochester","lon":-92.461311,"zip":"","librarysystem":"Rochester Public Library","id":"a6334d7wusmh","address":"101 2nd Street Se","lat":44.021568,"libraryname":"Rochester Public Library","state":"MN"},"type":"Feature","geometry":{"type":"Point","coordinates":[-92.461311,44.021568]}},{"properties":{"city":"Luverne","lon":-96.211333,"zip":"","librarysystem":"Rock County Community Library","id":"a6334d07s5ab","address":"201 West Main","lat":43.654195,"libraryname":"Rock County Community Library","state":"MN"},"type":"Feature","geometry":{"type":"Point","coordinates":[-96.211333,43.654195]}},{"properties":{"city":"Rockford","lon":-93.715694,"zip":"","librarysystem":"Great River Regional Library","id":"a6334d559x3a","address":"8200 Cedar Street","lat":45.100788,"libraryname":"Rockford Public Library","state":"MN"},"type":"Feature","geometry":{"type":"Point","coordinates":[-93.715694,45.100788]}},{"properties":{"city":"Crystal","lon":-93.361345,"zip":"","librarysystem":"Hennepin County Public Library","id":"a6334detz25l","address":"6401 42nd Avenue North","lat":45.032646,"libraryname":"Rockford Road Community Library","state":"MN"},"type":"Feature","geometry":{"type":"Point","coordinates":[-93.361345,45.032646]}},{"properties":{"city":"Rogers","lon":-93.549188,"zip":"","librarysystem":"Hennepin County Public Library","id":"a6334d87vto3","address":"21300 John Milless Drive","lat":45.191821,"libraryname":"Rogers Community Library","state":"MN"},"type":"Feature","geometry":{"type":"Point","coordinates":[-93.549188,45.191821]}},{"properties":{"city":"Minneapolis","lon":-93.232254,"zip":"","librarysystem":"Minneapolis Public Library","id":"a6334czy8cr6","address":"4026 28th Avenue S","lat":44.929931,"libraryname":"Roosevelt Community Library","state":"MN"},"type":"Feature","geometry":{"type":"Point","coordinates":[-93.232254,44.929931]}},{"properties":{"city":"Roseau","lon":-95.761381,"zip":"","librarysystem":"Northwest Regional Library","id":"a6334d6rzq4l","address":"110 2nd Avenue NE","lat":48.846409,"libraryname":"Roseau Public Library","state":"MN"},"type":"Feature","geometry":{"type":"Point","coordinates":[-95.761381,48.846409]}},{"properties":{"city":"Roseville","lon":-93.156474,"zip":"","librarysystem":"Ramsey County Library","id":"a6334d5r0azu","address":"2180 North Hamline Avenue","lat":45.006884,"libraryname":"Roseville Library","state":"MN"},"type":"Feature","geometry":{"type":"Point","coordinates":[-93.156474,45.006884]}},{"properties":{"city":"St Michael","lon":-93.658172,"zip":"","librarysystem":"Great River Regional Library","id":"a6334dev0qgb","address":"403 Central Avenue East","lat":45.209982,"libraryname":"Roy Simms Community Library","state":"MN"},"type":"Feature","geometry":{"type":"Point","coordinates":[-93.658172,45.209982]}},{"properties":{"city":"Royalton","lon":-94.29176,"zip":"","librarysystem":"Great River Regional Library","id":"a6334ddcipfy","address":"13 North Cedar Street","lat":45.830213,"libraryname":"Royalton Branch Library","state":"MN"},"type":"Feature","geometry":{"type":"Point","coordinates":[-94.29176,45.830213]}},{"properties":{"city":"Anoka","lon":-93.380911,"zip":"","librarysystem":"Anoka County Public Library","id":"a6334dbappvi","address":"4201 6th Avenue N","lat":45.228538,"libraryname":"Rum River Library","state":"MN"},"type":"Feature","geometry":{"type":"Point","coordinates":[-93.380911,45.228538]}},{"properties":{"city":"Edgerton","lon":-96.130004,"zip":"","librarysystem":"Runals Memorial Library","id":"a6334ddvlm62","address":"750 1st Avenue W","lat":43.874206,"libraryname":"Runals Memorial Library","state":"MN"},"type":"Feature","geometry":{"type":"Point","coordinates":[-96.130004,43.874206]}},{"properties":{"city":"Rush City","lon":-92.964341,"zip":"","librarysystem":"East Central Regional Library","id":"a6334dad3qyz","address":"240 W. Fourth St.","lat":45.684887,"libraryname":"Rush City Public Library","state":"MN"},"type":"Feature","geometry":{"type":"Point","coordinates":[-92.964341,45.684887]}},{"properties":{"city":"Rushford","lon":-91.753215,"zip":"","librarysystem":"Rushford Public Library","id":"a6334d354j7b","address":"101 Mill Street N","lat":43.811735,"libraryname":"Rushford Public Library","state":"MN"},"type":"Feature","geometry":{"type":"Point","coordinates":[-91.753215,43.811735]}},{"properties":{"city":"Saint Paul","lon":-93.096706,"zip":"","librarysystem":"Saint Paul Public Library","id":"a6334d0dc4oc","address":"90 West Fourth Street","lat":44.94395,"libraryname":"Saint Paul Public Library","state":"MN"},"type":"Feature","geometry":{"type":"Point","coordinates":[-93.096706,44.94395]}},{"properties":{"city":"Sandstone","lon":-92.86679,"zip":"","librarysystem":"East Central Regional Library","id":"a6334dd5vxj9","address":"119 N. Fourth St.","lat":46.131817,"libraryname":"Sandstone Community Library","state":"MN"},"type":"Feature","geometry":{"type":"Point","coordinates":[-92.86679,46.131817]}},{"properties":{"city":"Savage","lon":-93.355733,"zip":"","librarysystem":"Scott County Library System","id":"a6334d967081","address":"13090 Alabama Av S","lat":44.765939,"libraryname":"Savage Branch Library","state":"MN"},"type":"Feature","geometry":{"type":"Point","coordinates":[-93.355733,44.765939]}},{"properties":{"city":"Shakopee","lon":-93.524748,"zip":"","librarysystem":"Scott County Library System","id":"a6334d8n3mtb","address":"235 S Lewis Street","lat":44.79734,"libraryname":"Shakopee Branch Library","state":"MN"},"type":"Feature","geometry":{"type":"Point","coordinates":[-93.524748,44.79734]}},{"properties":{"city":"Sherburn","lon":-94.727528,"zip":"","librarysystem":"Martin County Library","id":"a6334de49hzs","address":"27 N. Main St.","lat":43.652699,"libraryname":"Sherburn Branch Library","state":"MN"},"type":"Feature","geometry":{"type":"Point","coordinates":[-94.727528,43.652699]}},{"properties":{"city":"Shoreview","lon":-93.135164,"zip":"","librarysystem":"Ramsey County Library","id":"a6334dd9q3q3","address":"4570 North Victoria Street","lat":45.080764,"libraryname":"Shoreview Library","state":"MN"},"type":"Feature","geometry":{"type":"Point","coordinates":[-93.135164,45.080764]}},{"properties":{"city":"Silver Bay","lon":-91.274618,"zip":"","librarysystem":"Silver Bay Public Library","id":"a6334d2zsxmz","address":"9 Davis Drive","lat":47.295314,"libraryname":"Silver Bay Public Library","state":"MN"},"type":"Feature","geometry":{"type":"Point","coordinates":[-91.274618,47.295314]}},{"properties":{"city":"Hendricks","lon":-96.428153,"zip":"","librarysystem":"Siverson Public Library","id":"a6334d8yqzzr","address":"100 W Garfield","lat":44.507262,"libraryname":"Siverson Public Library","state":"MN"},"type":"Feature","geometry":{"type":"Point","coordinates":[-96.428153,44.507262]}},{"properties":{"city":"Slayton","lon":-95.756119,"zip":"","librarysystem":"Slayton Public Library","id":"a6334d79v0di","address":"2451 Broadway Av","lat":43.989734,"libraryname":"Slayton Public Library","state":"MN"},"type":"Feature","geometry":{"type":"Point","coordinates":[-95.756119,43.989734]}},{"properties":{"city":"South St Paul","lon":-93.037011,"zip":"","librarysystem":"South Saint Paul Public Library","id":"a6334dely0cl","address":"106 3rd Avenue N","lat":44.890847,"libraryname":"South Saint Paul Public Library","state":"MN"},"type":"Feature","geometry":{"type":"Point","coordinates":[-93.037011,44.890847]}},{"properties":{"city":"Edina","lon":-93.320911,"zip":"","librarysystem":"Hennepin County Public Library","id":"a6334df23375","address":"7001 York Avenue South","lat":44.876152,"libraryname":"Southdale-Hennepin Area Library","state":"MN"},"type":"Feature","geometry":{"type":"Point","coordinates":[-93.320911,44.876152]}},{"properties":{"city":"Minneapolis","lon":-93.238254,"zip":"","librarysystem":"Minneapolis Public Library","id":"a6334d9wqrqo","address":"1222 4th Street Se","lat":44.981327,"libraryname":"Southeast Community Library","state":"MN"},"type":"Feature","geometry":{"type":"Point","coordinates":[-93.238254,44.981327]}},{"properties":{"city":"Spicer","lon":-94.939436,"zip":"","librarysystem":"Pioneerland Library System","id":"a6334dbvbm4q","address":"198 Manitoba","lat":45.236084,"libraryname":"Spicer Public Library","state":"MN"},"type":"Feature","geometry":{"type":"Point","coordinates":[-94.939436,45.236084]}},{"properties":{"city":"Spring Grove","lon":-91.635343,"zip":"","librarysystem":"Spring Grove Public Library","id":"a6334d7whjrm","address":"115 East Main Street","lat":43.561186,"libraryname":"Spring Grove Public Library","state":"MN"},"type":"Feature","geometry":{"type":"Point","coordinates":[-91.635343,43.561186]}},{"properties":{"city":"Spring Valley","lon":-92.389947,"zip":"","librarysystem":"Spring Valley Public Library","id":"a6334czyoc8b","address":"121 West Jefferson St","lat":43.688912,"libraryname":"Spring Valley Public Library","state":"MN"},"type":"Feature","geometry":{"type":"Point","coordinates":[-92.389947,43.688912]}},{"properties":{"city":"Springfield","lon":-94.974729,"zip":"","librarysystem":"Springfield Public Library","id":"a6334dcy2lw3","address":"120 North Cass Avenue","lat":44.24024,"libraryname":"Springfield Public Library","state":"MN"},"type":"Feature","geometry":{"type":"Point","coordinates":[-94.974729,44.24024]}},{"properties":{"city":"St Anthony","lon":-96.665774,"zip":"","librarysystem":"Hennepin County Public Library","id":"a6334d8yx205","address":"St. Anthony Shopping Center","lat":47.34699,"libraryname":"St. Anthony Community Library","state":"MN"},"type":"Feature","geometry":{"type":"Point","coordinates":[-96.665774,47.34699]}},{"properties":{"city":"Saint Paul","lon":-93.193682,"zip":"","librarysystem":"Saint Paul Public Library","id":"a6334dcfp0wl","address":"2245 Como Avenue","lat":44.980816,"libraryname":"St. Anthony Park Branch Library","state":"MN"},"type":"Feature","geometry":{"type":"Point","coordinates":[-93.193682,44.980816]}},{"properties":{"city":"St Bonifacius","lon":-93.743781,"zip":"","librarysystem":"Hennepin County Public Library","id":"a6334d3ff6zg","address":"8624 Kennedy Memorial Drive","lat":44.904161,"libraryname":"St. Bonifacius Community Library","state":"MN"},"type":"Feature","geometry":{"type":"Point","coordinates":[-93.743781,44.904161]}},{"properties":{"city":"St. Charles","lon":-92.065339,"zip":"","librarysystem":"St. Charles Public Library","id":"a6334d02ig7e","address":"125 W. 11th Street","lat":43.967879,"libraryname":"St. Charles Public Library","state":"MN"},"type":"Feature","geometry":{"type":"Point","coordinates":[-92.065339,43.967879]}},{"properties":{"city":"St Cloud","lon":-94.151661,"zip":"","librarysystem":"Great River Regional Library","id":"a6334d4r9wg0","address":"405 St Germain","lat":45.565325,"libraryname":"St. Cloud Public Library","state":"MN"},"type":"Feature","geometry":{"type":"Point","coordinates":[-94.151661,45.565325]}},{"properties":{"city":"St Francis","lon":-93.354946,"zip":"","librarysystem":"Anoka County Public Library","id":"a6334d3ht2qq","address":"3519 Bridge St NW","lat":45.387119,"libraryname":"St. Francis Branch Library","state":"MN"},"type":"Feature","geometry":{"type":"Point","coordinates":[-93.354946,45.387119]}},{"properties":{"city":"St James","lon":-94.629166,"zip":"","librarysystem":"Watonwan County Library","id":"a6334d1bacbl","address":"125 5th Street S","lat":43.981343,"libraryname":"St. James-Watonwan County Library","state":"MN"},"type":"Feature","geometry":{"type":"Point","coordinates":[-94.629166,43.981343]}},{"properties":{"city":"St Louis Park","lon":-93.343394,"zip":"","librarysystem":"Hennepin County Public Library","id":"a6334dds8xvf","address":"3240 Library Lane","lat":44.94848,"libraryname":"St. Louis Park Community Library","state":"MN"},"type":"Feature","geometry":{"type":"Point","coordinates":[-93.343394,44.94848]}},{"properties":{"city":"St Peter","lon":-93.964886,"zip":"","librarysystem":"St. Peter Public Library","id":"a6334deen1e3","address":"601 South Washington Avenue","lat":44.323862,"libraryname":"St. Peter Public Library","state":"MN"},"type":"Feature","geometry":{"type":"Point","coordinates":[-93.964886,44.323862]}},{"properties":{"city":"Staples","lon":-94.791544,"zip":"","librarysystem":"Great River Regional Library","id":"a6334dg44u9i","address":"611 Iowa Avenue NE","lat":46.361237,"libraryname":"Staples Public Library","state":"MN"},"type":"Feature","geometry":{"type":"Point","coordinates":[-94.791544,46.361237]}},{"properties":{"city":"Stewartville","lon":-92.487909,"zip":"","librarysystem":"Stewartville Public Library","id":"a6334dawuzt3","address":"110 2nd Street Se","lat":43.854397,"libraryname":"Stewartville Public Library","state":"MN"},"type":"Feature","geometry":{"type":"Point","coordinates":[-92.487909,43.854397]}},{"properties":{"city":"Stillwater","lon":-92.809497,"zip":"","librarysystem":"Stillwater Public Library","id":"a6334dan61it","address":"224 Third Street North","lat":45.057115,"libraryname":"Stillwater Public Library","state":"MN"},"type":"Feature","geometry":{"type":"Point","coordinates":[-92.809497,45.057115]}},{"properties":{"city":"Minneapolis","lon":-93.2942,"zip":"","librarysystem":"Minneapolis Public Library","id":"a6334d02azlt","address":"611 Emerson Avenue N","lat":44.984586,"libraryname":"Sumner Community Library","state":"MN"},"type":"Feature","geometry":{"type":"Point","coordinates":[-93.2942,44.984586]}},{"properties":{"city":"Saint Paul","lon":-93.011079,"zip":"","librarysystem":"Saint Paul Public Library","id":"a6334degq6xk","address":"2105 Wilson Avenue","lat":44.95425,"libraryname":"Sun Ray Branch Library","state":"MN"},"type":"Feature","geometry":{"type":"Point","coordinates":[-93.011079,44.95425]}},{"properties":{"city":"Swanville","lon":-94.640599,"zip":"","librarysystem":"Great River Regional Library","id":"a6334d1hqcv2","address":"213 Degraff Street","lat":45.913045,"libraryname":"Swanville Branch Library","state":"MN"},"type":"Feature","geometry":{"type":"Point","coordinates":[-94.640599,45.913045]}},{"properties":{"city":"Taylors Falls","lon":-92.652892,"zip":"","librarysystem":"Taylors Falls Public Library","id":"a6334dfp5pz6","address":"473 Bench Street","lat":45.404302,"libraryname":"Taylors Falls Public Library","state":"MN"},"type":"Feature","geometry":{"type":"Point","coordinates":[-92.652892,45.404302]}},{"properties":{"city":"Thief River Falls","lon":-96.18139,"zip":"","librarysystem":"Northwest Regional Library","id":"a6334dc2xitc","address":"101 East First Street","lat":48.117118,"libraryname":"Thief River Falls Public Library","state":"MN"},"type":"Feature","geometry":{"type":"Point","coordinates":[-96.18139,48.117118]}},{"properties":{"city":"Elbow Lake","lon":-95.977271,"zip":"","librarysystem":"Thorson Memorial Library","id":"a6334dcimjdg","address":"117 Central Avenue","lat":45.994798,"libraryname":"Thorson Memorial Library","state":"MN"},"type":"Feature","geometry":{"type":"Point","coordinates":[-95.977271,45.994798]}},{"properties":{"city":"Tracy","lon":-95.620044,"zip":"","librarysystem":"Tracy Public Library","id":"a6334ddyl0hq","address":"117 3rd St.","lat":44.23242,"libraryname":"Tracy Public Library","state":"MN"},"type":"Feature","geometry":{"type":"Point","coordinates":[-95.620044,44.23242]}},{"properties":{"city":"Trimont","lon":-94.71786,"zip":"","librarysystem":"Martin County Library","id":"a6334d8nakxn","address":"190 Main Street West","lat":43.761827,"libraryname":"Trimont Branch Library","state":"MN"},"type":"Feature","geometry":{"type":"Point","coordinates":[-94.71786,43.761827]}},{"properties":{"city":"Truman","lon":-94.435501,"zip":"","librarysystem":"Martin County Library","id":"a6334df039xw","address":"101 East Ciro Street","lat":43.827602,"libraryname":"Truman Branch Library","state":"MN"},"type":"Feature","geometry":{"type":"Point","coordinates":[-94.435501,43.827602]}},{"properties":{"city":"Two Harbors","lon":-91.670914,"zip":"","librarysystem":"Two Harbors Public Library","id":"a6334d8j2l00","address":"320 Waterfront Drive","lat":47.021976,"libraryname":"Two Harbors Public Library","state":"MN"},"type":"Feature","geometry":{"type":"Point","coordinates":[-91.670914,47.021976]}},{"properties":{"city":"Tyler","lon":-96.134437,"zip":"","librarysystem":"Tyler Public Library","id":"a6334d1i2fxf","address":"230 Tyler Street N","lat":44.27884,"libraryname":"Tyler Public Library","state":"MN"},"type":"Feature","geometry":{"type":"Point","coordinates":[-96.134437,44.27884]}},{"properties":{"city":"Upsala","lon":-94.571639,"zip":"","librarysystem":"Great River Regional Library","id":"a6334d7hyc3k","address":"Main Street","lat":45.817224,"libraryname":"Upsala Branch Library","state":"MN"},"type":"Feature","geometry":{"type":"Point","coordinates":[-94.571639,45.817224]}},{"properties":{"city":"Lakeland","lon":-92.771184,"zip":"","librarysystem":"Washington County Library","id":"a6334d3dn9ow","address":"380 St. Croix Trail S","lat":44.943686,"libraryname":"Valley Branch Library","state":"MN"},"type":"Feature","geometry":{"type":"Point","coordinates":[-92.771184,44.943686]}},{"properties":{"city":"Pine Island","lon":-92.646053,"zip":"","librarysystem":"Van Horn Public Library","id":"a6334de8ckxg","address":"115 Se 3rd Street","lat":44.200268,"libraryname":"Van Horn Public Library","state":"MN"},"type":"Feature","geometry":{"type":"Point","coordinates":[-92.646053,44.200268]}},{"properties":{"city":"Virginia","lon":-92.538804,"zip":"","librarysystem":"Virginia Public Library","id":"a6334d9a2580","address":"215 5th Avenue S","lat":47.522008,"libraryname":"Virginia Public Library","state":"MN"},"type":"Feature","geometry":{"type":"Point","coordinates":[-92.538804,47.522008]}},{"properties":{"city":"Wabasha","lon":-92.033476,"zip":"","librarysystem":"Wabasha Public Library","id":"a6334d6pm5n1","address":"168 Alleghany Ave","lat":44.383456,"libraryname":"Wabasha Public Library","state":"MN"},"type":"Feature","geometry":{"type":"Point","coordinates":[-92.033476,44.383456]}},{"properties":{"city":"Wabasso","lon":-95.255854,"zip":"","librarysystem":"Wabasso Public Library","id":"a6334d0fn93l","address":"1248 Oak St","lat":44.402835,"libraryname":"Wabasso Public Library","state":"MN"},"type":"Feature","geometry":{"type":"Point","coordinates":[-95.255854,44.402835]}},{"properties":{"city":"Waconia","lon":-93.785937,"zip":"","librarysystem":"Carver County Library System","id":"a6334d5ott4z","address":"101 S Elm Street","lat":44.849202,"libraryname":"Waconia Public Library","state":"MN"},"type":"Feature","geometry":{"type":"Point","coordinates":[-93.785937,44.849202]}},{"properties":{"city":"Wadena","lon":-95.139521,"zip":"","librarysystem":"Kitchigami Regional Library System","id":"a6334d0x3s00","address":"304 1st Street SW","lat":46.439574,"libraryname":"Wadena Public Library","state":"MN"},"type":"Feature","geometry":{"type":"Point","coordinates":[-95.139521,46.439574]}},{"properties":{"city":"Waite Park","lon":-94.22299,"zip":"","librarysystem":"Great River Regional Library","id":"a6334d67x3qn","address":"253 N 5th Av","lat":45.558081,"libraryname":"Waite Park Branch Library","state":"MN"},"type":"Feature","geometry":{"type":"Point","coordinates":[-94.22299,45.558081]}},{"properties":{"city":"Waldorf","lon":-93.697619,"zip":"","librarysystem":"Waseca-Le Sueur Regional Library","id":"a6334d6sddgn","address":"109 Main Street North","lat":43.93502,"libraryname":"Waldorf Public Library","state":"MN"},"type":"Feature","geometry":{"type":"Point","coordinates":[-93.697619,43.93502]}},{"properties":{"city":"Minneapolis","lon":-93.213065,"zip":"","librarysystem":"Minneapolis Public Library","id":"a6334d5brtjn","address":"2880 Hennepin Av","lat":44.991459,"libraryname":"Walker Community Library","state":"MN"},"type":"Feature","geometry":{"type":"Point","coordinates":[-93.213065,44.991459]}},{"properties":{"city":"Walker","lon":-94.580143,"zip":"","librarysystem":"Kitchigami Regional Library System","id":"a6334dfjs6do","address":"207 4th Street","lat":47.098973,"libraryname":"Walker Public Library","state":"MN"},"type":"Feature","geometry":{"type":"Point","coordinates":[-94.580143,47.098973]}},{"properties":{"city":"Warroad","lon":-95.317241,"zip":"","librarysystem":"Northwest Regional Library","id":"a6334d8j71dj","address":"202 North Main","lat":48.905731,"libraryname":"Warroad Public Library","state":"MN"},"type":"Feature","geometry":{"type":"Point","coordinates":[-95.317241,48.905731]}},{"properties":{"city":"Waseca","lon":-93.507126,"zip":"","librarysystem":"Waseca-Le Sueur Regional Library","id":"a6334d48gc89","address":"408 N State St","lat":44.080913,"libraryname":"Waseca Public Library","state":"MN"},"type":"Feature","geometry":{"type":"Point","coordinates":[-93.507126,44.080913]}},{"properties":{"city":"Minneapolis","lon":-93.288484,"zip":"","librarysystem":"Minneapolis Public Library","id":"a6334db7uswh","address":"5244 Lyndale Avenue S","lat":44.907284,"libraryname":"Washburn Community Library","state":"MN"},"type":"Feature","geometry":{"type":"Point","coordinates":[-93.288484,44.907284]}},{"properties":{"city":"Watertown","lon":-93.84536,"zip":"","librarysystem":"Carver County Library System","id":"a6334d1d7a00","address":"309 Lewis Avenue","lat":44.965835,"libraryname":"Watertown Library","state":"MN"},"type":"Feature","geometry":{"type":"Point","coordinates":[-93.84536,44.965835]}},{"properties":{"city":"Waterville","lon":-93.567467,"zip":"","librarysystem":"Waseca-Le Sueur Regional Library","id":"a6334d1le5vx","address":"210 E Paquin St","lat":44.217582,"libraryname":"Waterville Public Library","state":"MN"},"type":"Feature","geometry":{"type":"Point","coordinates":[-93.567467,44.217582]}},{"properties":{"city":"Wayzata","lon":-93.512192,"zip":"","librarysystem":"Hennepin County Public Library","id":"a6334d63xlxh","address":"620 Rice Street","lat":44.971471,"libraryname":"Wayzata Community Library","state":"MN"},"type":"Feature","geometry":{"type":"Point","coordinates":[-93.512192,44.971471]}},{"properties":{"city":"Minneapolis","lon":-93.29131,"zip":"","librarysystem":"Minneapolis Public Library","id":"a6334d5qychw","address":"4310 Webber Parkway","lat":45.033346,"libraryname":"Webber Park Community Library","state":"MN"},"type":"Feature","geometry":{"type":"Point","coordinates":[-93.29131,45.033346]}},{"properties":{"city":"Welcome","lon":-94.618259,"zip":"","librarysystem":"Martin County Library","id":"a6334czuk7o0","address":"304 1st Street","lat":43.66723,"libraryname":"Welcome Branch Library","state":"MN"},"type":"Feature","geometry":{"type":"Point","coordinates":[-94.618259,43.66723]}},{"properties":{"city":"Wells","lon":-93.726274,"zip":"","librarysystem":"Wells Public Library","id":"a6334d8dza4k","address":"54 1st Street SW","lat":43.744005,"libraryname":"Wells Public Library","state":"MN"},"type":"Feature","geometry":{"type":"Point","coordinates":[-93.726274,43.744005]}},{"properties":{"city":"West St. Paul","lon":-93.091996,"zip":"","librarysystem":"Dakota County Library","id":"a6334daxyyey","address":"199 Wentworth Av","lat":44.898174,"libraryname":"Wentworth Comm Library","state":"MN"},"type":"Feature","geometry":{"type":"Point","coordinates":[-93.091996,44.898174]}},{"properties":{"city":"Eagan","lon":-93.163667,"zip":"","librarysystem":"Dakota County Library","id":"a6334d004mmt","address":"1340 Wescott Road","lat":44.818769,"libraryname":"Wescott Community Library","state":"MN"},"type":"Feature","geometry":{"type":"Point","coordinates":[-93.163667,44.818769]}},{"properties":{"city":"Saint Paul","lon":-93.123384,"zip":"","librarysystem":"Saint Paul Public Library","id":"a6334d2067w9","address":"265 Oneida Street","lat":44.933304,"libraryname":"West 7th Street Popular Library","state":"MN"},"type":"Feature","geometry":{"type":"Point","coordinates":[-93.123384,44.933304]}},{"properties":{"city":"West Concord","lon":-92.899066,"zip":"","librarysystem":"West Concord Public Library","id":"a6334ddv3nki","address":"180 E Main Street","lat":44.151848,"libraryname":"West Concord Public Library","state":"MN"},"type":"Feature","geometry":{"type":"Point","coordinates":[-92.899066,44.151848]}},{"properties":{"city":"Duluth","lon":-92.170862,"zip":"","librarysystem":"Duluth Public Library","id":"a6334d5x7vok","address":"5830 Grand Avenue","lat":46.737585,"libraryname":"West Duluth Branch Library","state":"MN"},"type":"Feature","geometry":{"type":"Point","coordinates":[-92.170862,46.737585]}},{"properties":{"city":"Westbrook","lon":-95.436232,"zip":"","librarysystem":"Westbrook Public Library","id":"a6334daxa5a5","address":"556 1st Avenue","lat":44.041638,"libraryname":"Westbrook Public Library","state":"MN"},"type":"Feature","geometry":{"type":"Point","coordinates":[-95.436232,44.041638]}},{"properties":{"city":"Mound","lon":-93.66629,"zip":"","librarysystem":"Hennepin County Public Library","id":"a6334d8qh47q","address":"2079 Commerce Boulevard","lat":44.940846,"libraryname":"Westonka Community Library","state":"MN"},"type":"Feature","geometry":{"type":"Point","coordinates":[-93.66629,44.940846]}},{"properties":{"city":"Wheaton","lon":-96.495625,"zip":"","librarysystem":"Wheaton Community Library","id":"a6334d70cksl","address":"901 1st Avenue N","lat":45.805245,"libraryname":"Wheaton Community Library","state":"MN"},"type":"Feature","geometry":{"type":"Point","coordinates":[-96.495625,45.805245]}},{"properties":{"city":"White Bear Lake","lon":-93.009737,"zip":"","librarysystem":"Ramsey County Library","id":"a6334db6eftw","address":"4698 Clark Avenue","lat":45.083202,"libraryname":"White Bear Lake Library","state":"MN"},"type":"Feature","geometry":{"type":"Point","coordinates":[-93.009737,45.083202]}},{"properties":{"city":"Mahtomedi","lon":-92.950752,"zip":"","librarysystem":"Washington County Library","id":"a6334dbqu5o0","address":"763 Stillwater Road","lat":45.056981,"libraryname":"Wildwood Branch Library","state":"MN"},"type":"Feature","geometry":{"type":"Point","coordinates":[-92.950752,45.056981]}},{"properties":{"city":"Willmar","lon":-95.04936,"zip":"","librarysystem":"Pioneerland Library System","id":"a6334dap8cwo","address":"410 SW Fifth Street","lat":45.119886,"libraryname":"Willmar Public Library","state":"MN"},"type":"Feature","geometry":{"type":"Point","coordinates":[-95.04936,45.119886]}},{"properties":{"city":"Windom","lon":-95.117829,"zip":"","librarysystem":"Windom Public Library","id":"a6334czrisb0","address":"904 4th Avenue","lat":43.865562,"libraryname":"Windom Public Library","state":"MN"},"type":"Feature","geometry":{"type":"Point","coordinates":[-95.117829,43.865562]}},{"properties":{"city":"Winona","lon":-91.640431,"zip":"","librarysystem":"Winona Public Library","id":"a6334dcdrflr","address":"151 W Fifth Street","lat":44.051146,"libraryname":"Winona Public Library","state":"MN"},"type":"Feature","geometry":{"type":"Point","coordinates":[-91.640431,44.051146]}},{"properties":{"city":"Winsted","lon":-94.055493,"zip":"","librarysystem":"Pioneerland Library System","id":"a6334dcpqfbr","address":"180 Main Avenue W","lat":44.96398,"libraryname":"Winsted Public Library","state":"MN"},"type":"Feature","geometry":{"type":"Point","coordinates":[-94.055493,44.96398]}},{"properties":{"city":"Winthrop","lon":-94.3642,"zip":"","librarysystem":"Sibley County Library System","id":"a6334de5on1e","address":"305 N. Main St.","lat":44.542194,"libraryname":"Winthrop Public Library","state":"MN"},"type":"Feature","geometry":{"type":"Point","coordinates":[-94.3642,44.542194]}},{"properties":{"city":"Zumbrota","lon":-92.670496,"zip":"","librarysystem":"Zumbrota Public Library","id":"a6334d8lvdbl","address":"100 West Ave","lat":44.295429,"libraryname":"Zumbrota Public Library","state":"MN"},"type":"Feature","geometry":{"type":"Point","coordinates":[-92.670496,44.295429]}}],"is_temporal":false,"author":{"url":"http://www.publiclibraries.com/minnesota.htm","metadata":"","contact_name":"","contact_address":"","source":"publiclibrairies.com","contact_phone":""},"source":"http://www.publiclibraries.com/minnesota.htm","pagination":{"sort":null,"start":0,"total":357,"limit":1000000},"state":"complete","tags":"books,education,libraries,library,minnesota,public","published":"2008-05-09T12:00:00Z","id":907}