{"type":"FeatureCollection","data_type":"Dataset","url_type":null,"permissions":[{"permissions":{"download":true,"view":true},"group_id":"everyone"}],"classification":null,"title":"Proposed Purple Line Rail Stations, New Carrolton to Bethesda, MD, 2009","count":34,"stream_id":9099,"contributor":{"url":"http://geocommons.com/users/2943","name":"Margot"},"data_attributes":null,"calculation_params":null,"icon_link":null,"link":"http://geocommons.com/overlays/9099.json","extent":[-77.0973,38.9482,-76.866,39.0011],"geometry_types":["point"],"unique_name":null,"name":"Proposed Purple Line Rail Stations, New Carrolton to Bethesda, MD, 2009","feature_count":34,"description":"This data was taken from two maps and locations for the proposed purple line stations were approximated using Google Earth to get latitude and longitude. Maps were found at the Maryland Transit Administration website. I used several of the maps provided to estimate points. ","next_feature":null,"is_raster":false,"short_classification":"Y","stats":{"lat":{"max":39.001094,"mean":38.9841312058824,"variance":0.000266052669986632,"stdev":0.0163111210524179,"min":38.948193,"median":38.988309},"long":{"max":-76.866005,"mean":-76.9900465882353,"variance":0.00535669833091615,"stdev":0.073189468715903,"min":-77.097251,"median":-76.994856}},"features":[{"properties":{"status":"New","city":"Bethesda","zip":"","line":"Purple","street":"Bethesda Ave and Capital Crescent Trail","id":"a62cos6j1da1","stationname":"Bethesda","lat":38.980982,"state":"MD","long":-77.095649},"type":"Feature","geometry":{"type":"Point","coordinates":[-77.095649,38.980982]}},{"properties":{"status":"New","city":"Bethesda","zip":"","line":"Purple","street":"Edgemoor Lane and Commerce Lane","id":"a62cos5aryee","stationname":"Bethesda","lat":38.984741,"state":"MD","long":-77.095777},"type":"Feature","geometry":{"type":"Point","coordinates":[-77.095777,38.984741]}},{"properties":{"status":"New","city":"Bethesda","zip":"","line":"Purple","street":"Woodmont Avenue and Wisconsin Avenue","id":"a62cos3i32qf","stationname":"Bethesda","lat":38.996501,"state":"MD","long":-77.097127},"type":"Feature","geometry":{"type":"Point","coordinates":[-77.097127,38.996501]}},{"properties":{"status":"Existing","city":"Bethesda","zip":20814,"line":"Red","street":"8810 Rockville Pike (Metro)","id":"a62cos44cqq7","stationname":"Bethesda","lat":39.000478,"state":"MD","long":-77.097251},"type":"Feature","geometry":{"type":"Point","coordinates":[-77.097251,39.000478]}},{"properties":{"status":"Existing","city":"Bethesda","zip":20814,"line":"Red","street":"7450 Wisconsin Ave (Metro)","id":"a62cos4a3cok","stationname":"Bethesda","lat":38.984061,"state":"MD","long":-77.094275},"type":"Feature","geometry":{"type":"Point","coordinates":[-77.094275,38.984061]}},{"properties":{"status":"New","city":"Chevy Chase","zip":20815,"line":"Purple","street":"Connecticut Avenue and Georgetown Branch Trail ROW (Capital Crescent Trail)","id":"a62cosarhvws","stationname":"Chevy Chase Lake","lat":38.994293,"state":"MD","long":-77.07727},"type":"Feature","geometry":{"type":"Point","coordinates":[-77.07727,38.994293]}},{"properties":{"status":"Existing","city":"College Park","zip":20740,"line":"Green","street":"4930 Calvert Road (Metro)","id":"a62coseq2159","stationname":"College Park","lat":38.977695,"state":"MD","long":-76.926569},"type":"Feature","geometry":{"type":"Point","coordinates":[-76.926569,38.977695]}},{"properties":{"status":"New","city":"College Park","zip":"","line":"Purple","street":"River Road east of Haiig Ct Road","id":"a62cosgg7rbi","stationname":"College Park UM","lat":38.968623,"state":"MD","long":-76.924894},"type":"Feature","geometry":{"type":"Point","coordinates":[-76.924894,38.968623]}},{"properties":{"status":"New","city":"College Park","zip":"","line":"Purple","street":"Paint Branch Parkway River Road","id":"a62cosg338kr","stationname":"College Park UM","lat":38.977587,"state":"MD","long":-76.92731},"type":"Feature","geometry":{"type":"Point","coordinates":[-76.92731,38.977587]}},{"properties":{"status":"New","city":"Silver Spring","zip":"","line":"Purple","street":"16th St","id":"a62cos6co6nq","stationname":"East Silver Spring","lat":38.999689,"state":"MD","long":-77.04019},"type":"Feature","geometry":{"type":"Point","coordinates":[-77.04019,38.999689]}},{"properties":{"status":"New","city":"Silver Spring","zip":"","line":"Purple","street":"Dale Drive and Wayne Avenue","id":"a62coscxbtus","stationname":"East Silver Spring (The Woodside community)","lat":38.999505,"state":"MD","long":-77.017254},"type":"Feature","geometry":{"type":"Point","coordinates":[-77.017254,38.999505]}},{"properties":{"status":"New","city":"Silver Spring","zip":20901,"line":"Purple","street":"E. Wayne Avenue east of Manchester Rd.","id":"a62cosab9xy1","stationname":"East Silver Spring (The Woodside community)","lat":39.001094,"state":"MD","long":-77.008554},"type":"Feature","geometry":{"type":"Point","coordinates":[-77.008554,39.001094]}},{"properties":{"status":"New","city":"Silver Spring","zip":"","line":"Purple","street":"Thayer Avenue","id":"a62cosdcdmg7","stationname":"East Silver Spring - near East Silver Spring Elementary School (The Woodside community)","lat":38.993244,"state":"MD","long":-77.017889},"type":"Feature","geometry":{"type":"Point","coordinates":[-77.017889,38.993244]}},{"properties":{"status":"New","city":"Silver Spring","zip":"","line":"Purple","street":"Fenton St and Wayne Avenue","id":"a62cos0c3hbx","stationname":"East Silver Spring - near Silver Spring Shopping Center (The Woodside community)","lat":38.995056,"state":"MD","long":-77.02448},"type":"Feature","geometry":{"type":"Point","coordinates":[-77.02448,38.995056]}},{"properties":{"status":"New","city":"Chevy Chase","zip":"","line":"Purple","street":"Lyttonsville Place and Capital Crescent Trail","id":"a62cos9zt265","stationname":"Lyttonsville","lat":39.00026,"state":"MD","long":-77.053799},"type":"Feature","geometry":{"type":"Point","coordinates":[-77.053799,39.00026]}},{"properties":{"status":"New","city":"Silver Spring","zip":"","line":"Purple","street":"2nd Avenue and Wayne Avenue north of Bonifant Street","id":"a62cosghgkmq","stationname":"Metropark","lat":38.994185,"state":"MD","long":-77.030218},"type":"Feature","geometry":{"type":"Point","coordinates":[-77.030218,38.994185]}},{"properties":{"status":"New","city":"Hyattsville","zip":20784,"line":"Purple","street":"Veterans Parkway and Annapolis Road","id":"a62cosfkmgkb","stationname":"New Carrollton","lat":38.951867,"state":"MD","long":-76.885998},"type":"Feature","geometry":{"type":"Point","coordinates":[-76.885998,38.951867]}},{"properties":{"status":"New","city":"New Carrollton","zip":"","line":"Purple","street":"Ellin Road by Stadium","id":"a62cos2ckyv2","stationname":"New Carrolton","lat":38.948193,"state":"MD","long":-76.87428},"type":"Feature","geometry":{"type":"Point","coordinates":[-76.87428,38.948193]}},{"properties":{"status":"Existing","city":"New Carrollton","zip":20786,"line":"Orange","street":"4300 Garden City Drive (Amtrak)","id":"a62cos5o5o65","stationname":"New Carrolton","lat":38.948499,"state":"MD","long":-76.868912},"type":"Feature","geometry":{"type":"Point","coordinates":[-76.868912,38.948499]}},{"properties":{"status":"New","city":"New Carrollton","zip":20737,"line":"Purple","street":"Veterans Parkway and Riverdale Road","id":"a62cosd48nu0","stationname":"New Carrolton","lat":38.963282,"state":"MD","long":-76.900294},"type":"Feature","geometry":{"type":"Point","coordinates":[-76.900294,38.963282]}},{"properties":{"status":"Existing","city":"New Carrollton","zip":20785,"line":"Orange","street":"4700 Garden City Drive (Metro, AMTRAK, MARC)","id":"a62cos652q6o","stationname":"New Carrolton","lat":38.950979,"state":"MD","long":-76.866005},"type":"Feature","geometry":{"type":"Point","coordinates":[-76.866005,38.950979]}},{"properties":{"status":"New","city":"East Silver Spring","zip":"","line":"Purple","street":"Arliss St north of Piney Branch Rd","id":"a62cos87e853","stationname":"Piney Branch and Arliss St","lat":38.998919,"state":"MD","long":-77.001373},"type":"Feature","geometry":{"type":"Point","coordinates":[-77.001373,38.998919]}},{"properties":{"status":"New","city":"Bethesda","zip":"","line":"Purple","street":"Kenilworth and 410","id":"a62cosddkz7i","stationname":"Riverdale Heights","lat":38.96069,"state":"MD","long":-76.91965},"type":"Feature","geometry":{"type":"Point","coordinates":[-76.91965,38.96069]}},{"properties":{"status":"Existing","city":"Silver Spring","zip":20910,"line":"Red","street":"8400 Colesville Road (Metro)","id":"a62cosar1egq","stationname":"Silver Spring","lat":38.994073,"state":"MD","long":-77.031178},"type":"Feature","geometry":{"type":"Point","coordinates":[-77.031178,38.994073]}},{"properties":{"status":"Existing","city":"Silver Spring","zip":20911,"line":"Red","street":"1170 Bonifant Street (MARC)","id":"a62cosgbf8j8","stationname":"Silver Spring","lat":38.993208,"state":"MD","long":-77.02961},"type":"Feature","geometry":{"type":"Point","coordinates":[-77.02961,38.993208]}},{"properties":{"status":"New","city":"College Park","zip":"","line":"Purple","street":"Gilbert Street and University Blvd.","id":"a62cose7y3nn","stationname":"The Long Branch section of Takoma Park and Silver Spring","lat":38.998338,"state":"MD","long":-76.994856},"type":"Feature","geometry":{"type":"Point","coordinates":[-76.994856,38.998338]}},{"properties":{"status":"New","city":"College Park","zip":"","line":"Purple","street":"New Hampshire and University Blvd.","id":"a62coseqdltz","stationname":"The border between Takoma Park and Langley Park (New Hampshire Avenue and University Boulevard)","lat":38.98889,"state":"MD","long":-76.987934},"type":"Feature","geometry":{"type":"Point","coordinates":[-76.987934,38.98889]}},{"properties":{"status":"New","city":"College Park","zip":"","line":"Purple","street":"Riggs Road and University Blvd","id":"a62cos6qsm37","stationname":"The main commercial zone in Langley Park (Riggs Road and University Boulevard)","lat":38.984144,"state":"MD","long":-76.979403},"type":"Feature","geometry":{"type":"Point","coordinates":[-76.979403,38.984144]}},{"properties":{"status":"New","city":"College Park","zip":"","line":"Purple","street":"Adelphi Road and Campus Drive","id":"a62cos7xhji8","stationname":"University of Maryland","lat":38.985642,"state":"MD","long":-76.955039},"type":"Feature","geometry":{"type":"Point","coordinates":[-76.955039,38.985642]}},{"properties":{"status":"New","city":"College Park","zip":"","line":"Purple","street":"Campus Drive between Cole Field House and Health Center campus center","id":"a62cos2tsm7a","stationname":"University of Maryland - Campus Center","lat":38.987525,"state":"MD","long":-76.944117},"type":"Feature","geometry":{"type":"Point","coordinates":[-76.944117,38.987525]}},{"properties":{"status":"New","city":"College Park","zip":"","line":"Purple","street":"Preinkert Drive campus center","id":"a62cos57ul12","stationname":"University of Maryland - Campus Center","lat":38.984649,"state":"MD","long":-76.945871},"type":"Feature","geometry":{"type":"Point","coordinates":[-76.945871,38.984649]}},{"properties":{"status":"New","city":"College Park","zip":"","line":"Purple","street":"Paint Branch Parkway and Route 1","id":"a62cos1hgk4u","stationname":"University of Maryland - East Campus","lat":38.988309,"state":"MD","long":-76.934873},"type":"Feature","geometry":{"type":"Point","coordinates":[-76.934873,38.988309]}},{"properties":{"status":"New","city":"College Park","zip":"","line":"Purple","street":"Rte 1 and Rosborough Lane","id":"a62cosfbvyv0","stationname":"University of Maryland - East Campus","lat":38.985362,"state":"MD","long":-76.936688},"type":"Feature","geometry":{"type":"Point","coordinates":[-76.936688,38.985362]}},{"properties":{"status":"New","city":"Bethesda","zip":"","line":"Purple","street":"Connecticut Avenue and Jones Bridge Road","id":"a62cos894pft","stationname":"Woodmont Avenue and 355 (Woodmont/Chevy Chase)","lat":38.999898,"state":"MD","long":-77.076997},"type":"Feature","geometry":{"type":"Point","coordinates":[-77.076997,38.999898]}}],"is_temporal":false,"author":{"url":"http://www.purplelinemd.com/about-the-project/purple-line-facts","metadata":"http://www.purplelinemd.com/about-the-project/purple-line-facts","contact_name":"","contact_address":"","source":"The Department of Transportation - Maryland Transit Administration","contact_phone":""},"source":"http://www.purplelinemd.com/about-the-project/purple-line-facts","pagination":{"sort":null,"start":0,"total":34,"limit":1000000},"state":"complete","tags":"amtrak,commuters,county,lines,marc,maryland,md,metro,metrorail,montgomery,purpleline,rail,rails,stations,transit,transportation","published":"2009-01-29T12:00:00Z","id":9099}