{"type":"FeatureCollection","data_type":"Dataset","url_type":null,"permissions":[{"permissions":{"download":true,"view":true},"group_id":"everyone"}],"classification":null,"title":"JG Schools with GPS","count":22,"stream_id":91056,"contributor":{"url":"http://geocommons.com/users/21780","name":"jrgreen57"},"data_attributes":null,"calculation_params":null,"icon_link":null,"link":"http://geocommons.com/overlays/91056.json","extent":[-122.826,53.8486,-122.36,54.0722],"geometry_types":["point"],"unique_name":null,"name":"JG Schools with GPS","feature_count":22,"description":"Gen info test","next_feature":null,"is_raster":false,"short_classification":"Y","stats":{"latitude":{"max":54.072207,"mean":53.9519391818182,"variance":0.00255930051710823,"stdev":0.050589529718196,"min":53.848597,"median":53.933851},"longitude":{"max":-122.360272,"mean":-122.755053772727,"variance":0.00999021426389838,"stdev":0.0999510593435526,"min":-122.825771,"median":-122.783418}},"features":[{"properties":{"name":"15-May-07","city":"School","latitude":53.98884,"contact":"Luc St. Denis","country":"Canada","type":"Jim Green","street":"4543 Austin Road West","color":"red","longitude":-122.802901,"id":"a6vtwm6wdwet","address":"GeneralFacility"},"type":"Feature","geometry":{"type":"Point","coordinates":[-122.802901,53.98884]}},{"properties":{"name":"01-Jan-90","city":"School","latitude":53.898167,"contact":null,"country":"Canada","type":"Jim Green","street":"2222 Blackburn Rd","color":"red","longitude":-122.640995,"id":"a6vtwlzgzmof","address":"GeneralFacility"},"type":"Feature","geometry":{"type":"Point","coordinates":[-122.640995,53.898167]}},{"properties":{"name":"05-Oct-05","city":"School","latitude":53.922629,"contact":"Linda Picton","country":"Canada","type":"Jim Green","street":"2955 3rd Avenue","color":"red","longitude":-122.776716,"id":"a6vtwlys2fzt","address":"GeneralFacility"},"type":"Feature","geometry":{"type":"Point","coordinates":[-122.776716,53.922629]}},{"properties":{"name":"02-Feb-06","city":"School","latitude":53.922879,"contact":"Richard Docherty","country":"Canada","type":"Jim Green","street":"444 Hill Avenue","color":"red","longitude":-122.810283,"id":"a6vtwm8dnmhy","address":"GeneralFacility"},"type":"Feature","geometry":{"type":"Point","coordinates":[-122.810283,53.922879]}},{"properties":{"name":"02-Feb-07","city":"School","latitude":53.91645,"contact":"Sherry Thibault","country":"Canada","type":"Jim Green","street":"2371 Ross Crescent","color":"red","longitude":-122.761658,"id":"a6vtwm8nu6jt","address":"GeneralFacility"},"type":"Feature","geometry":{"type":"Point","coordinates":[-122.761658,53.91645]}},{"properties":{"name":"01-Jan-90","city":"School","latitude":53.945581,"contact":"Tim Yule","country":"Canada","type":"Jim Green","street":"4440 Craig Drive","color":"red","longitude":-122.801479,"id":"a6vtwm38szkw","address":"GeneralFacility"},"type":"Feature","geometry":{"type":"Point","coordinates":[-122.801479,53.945581]}},{"properties":{"name":"21-Oct-09","city":"School","latitude":54.072207,"contact":"Norma Bakken","country":"Canada","type":"Jim Green","street":"21840 Upper Fraser Road","color":"red","longitude":-122.360272,"id":"a6vtwlucq8ru","address":"GeneralFacility"},"type":"Feature","geometry":{"type":"Point","coordinates":[-122.360272,54.072207]}},{"properties":{"name":"01-Jan-90","city":"School","latitude":53.995651,"contact":"Kathie Hilder","country":"Canada","type":"Jim Green","street":"7310 Cluff Road","color":"red","longitude":-122.777263,"id":"a6vtwltizm36","address":"GeneralFacility"},"type":"Feature","geometry":{"type":"Point","coordinates":[-122.777263,53.995651]}},{"properties":{"name":"23-Jan-08","city":"School","latitude":53.974971,"contact":"Rich Urquhart","country":"Canada","type":"Jim Green","street":"2233 Sussex Lane","color":"red","longitude":-122.792003,"id":"a6vtwlus16sq","address":"GeneralFacility"},"type":"Feature","geometry":{"type":"Point","coordinates":[-122.792003,53.974971]}},{"properties":{"name":"01-Jan-90","city":"School","latitude":53.913866,"contact":null,"country":"Canada","type":"Jim Green","street":"1193 Harper St.","color":"red","longitude":-122.776766,"id":"a6vtwm4t4lay","address":"GeneralFacility"},"type":"Feature","geometry":{"type":"Point","coordinates":[-122.776766,53.913866]}},{"properties":{"name":"01-Jan-90","city":"School","latitude":53.994142,"contact":null,"country":"Canada","type":"Jim Green","street":"7151 Heather Park Rd","color":"red","longitude":-122.807453,"id":"a6vtwlum8jh1","address":"GeneralFacility"},"type":"Feature","geometry":{"type":"Point","coordinates":[-122.807453,53.994142]}},{"properties":{"name":"12-Jun-06","city":"School","latitude":53.925607,"contact":"Chris Dugdale","country":"Canada","type":"Jim Green","street":"257 Anderson Street","color":"red","longitude":-122.810821,"id":"a6vtwlz4c2so","address":"GeneralFacility"},"type":"Feature","geometry":{"type":"Point","coordinates":[-122.810821,53.925607]}},{"properties":{"name":"16-Mar-09","city":"School","latitude":53.922904,"contact":"Tom Patterson","country":"Canada","type":"Jim Green","street":"290 Voyageur Drive","color":"red","longitude":-122.802102,"id":"a6vtwlwfkqqq","address":"GeneralFacility"},"type":"Feature","geometry":{"type":"Point","coordinates":[-122.802102,53.922904]}},{"properties":{"name":"01-Sep-09","city":"School","latitude":53.996194,"contact":"Stephen McRae","country":"Canada","type":"Jim Green","street":"4540 Handlen Road","color":"red","longitude":-122.802938,"id":"a6vtwly41gl6","address":"GeneralFacility"},"type":"Feature","geometry":{"type":"Point","coordinates":[-122.802938,53.996194]}},{"properties":{"name":"10-Jan-07","city":"School","latitude":54.00879,"contact":"Bill MacIver","country":"Canada","type":"Jim Green","street":"23955 Chief Lake Road","color":"red","longitude":-122.825771,"id":"a6vtwm3i5142","address":"GeneralFacility"},"type":"Feature","geometry":{"type":"Point","coordinates":[-122.825771,54.00879]}},{"properties":{"name":"11-Nov-07","city":"School","latitude":53.848597,"contact":"Anne Smith","country":"Canada","type":"Jim Green","street":"8515 Old Cariboo Highway","color":"red","longitude":-122.65654,"id":"a6vtwlvur5uw","address":"GeneralFacility"},"type":"Feature","geometry":{"type":"Point","coordinates":[-122.65654,53.848597]}},{"properties":{"name":"09-Jan-06","city":"School","latitude":53.923136,"contact":"Lynda Stoppler Liana Grant","country":"Canada","type":"Jim Green","street":"251 Ogilvie Street","color":"red","longitude":-122.788769,"id":"a6vtwlwl75ws","address":"GeneralFacility"},"type":"Feature","geometry":{"type":"Point","coordinates":[-122.788769,53.923136]}},{"properties":{"name":"01-Sep-06","city":"School","latitude":53.917113,"contact":"Deanna Hood","country":"Canada","type":"Jim Green","street":"18270 Trout Road","color":"red","longitude":-122.74972,"id":"a6vtwm4hxvkw","address":"GeneralFacility"},"type":"Feature","geometry":{"type":"Point","coordinates":[-122.74972,53.917113]}},{"properties":{"name":"01-Jan-90","city":"School","latitude":53.933851,"contact":null,"country":"Canada","type":"Jim Green","street":"3310 Sutherland Steet","color":"red","longitude":-122.783418,"id":"a6vtwm3cwd9j","address":"GeneralFacility"},"type":"Feature","geometry":{"type":"Point","coordinates":[-122.783418,53.933851]}},{"properties":{"name":"27-Jun-08","city":"School","latitude":53.988685,"contact":"Deanna Hood","country":"Canada","type":"Jim Green","street":"6144 Old Summit Lake Road","color":"red","longitude":-122.726469,"id":"a6vtwlxyq5qb","address":"GeneralFacility"},"type":"Feature","geometry":{"type":"Point","coordinates":[-122.726469,53.988685]}},{"properties":{"name":"01-Jan-90","city":"School","latitude":54.015289,"contact":"Kathy Dorval","country":"Canada","type":"Jim Green","street":"4600 Zral Road","color":"red","longitude":-122.807126,"id":"a6vtwm3vu6hq","address":"GeneralFacility"},"type":"Feature","geometry":{"type":"Point","coordinates":[-122.807126,54.015289]}},{"properties":{"name":"01-Jan-90","city":"School","latitude":53.917113,"contact":null,"country":"Canada","type":"Jim Green","street":"1088 Gillette St","color":"red","longitude":-122.74972,"id":"a6vtwm1a19mt","address":"GeneralFacility"},"type":"Feature","geometry":{"type":"Point","coordinates":[-122.74972,53.917113]}}],"is_temporal":false,"author":{"url":"","metadata":"","contact_name":"","contact_address":"","source":"HS","contact_phone":""},"source":"","pagination":{"sort":null,"start":0,"total":22,"limit":1000000},"state":"complete","tags":"","published":"2014-08-10T12:33:04-04:00","id":91056}