{"type":"FeatureCollection","data_type":"Dataset","url_type":null,"permissions":[{"permissions":{"download":true,"view":true},"group_id":"everyone"}],"classification":null,"title":"data","count":2,"stream_id":91133,"contributor":{"url":"http://geocommons.com/users/21795","name":"pmenlibai"},"data_attributes":null,"calculation_params":null,"icon_link":null,"link":"http://geocommons.com/overlays/91133.json","extent":[-79.9507,40.4498,-79.9311,40.4583],"geometry_types":["point"],"unique_name":null,"name":"data","feature_count":2,"description":"","next_feature":null,"is_raster":false,"short_classification":"Y","stats":{},"features":[{"properties":{"city":"Pittsburgh","column_10":null,"zip":"15206","column_11":null,"column_12":null,"column_7":null,"geo_score":0.766,"column_13":null,"column_8":null,"column_9":null,"column_1":null,"id":"a6iiabzafy9x","geo_precision":"range","address":"5880 Center Ave","recycle site":"Whole Foods","state":"PA"},"type":"Feature","geometry":{"type":"Point","coordinates":[-79.9311,40.458323]}},{"properties":{"city":"Pittsburgh","column_10":null,"zip":"15213","column_11":null,"column_12":null,"column_7":null,"geo_score":0.536,"column_13":null,"column_8":null,"column_9":null,"column_1":null,"id":"a6iiabj355ws","geo_precision":"street","address":"414 ?S Craig ?St","recycle site":"UPS Store","state":"PA"},"type":"Feature","geometry":{"type":"Point","coordinates":[-79.950738,40.449799]}}],"is_temporal":false,"author":{"url":"","metadata":"","contact_name":"","contact_address":"","source":"","contact_phone":""},"source":"","pagination":{"sort":null,"start":0,"total":2,"limit":1000000},"state":"complete","tags":"","published":"2014-08-10T12:37:33-04:00","id":91133}