{"type":"FeatureCollection","data_type":"Dataset","url_type":null,"permissions":[{"permissions":{"download":true,"view":true},"group_id":"everyone"}],"classification":null,"title":"NaraBank Locations","count":24,"stream_id":91179,"contributor":{"url":"http://geocommons.com/users/2856","name":"kertug"},"data_attributes":null,"calculation_params":null,"icon_link":null,"link":"http://geocommons.com/overlays/91179.json","extent":[-122.27,33.6403,-72.7154,40.8643],"geometry_types":["point"],"unique_name":null,"name":"NaraBank Locations","feature_count":24,"description":"Nara Bank Branch locations and deposits as of June 2010","next_feature":null,"is_raster":false,"short_classification":"Y","stats":{"deposits":{"max":360214,"mean":89371.4583333333,"variance":5609143281.04167,"stdev":74894.2139356684,"min":150,"median":71842}},"features":[{"properties":{"city":"Oakland","zip":"94612","geo_score":1.0,"state, county, address":"1940 Webster St","id":"a67764afp7f6","geo_precision":"zip","deposits":52774,"state":"CA"},"type":"Feature","geometry":{"type":"Point","coordinates":[-122.27018,37.809435]}},{"properties":{"city":"Los Angeles","zip":"90006","geo_score":1.0,"state, county, address":"2727 West Olympic Boulevard","id":"a67764dsus40","geo_precision":"zip","deposits":133032,"state":"CA"},"type":"Feature","geometry":{"type":"Point","coordinates":[-118.298662,33.786594]}},{"properties":{"city":"Los Angeles","zip":"90010","geo_score":1.0,"state, county, address":"3600 Wilshire Boulevard","id":"a67764mtkuw0","geo_precision":"zip","deposits":130706,"state":"CA"},"type":"Feature","geometry":{"type":"Point","coordinates":[-118.298662,33.786594]}},{"properties":{"city":"Los Angeles","zip":"90010","geo_score":1.0,"state, county, address":"3731 Wilshire Boulevard","id":"a67764cuzedg","geo_precision":"zip","deposits":360214,"state":"CA"},"type":"Feature","geometry":{"type":"Point","coordinates":[-118.298662,33.786594]}},{"properties":{"city":"Los Angeles","zip":"90010","geo_score":1.0,"state, county, address":"3731 Wilshire Blvd","id":"a677649nwno4","geo_precision":"zip","deposits":48926,"state":"CA"},"type":"Feature","geometry":{"type":"Point","coordinates":[-118.298662,33.786594]}},{"properties":{"city":"Los Angeles","zip":"90015","geo_score":0.886,"state, county, address":"1122 South Wall Street","id":"a67764kxpmq5","geo_precision":"zip","deposits":111289,"state":"CA"},"type":"Feature","geometry":{"type":"Point","coordinates":[-118.656478,34.419441]}},{"properties":{"city":"Los Angeles","zip":"90021","geo_score":1.0,"state, county, address":"807 E 12th Street","id":"a67764q1pqn8","geo_precision":"zip","deposits":26014,"state":"CA"},"type":"Feature","geometry":{"type":"Point","coordinates":[-118.298662,33.786594]}},{"properties":{"city":"Gardena","zip":"90247","geo_score":0.9,"state, county, address":"1890 W. Redondo Beach Boulevard","id":"a67764psvwwx","geo_precision":"zip","deposits":38015,"state":"CA"},"type":"Feature","geometry":{"type":"Point","coordinates":[-118.303407,33.923348]}},{"properties":{"city":"Torrance","zip":"90505","geo_score":1.0,"state, county, address":"3030 West Sepulveda Boulevard","id":"a67764impos5","geo_precision":"zip","deposits":57106,"state":"CA"},"type":"Feature","geometry":{"type":"Point","coordinates":[-118.298662,33.786594]}},{"properties":{"city":"Glendale","zip":"91203","geo_score":1.0,"state, county, address":"831 North Pacific Avenue","id":"a67764b676hs","geo_precision":"zip","deposits":65773,"state":"CA"},"type":"Feature","geometry":{"type":"Point","coordinates":[-118.298662,33.786594]}},{"properties":{"city":"Van Nuys","zip":"91406","geo_score":1.0,"state, county, address":"17639 Sherman Way","id":"a67764m0f4l5","geo_precision":"zip","deposits":71842,"state":"CA"},"type":"Feature","geometry":{"type":"Point","coordinates":[-118.298662,33.786594]}},{"properties":{"city":"Rowland Heights","zip":"91748","geo_score":0.888,"state, county, address":"1709 Nogales","id":"a67764m7jwyw","geo_precision":"zip","deposits":80824,"state":"CA"},"type":"Feature","geometry":{"type":"Point","coordinates":[-117.884784,33.987513]}},{"properties":{"city":"Walnut","zip":"91789","geo_score":1.0,"state, county, address":"21080 Golden Springs Drive","id":"a67764fd73r8","geo_precision":"zip","deposits":27340,"state":"CA"},"type":"Feature","geometry":{"type":"Point","coordinates":[-118.298662,33.786594]}},{"properties":{"city":"Buena Park","zip":"90621","geo_score":1.0,"state, county, address":"5307 Beach Boulevard","id":"a67764jh138h","geo_precision":"zip","deposits":90393,"state":"CA"},"type":"Feature","geometry":{"type":"Point","coordinates":[-117.769442,33.640302]}},{"properties":{"city":"Garden Grove","zip":"92844","geo_score":1.0,"state, county, address":"10055 Garden Grove Blvd.","id":"a67764jw77ow","geo_precision":"zip","deposits":65819,"state":"CA"},"type":"Feature","geometry":{"type":"Point","coordinates":[-117.769442,33.640302]}},{"properties":{"city":"La Palma","zip":"90623","geo_score":1.0,"state, county, address":"4875 LA Palma Avenue","id":"a67764pmibrv","geo_precision":"zip","deposits":48719,"state":"CA"},"type":"Feature","geometry":{"type":"Point","coordinates":[-117.769442,33.640302]}},{"properties":{"city":"Sunnyvale","zip":"94087","geo_score":1.0,"state, county, address":"1102 El Camino Real","id":"a67764aaxqk0","geo_precision":"zip","deposits":186348,"state":"CA"},"type":"Feature","geometry":{"type":"Point","coordinates":[-121.705327,37.189396]}},{"properties":{"city":"Fort Lee","zip":"7024","geo_score":0.909,"state, county, address":"2025 Lemoine Ave","id":"a67764gujy59","geo_precision":"zip","deposits":108146,"state":"NJ"},"type":"Feature","geometry":{"type":"Point","coordinates":[-73.962082,40.864267]}},{"properties":{"city":"Great Neck","zip":"11021","geo_score":0.884,"state, county, address":"485 Great Neck Rd","id":"a67764dyqh9i","geo_precision":"zip","deposits":1444,"state":"NY"},"type":"Feature","geometry":{"type":"Point","coordinates":[-72.715376,40.775933]}},{"properties":{"city":"Bayside","zip":"11361","geo_score":1.0,"state, county, address":"209-07 Northern Blvd.","id":"a67764ijzfi0","geo_precision":"zip","deposits":78774,"state":"NY"},"type":"Feature","geometry":{"type":"Point","coordinates":[-73.773026,40.764438]}},{"properties":{"city":"New York","zip":"10001","geo_score":1.0,"state, county, address":"29 West 30th Street","id":"a67764mmxi4d","geo_precision":"zip","deposits":150,"state":"NY"},"type":"Feature","geometry":{"type":"Point","coordinates":[-73.996328,40.750422]}},{"properties":{"city":"New York","zip":"10001","geo_score":1.0,"state, county, address":"16-20 West 32nd Street","id":"a67764gfjhn3","geo_precision":"zip","deposits":158752,"state":"NY"},"type":"Feature","geometry":{"type":"Point","coordinates":[-73.996328,40.750422]}},{"properties":{"city":"Flushing","zip":"11354","geo_score":0.886,"state, county, address":"138-02 Northern Boulevard","id":"a67764feu65g","geo_precision":"zip","deposits":141512,"state":"NY"},"type":"Feature","geometry":{"type":"Point","coordinates":[-73.923471,40.715658]}},{"properties":{"city":"Woodside","zip":"11377","geo_score":1.0,"state, county, address":"5015 Roosevelt Avenue","id":"a67764hxbv80","geo_precision":"zip","deposits":61003,"state":"NY"},"type":"Feature","geometry":{"type":"Point","coordinates":[-73.905445,40.748372]}}],"is_temporal":false,"author":{"url":"http://www2.fdic.gov/idasp/index.asp","metadata":"","contact_name":"","contact_address":"","source":"FDIC","contact_phone":""},"source":"http://www2.fdic.gov/idasp/index.asp","pagination":{"sort":null,"start":0,"total":24,"limit":1000000},"state":"complete","tags":"","published":"2014-08-10T12:42:33-04:00","id":91179}