{"type":"FeatureCollection","data_type":"Dataset","url_type":null,"permissions":[{"permissions":{"download":true,"view":true},"group_id":"everyone"}],"classification":null,"title":"CenterBank Locations","count":24,"stream_id":91182,"contributor":{"url":"http://geocommons.com/users/2856","name":"kertug"},"data_attributes":null,"calculation_params":null,"icon_link":null,"link":"http://geocommons.com/overlays/91182.json","extent":[-122.313,32.8205,-87.7207,47.8408],"geometry_types":["point"],"unique_name":null,"name":"CenterBank Locations","feature_count":24,"description":"","next_feature":null,"is_raster":false,"short_classification":"Y","stats":{"deposits":{"max":328871,"mean":75274.9166666667,"variance":5580070889.64493,"stdev":74699.8720858672,"min":19798,"median":53797}},"features":[{"properties":{"city":"Oakland","zip":"94607","geo_score":0.842,"id":"a6bqpvfwrqpi","geo_precision":"range","address":"401 Eight Street At Franklin","deposits":41158,"state":"CA"},"type":"Feature","geometry":{"type":"Point","coordinates":[-122.274492,37.796706]}},{"properties":{"city":"Oakland","zip":"94612","geo_score":0.902,"id":"a6bqpv0681ds","geo_precision":"range","address":"360 Fourteenth Street","deposits":22295,"state":"CA"},"type":"Feature","geometry":{"type":"Point","coordinates":[-122.269039,37.80352]}},{"properties":{"city":"Los Angeles","zip":"90005","geo_score":0.61,"id":"a6bqpv7p9bqm","geo_precision":"street","address":"808 S. Western Ave.","deposits":30127,"state":"CA"},"type":"Feature","geometry":{"type":"Point","coordinates":[-118.309093,34.063516]}},{"properties":{"city":"Los Angeles","zip":"90005","geo_score":0.61,"id":"a6bqpvaez7ls","geo_precision":"street","address":"253 N. Western Ave.","deposits":76574,"state":"CA"},"type":"Feature","geometry":{"type":"Point","coordinates":[-118.309093,34.063516]}},{"properties":{"city":"Los Angeles","zip":"90006","geo_score":1.0,"id":"a6bqpvbsb6e3","geo_precision":"range","address":"2222 West Olympic Boulevard","deposits":264766,"state":"CA"},"type":"Feature","geometry":{"type":"Point","coordinates":[-118.281242,34.052166]}},{"properties":{"city":"Los Angeles","zip":"90010","geo_score":1.0,"id":"a6bqpv1u1jyx","geo_precision":"range","address":"3435 Wilshire Boulevard","deposits":328871,"state":"CA"},"type":"Feature","geometry":{"type":"Point","coordinates":[-118.299013,34.061751]}},{"properties":{"city":"Los Angeles","zip":"90010","geo_score":1.0,"id":"a6bqpv834tcx","geo_precision":"range","address":"3435 Wilshire Blvd.","deposits":80607,"state":"CA"},"type":"Feature","geometry":{"type":"Point","coordinates":[-118.299013,34.061751]}},{"properties":{"city":"Los Angeles","zip":"90015","geo_score":0.922,"id":"a6bqpv3z5f90","geo_precision":"range","address":"1059 South San Pedro Street","deposits":37461,"state":"CA"},"type":"Feature","geometry":{"type":"Point","coordinates":[-118.251933,34.035516]}},{"properties":{"city":"Los Angeles","zip":"90015","geo_score":0.922,"id":"a6bqpv5925b3","geo_precision":"range","address":"1205 South Broadway","deposits":116735,"state":"CA"},"type":"Feature","geometry":{"type":"Point","coordinates":[-118.260285,34.03813]}},{"properties":{"city":"Los Angeles","zip":"90021","geo_score":0.916,"id":"a6bqpvbgpzwr","geo_precision":"range","address":"757 East 12th Street","deposits":59003,"state":"CA"},"type":"Feature","geometry":{"type":"Point","coordinates":[-118.251653,34.03286]}},{"properties":{"city":"Gardena","zip":"90247","geo_score":0.932,"id":"a6bqpvacugkc","geo_precision":"range","address":"1400 West Redondo Beach Boulevard","deposits":123142,"state":"CA"},"type":"Feature","geometry":{"type":"Point","coordinates":[-118.300235,33.891411]}},{"properties":{"city":"Torrance","zip":"90505","geo_score":0.571,"id":"a6bqpvdbupmw","geo_precision":"street","address":"2742 W. Sepulveda Blvd.","deposits":103065,"state":"CA"},"type":"Feature","geometry":{"type":"Point","coordinates":[-118.328422,33.821936]}},{"properties":{"city":"Artesia","zip":"90701","geo_score":0.446,"id":"a6bqpv5rshpj","geo_precision":"street","address":"17127 S. Pioneer Blvd.","deposits":32812,"state":"CA"},"type":"Feature","geometry":{"type":"Point","coordinates":[-118.082349,33.880365]}},{"properties":{"city":"Northridge","zip":"91324","geo_score":1.0,"id":"a6bqpvc0obza","geo_precision":"range","address":"10147 Reseda Boulevard","deposits":53797,"state":"CA"},"type":"Feature","geometry":{"type":"Point","coordinates":[-118.536095,34.254897]}},{"properties":{"city":"Diamond Bar","zip":"91765","geo_score":0.6,"id":"a6bqpv2bf5qs","geo_precision":"street","address":"2809 S. Diamond Bar Blvd.","deposits":30153,"state":"CA"},"type":"Feature","geometry":{"type":"Point","coordinates":[-117.811276,34.022802]}},{"properties":{"city":"Buena Park","zip":"90621","geo_score":1.0,"id":"a6bqpvc0dufu","geo_precision":"range","address":"5300 Beach Blvd.","deposits":62162,"state":"CA"},"type":"Feature","geometry":{"type":"Point","coordinates":[-117.99529,33.88455]}},{"properties":{"city":"Garden Grove","zip":"92844","geo_score":1.0,"id":"a6bqpv4w6n8e","geo_precision":"range","address":"9580 Garden Grove Boulevard","deposits":64944,"state":"CA"},"type":"Feature","geometry":{"type":"Point","coordinates":[-117.965312,33.77398]}},{"properties":{"city":"Irvine","zip":"92604","geo_score":0.902,"id":"a6bqpvda5f32","geo_precision":"range","address":"14429 Culver Dr.","deposits":45408,"state":"CA"},"type":"Feature","geometry":{"type":"Point","coordinates":[-117.786923,33.705421]}},{"properties":{"city":"Colton","zip":"92324","geo_score":0.488,"id":"a6bqpv8cowhj","geo_precision":"street","address":"1040 S. Mt. Vernon Ave.","deposits":28154,"state":"CA"},"type":"Feature","geometry":{"type":"Point","coordinates":[-117.29943,34.048418]}},{"properties":{"city":"San Diego","zip":"92111","geo_score":0.932,"id":"a6bqpv68j1mw","geo_precision":"range","address":"4428 Convoy St.","deposits":41014,"state":"CA"},"type":"Feature","geometry":{"type":"Point","coordinates":[-117.155068,32.82047]}},{"properties":{"city":"Santa Clara","zip":"95051","geo_score":0.927,"id":"a6bqpvdvj3nw","geo_precision":"range","address":"2998 El Camino Real","deposits":76954,"state":"CA"},"type":"Feature","geometry":{"type":"Point","coordinates":[-121.98055,37.35228]}},{"properties":{"city":"Chicago","zip":"60625","geo_score":0.614,"id":"a6bqpv0m25o0","geo_precision":"street","address":"5520 N. Lincoln Ave.","deposits":44312,"state":"IL"},"type":"Feature","geometry":{"type":"Point","coordinates":[-87.720706,41.998577]}},{"properties":{"city":"Federal Way","zip":"98003","geo_score":0.922,"id":"a6bqpv1b56p5","geo_precision":"range","address":"31217 Pacific Highway South","deposits":19798,"state":"WA"},"type":"Feature","geometry":{"type":"Point","coordinates":[-122.313376,47.322261]}},{"properties":{"city":"Lynnwood","zip":"98037","geo_score":1.0,"id":"a6bqpv55bzo4","geo_precision":"range","address":"17410 Highway 99","deposits":23286,"state":"WA"},"type":"Feature","geometry":{"type":"Point","coordinates":[-122.298031,47.840842]}}],"is_temporal":false,"author":{"url":"","metadata":"","contact_name":"","contact_address":"","source":"","contact_phone":""},"source":"","pagination":{"sort":null,"start":0,"total":24,"limit":1000000},"state":"complete","tags":"","published":"2014-08-10T12:42:37-04:00","id":91182}