{"type":"FeatureCollection","data_type":"Dataset","url_type":null,"permissions":[{"permissions":{"download":true,"view":true},"group_id":"everyone"}],"classification":null,"title":"Private Schools - Points, San Francisco, 2008","count":99,"stream_id":9128,"contributor":{"url":"http://geocommons.com/users/955","name":"williambenjaminiv"},"data_attributes":null,"calculation_params":null,"icon_link":null,"link":"http://geocommons.com/overlays/9128.json","extent":[-122.506,37.7098,-122.396,37.8014],"geometry_types":["point"],"unique_name":null,"name":"Private Schools - Points, San Francisco, 2008","feature_count":99,"description":"Private Schools in San Francisco, as points. Derived from spreadsheet provided by Police Department.  Addresses were geocoded to corresponding lot polygons.  This a point spatial layer version.\n\nReproduced with permission granted by the City and County of San Francisco. This map is copyrighted by the City and County of San Francisco. It is unlawful to copy or reproduce all or any part thereof without the prior written permission of the City and County of San Francisco.\n\nThe City and County of San Francisco does not guarantee the accuracy, adequacy, completeness or usefulness of any information. The City and County of San Francisco provides this information on &quot;as is&quot; basis without warranty of any kind, express or implied, including but not limited to warranties of merchantability or fitness for a particular purpose, and assumes no responsibility for anyone's use of the information\n\nFor use in spatial analysis and map display.","next_feature":null,"is_raster":false,"short_classification":"Y","stats":{"ID":{"max":null,"min":null,"median":null},"OBJECTID":{"max":99.0,"mean":50.0,"variance":825.0,"stdev":28.7228132326901,"min":1.0,"median":50.0}},"features":[{"properties":{"PHONE":"415/824-2240","INFO":"School for gifted children","SCHOOL_NAM":"Adda Clevenger Junior Preparatory &amp; Theater School for","ID":"1","OBJECTID":1.0,"id":"a6f1ibvhtzpb","ADDRESS":"180 Fair Oaks Street","GRADES":"K - 8"},"type":"Feature","geometry":{"type":"Point","coordinates":[-122.424390123729,37.7537996249586]}},{"properties":{"PHONE":"415/406-1035","INFO":"Jewish day school","SCHOOL_NAM":"Brandeis Hillel Day School","ID":"4","OBJECTID":2.0,"id":"a6f1ibjxatdj","ADDRESS":"655 Brotherhood Way","GRADES":"K - 8"},"type":"Feature","geometry":{"type":"Point","coordinates":[-122.472161530997,37.7121096630871]}},{"properties":{"PHONE":"415/861-5432","INFO":"Expanding to 8th grade soon.","SCHOOL_NAM":"Childrens Day School","ID":"7","OBJECTID":3.0,"id":"a6f1ibj5s0v6","ADDRESS":"333 Dolores Street","GRADES":"PK- 6"},"type":"Feature","geometry":{"type":"Point","coordinates":[-122.425995526223,37.7639665389348]}},{"properties":{"PHONE":"415/563-2900","INFO":"Catholic; girls school; part of Schools of the Sacred Heart","SCHOOL_NAM":"Convent of Sacred Heart Elementary School","ID":"9","OBJECTID":4.0,"id":"a6f1ibml2rxt","ADDRESS":"2222 Broadway","GRADES":"K - 8"},"type":"Feature","geometry":{"type":"Point","coordinates":[-122.433691763219,37.7946020652067]}},{"properties":{"PHONE":"415/563-2900","INFO":"Catholic; girls school; part of Schools of the Sacred Heart","SCHOOL_NAM":"Convent of the Sacred Heart High School","ID":"10","OBJECTID":5.0,"id":"a6f1ibp7qlsi","ADDRESS":"2222 Broadway","GRADES":"9 - 12"},"type":"Feature","geometry":{"type":"Point","coordinates":[-122.433691763219,37.7946020652067]}},{"properties":{"PHONE":"415/337-4030","INFO":"Catholic","SCHOOL_NAM":"Epiphany School","ID":"18","OBJECTID":6.0,"id":"a6f1ibr7k8ff","ADDRESS":"600 Italy Avenue","GRADES":"1 - 8"},"type":"Feature","geometry":{"type":"Point","coordinates":[-122.434517083084,37.7157745679877]}},{"properties":{"PHONE":"415/922-0300","INFO":"Girls school","SCHOOL_NAM":"Hamlin School","ID":"22","OBJECTID":7.0,"id":"a6f1ibhbi5ec","ADDRESS":"2120 BROADWAY","GRADES":"K - 8"},"type":"Feature","geometry":{"type":"Point","coordinates":[-122.432502469735,37.7948003395154]}},{"properties":{"PHONE":"415/752-7333","INFO":"Jewish day school","SCHOOL_NAM":"Hebrew Academy San Francisco","ID":"23","OBJECTID":8.0,"id":"a6f1ibh29c9s","ADDRESS":"645 14th Avenue","GRADES":"PK - 12"},"type":"Feature","geometry":{"type":"Point","coordinates":[-122.472835652766,37.7760875792146]}},{"properties":{"PHONE":"415/824-2052","INFO":"Catholic; all girls","SCHOOL_NAM":"Immaculate Conception Academy","ID":"27","OBJECTID":9.0,"id":"a6f1ibrm7kw7","ADDRESS":"3625 24th Street","GRADES":"9 - 12"},"type":"Feature","geometry":{"type":"Point","coordinates":[-122.423418252083,37.751763364394]}},{"properties":{"PHONE":"415/863-1691","INFO":"","SCHOOL_NAM":"International Christian School","ID":"28","OBJECTID":10.0,"id":"a6f1ibqsyryd","ADDRESS":"42 WALLER STREET","GRADES":"PK - 8"},"type":"Feature","geometry":{"type":"Point","coordinates":[-122.424359669172,37.7721212028434]}},{"properties":{"PHONE":"415/752-3567","INFO":"","SCHOOL_NAM":"Laurel School","ID":"34","OBJECTID":11.0,"id":"a6f1ibmhxj6t","ADDRESS":"350 09th Avenue","GRADES":"PK - 8"},"type":"Feature","geometry":{"type":"Point","coordinates":[-122.467332467066,37.7818327389646]}},{"properties":{"PHONE":"415/861-8840","INFO":"","SCHOOL_NAM":"Live Oak School","ID":"36","OBJECTID":12.0,"id":"a6f1ibl0y9ah","ADDRESS":"1555 Mariposa Street","GRADES":"K - 8"},"type":"Feature","geometry":{"type":"Point","coordinates":[-122.399104497427,37.7635251095597]}},{"properties":{"PHONE":"415/695-7735","INFO":"","SCHOOL_NAM":"Meadows-Livingstone School","ID":"39","OBJECTID":13.0,"id":"a6f1ibgnefv0","ADDRESS":"1499 Potrero Avenue","GRADES":"1 - 6"},"type":"Feature","geometry":{"type":"Point","coordinates":[-122.404866161054,37.749577795919]}},{"properties":{"PHONE":"415/861-7673","INFO":"Catholic","SCHOOL_NAM":"Mission Dolores School","ID":"41","OBJECTID":14.0,"id":"a6f1ibqnix5t","ADDRESS":"3371 16th Street","GRADES":"K - 8"},"type":"Feature","geometry":{"type":"Point","coordinates":[-122.428006772313,37.7643683942354]}},{"properties":{"PHONE":"415/239-7840","INFO":"Catholic","SCHOOL_NAM":"Our Lady of Visitacion School","ID":"43","OBJECTID":15.0,"id":"a6f1ibks033n","ADDRESS":"795 SUNNYDALE AVENUE","GRADES":"K - 8"},"type":"Feature","geometry":{"type":"Point","coordinates":[-122.40938390745,37.7098020432083]}},{"properties":{"PHONE":"415/751-9318","INFO":"","SCHOOL_NAM":"Presidio Hill School","ID":"44","OBJECTID":16.0,"id":"a6f1ibt3wx7j","ADDRESS":"3839 Washington Street","GRADES":"K - 8"},"type":"Feature","geometry":{"type":"Point","coordinates":[-122.45620084936,37.7886304141492]}},{"properties":{"PHONE":"415/648-2008","INFO":"Catholic","SCHOOL_NAM":"St. Anthony-Immaculate Conception School","ID":"49","OBJECTID":17.0,"id":"a6f1iblg0xg7","ADDRESS":"299 Precita Avenue","GRADES":"K - 8"},"type":"Feature","geometry":{"type":"Point","coordinates":[-122.414256033095,37.7474894006624]}},{"properties":{"PHONE":"415/731-2665","INFO":"Catholic","SCHOOL_NAM":"St. Brendans School","ID":"50","OBJECTID":18.0,"id":"a6f1ibibirya","ADDRESS":"940 Laguna Honda Boulevar","GRADES":"K - 8"},"type":"Feature","geometry":{"type":"Point","coordinates":[-122.455820427995,37.7431454682493]}},{"properties":{"PHONE":"415/731-8400","INFO":"Catholic","SCHOOL_NAM":"St. Cecilia School","ID":"52","OBJECTID":19.0,"id":"a6f1ibu5jtcr","ADDRESS":"660 Vicente Street","GRADES":"K - 8"},"type":"Feature","geometry":{"type":"Point","coordinates":[-122.473957363042,37.7395680680511]}},{"properties":{"PHONE":"415/861-7652","INFO":"Catholic","SCHOOL_NAM":"St. Charles School","ID":"53","OBJECTID":20.0,"id":"a6f1ibrtqqx6","ADDRESS":"3250 18th Street","GRADES":"K - 8"},"type":"Feature","geometry":{"type":"Point","coordinates":[-122.416277737257,37.7622058544291]}},{"properties":{"PHONE":"415/333-4877","INFO":"Catholic","SCHOOL_NAM":"St. Emydius School","ID":"56","OBJECTID":21.0,"id":"a6f1ibtchf12","ADDRESS":"301 De Montfort Avenue","GRADES":"K - 8"},"type":"Feature","geometry":{"type":"Point","coordinates":[-122.461550188703,37.7232773936108]}},{"properties":{"PHONE":"415/566-0314","INFO":"Catholic","SCHOOL_NAM":"St. Gabriel School","ID":"58","OBJECTID":22.0,"id":"a6f1ibr5vhtq","ADDRESS":"2550 41st Avenue","GRADES":"K - 8"},"type":"Feature","geometry":{"type":"Point","coordinates":[-122.498840722831,37.7392064084313]}},{"properties":{"PHONE":"415/647-8972","INFO":"Catholic","SCHOOL_NAM":"St. James School","ID":"60","OBJECTID":23.0,"id":"a6f1ibwkldpo","ADDRESS":"321 Fair Oaks Street","GRADES":"K - 8"},"type":"Feature","geometry":{"type":"Point","coordinates":[-122.423730510155,37.7515831782883]}},{"properties":{"PHONE":"415/221-3484","INFO":"Centered around Orthodox calendar and life","SCHOOL_NAM":"St. John of San Francisco Orthodox Academy","ID":"61","OBJECTID":24.0,"id":"a6f1ibqo288v","ADDRESS":"6210 Geary Boulevard","GRADES":"K - 12"},"type":"Feature","geometry":{"type":"Point","coordinates":[-122.486016510251,37.7802645992506]}},{"properties":{"PHONE":"415/584-8383","INFO":"Catholic","SCHOOL_NAM":"St. Johns School","ID":"62","OBJECTID":25.0,"id":"a6f1ibtlw3a8","ADDRESS":"925 Chenery Street","GRADES":"K - 8"},"type":"Feature","geometry":{"type":"Point","coordinates":[-122.437772371854,37.7351220816071]}},{"properties":{"PHONE":"415/929-4690","INFO":"Catholic","SCHOOL_NAM":"St. Marys Chinese Day School","ID":"63","OBJECTID":26.0,"id":"a6f1ibocizej","ADDRESS":"910 Broadway","GRADES":"K - 8"},"type":"Feature","geometry":{"type":"Point","coordinates":[-122.412316700723,37.7973261622803]}},{"properties":{"PHONE":"415/467-1664","INFO":"Catholic","SCHOOL_NAM":"St. Paul of the Shipwreck Academy - Campus 2","ID":"66","OBJECTID":27.0,"id":"a6f1ibw156br","ADDRESS":"3352 Jennings Street","GRADES":"K - 8"},"type":"Feature","geometry":{"type":"Point","coordinates":[-122.395801627594,37.7194250642191]}},{"properties":{"PHONE":"415/648-2055","INFO":"Catholic","SCHOOL_NAM":"St. Pauls School","ID":"67","OBJECTID":28.0,"id":"a6f1ibm66l2x","ADDRESS":"180 Fair Oaks Street","GRADES":"K - 8"},"type":"Feature","geometry":{"type":"Point","coordinates":[-122.424390123729,37.7537996249586]}},{"properties":{"PHONE":"415/647-8662","INFO":"Catholic","SCHOOL_NAM":"St. Peters School","ID":"68","OBJECTID":29.0,"id":"a6f1iboo2wo6","ADDRESS":"1266 Florida Street","GRADES":"K - 8"},"type":"Feature","geometry":{"type":"Point","coordinates":[-122.410189082517,37.7516610744924]}},{"properties":{"PHONE":"415/824-8467","INFO":"Catholic","SCHOOL_NAM":"St. Philips School","ID":"69","OBJECTID":30.0,"id":"a6f1ibnb6d3a","ADDRESS":"665 Elizabeth Street","GRADES":"K - 8"},"type":"Feature","geometry":{"type":"Point","coordinates":[-122.435581611588,37.7518286614606]}},{"properties":{"PHONE":"415/337-0100","INFO":"Catholic","SCHOOL_NAM":"St. Thomas More School","ID":"71","OBJECTID":31.0,"id":"a6f1ibgh6r9w","ADDRESS":"50 Thomas More Way","GRADES":"K - 8"},"type":"Feature","geometry":{"type":"Point","coordinates":[-122.473212218469,37.7123360303787]}},{"properties":{"PHONE":"415/421-5219","INFO":"Catholic","SCHOOL_NAM":"Sts. Peter and Paul Salesian School","ID":"75","OBJECTID":32.0,"id":"a6f1ibv4am9h","ADDRESS":"660 Filbert Street","GRADES":"K - 8"},"type":"Feature","geometry":{"type":"Point","coordinates":[-122.410407145155,37.8014248278072]}},{"properties":{"PHONE":"415/931-2750","INFO":"","SCHOOL_NAM":"San Francisco Waldorf School","ID":"82","OBJECTID":33.0,"id":"a6f1ibq3wj1q","ADDRESS":"2938 Washington Street","GRADES":"K - 12"},"type":"Feature","geometry":{"type":"Point","coordinates":[-122.441674129,37.7908471153091]}},{"properties":{"PHONE":"415/221-8558","INFO":"Catholic","SCHOOL_NAM":"Star of the Sea Elementary School","ID":"86","OBJECTID":34.0,"id":"a6f1ibrko58z","ADDRESS":"360 09th Avenue","GRADES":"K - 8"},"type":"Feature","geometry":{"type":"Point","coordinates":[-122.467318474507,37.7816425242411]}},{"properties":{"PHONE":"415/563-2900","INFO":"Catholic boys school; part of Schools of the Sacred Heart","SCHOOL_NAM":"Stuart Hall for Boys School","ID":"88","OBJECTID":35.0,"id":"a6f1ibmfx6fs","ADDRESS":"2252 BROADWAY","GRADES":"K - 8"},"type":"Feature","geometry":{"type":"Point","coordinates":[-122.434181651896,37.7945401031972]}},{"properties":{"PHONE":"415/563-2900","INFO":"Opened in Fall 2000; Catholic boys school; part of Schools of the Sacred Heart","SCHOOL_NAM":"Stuart Hall High School","ID":"89","OBJECTID":36.0,"id":"a6f1ibv7dqk2","ADDRESS":"1715 Octavia St","GRADES":"9 - 12"},"type":"Feature","geometry":{"type":"Point","coordinates":[-122.427186158401,37.7883054067365]}},{"properties":{"PHONE":"415/567-6177","INFO":"Moved to new site in Fall 1999.","SCHOOL_NAM":"Synergy School","ID":"90","OBJECTID":37.0,"id":"a6f1ibmeuvwk","ADDRESS":"1387 Valencia Street","GRADES":"K - 8"},"type":"Feature","geometry":{"type":"Point","coordinates":[-122.420303910797,37.750732835652]}},{"properties":{"PHONE":"415/665-6330","INFO":"1-3 campus","SCHOOL_NAM":"West Portal Lutheran School - Campus 2","ID":"96","OBJECTID":38.0,"id":"a6f1ibkk64we","ADDRESS":"1711 37th Avenue","GRADES":"1 - 3"},"type":"Feature","geometry":{"type":"Point","coordinates":[-122.496105933572,37.755028871331]}},{"properties":{"PHONE":"415/586-8200","INFO":"Catholic","SCHOOL_NAM":"Archbishop Riordan High School","ID":"2","OBJECTID":39.0,"id":"a6f1ibmyuf6z","ADDRESS":"175 Phelan Avenue","GRADES":"9 - 12"},"type":"Feature","geometry":{"type":"Point","coordinates":[-122.454298469732,37.7279223640746]}},{"properties":{"PHONE":"415/586-4977","INFO":"Special Ed Program","SCHOOL_NAM":"Bethel Center","ID":"3","OBJECTID":40.0,"id":"a6f1ibk7mr0e","ADDRESS":"2557 Alemany Boulevard","GRADES":"9 - 12"},"type":"Feature","geometry":{"type":"Point","coordinates":[-122.446515060978,37.7147269229266]}},{"properties":{"PHONE":"415/333-7600","INFO":"","SCHOOL_NAM":"Bridgemont Christian High &amp; Junior High","ID":"5","OBJECTID":41.0,"id":"a6f1ibwa54o1","ADDRESS":"777 Brotherhood Way","GRADES":"6 - 12"},"type":"Feature","geometry":{"type":"Point","coordinates":[-122.476918029983,37.7137607470916]}},{"properties":{"PHONE":"415/771-6600","INFO":"Episcopal Boys school","SCHOOL_NAM":"Cathedral School for Boys","ID":"6","OBJECTID":42.0,"id":"a6f1ibk590jb","ADDRESS":"1275 Sacramento Street","GRADES":"K - 8"},"type":"Feature","geometry":{"type":"Point","coordinates":[-122.413382381531,37.7920079526037]}},{"properties":{"PHONE":"415/865-6000","INFO":"Bilingual curriculum taught in English and Mandarin Chinese","SCHOOL_NAM":"Chinese American International School","ID":"8","OBJECTID":43.0,"id":"a6f1ibi7xzq7","ADDRESS":"150 Oak Street","GRADES":"PK - 8"},"type":"Feature","geometry":{"type":"Point","coordinates":[-122.421832199029,37.7753805433026]}},{"properties":{"PHONE":"415/587-7256","INFO":"(PK - 4 campus) Preschool and kindergarten instruction is offered in bilingual Cantonese, Chinese, and English; Chinese is offered as a second la","SCHOOL_NAM":"Cornerstone Academy - Campus 1","ID":"11","OBJECTID":44.0,"id":"a6f1iboqcf9f","ADDRESS":"801 Silver Avenue","GRADES":"PK - 4"},"type":"Feature","geometry":{"type":"Point","coordinates":[-122.41833935985,37.7295954023821]}},{"properties":{"PHONE":"415/585-5183","INFO":"(5 - 10 campus) Preschool and kindergarten instruction is offered in bilingual Cantonese, Chinese, and English; Chinese is offered as a second la","SCHOOL_NAM":"Cornerstone Academy - Campus 2","ID":"12","OBJECTID":45.0,"id":"a6f1ibv5xvzs","ADDRESS":"501 Cambridge Street","GRADES":"5 - 10"},"type":"Feature","geometry":{"type":"Point","coordinates":[-122.416833403732,37.7248525974282]}},{"properties":{"PHONE":"415/587-7014","INFO":"Catholic","SCHOOL_NAM":"Corpus Christi School","ID":"13","OBJECTID":46.0,"id":"a6f1ibu4ok6s","ADDRESS":"75 Francis Street","GRADES":"K - 8"},"type":"Feature","geometry":{"type":"Point","coordinates":[-122.435264446552,37.7271788145644]}},{"properties":{"PHONE":"415/552-5220","INFO":"Opened in 2001, Catholic, serves underprivileged children in the Tenderloin","SCHOOL_NAM":"De Marillac Middle School","ID":"14","OBJECTID":47.0,"id":"a6f1ibwfr4cx","ADDRESS":"135 Golden Gate Avenue","GRADES":"6 - 8"},"type":"Feature","geometry":{"type":"Point","coordinates":[-122.413010284215,37.7816855488038]}},{"properties":{"PHONE":"415/333-6609","INFO":"","SCHOOL_NAM":"Discovery Center School","ID":"15","OBJECTID":48.0,"id":"a6f1iboy1zmc","ADDRESS":"65 Ocean Avenue","GRADES":"K - 8"},"type":"Feature","geometry":{"type":"Point","coordinates":[-122.438357532014,37.7233141466575]}},{"properties":{"PHONE":"415/409-3739","INFO":"","SCHOOL_NAM":"Drew College Preparatory School","ID":"16","OBJECTID":49.0,"id":"a6f1ibr89bk7","ADDRESS":"2901 California Street","GRADES":"9 - 12"},"type":"Feature","geometry":{"type":"Point","coordinates":[-122.442290513597,37.787560033092]}},{"properties":{"PHONE":"415/421-0069","INFO":"Catholic","SCHOOL_NAM":"Ecole Notre Dames des Victoires","ID":"17","OBJECTID":50.0,"id":"a6f1ibiiirzv","ADDRESS":"659 Pine Street","GRADES":"K - 8"},"type":"Feature","geometry":{"type":"Point","coordinates":[-122.406466816748,37.7911167020117]}},{"properties":{"PHONE":"415/239-0511","INFO":"","SCHOOL_NAM":"Fellowship Academy","ID":"19","OBJECTID":51.0,"id":"a6f1ibmv3jft","ADDRESS":"495 Cambridge Street","GRADES":"PK - 8"},"type":"Feature","geometry":{"type":"Point","coordinates":[-122.417311779815,37.7256961409105]}},{"properties":{"PHONE":"415/379-6949","INFO":"","SCHOOL_NAM":"Freeman School","ID":"20","OBJECTID":52.0,"id":"a6f1ibi8nk29","ADDRESS":"862 28th Avenue","GRADES":"K - 8"},"type":"Feature","geometry":{"type":"Point","coordinates":[-122.486951221431,37.7733381254348]}},{"properties":{"PHONE":"415/558-2000","INFO":"Offers programs of study in French and English","SCHOOL_NAM":"French American International School","ID":"21","OBJECTID":53.0,"id":"a6f1ibrsuoju","ADDRESS":"150 Oak Street","GRADES":"PK - 12"},"type":"Feature","geometry":{"type":"Point","coordinates":[-122.421832199029,37.7753805433026]}},{"properties":{"PHONE":"415/931-0400","INFO":"","SCHOOL_NAM":"Hillwood Academic Day School","ID":"24","OBJECTID":54.0,"id":"a6f1ibnpl7fy","ADDRESS":"2521 Scott Street","GRADES":"K - 8"},"type":"Feature","geometry":{"type":"Point","coordinates":[-122.440119275893,37.7933225223189]}},{"properties":{"PHONE":"415/731-4077","INFO":"","SCHOOL_NAM":"Holy Name School","ID":"25","OBJECTID":55.0,"id":"a6f1ibjd6w1t","ADDRESS":"1560 40th Avenue","GRADES":"K - 8"},"type":"Feature","geometry":{"type":"Point","coordinates":[-122.498904614783,37.7576972148563]}},{"properties":{"PHONE":"415/581-8451","INFO":"","SCHOOL_NAM":"Holy Trinity Orthodox School","ID":"26","OBJECTID":56.0,"id":"a6f1ibqanans","ADDRESS":"999 Brotherhood Way","GRADES":"K - 8"},"type":"Feature","geometry":{"type":"Point","coordinates":[-122.482003300365,37.7138665314415]}},{"properties":{"PHONE":"415/751-0177","INFO":"Girls school","SCHOOL_NAM":"Katherine Delmar Burke School","ID":"29","OBJECTID":57.0,"id":"a6f1ibl5a2fw","ADDRESS":"7070 California Street","GRADES":"K - 8"},"type":"Feature","geometry":{"type":"Point","coordinates":[-122.49315842923,37.7843138862865]}},{"properties":{"PHONE":"415/821-1434","INFO":"","SCHOOL_NAM":"Katherine Michiels School","ID":"30","OBJECTID":58.0,"id":"a6f1ibun4s87","ADDRESS":"1335 Guerrero Street","GRADES":"PK - 5"},"type":"Feature","geometry":{"type":"Point","coordinates":[-122.422310172452,37.7498176838829]}},{"properties":{"PHONE":"415/750-8390","INFO":"","SCHOOL_NAM":"Kittredge School","ID":"31","OBJECTID":59.0,"id":"a6f1ibvmmqvl","ADDRESS":"2355 Lake Street","GRADES":"1 - 8"},"type":"Feature","geometry":{"type":"Point","coordinates":[-122.484957276192,37.7855070971624]}},{"properties":{"PHONE":"415/586-8686","INFO":"Christian bilingual school","SCHOOL_NAM":"Krouzian Armenian School","ID":"32","OBJECTID":60.0,"id":"a6f1ibmf9xl2","ADDRESS":"825 Brotherhood Way","GRADES":"PK - 8"},"type":"Feature","geometry":{"type":"Point","coordinates":[-122.478325868243,37.7138166072491]}},{"properties":{"PHONE":"415/931-1972","INFO":"Special ed school","SCHOOL_NAM":"La Mel School","ID":"33","OBJECTID":61.0,"id":"a6f1ibmxy3vc","ADDRESS":"1801 Bush Street","GRADES":"K - 12"},"type":"Feature","geometry":{"type":"Point","coordinates":[-122.427215958748,37.7875031256163]}},{"properties":{"PHONE":"415/333-4021","INFO":"","SCHOOL_NAM":"Lick Wilmerding High School","ID":"35","OBJECTID":62.0,"id":"a6f1ibw3cs3m","ADDRESS":"755 Ocean Avenue","GRADES":"9 - 12"},"type":"Feature","geometry":{"type":"Point","coordinates":[-122.449042721855,37.7223065929191]}},{"properties":{"PHONE":"415/661-5232","INFO":"French school","SCHOOL_NAM":"Lycee Francais La Perouse San Francisco","ID":"37","OBJECTID":63.0,"id":"a6f1ibt0fz36","ADDRESS":"755 Ashbury Street","GRADES":"PK - 12"},"type":"Feature","geometry":{"type":"Point","coordinates":[-122.446968373465,37.7679695384985]}},{"properties":{"PHONE":"415/731-8188","INFO":"","SCHOOL_NAM":"Maria Montessori Elementary School","ID":"38","OBJECTID":64.0,"id":"a6f1ibq035er","ADDRESS":"678 Portola Drive","GRADES":"PK - 6"},"type":"Feature","geometry":{"type":"Point","coordinates":[-122.45342683269,37.7450135382297]}},{"properties":{"PHONE":"415/334-0525","INFO":"Catholic; all girls","SCHOOL_NAM":"Mercy High School","ID":"40","OBJECTID":65.0,"id":"a6f1ibq59cho","ADDRESS":"3250 19th Avenue","GRADES":"9 - 12"},"type":"Feature","geometry":{"type":"Point","coordinates":[-122.473436787349,37.7295153865464]}},{"properties":{"PHONE":"415/221-6133","INFO":"","SCHOOL_NAM":"Mother Goose School","ID":"42","OBJECTID":66.0,"id":"a6f1ibrv09ht","ADDRESS":"334 28th Avenue","GRADES":"PK - 2"},"type":"Feature","geometry":{"type":"Point","coordinates":[-122.487839161449,37.7830224161026]}},{"properties":{"PHONE":"415/566-7454","INFO":"","SCHOOL_NAM":"Rivendell School","ID":"45","OBJECTID":67.0,"id":"a6f1ibsa2o91","ADDRESS":"4501 Irving Street","GRADES":"K - 5"},"type":"Feature","geometry":{"type":"Point","coordinates":[-122.506262170702,37.7620297053246]}},{"properties":{"PHONE":"415/837-0901","INFO":"","SCHOOL_NAM":"Russian-American International School","ID":"46","OBJECTID":68.0,"id":"a6f1ibnqzb6r","ADDRESS":"1250 Quintara Street","GRADES":"K - 4"},"type":"Feature","geometry":{"type":"Point","coordinates":[-122.47909938849,37.7487598550469]}},{"properties":{"PHONE":"415/775-6626","INFO":"Catholic","SCHOOL_NAM":"Sacred Heart Cathedral Preparatory","ID":"47","OBJECTID":69.0,"id":"a6f1ibmdz8y3","ADDRESS":"1055 Ellis Street","GRADES":"9 - 12"},"type":"Feature","geometry":{"type":"Point","coordinates":[-122.423187691861,37.7832867184687]}},{"properties":{"PHONE":"415/664-7977","INFO":"Catholic; Chinese language classes offered","SCHOOL_NAM":"St. Anne School","ID":"48","OBJECTID":70.0,"id":"a6f1ibimtp90","ADDRESS":"1320 14th Avenue","GRADES":"K - 8"},"type":"Feature","geometry":{"type":"Point","coordinates":[-122.47141338404,37.76325664286]}},{"properties":{"PHONE":"415/673-4523","INFO":"Catholic","SCHOOL_NAM":"St. Brigid School","ID":"51","OBJECTID":71.0,"id":"a6f1ibo5zrb0","ADDRESS":"2250 Franklin Street","GRADES":"K - 8"},"type":"Feature","geometry":{"type":"Point","coordinates":[-122.422325630171,37.7946572725333]}},{"properties":{"PHONE":"415/346-9500","INFO":"Catholic","SCHOOL_NAM":"St. Dominics School","ID":"54","OBJECTID":72.0,"id":"a6f1ibkc19mp","ADDRESS":"2445 Pine Street","GRADES":"K - 8"},"type":"Feature","geometry":{"type":"Point","coordinates":[-122.43644788171,37.7873184922652]}},{"properties":{"PHONE":"415/468-3247","INFO":"Catholic","SCHOOL_NAM":"St. Elizabeth School","ID":"55","OBJECTID":73.0,"id":"a6f1ibnk2r8o","ADDRESS":"450 Somerset Street","GRADES":"K - 8"},"type":"Feature","geometry":{"type":"Point","coordinates":[-122.407704695475,37.7256646239988]}},{"properties":{"PHONE":"415/333-1800","INFO":"Catholic","SCHOOL_NAM":"St. Finn Barr School","ID":"57","OBJECTID":74.0,"id":"a6f1ibn837f0","ADDRESS":"419 Hearst Avenue","GRADES":"K - 8"},"type":"Feature","geometry":{"type":"Point","coordinates":[-122.447411220529,37.7304450271521]}},{"properties":{"PHONE":"415/731-7500","INFO":"Catholic","SCHOOL_NAM":"St. Ignatius College Preparatory","ID":"59","OBJECTID":75.0,"id":"a6f1ibm89w0p","ADDRESS":"2001 37th Avenue","GRADES":"9 - 12"},"type":"Feature","geometry":{"type":"Point","coordinates":[-122.496383751477,37.7469240654752]}},{"properties":{"PHONE":"415/751-9564","INFO":"Catholic","SCHOOL_NAM":"St. Monica School","ID":"64","OBJECTID":76.0,"id":"a6f1ibiuhzwt","ADDRESS":"5920 Geary Boulevard","GRADES":"K - 8"},"type":"Feature","geometry":{"type":"Point","coordinates":[-122.483071853339,37.7805082400241]}},{"properties":{"PHONE":"415/467-1798","INFO":"Catholic","SCHOOL_NAM":"St. Paul of the Shipwreck Academy - Campus 1","ID":"65","OBJECTID":77.0,"id":"a6f1ibvxtfs1","ADDRESS":"1060 Key Avenue","GRADES":"K - 8"},"type":"Feature","geometry":{"type":"Point","coordinates":[-122.395976729126,37.7192002311072]}},{"properties":{"PHONE":"415/664-8331","INFO":"Catholic","SCHOOL_NAM":"St. Stephens School","ID":"70","OBJECTID":78.0,"id":"a6f1ibvqcz4e","ADDRESS":"401 Eucalyptus Drive","GRADES":"K - 8"},"type":"Feature","geometry":{"type":"Point","coordinates":[-122.475299584445,37.7306528206788]}},{"properties":{"PHONE":"415/221-2711","INFO":"Catholic","SCHOOL_NAM":"St. Thomas the Apostle School","ID":"72","OBJECTID":79.0,"id":"a6f1ibsgbvgb","ADDRESS":"3801 Balboa Street","GRADES":"K - 8"},"type":"Feature","geometry":{"type":"Point","coordinates":[-122.499865894964,37.7750655263091]}},{"properties":{"PHONE":"415/346-5505","INFO":"Catholic","SCHOOL_NAM":"St. Vincent de Paul School","ID":"73","OBJECTID":80.0,"id":"a6f1ibu2td4z","ADDRESS":"2350 Green Street","GRADES":"K - 8"},"type":"Feature","geometry":{"type":"Point","coordinates":[-122.437947364732,37.796105762271]}},{"properties":{"PHONE":"415/752-5122","INFO":"Offers program in Orthodox religion, Russian language, literature and history; classes on Tues &amp; Thurs 4:10 - 6:00 pm, Sat 9:00 am - 1:30 pm","SCHOOL_NAM":"Sts. Cyril and Mehodius High School","ID":"74","OBJECTID":81.0,"id":"a6f1ibhf8ueu","ADDRESS":"6200 Geary Boulevard","GRADES":"9  - 12"},"type":"Feature","geometry":{"type":"Point","coordinates":[-122.486024435649,37.7803419847825]}},{"properties":{"PHONE":"415/585-5550","INFO":"","SCHOOL_NAM":"San Francisco Adventist School","ID":"76","OBJECTID":82.0,"id":"a6f1ibmd2y7a","ADDRESS":"66 Geneva Avenue","GRADES":"K - 10"},"type":"Feature","geometry":{"type":"Point","coordinates":[-122.451269053542,37.7216942128491]}},{"properties":{"PHONE":"415/391-5564","INFO":"","SCHOOL_NAM":"San Francisco Chinese Parents Committee","ID":"77","OBJECTID":83.0,"id":"a6f1ibitbiiq","ADDRESS":"843 Stockton Street","GRADES":"PK - 5"},"type":"Feature","geometry":{"type":"Point","coordinates":[-122.408193513594,37.7937389670058]}},{"properties":{"PHONE":"415/586-1117","INFO":"","SCHOOL_NAM":"San Francisco Christian School","ID":"78","OBJECTID":84.0,"id":"a6f1ibnxy11k","ADDRESS":"25 Whittier Street","GRADES":"K - 12"},"type":"Feature","geometry":{"type":"Point","coordinates":[-122.447749318661,37.7100394864293]}},{"properties":{"PHONE":"415/673-2992","INFO":"","SCHOOL_NAM":"San Francisco Christian Academy","ID":"79","OBJECTID":85.0,"id":"a6f1ibpjk0cu","ADDRESS":"302 Eddy Street","GRADES":"K - 4"},"type":"Feature","geometry":{"type":"Point","coordinates":[-122.412921167652,37.7841149208846]}},{"properties":{"PHONE":"415/931-2422","INFO":"","SCHOOL_NAM":"San Francisco Day School","ID":"80","OBJECTID":86.0,"id":"a6f1ibm4gvrd","ADDRESS":"350 Masonic Avenue","GRADES":"K - 8"},"type":"Feature","geometry":{"type":"Point","coordinates":[-122.446265738481,37.7780274152474]}},{"properties":{"PHONE":"415/552-8500","INFO":"Info: Accepting applications in K - 2 for 2003; growing to 8th grade","SCHOOL_NAM":"San Francisco Friends School","ID":"81","OBJECTID":87.0,"id":"a6f1ibspejaz","ADDRESS":"117 Diamond Street","GRADES":"K - 8"},"type":"Feature","geometry":{"type":"Point","coordinates":[-122.436801977303,37.7601181186755]}},{"properties":{"PHONE":"415/447-3100","INFO":"Catholic","SCHOOL_NAM":"San Francisco University High School","ID":"83","OBJECTID":88.0,"id":"a6f1ibuknyi4","ADDRESS":"3065 Jackson Street","GRADES":"K - 12"},"type":"Feature","geometry":{"type":"Point","coordinates":[-122.445354736271,37.7906443086113]}},{"properties":{"PHONE":"415/281-9155","INFO":"Specialize in education for emotionally disturbed children with learning differences","SCHOOL_NAM":"Sand Paths Academy","ID":"84","OBJECTID":89.0,"id":"a6f1ibgemmfg","ADDRESS":"169 Stillman Street","GRADES":"6 - 12"},"type":"Feature","geometry":{"type":"Point","coordinates":[-122.397734912561,37.7804443108431]}},{"properties":{"PHONE":"415/715-0102","INFO":"","SCHOOL_NAM":"S.R. Martin College Preparatory","ID":"85","OBJECTID":90.0,"id":"a6f1ibuqjw1r","ADDRESS":"2660 San Bruno Avenue","GRADES":"9 - 12"},"type":"Feature","geometry":{"type":"Point","coordinates":[-122.40410853623,37.7279381743674]}},{"properties":{"PHONE":"415/922-6081","INFO":"Education for students with learning difficulties","SCHOOL_NAM":"Sterne School","ID":"87","OBJECTID":91.0,"id":"a6f1ibp3ffil","ADDRESS":"2690 Jackson Street","GRADES":"5 - 12"},"type":"Feature","geometry":{"type":"Point","coordinates":[-122.439357387204,37.7920568674537]}},{"properties":{"PHONE":"415/239-5065","INFO":"","SCHOOL_NAM":"The San Francisco School","ID":"91","OBJECTID":92.0,"id":"a6f1iblieqnh","ADDRESS":"300 Gaven Street","GRADES":"PK - 8"},"type":"Feature","geometry":{"type":"Point","coordinates":[-122.41171137133,37.7327817790629]}},{"properties":{"PHONE":"415/921-3747","INFO":"Boys school","SCHOOL_NAM":"Town School for Boys","ID":"92","OBJECTID":93.0,"id":"a6f1ibtd2xo6","ADDRESS":"2750 Jackson Street","GRADES":"K - 8"},"type":"Feature","geometry":{"type":"Point","coordinates":[-122.440129468797,37.7920344723337]}},{"properties":{"PHONE":"415/626-2919","INFO":"","SCHOOL_NAM":"Urban School of San Francisco","ID":"93","OBJECTID":94.0,"id":"a6f1ibkla85i","ADDRESS":"1563 Page Street","GRADES":"9  - 12"},"type":"Feature","geometry":{"type":"Point","coordinates":[-122.44638492453,37.770747276881]}},{"properties":{"PHONE":"415/334-0105","INFO":"","SCHOOL_NAM":"Voice of Pentecost Academy","ID":"94","OBJECTID":95.0,"id":"a6f1ibvo7nb0","ADDRESS":"1970 Ocean Avenue","GRADES":"K - 12"},"type":"Feature","geometry":{"type":"Point","coordinates":[-122.463967273071,37.7263612159783]}},{"properties":{"PHONE":"415/665-6330","INFO":"K, 4-8 campus","SCHOOL_NAM":"West Portal Lutheran School - Campus 1","ID":"95","OBJECTID":96.0,"id":"a6f1ibp7idfg","ADDRESS":"200 Sloat Boulevard","GRADES":"K, 4-8"},"type":"Feature","geometry":{"type":"Point","coordinates":[-122.473453606599,37.7353529464272]}},{"properties":{"PHONE":"415/564-1063","INFO":"","SCHOOL_NAM":"Woodside International School","ID":"97","OBJECTID":97.0,"id":"a6f1ibhhjdfw","ADDRESS":"1555 Irving Street","GRADES":"6 - 12"},"type":"Feature","geometry":{"type":"Point","coordinates":[-122.474747963854,37.7634315963352]}},{"properties":{"PHONE":"415/861-1632","INFO":"Info: Alternative high school program sponsored by the Downtown YMCA","SCHOOL_NAM":"Youth Chance High School","ID":"98","OBJECTID":98.0,"id":"a6f1ibnxsura","ADDRESS":"25 14th Street","GRADES":"9 - 12"},"type":"Feature","geometry":{"type":"Point","coordinates":[-122.414141119297,37.7683360426272]}},{"properties":{"PHONE":"415/221-7500","INFO":"","SCHOOL_NAM":"Zion Lutheran School","ID":"99","OBJECTID":99.0,"id":"a6f1ibgfdz3d","ADDRESS":"495 09th Avenue","GRADES":"K - 8"},"type":"Feature","geometry":{"type":"Point","coordinates":[-122.467706564355,37.7793516544121]}}],"is_temporal":false,"author":{"url":"http://gispub02.sfgov.org/website/sfshare/accept.asp?gisID=947079Benja864220&email=william@fortiusone.com&urlExtract=","metadata":"http://gispub02.sfgov.org/website/sfshare/catalog/schools_private_pts.html","contact_name":"","contact_address":"","source":"SFGOV","contact_phone":""},"source":"http://gispub02.sfgov.org/website/sfshare/accept.asp?gisID=947079Benja864220&email=william@fortiusone.com&urlExtract=","pagination":{"sort":null,"start":0,"total":99,"limit":1000000},"state":"complete","tags":"infrastructure","published":"2009-01-30T12:00:00Z","id":9128}