{"type":"FeatureCollection","data_type":"Dataset","url_type":null,"permissions":[{"permissions":{"download":true,"view":true},"group_id":"everyone"}],"classification":null,"title":"17B-ForMaggie","count":35,"stream_id":9153,"contributor":{"url":"http://geocommons.com/users/4048","name":"cskelton"},"data_attributes":null,"calculation_params":null,"icon_link":null,"link":"http://geocommons.com/overlays/9153.json","extent":[-123.176,49.2248,-123.069,49.292],"geometry_types":["point"],"unique_name":null,"name":"17B-ForMaggie","feature_count":35,"description":"","next_feature":null,"is_raster":false,"short_classification":"Y","stats":{"tickets":{"max":1503,"mean":785.828571428571,"variance":79221.6756302521,"stdev":281.463453454,"min":502,"median":721},"lat":{"max":49.291985,"mean":49.2702732571429,"variance":0.000168470250549584,"stdev":0.0129796090291497,"min":49.224762,"median":49.265038},"long":{"max":-123.068642,"mean":-123.123936228571,"variance":0.000803898184063834,"stdev":0.0283530983150666,"min":-123.175903,"median":-123.132607}},"features":[{"properties":{"offence":"176B","tickets":502,"id":"a6jiuvrp7htm","address":"1450 11th Ave W.","lat":49.261684,"long":-123.137383},"type":"Feature","geometry":{"type":"Point","coordinates":[-123.137383,49.261684]}},{"properties":{"offence":"176B","tickets":510,"id":"a6jiuvy5i0u5","address":"1750 Kitchener St.","lat":49.272133,"long":-123.068642},"type":"Feature","geometry":{"type":"Point","coordinates":[-123.068642,49.272133]}},{"properties":{"offence":"176B","tickets":515,"id":"a6jiuvxrrs1e","address":"1350 8th Ave W.","lat":49.264442,"long":-123.13488},"type":"Feature","geometry":{"type":"Point","coordinates":[-123.13488,49.264442]}},{"properties":{"offence":"176B","tickets":519,"id":"a6jiuvzvij3u","address":"650 7th Ave W.","lat":49.265038,"long":-123.118652},"type":"Feature","geometry":{"type":"Point","coordinates":[-123.118652,49.265038]}},{"properties":{"offence":"176B","tickets":524,"id":"a6jiuw1elkim","address":"1650 10th Ave E.","lat":49.261402,"long":-123.070618},"type":"Feature","geometry":{"type":"Point","coordinates":[-123.070618,49.261402]}},{"properties":{"offence":"176B","tickets":531,"id":"a6jiuw2zncwc","address":"1050 Burnaby St.","lat":49.279022,"long":-123.131287},"type":"Feature","geometry":{"type":"Point","coordinates":[-123.131287,49.279022]}},{"properties":{"offence":"176B","tickets":538,"id":"a6jiuw1ofjx8","address":"1050 8th Ave E.","lat":49.263367,"long":-123.082291},"type":"Feature","geometry":{"type":"Point","coordinates":[-123.082291,49.263367]}},{"properties":{"offence":"176B","tickets":552,"id":"a6jiuvpnho31","address":"1250 Haro St.","lat":49.28582,"long":-123.128822},"type":"Feature","geometry":{"type":"Point","coordinates":[-123.128822,49.28582]}},{"properties":{"offence":"176B","tickets":585,"id":"a6jiuvpyk7bz","address":"1550 11th Ave W.","lat":49.261723,"long":-123.139854},"type":"Feature","geometry":{"type":"Point","coordinates":[-123.139854,49.261723]}},{"properties":{"offence":"176B","tickets":594,"id":"a6jiuvnsyupm","address":"1050 Beach Ave.","lat":49.276806,"long":-123.134666},"type":"Feature","geometry":{"type":"Point","coordinates":[-123.134666,49.276806]}},{"properties":{"offence":"176B","tickets":617,"id":"a6jiuvwyoapa","address":"1350 Arbutus St.","lat":49.273937,"long":-123.15255},"type":"Feature","geometry":{"type":"Point","coordinates":[-123.15255,49.273937]}},{"properties":{"offence":"176B","tickets":622,"id":"a6jiuvsvc22i","address":"350 Keefer St.","lat":49.279415,"long":-123.096252},"type":"Feature","geometry":{"type":"Point","coordinates":[-123.096252,49.279415]}},{"properties":{"offence":"176B","tickets":622,"id":"a6jiuvqr7w29","address":"1050 Comox St.","lat":49.281151,"long":-123.128105},"type":"Feature","geometry":{"type":"Point","coordinates":[-123.128105,49.281151]}},{"properties":{"offence":"176B","tickets":647,"id":"a6jiuvsnhk2m","address":"2250 Cornwall Ave.","lat":49.272606,"long":-123.156197},"type":"Feature","geometry":{"type":"Point","coordinates":[-123.156197,49.272606]}},{"properties":{"offence":"176B","tickets":660,"id":"a6jiuw17kgih","address":"1150 Barclay St.","lat":49.283943,"long":-123.128036},"type":"Feature","geometry":{"type":"Point","coordinates":[-123.128036,49.283943]}},{"properties":{"offence":"176B","tickets":661,"id":"a6jiuvqwshhx","address":"750 8th Ave W.","lat":49.264225,"long":-123.120827},"type":"Feature","geometry":{"type":"Point","coordinates":[-123.120827,49.264225]}},{"properties":{"offence":"176B","tickets":672,"id":"a6jiuw2boyk2","address":"50 50th Ave E.","lat":49.224762,"long":-123.104874},"type":"Feature","geometry":{"type":"Point","coordinates":[-123.104874,49.224762]}},{"properties":{"offence":"176B","tickets":721,"id":"a6jiuvof8kzq","address":"1650 11th Ave E.","lat":49.260456,"long":-123.070755},"type":"Feature","geometry":{"type":"Point","coordinates":[-123.070755,49.260456]}},{"properties":{"offence":"176B","tickets":742,"id":"a6jiuw2zzoqq","address":"2450 Trutch St.","lat":49.264664,"long":-123.175903},"type":"Feature","geometry":{"type":"Point","coordinates":[-123.175903,49.264664]}},{"properties":{"offence":"176B","tickets":747,"id":"a6jiuvn93smu","address":"550 13th Ave W.","lat":49.259464,"long":-123.116386},"type":"Feature","geometry":{"type":"Point","coordinates":[-123.116386,49.259464]}},{"properties":{"offence":"176B","tickets":764,"id":"a6jiuvmyhe1i","address":"1650 10th Ave W.","lat":49.262695,"long":-123.142288},"type":"Feature","geometry":{"type":"Point","coordinates":[-123.142288,49.262695]}},{"properties":{"offence":"176B","tickets":766,"id":"a6jiuvn2edmf","address":"1850 Robson St.","lat":49.291985,"long":-123.136269},"type":"Feature","geometry":{"type":"Point","coordinates":[-123.136269,49.291985]}},{"properties":{"offence":"176B","tickets":771,"id":"a6jiuvysr6sd","address":"1250 10th Ave W.","lat":49.262539,"long":-123.132607},"type":"Feature","geometry":{"type":"Point","coordinates":[-123.132607,49.262539]}},{"properties":{"offence":"176B","tickets":779,"id":"a6jiuvql6h16","address":"1650 Comox St.","lat":49.287128,"long":-123.137344},"type":"Feature","geometry":{"type":"Point","coordinates":[-123.137344,49.287128]}},{"properties":{"offence":"176B","tickets":794,"id":"a6jiuvrgf5j8","address":"2450 Bayswater St.","lat":49.264614,"long":-123.171219},"type":"Feature","geometry":{"type":"Point","coordinates":[-123.171219,49.264614]}},{"properties":{"offence":"176B","tickets":810,"id":"a6jiuw1xpowi","address":"1750 Alberni St.","lat":49.291687,"long":-123.133621},"type":"Feature","geometry":{"type":"Point","coordinates":[-123.133621,49.291687]}},{"properties":{"offence":"176B","tickets":889,"id":"a6jiuvv124n5","address":"850 8th Ave W.","lat":49.264259,"long":-123.122986},"type":"Feature","geometry":{"type":"Point","coordinates":[-123.122986,49.264259]}},{"properties":{"offence":"176B","tickets":927,"id":"a6jiuvta4op5","address":"1150 Harwood St.","lat":49.279694,"long":-123.13443},"type":"Feature","geometry":{"type":"Point","coordinates":[-123.13443,49.279694]}},{"properties":{"offence":"176B","tickets":963,"id":"a6jiuvwg0fd6","address":"1550 14th Ave W.","lat":49.258938,"long":-123.139992},"type":"Feature","geometry":{"type":"Point","coordinates":[-123.139992,49.258938]}},{"properties":{"offence":"176B","tickets":1209,"id":"a6jiuw2r2ohw","address":"950 10th Ave W.","lat":49.262413,"long":-123.125381},"type":"Feature","geometry":{"type":"Point","coordinates":[-123.125381,49.262413]}},{"properties":{"offence":"176B","tickets":1223,"id":"a6jiuw1masj5","address":"1650 Graveley St.","lat":49.270504,"long":-123.070587},"type":"Feature","geometry":{"type":"Point","coordinates":[-123.070587,49.270504]}},{"properties":{"offence":"176B","tickets":1239,"id":"a6jiuvu5sc3y","address":"1750 Graveley St.","lat":49.2705,"long":-123.068695},"type":"Feature","geometry":{"type":"Point","coordinates":[-123.068695,49.2705]}},{"properties":{"offence":"176B","tickets":1290,"id":"a6jiuw1g52t8","address":"1750 Pendrell St.","lat":49.287464,"long":-123.140007},"type":"Feature","geometry":{"type":"Point","coordinates":[-123.140007,49.287464]}},{"properties":{"offence":"176B","tickets":1496,"id":"a6jiuvsvn22g","address":"1750 Burnaby St.","lat":49.285904,"long":-123.141922},"type":"Feature","geometry":{"type":"Point","coordinates":[-123.141922,49.285904]}},{"properties":{"offence":"176B","tickets":1503,"id":"a6jiuvsks6ok","address":"2550 Pine St.","lat":49.26318,"long":-123.14344},"type":"Feature","geometry":{"type":"Point","coordinates":[-123.14344,49.26318]}}],"is_temporal":false,"author":{"url":"","metadata":"","contact_name":"","contact_address":"","source":"","contact_phone":""},"source":"","pagination":{"sort":null,"start":0,"total":35,"limit":1000000},"state":"complete","tags":"","published":"2014-08-11T10:27:43-04:00","id":9153}