{"type":"FeatureCollection","data_type":"Dataset","url_type":null,"permissions":[{"permissions":{"download":true,"view":true},"group_id":"everyone"}],"classification":null,"title":"A2-ForMaggie","count":60,"stream_id":9155,"contributor":{"url":"http://geocommons.com/users/4048","name":"cskelton"},"data_attributes":null,"calculation_params":null,"icon_link":null,"link":"http://geocommons.com/overlays/9155.json","extent":[-123.159,49.2345,-123.103,49.2881],"geometry_types":["point"],"unique_name":null,"name":"A2-ForMaggie","feature_count":60,"description":"","next_feature":null,"is_raster":false,"short_classification":"Y","stats":{"tickets":{"max":7689,"mean":4581.63333333333,"variance":1807233.72768362,"stdev":1344.33393458754,"min":3030,"median":4062},"lat":{"max":49.288067,"mean":49.2736573666666,"variance":0.000122042806642932,"stdev":0.0110472986129158,"min":49.234539,"median":49.276264},"long":{"max":-123.103104,"mean":-123.128686083333,"variance":0.000173264588755643,"stdev":0.0131630007504232,"min":-123.158699,"median":-123.123848}},"features":[{"properties":{"offence":"A2","tickets":3030,"id":"a6hiff1vyamm","address":"850 Hamilton St.","lat":49.278301,"long":-123.116745},"type":"Feature","geometry":{"type":"Point","coordinates":[-123.116745,49.278301]}},{"properties":{"offence":"A2","tickets":3030,"id":"a6hiff1s0coq","address":"1150 Hornby St.","lat":49.278919,"long":-123.12738},"type":"Feature","geometry":{"type":"Point","coordinates":[-123.12738,49.278919]}},{"properties":{"offence":"A2","tickets":3099,"id":"a6hiff7xup7i","address":"1050 Broadway St. W.","lat":49.263367,"long":-123.127747},"type":"Feature","geometry":{"type":"Point","coordinates":[-123.127747,49.263367]}},{"properties":{"offence":"A2","tickets":3106,"id":"a6hifetncjcu","address":"1250 Broadway St. W.","lat":49.263504,"long":-123.132553},"type":"Feature","geometry":{"type":"Point","coordinates":[-123.132553,49.263504]}},{"properties":{"offence":"A2","tickets":3116,"id":"a6hiff94z17r","address":"2050 41st Ave W.","lat":49.234539,"long":-123.15255},"type":"Feature","geometry":{"type":"Point","coordinates":[-123.15255,49.234539]}},{"properties":{"offence":"A2","tickets":3172,"id":"a6hiff01dscq","address":"450 Helmcken St.","lat":49.276623,"long":-123.122177},"type":"Feature","geometry":{"type":"Point","coordinates":[-123.122177,49.276623]}},{"properties":{"offence":"A2","tickets":3236,"id":"a6hifeydzata","address":"1050 Howe St.","lat":49.279366,"long":-123.124847},"type":"Feature","geometry":{"type":"Point","coordinates":[-123.124847,49.279366]}},{"properties":{"offence":"A2","tickets":3252,"id":"a6hiff07s48u","address":"50 Alexander St.","lat":49.283607,"long":-123.103104},"type":"Feature","geometry":{"type":"Point","coordinates":[-123.103104,49.283607]}},{"properties":{"offence":"A2","tickets":3257,"id":"a6hiff896dyz","address":"1550 7th Ave W.","lat":49.265362,"long":-123.139816},"type":"Feature","geometry":{"type":"Point","coordinates":[-123.139816,49.265362]}},{"properties":{"offence":"A2","tickets":3264,"id":"a6hiff0my1bb","address":"50 Cordova St. W.","lat":49.282677,"long":-123.10553},"type":"Feature","geometry":{"type":"Point","coordinates":[-123.10553,49.282677]}},{"properties":{"offence":"A2","tickets":3267,"id":"a6hiff5mgb5q","address":"1550 6th Ave W.","lat":49.266201,"long":-123.139862},"type":"Feature","geometry":{"type":"Point","coordinates":[-123.139862,49.266201]}},{"properties":{"offence":"A2","tickets":3276,"id":"a6hifew932ig","address":"1750 8th Ave W.","lat":49.26461,"long":-123.144562},"type":"Feature","geometry":{"type":"Point","coordinates":[-123.144562,49.26461]}},{"properties":{"offence":"A2","tickets":3407,"id":"a6hiff4kak6w","address":"2150 41st Ave W.","lat":49.234608,"long":-123.157143},"type":"Feature","geometry":{"type":"Point","coordinates":[-123.157143,49.234608]}},{"properties":{"offence":"A2","tickets":3444,"id":"a6hiff0cuns6","address":"1550 8th Ave W.","lat":49.264526,"long":-123.139801},"type":"Feature","geometry":{"type":"Point","coordinates":[-123.139801,49.264526]}},{"properties":{"offence":"A2","tickets":3492,"id":"a6hiff9lcu5p","address":"550 Howe St.","lat":49.284374,"long":-123.117226},"type":"Feature","geometry":{"type":"Point","coordinates":[-123.117226,49.284374]}},{"properties":{"offence":"A2","tickets":3526,"id":"a6hifexuk9hg","address":"550 8th Ave W.","lat":49.264145,"long":-123.116196},"type":"Feature","geometry":{"type":"Point","coordinates":[-123.116196,49.264145]}},{"properties":{"offence":"A2","tickets":3593,"id":"a6hiff1p8uyu","address":"1050 Cordova St. W.","lat":49.288067,"long":-123.117821},"type":"Feature","geometry":{"type":"Point","coordinates":[-123.117821,49.288067]}},{"properties":{"offence":"A2","tickets":3642,"id":"a6hiff2i9d0f","address":"950 Canada Pl.","lat":49.287926,"long":-123.114876},"type":"Feature","geometry":{"type":"Point","coordinates":[-123.114876,49.287926]}},{"properties":{"offence":"A2","tickets":3687,"id":"a6hiff363fj6","address":"550 Hornby St.","lat":49.285408,"long":-123.117599},"type":"Feature","geometry":{"type":"Point","coordinates":[-123.117599,49.285408]}},{"properties":{"offence":"A2","tickets":3693,"id":"a6hifeuob4cy","address":"2650 Granville St.","lat":49.262165,"long":-123.13858},"type":"Feature","geometry":{"type":"Point","coordinates":[-123.13858,49.262165]}},{"properties":{"offence":"A2","tickets":3703,"id":"a6hifeuyc43m","address":"950 Howe St.","lat":49.280437,"long":-123.123253},"type":"Feature","geometry":{"type":"Point","coordinates":[-123.123253,49.280437]}},{"properties":{"offence":"A2","tickets":3735,"id":"a6hiff4gmu8o","address":"1150 Alberni St.","lat":49.286064,"long":-123.124832},"type":"Feature","geometry":{"type":"Point","coordinates":[-123.124832,49.286064]}},{"properties":{"offence":"A2","tickets":3865,"id":"a6hiff8el4g1","address":"650 Broadway St. W.","lat":49.263271,"long":-123.118729},"type":"Feature","geometry":{"type":"Point","coordinates":[-123.118729,49.263271]}},{"properties":{"offence":"A2","tickets":3866,"id":"a6hifexwelxm","address":"950 Richards St.","lat":49.278503,"long":-123.120293},"type":"Feature","geometry":{"type":"Point","coordinates":[-123.120293,49.278503]}},{"properties":{"offence":"A2","tickets":3876,"id":"a6hiff46gz8e","address":"2350 4th Ave W.","lat":49.268219,"long":-123.158699},"type":"Feature","geometry":{"type":"Point","coordinates":[-123.158699,49.268219]}},{"properties":{"offence":"A2","tickets":3913,"id":"a6hiff6eobxq","address":"1350 Broadway St. W.","lat":49.26355,"long":-123.134888},"type":"Feature","geometry":{"type":"Point","coordinates":[-123.134888,49.26355]}},{"properties":{"offence":"A2","tickets":3979,"id":"a6hifevqtqh9","address":"850 Helmcken St.","lat":49.27916,"long":-123.126114},"type":"Feature","geometry":{"type":"Point","coordinates":[-123.126114,49.27916]}},{"properties":{"offence":"A2","tickets":4004,"id":"a6hiff8g81sx","address":"1850 1st Ave W.","lat":49.270683,"long":-123.146675},"type":"Feature","geometry":{"type":"Point","coordinates":[-123.146675,49.270683]}},{"properties":{"offence":"A2","tickets":4017,"id":"a6hiff8qx2sm","address":"950 Broadway St. W.","lat":49.263325,"long":-123.12542},"type":"Feature","geometry":{"type":"Point","coordinates":[-123.12542,49.263325]}},{"properties":{"offence":"A2","tickets":4057,"id":"a6hifeyt129m","address":"850 Cordova St. W.","lat":49.286942,"long":-123.114388},"type":"Feature","geometry":{"type":"Point","coordinates":[-123.114388,49.286942]}},{"properties":{"offence":"A2","tickets":4062,"id":"a6hifexa71va","address":"1850 4th Ave W.","lat":49.268024,"long":-123.146866},"type":"Feature","geometry":{"type":"Point","coordinates":[-123.146866,49.268024]}},{"properties":{"offence":"A2","tickets":4151,"id":"a6hifewl9qgl","address":"850 Howe St.","lat":49.28149,"long":-123.121651},"type":"Feature","geometry":{"type":"Point","coordinates":[-123.121651,49.28149]}},{"properties":{"offence":"A2","tickets":4184,"id":"a6hifevs57eg","address":"1250 Homer St.","lat":49.274715,"long":-123.124077},"type":"Feature","geometry":{"type":"Point","coordinates":[-123.124077,49.274715]}},{"properties":{"offence":"A2","tickets":4278,"id":"a6hifeyn6y69","address":"950 Cordova St. W.","lat":49.287437,"long":-123.115585},"type":"Feature","geometry":{"type":"Point","coordinates":[-123.115585,49.287437]}},{"properties":{"offence":"A2","tickets":4490,"id":"a6hifewa2k7f","address":"1450 8th Ave W.","lat":49.264481,"long":-123.137222},"type":"Feature","geometry":{"type":"Point","coordinates":[-123.137222,49.264481]}},{"properties":{"offence":"A2","tickets":4533,"id":"a6hiff2gkv4g","address":"1150 Richards St.","lat":49.276405,"long":-123.123474},"type":"Feature","geometry":{"type":"Point","coordinates":[-123.123474,49.276405]}},{"properties":{"offence":"A2","tickets":4628,"id":"a6hifezkg4bs","address":"1150 Melville St.","lat":49.287174,"long":-123.123108},"type":"Feature","geometry":{"type":"Point","coordinates":[-123.123108,49.287174]}},{"properties":{"offence":"A2","tickets":4840,"id":"a6hifetm999v","address":"1050 Hamilton St.","lat":49.276264,"long":-123.12056},"type":"Feature","geometry":{"type":"Point","coordinates":[-123.12056,49.276264]}},{"properties":{"offence":"A2","tickets":4872,"id":"a6hiff3y68yg","address":"850 Homer St.","lat":49.278946,"long":-123.117683},"type":"Feature","geometry":{"type":"Point","coordinates":[-123.117683,49.278946]}},{"properties":{"offence":"A2","tickets":4958,"id":"a6hifewezr5w","address":"1150 Mainland St","lat":49.27504,"long":-123.121346},"type":"Feature","geometry":{"type":"Point","coordinates":[-123.121346,49.27504]}},{"properties":{"offence":"A2","tickets":5029,"id":"a6hiff4ba25f","address":"1250 Hamilton St.","lat":49.274334,"long":-123.123482},"type":"Feature","geometry":{"type":"Point","coordinates":[-123.123482,49.274334]}},{"properties":{"offence":"A2","tickets":5092,"id":"a6hiff12p9yv","address":"1750 Broadway St. W.","lat":49.263737,"long":-123.144539},"type":"Feature","geometry":{"type":"Point","coordinates":[-123.144539,49.263737]}},{"properties":{"offence":"A2","tickets":5221,"id":"a6hiff0203dh","address":"1650 Broadway St. W.","lat":49.263695,"long":-123.142235},"type":"Feature","geometry":{"type":"Point","coordinates":[-123.142235,49.263695]}},{"properties":{"offence":"A2","tickets":5248,"id":"a6hiff78j3n1","address":"1150 Broadway St. W.","lat":49.26347,"long":-123.130188},"type":"Feature","geometry":{"type":"Point","coordinates":[-123.130188,49.26347]}},{"properties":{"offence":"A2","tickets":5252,"id":"a6hiff1x6712","address":"1050 Alberni St.","lat":49.284691,"long":-123.122704},"type":"Feature","geometry":{"type":"Point","coordinates":[-123.122704,49.284691]}},{"properties":{"offence":"A2","tickets":5317,"id":"a6hiff1inlat","address":"2150 4th Ave W.","lat":49.268135,"long":-123.153984},"type":"Feature","geometry":{"type":"Point","coordinates":[-123.153984,49.268135]}},{"properties":{"offence":"A2","tickets":5594,"id":"a6hiff4h9134","address":"2050 4th Ave W.","lat":49.268101,"long":-123.151604},"type":"Feature","geometry":{"type":"Point","coordinates":[-123.151604,49.268101]}},{"properties":{"offence":"A2","tickets":5868,"id":"a6hifeytxbyu","address":"1150 Robson St.","lat":49.285301,"long":-123.125923},"type":"Feature","geometry":{"type":"Point","coordinates":[-123.125923,49.285301]}},{"properties":{"offence":"A2","tickets":5920,"id":"a6hiff45gjsx","address":"1150 Homer St.","lat":49.275757,"long":-123.12249},"type":"Feature","geometry":{"type":"Point","coordinates":[-123.12249,49.275757]}},{"properties":{"offence":"A2","tickets":6005,"id":"a6hiff983ctd","address":"950 Homer St.","lat":49.277882,"long":-123.119286},"type":"Feature","geometry":{"type":"Point","coordinates":[-123.119286,49.277882]}},{"properties":{"offence":"A2","tickets":6057,"id":"a6hifex5qrkw","address":"1950 4th Ave W.","lat":49.268063,"long":-123.149208},"type":"Feature","geometry":{"type":"Point","coordinates":[-123.149208,49.268063]}},{"properties":{"offence":"A2","tickets":6488,"id":"a6hiff7510ug","address":"1050 Mainland St","lat":49.276089,"long":-123.119766},"type":"Feature","geometry":{"type":"Point","coordinates":[-123.119766,49.276089]}},{"properties":{"offence":"A2","tickets":6537,"id":"a6hifeuiqihy","address":"1050 Homer St.","lat":49.27681,"long":-123.120895},"type":"Feature","geometry":{"type":"Point","coordinates":[-123.120895,49.27681]}},{"properties":{"offence":"A2","tickets":6823,"id":"a6hifeva14eh","address":"950 Hornby St.","lat":49.281044,"long":-123.124191},"type":"Feature","geometry":{"type":"Point","coordinates":[-123.124191,49.281044]}},{"properties":{"offence":"A2","tickets":6899,"id":"a6hiff7ctybl","address":"2250 4th Ave W.","lat":49.268169,"long":-123.156342},"type":"Feature","geometry":{"type":"Point","coordinates":[-123.156342,49.268169]}},{"properties":{"offence":"A2","tickets":7000,"id":"a6hifeu4u9tf","address":"1050 Robson St.","lat":49.283955,"long":-123.123848},"type":"Feature","geometry":{"type":"Point","coordinates":[-123.123848,49.283955]}},{"properties":{"offence":"A2","tickets":7160,"id":"a6hifevyzxrv","address":"1150 Hamilton St.","lat":49.275387,"long":-123.12188},"type":"Feature","geometry":{"type":"Point","coordinates":[-123.12188,49.275387]}},{"properties":{"offence":"A2","tickets":7468,"id":"a6hiff16y1b0","address":"650 Hornby St.","lat":49.284313,"long":-123.11924},"type":"Feature","geometry":{"type":"Point","coordinates":[-123.11924,49.284313]}},{"properties":{"offence":"A2","tickets":7631,"id":"a6hiff61fcxa","address":"1050 Hornby St.","lat":49.279987,"long":-123.125801},"type":"Feature","geometry":{"type":"Point","coordinates":[-123.125801,49.279987]}},{"properties":{"offence":"A2","tickets":7689,"id":"a6hiff2k13b4","address":"850 Hornby St.","lat":49.282097,"long":-123.122581},"type":"Feature","geometry":{"type":"Point","coordinates":[-123.122581,49.282097]}}],"is_temporal":false,"author":{"url":"","metadata":"","contact_name":"","contact_address":"","source":"","contact_phone":""},"source":"","pagination":{"sort":null,"start":0,"total":60,"limit":1000000},"state":"complete","tags":"","published":"2014-08-11T10:27:43-04:00","id":9155}