{"type":"FeatureCollection","data_type":"Dataset","url_type":null,"permissions":[{"permissions":{"download":true,"view":true},"group_id":"everyone"}],"classification":null,"title":"Huntsville Police Department's January Arrests for Driving While Intoxicated","count":17,"stream_id":91567,"contributor":{"url":"http://geocommons.com/users/17813","name":"jpriest"},"data_attributes":null,"calculation_params":null,"icon_link":null,"link":"http://geocommons.com/overlays/91567.json","extent":[-95.5772,30.0443,-95.307,30.874],"geometry_types":["point"],"unique_name":null,"name":"Huntsville Police Department's January Arrests for Driving While Intoxicated","feature_count":17,"description":"This data was compiled by Huntsville Police Department shift reports released to the media. It shows the driving while intoxicated arrests HPD police made throughout the month of January.","next_feature":null,"is_raster":false,"short_classification":"Y","stats":{"time":{"max":"2030/01/01 23:14:00 -0500","mean":"2030/01/01 06:16:24 -0500","variance":783652976.470588,"stdev":27993.8024653777,"min":"2030/01/01 00:46:00 -0500","median":"2030/01/01 02:46:00 -0500"},"date":{"max":"2011/01/28 00:00:00 -0500","mean":"2011/01/16 22:35:17 -0500","variance":487527755294.118,"stdev":698231.877884502,"min":"2011/01/01 00:00:00 -0500","median":"2011/01/17 00:00:00 -0500"}},"features":[{"properties":{"city":"Huntsville","time":{"end_time":"2030/01/01 01:43:00 -0500","original":"1:42am","granularity":"min","time":"2030/01/01 01:42:00 -0500"},"date":{"end_time":"2011/01/02 00:00:00 -0500","original":"1/1/2011","granularity":"day","time":"2011/01/01 00:00:00 -0500"},"geo_score":0.8,"type":"Driving While Intoxicated","id":"a64q177ykqc4","geo_precision":"range","address":"5000 block of SAM HOUSTON AVE.","state":"Texas"},"type":"Feature","geometry":{"type":"Point","coordinates":[-95.54038,30.703579]}},{"properties":{"city":"Huntsville","time":{"end_time":"2030/01/01 02:47:00 -0500","original":"2:46am","granularity":"min","time":"2030/01/01 02:46:00 -0500"},"date":{"end_time":"2011/01/06 00:00:00 -0500","original":"1/5/2011","granularity":"day","time":"2011/01/05 00:00:00 -0500"},"geo_score":0.55,"type":"Driving While Intoxicated","id":"a64q16xyhwun","geo_precision":"street","address":"2300 block of LAKE ROAD","state":"Texas"},"type":"Feature","geometry":{"type":"Point","coordinates":[-95.551401,30.70094]}},{"properties":{"city":"Huntsville","time":{"end_time":"2030/01/01 11:37:00 -0500","original":"11:36am","granularity":"min","time":"2030/01/01 11:36:00 -0500"},"date":{"end_time":"2011/01/09 00:00:00 -0500","original":"1/8/2011","granularity":"day","time":"2011/01/08 00:00:00 -0500"},"geo_score":0.8,"type":"Driving While Intoxicated w/ child","id":"a64q179sntz4","geo_precision":"range","address":"2400 block of SAM HOUSTON AVE.","state":"Texas"},"type":"Feature","geometry":{"type":"Point","coordinates":[-95.551273,30.712079]}},{"properties":{"city":"Huntsville","time":{"end_time":"2030/01/01 00:47:00 -0500","original":"12:46am","granularity":"min","time":"2030/01/01 00:46:00 -0500"},"date":{"end_time":"2011/01/12 00:00:00 -0500","original":"1/11/2011","granularity":"day","time":"2011/01/11 00:00:00 -0500"},"geo_score":0.55,"type":"Driving While Intoxicated","id":"a64q171ntadl","geo_precision":"street","address":"2500 block of LAKE ROAD","state":"Texas"},"type":"Feature","geometry":{"type":"Point","coordinates":[-95.551401,30.70094]}},{"properties":{"city":"Huntsville","time":{"end_time":"2030/01/01 01:40:00 -0500","original":"1:39am","granularity":"min","time":"2030/01/01 01:39:00 -0500"},"date":{"end_time":"2011/01/12 00:00:00 -0500","original":"1/11/2011","granularity":"day","time":"2011/01/11 00:00:00 -0500"},"geo_score":0.536,"type":"Driving While Intoxicated","id":"a64q177trzoe","geo_precision":"street","address":"2400 block of AVE. I","state":"Texas"},"type":"Feature","geometry":{"type":"Point","coordinates":[-95.547275,30.725095]}},{"properties":{"city":"Huntsville","time":{"end_time":"2030/01/01 01:18:00 -0500","original":"1:17am","granularity":"min","time":"2030/01/01 01:17:00 -0500"},"date":{"end_time":"2011/01/13 00:00:00 -0500","original":"1/12/2011","granularity":"day","time":"2011/01/12 00:00:00 -0500"},"geo_score":0.536,"type":"Driving While Intoxicated","id":"a64q173myb3d","geo_precision":"street","address":"AVE. J/BOWERS BLVD.","state":"Texas"},"type":"Feature","geometry":{"type":"Point","coordinates":[-95.548334,30.731446]}},{"properties":{"city":"Huntsville","time":{"end_time":"2030/01/01 22:10:00 -0500","original":"10:09pm","granularity":"min","time":"2030/01/01 22:09:00 -0500"},"date":{"end_time":"2011/01/18 00:00:00 -0500","original":"1/17/2011","granularity":"day","time":"2011/01/17 00:00:00 -0500"},"geo_score":0.686,"type":"Driving While Intoxicated","id":"a64q16uasg18","geo_precision":"street","address":"7TH STREET/RYANS FERRY ROAD","state":"Texas"},"type":"Feature","geometry":{"type":"Point","coordinates":[-95.539572,30.727597]}},{"properties":{"city":"Huntsville","time":{"end_time":"2030/01/01 01:45:00 -0500","original":"1:44am","granularity":"min","time":"2030/01/01 01:44:00 -0500"},"date":{"end_time":"2011/01/17 00:00:00 -0500","original":"1/16/2011","granularity":"day","time":"2011/01/16 00:00:00 -0500"},"geo_score":0.524,"type":"Driving While Intoxicated","id":"a64q16xfb2o9","geo_precision":"street","address":"17TH STREET/SAM HOUSTON AVE.","state":"Texas"},"type":"Feature","geometry":{"type":"Point","coordinates":[-95.306992,30.874046]}},{"properties":{"city":"Huntsville","time":{"end_time":"2030/01/01 02:58:00 -0500","original":"2:57am","granularity":"min","time":"2030/01/01 02:57:00 -0500"},"date":{"end_time":"2011/01/17 00:00:00 -0500","original":"1/16/2011","granularity":"day","time":"2011/01/16 00:00:00 -0500"},"geo_score":0.439,"type":"Driving While Intoxicated 2nd","id":"a64q178m1mod","geo_precision":"street","address":"100 block of INTERESTATE HIGHWAY SOUTH","state":"Texas"},"type":"Feature","geometry":{"type":"Point","coordinates":[-95.433669,30.044317]}},{"properties":{"city":"Huntsville","time":{"end_time":"2030/01/01 19:52:00 -0500","original":"7:51pm","granularity":"min","time":"2030/01/01 19:51:00 -0500"},"date":{"end_time":"2011/01/20 00:00:00 -0500","original":"1/19/2011","granularity":"day","time":"2011/01/19 00:00:00 -0500"},"geo_score":0.82,"type":"Driving While Intoxicated M-B","id":"a64q16ybeu37","geo_precision":"range","address":"1000 block of MARTIN LUTHER KING DRIVE","state":"Texas"},"type":"Feature","geometry":{"type":"Point","coordinates":[-95.543278,30.725132]}},{"properties":{"city":"Huntsville","time":{"end_time":"2030/01/01 03:02:00 -0500","original":"3:01am","granularity":"min","time":"2030/01/01 03:01:00 -0500"},"date":{"end_time":"2011/01/22 00:00:00 -0500","original":"1/21/2011","granularity":"day","time":"2011/01/21 00:00:00 -0500"},"geo_score":0.447,"type":"Driving While Intoxicated","id":"a64q178ojjth","geo_precision":"street","address":"100 block of INTERSTATE HIGHWAY SOUTH","state":"Texas"},"type":"Feature","geometry":{"type":"Point","coordinates":[-95.547379,30.726297]}},{"properties":{"city":"Huntsville","time":{"end_time":"2030/01/01 02:38:00 -0500","original":"2:37am","granularity":"min","time":"2030/01/01 02:37:00 -0500"},"date":{"end_time":"2011/01/23 00:00:00 -0500","original":"1/22/2011","granularity":"day","time":"2011/01/22 00:00:00 -0500"},"geo_score":0.357,"type":"Driving While Intoxicated","id":"a64q171e338n","geo_precision":"street","address":"AVE. S/20TH STREET","state":"Texas"},"type":"Feature","geometry":{"type":"Point","coordinates":[-95.548107,30.712441]}},{"properties":{"city":"Huntsville","time":{"end_time":"2030/01/01 23:15:00 -0500","original":"11:14pm","granularity":"min","time":"2030/01/01 23:14:00 -0500"},"date":{"end_time":"2011/01/22 00:00:00 -0500","original":"1/21/2011","granularity":"day","time":"2011/01/21 00:00:00 -0500"},"geo_score":0.686,"type":"Driving While Intoxicated","id":"a64q174dl0on","geo_precision":"street","address":"VETERANS MEMORIAL PARKWAY/SOUTH HIGHWAY 30","state":"Texas"},"type":"Feature","geometry":{"type":"Point","coordinates":[-95.53982,30.724248]}},{"properties":{"city":"Huntsville","time":{"end_time":"2030/01/01 01:56:00 -0500","original":"1:55am","granularity":"min","time":"2030/01/01 01:55:00 -0500"},"date":{"end_time":"2011/01/27 00:00:00 -0500","original":"1/26/2011","granularity":"day","time":"2011/01/26 00:00:00 -0500"},"geo_score":0.55,"type":"Driving While Intoxicated","id":"a64q16w1g39w","geo_precision":"street","address":"2300 block of LAKE ROAD","state":"Texas"},"type":"Feature","geometry":{"type":"Point","coordinates":[-95.551401,30.70094]}},{"properties":{"city":"Huntsville","time":{"end_time":"2030/01/01 02:39:00 -0500","original":"2:38am","granularity":"min","time":"2030/01/01 02:38:00 -0500"},"date":{"end_time":"2011/01/27 00:00:00 -0500","original":"1/26/2011","granularity":"day","time":"2011/01/26 00:00:00 -0500"},"geo_score":0.712,"type":"Driving While Intoxicated","id":"a64q177cbcev","geo_precision":"range","address":"2500 block of MONTGOMERY ROAD","state":"Texas"},"type":"Feature","geometry":{"type":"Point","coordinates":[-95.500756,30.310882]}},{"properties":{"city":"Huntsville","time":{"end_time":"2030/01/01 02:47:00 -0500","original":"2:46am","granularity":"min","time":"2030/01/01 02:46:00 -0500"},"date":{"end_time":"2011/01/29 00:00:00 -0500","original":"1/28/2011","granularity":"day","time":"2011/01/28 00:00:00 -0500"},"geo_score":0.551,"type":"Driving While Intoxicated","id":"a64q16vdkeej","geo_precision":"street","address":"SYCAMORE/PALM","state":"Texas"},"type":"Feature","geometry":{"type":"Point","coordinates":[-95.577163,30.731249]}},{"properties":{"city":"Huntsville","time":{"end_time":"2030/01/01 04:02:00 -0500","original":"4:01am","granularity":"min","time":"2030/01/01 04:01:00 -0500"},"date":{"end_time":"2011/01/29 00:00:00 -0500","original":"1/28/2011","granularity":"day","time":"2011/01/28 00:00:00 -0500"},"geo_score":0.857,"type":"Driving While Intoxicated","id":"a64q170i5n33","geo_precision":"street","address":"LAKE ROAD/LAKERIDGE","state":"Texas"},"type":"Feature","geometry":{"type":"Point","coordinates":[-95.552774,30.698414]}}],"is_temporal":true,"author":{"url":"","metadata":"","contact_name":"Jessica Priest","contact_address":"jpriest@houstonianonline.com","source":"","contact_phone":"936-294-1502"},"source":"","pagination":{"sort":null,"start":0,"total":17,"limit":1000000},"state":"complete","tags":"#college,#hpd,#january,#newspaper,#texas","published":"2014-08-10T13:13:31-04:00","id":91567}