{"type":"FeatureCollection","data_type":"Dataset","url_type":null,"permissions":[{"permissions":{"download":true,"view":true},"group_id":"everyone"}],"classification":null,"title":"publiclibraries.com, Nebraska Public Libraries, Nebraska, 1.2008","count":292,"stream_id":934,"contributor":{"url":"http://geocommons.com/users/2","name":"data"},"data_attributes":null,"calculation_params":null,"icon_link":null,"link":"http://geocommons.com/overlays/934.json","extent":[-104.039,40.0043,-95.6027,42.909],"geometry_types":["point"],"unique_name":null,"name":"publiclibraries.com, Nebraska Public Libraries, Nebraska, 1.2008","feature_count":292,"description":"This dataset displays the locations of all the public libraries in the state of Nebraska. The data included is the name of the library, name of the library system, library's address, phone, and lat/lon coordinates. The data came from publiclibraries.com which is a updated directory of all the public libraries throughout the United States.\n","next_feature":null,"is_raster":false,"short_classification":"Y","stats":{"lon":{"max":-95.602671,"mean":-98.3695883390411,"variance":4.31128333858429,"stdev":2.0763630074205,"min":-104.039039,"median":-97.793634},"lat":{"max":42.90903,"mean":41.2378094349315,"variance":0.586860867060783,"stdev":0.766068448025882,"min":40.00431,"median":41.201899}},"features":[{"properties":{"city":"Omaha","lon":-95.985998,"zip":"","librarysystem":"Omaha Public Library","id":"a62qwnohlmhh","address":"4808 Cass Street","lat":41.263349,"libraryname":"A V Sorenson Branch Library","state":"NE"},"type":"Feature","geometry":{"type":"Point","coordinates":[-95.985998,41.263349]}},{"properties":{"city":"Adams","lon":-96.510395,"zip":"","librarysystem":"Adams Public Library","id":"a62qwnpli90p","address":"750 Ash Street","lat":40.458253,"libraryname":"Adams Public Library","state":"NE"},"type":"Feature","geometry":{"type":"Point","coordinates":[-96.510395,40.458253]}},{"properties":{"city":"Waterloo","lon":-96.284029,"zip":"","librarysystem":"Agnes Robinson Waterloo Public Library","id":"a62qwo26pdrw","address":"205 Washington","lat":41.287181,"libraryname":"Agnes Robinson Waterloo Public Library","state":"NE"},"type":"Feature","geometry":{"type":"Point","coordinates":[-96.284029,41.287181]}},{"properties":{"city":"Ainsworth","lon":-99.862726,"zip":"","librarysystem":"Ainsworth Public Library","id":"a62qwnwhy5l5","address":"445 North Main Street","lat":42.550451,"libraryname":"Ainsworth Public Library","state":"NE"},"type":"Feature","geometry":{"type":"Point","coordinates":[-99.862726,42.550451]}},{"properties":{"city":"Albion","lon":-97.999531,"zip":"","librarysystem":"Albion Public Library","id":"a62qwnpq06gb","address":"437 South 3rd Street","lat":41.689456,"libraryname":"Albion Public Library","state":"NE"},"type":"Feature","geometry":{"type":"Point","coordinates":[-97.999531,41.689456]}},{"properties":{"city":"Aurora","lon":-97.99738,"zip":"","librarysystem":"Alice M Farr Library","id":"a62qwo243edg","address":"1603 L Street","lat":40.867598,"libraryname":"Alice M. Farr Library","state":"NE"},"type":"Feature","geometry":{"type":"Point","coordinates":[-97.99738,40.867598]}},{"properties":{"city":"Alliance","lon":-102.868538,"zip":"","librarysystem":"Alliance Public Library","id":"a62qwo07pngh","address":"1750 Sweetwater Avenue","lat":42.110496,"libraryname":"Alliance Public Library","state":"NE"},"type":"Feature","geometry":{"type":"Point","coordinates":[-102.868538,42.110496]}},{"properties":{"city":"Anselmo","lon":-99.863514,"zip":"","librarysystem":"Anselmo Public Library","id":"a62qwnoz5lj1","address":"1010 North Dorr Street","lat":41.620105,"libraryname":"Anselmo Public Library","state":"NE"},"type":"Feature","geometry":{"type":"Point","coordinates":[-99.863514,41.620105]}},{"properties":{"city":"Ansley","lon":-99.377749,"zip":"","librarysystem":"Ansley Township Library","id":"a62qwnt6ecxt","address":"619 Main Street","lat":41.28794,"libraryname":"Ansley Township Library","state":"NE"},"type":"Feature","geometry":{"type":"Point","coordinates":[-99.377749,41.28794]}},{"properties":{"city":"Arapahoe","lon":-99.897669,"zip":"","librarysystem":"Arapahoe Public Library","id":"a62qwnuyschs","address":"302 Nebraska Ave., P.O. Box 598","lat":40.303935,"libraryname":"Arapahoe Public Library","state":"NE"},"type":"Feature","geometry":{"type":"Point","coordinates":[-99.897669,40.303935]}},{"properties":{"city":"Arcadia","lon":-99.125359,"zip":"","librarysystem":"Arcadia Township Library","id":"a62qwo0wt99c","address":"100 South Reynolds","lat":41.422815,"libraryname":"Arcadia Township Library","state":"NE"},"type":"Feature","geometry":{"type":"Point","coordinates":[-99.125359,41.422815]}},{"properties":{"city":"Arlington","lon":-96.352623,"zip":"","librarysystem":"Arlington Public Library","id":"a62qwnpolxew","address":"410 West Elm Street","lat":41.453906,"libraryname":"Arlington Public Library","state":"NE"},"type":"Feature","geometry":{"type":"Point","coordinates":[-96.352623,41.453906]}},{"properties":{"city":"Lincoln","lon":-96.794076,"zip":"","librarysystem":"Lincoln City Libraries","id":"a62qwnvm432p","address":"3815 NW 54th Street","lat":40.851901,"libraryname":"Arnold Heights Branch Library","state":"NE"},"type":"Feature","geometry":{"type":"Point","coordinates":[-96.794076,40.851901]}},{"properties":{"city":"Arthur","lon":-101.691599,"zip":"","librarysystem":"Arthur County Library","id":"a62qwo41o8eu","address":"205 First Street","lat":41.57117,"libraryname":"Arthur County Library","state":"NE"},"type":"Feature","geometry":{"type":"Point","coordinates":[-101.691599,41.57117]}},{"properties":{"city":"Ashland","lon":-96.369384,"zip":"","librarysystem":"Ashland Public Library","id":"a62qwnx1b6xx","address":"207 North 15th Street","lat":41.040273,"libraryname":"Ashland Public Library","state":"NE"},"type":"Feature","geometry":{"type":"Point","coordinates":[-96.369384,41.040273]}},{"properties":{"city":"Atkinson","lon":-98.978476,"zip":"","librarysystem":"Atkinson Public Library","id":"a62qwntglwel","address":"113 West State Street","lat":42.531143,"libraryname":"Atkinson Public Library","state":"NE"},"type":"Feature","geometry":{"type":"Point","coordinates":[-98.978476,42.531143]}},{"properties":{"city":"Auburn","lon":-95.842522,"zip":"","librarysystem":"Auburn Memorial Library","id":"a62qwnybjdv6","address":"1810 Courthouse Avenue","lat":40.386431,"libraryname":"Auburn Memorial Library","state":"NE"},"type":"Feature","geometry":{"type":"Point","coordinates":[-95.842522,40.386431]}},{"properties":{"city":"Red Cloud","lon":-98.519439,"zip":"","librarysystem":"Auld Public Library","id":"a62qwnq228iv","address":"537 N. Webster St.","lat":40.090257,"libraryname":"Auld Public Library","state":"NE"},"type":"Feature","geometry":{"type":"Point","coordinates":[-98.519439,40.090257]}},{"properties":{"city":"Guide Rock","lon":-98.327017,"zip":"","librarysystem":"Auld-Doudna Public Library","id":"a62qwnscyu69","address":"155 West Grant","lat":40.073585,"libraryname":"Auld-Doudna Public Library","state":"NE"},"type":"Feature","geometry":{"type":"Point","coordinates":[-98.327017,40.073585]}},{"properties":{"city":"Axtell","lon":-99.126735,"zip":"","librarysystem":"Axtell Public Library","id":"a62qwo0685p8","address":"305 North Main Street","lat":40.478716,"libraryname":"Axtell Public Library","state":"NE"},"type":"Feature","geometry":{"type":"Point","coordinates":[-99.126735,40.478716]}},{"properties":{"city":"Ralston","lon":-96.031774,"zip":"","librarysystem":"Baright Public Library","id":"a62qwo2tadvk","address":"5555 S. 77th Street","lat":41.201899,"libraryname":"Baright Public Library","state":"NE"},"type":"Feature","geometry":{"type":"Point","coordinates":[-96.031774,41.201899]}},{"properties":{"city":"Bartley","lon":-100.305694,"zip":"","librarysystem":"Bartley Public Library","id":"a62qwo25zy6j","address":"411 Commercial","lat":40.252181,"libraryname":"Bartley Public Library","state":"NE"},"type":"Feature","geometry":{"type":"Point","coordinates":[-100.305694,40.252181]}},{"properties":{"city":"Battle Creek","lon":-97.596732,"zip":"","librarysystem":"Battle Creek Public Library","id":"a62qwnp75bqd","address":"103 East Main Street","lat":41.99956,"libraryname":"Battle Creek Public Library","state":"NE"},"type":"Feature","geometry":{"type":"Point","coordinates":[-97.596732,41.99956]}},{"properties":{"city":"Bayard","lon":-103.32578,"zip":"","librarysystem":"Bayard Public Library","id":"a62qwo29y665","address":"509 Avenue A","lat":41.755626,"libraryname":"Bayard Public Library","state":"NE"},"type":"Feature","geometry":{"type":"Point","coordinates":[-103.32578,41.755626]}},{"properties":{"city":"Beatrice","lon":-96.732342,"zip":"","librarysystem":"Beatrice Public Library","id":"a62qwnoqu40u","address":"100 North 16th Street","lat":40.266943,"libraryname":"Beatrice Public Library","state":"NE"},"type":"Feature","geometry":{"type":"Point","coordinates":[-96.732342,40.266943]}},{"properties":{"city":"Beaver City","lon":-99.826791,"zip":"","librarysystem":"Beaver City Public Library","id":"a62qwo1vcupb","address":"408 10th Street","lat":40.13883,"libraryname":"Beaver City Public Library","state":"NE"},"type":"Feature","geometry":{"type":"Point","coordinates":[-99.826791,40.13883]}},{"properties":{"city":"Beaver Crossing","lon":-97.31104,"zip":"","librarysystem":"Beaver Crossing Community Library","id":"a62qwnrbuquw","address":"436 434th Road","lat":40.758746,"libraryname":"Beaver Crossing Community Library","state":"NE"},"type":"Feature","geometry":{"type":"Point","coordinates":[-97.31104,40.758746]}},{"properties":{"city":"Bellevue","lon":-95.907621,"zip":"","librarysystem":"Bellevue Public Library","id":"a62qwny4c8pj","address":"1003 Lincoln Road","lat":41.150467,"libraryname":"Bellevue Public Library","state":"NE"},"type":"Feature","geometry":{"type":"Point","coordinates":[-95.907621,41.150467]}},{"properties":{"city":"Bennington","lon":-96.157276,"zip":"","librarysystem":"Bennington Public Library","id":"a62qwno3nwzc","address":"15505 Warehouse Street","lat":41.363144,"libraryname":"Bennington Public Library","state":"NE"},"type":"Feature","geometry":{"type":"Point","coordinates":[-96.157276,41.363144]}},{"properties":{"city":"Omaha","lon":-96.004924,"zip":"","librarysystem":"Omaha Public Library","id":"a62qwo0cqbou","address":"2918 No. 60th Street","lat":41.285224,"libraryname":"Benson Branch Library","state":"NE"},"type":"Feature","geometry":{"type":"Point","coordinates":[-96.004924,41.285224]}},{"properties":{"city":"Lincoln","lon":-96.70175,"zip":"","librarysystem":"Lincoln City Libraries","id":"a62qwo0cc8mi","address":"6701 South 14th Street","lat":40.743222,"libraryname":"Bess Dodson Walt Branch","state":"NE"},"type":"Feature","geometry":{"type":"Point","coordinates":[-96.70175,40.743222]}},{"properties":{"city":"Elkhorn","lon":-96.233155,"zip":"","librarysystem":"Omaha Public Library","id":"a62qwnvo1alw","address":"100 Reading Road","lat":41.278584,"libraryname":"Bess Johnson Elkhorn Public Library","state":"NE"},"type":"Feature","geometry":{"type":"Point","coordinates":[-96.233155,41.278584]}},{"properties":{"city":"Lincoln","lon":-96.630355,"zip":"","librarysystem":"Lincoln City Libraries","id":"a62qwnqln413","address":"1810 North Cotner Boulevard","lat":40.830972,"libraryname":"Bethany Branch Library","state":"NE"},"type":"Feature","geometry":{"type":"Point","coordinates":[-96.630355,40.830972]}},{"properties":{"city":"Big Springs","lon":-102.074716,"zip":"","librarysystem":"Big Springs Public Library","id":"a62qwntaec4i","address":"400 Pine Street","lat":41.063102,"libraryname":"Big Springs Public Library","state":"NE"},"type":"Feature","geometry":{"type":"Point","coordinates":[-102.074716,41.063102]}},{"properties":{"city":"Blair","lon":-96.137617,"zip":"","librarysystem":"Blair Public Library","id":"a62qwnz6sdal","address":"210 S. 17th Street","lat":41.542651,"libraryname":"Blair Public Library","state":"NE"},"type":"Feature","geometry":{"type":"Point","coordinates":[-96.137617,41.542651]}},{"properties":{"city":"Bloomfield","lon":-97.645787,"zip":"","librarysystem":"Bloomfield Public Library","id":"a62qwo3qbtae","address":"121 South Broadway","lat":42.598764,"libraryname":"Bloomfield Public Library","state":"NE"},"type":"Feature","geometry":{"type":"Point","coordinates":[-97.645787,42.598764]}},{"properties":{"city":"Blue Hill","lon":-98.446487,"zip":"","librarysystem":"Blue Hill Public Library","id":"a62qwnuv4uvu","address":"317 West Gage Street","lat":40.332408,"libraryname":"Blue Hill Public Library","state":"NE"},"type":"Feature","geometry":{"type":"Point","coordinates":[-98.446487,40.332408]}},{"properties":{"city":"Dewitt","lon":-96.920329,"zip":"","librarysystem":"Bob &amp; Wauneta Burkley Lib. &amp; Res. Ctr","id":"a62qwo2hlqsh","address":"208 E. Fillmore","lat":40.39495,"libraryname":"Bob &amp; Wauneta Burkley Library &amp; Resource Cent","state":"NE"},"type":"Feature","geometry":{"type":"Point","coordinates":[-96.920329,40.39495]}},{"properties":{"city":"Merna","lon":-99.767159,"zip":"","librarysystem":"Brenizer Public Library","id":"a62qwnxsf2y9","address":"430 West Center Avenue","lat":41.484005,"libraryname":"Brenizer Public/Kilfoil Township Library","state":"NE"},"type":"Feature","geometry":{"type":"Point","coordinates":[-99.767159,41.484005]}},{"properties":{"city":"Bridgeport","lon":-103.09937,"zip":"","librarysystem":"Bridgeport Public Library","id":"a62qwo2ts5v0","address":"722 Main Street","lat":41.667889,"libraryname":"Bridgeport Public Library","state":"NE"},"type":"Feature","geometry":{"type":"Point","coordinates":[-103.09937,41.667889]}},{"properties":{"city":"Broadwater","lon":-102.853229,"zip":"","librarysystem":"Broadwater Public Library","id":"a62qwno4rwbw","address":"Route 2","lat":41.59606,"libraryname":"Broadwater Public Library","state":"NE"},"type":"Feature","geometry":{"type":"Point","coordinates":[-102.853229,41.59606]}},{"properties":{"city":"Broken Bow","lon":-99.637427,"zip":"","librarysystem":"Broken Bow Public Library","id":"a62qwo1xml26","address":"626 South D Street","lat":41.402522,"libraryname":"Broken Bow Public Library","state":"NE"},"type":"Feature","geometry":{"type":"Point","coordinates":[-99.637427,41.402522]}},{"properties":{"city":"Glenvil","lon":-98.251024,"zip":"","librarysystem":"Brumbaugh Public Library","id":"a62qwnzo8697","address":"Route 1","lat":40.50072,"libraryname":"Brumbaugh Public Library","state":"NE"},"type":"Feature","geometry":{"type":"Point","coordinates":[-98.251024,40.50072]}},{"properties":{"city":"Bruning","lon":-97.570006,"zip":"","librarysystem":"Bruning Public Library","id":"a62qwnrcn7st","address":"141 Main Street","lat":40.336071,"libraryname":"Bruning Public Library","state":"NE"},"type":"Feature","geometry":{"type":"Point","coordinates":[-97.570006,40.336071]}},{"properties":{"city":"Brunswick","lon":-97.970501,"zip":"","librarysystem":"Brunswick Public Library","id":"a62qwnpi0cfc","address":"303 Franklin","lat":42.336255,"libraryname":"Brunswick Public Library","state":"NE"},"type":"Feature","geometry":{"type":"Point","coordinates":[-97.970501,42.336255]}},{"properties":{"city":"Humboldt","lon":-95.946712,"zip":"","librarysystem":"Bruun Memorial Library","id":"a62qwnzfa4bb","address":"730 3rd Street","lat":40.163026,"libraryname":"Bruun Memorial Library","state":"NE"},"type":"Feature","geometry":{"type":"Point","coordinates":[-95.946712,40.163026]}},{"properties":{"city":"Cambridge","lon":-100.167421,"zip":"","librarysystem":"Butler Memorial Library","id":"a62qwnoyez65","address":"621 Penn","lat":40.282266,"libraryname":"Butler Memorial Library","state":"NE"},"type":"Feature","geometry":{"type":"Point","coordinates":[-100.167421,40.282266]}},{"properties":{"city":"Byron","lon":-97.764899,"zip":"","librarysystem":"Byron Public Library","id":"a62qwnvbo3qz","address":"140 South Kansas Avenue","lat":40.00431,"libraryname":"Byron Public Library","state":"NE"},"type":"Feature","geometry":{"type":"Point","coordinates":[-97.764899,40.00431]}},{"properties":{"city":"Carleton","lon":-97.678594,"zip":"","librarysystem":"Carleton Public Library","id":"a62qwnziu4bd","address":"415 D Street","lat":40.304295,"libraryname":"Carleton Public Library","state":"NE"},"type":"Feature","geometry":{"type":"Point","coordinates":[-97.678594,40.304295]}},{"properties":{"city":"Carroll","lon":-97.189105,"zip":"","librarysystem":"Carroll Public Library","id":"a62qwo26n7y7","address":"506 Main Street","lat":42.276003,"libraryname":"Carroll Public Library","state":"NE"},"type":"Feature","geometry":{"type":"Point","coordinates":[-97.189105,42.276003]}},{"properties":{"city":"Cedar Rapids","lon":-98.14821,"zip":"","librarysystem":"Cedar Rapids Public Library","id":"a62qwo2fceds","address":"423 W. Main Street.","lat":41.559828,"libraryname":"Cedar Rapids Public Library","state":"NE"},"type":"Feature","geometry":{"type":"Point","coordinates":[-98.14821,41.559828]}},{"properties":{"city":"Central City","lon":-97.999024,"zip":"","librarysystem":"Central City Public Library","id":"a62qwo3yqon1","address":"1604 15th Avenue","lat":41.115976,"libraryname":"Central City Public Library","state":"NE"},"type":"Feature","geometry":{"type":"Point","coordinates":[-97.999024,41.115976]}},{"properties":{"city":"Ceresco","lon":-96.644777,"zip":"","librarysystem":"Ceresco Community Library","id":"a62qwnturblj","address":"425 S. 2nd Street","lat":41.056916,"libraryname":"Ceresco Community Library","state":"NE"},"type":"Feature","geometry":{"type":"Point","coordinates":[-96.644777,41.056916]}},{"properties":{"city":"Ceresco","lon":-96.644777,"zip":"","librarysystem":"Ceresco Public Library","id":"a62qwnrhw9yy","address":"425 S. 2nd Street","lat":41.056916,"libraryname":"Ceresco Public Library","state":"NE"},"type":"Feature","geometry":{"type":"Point","coordinates":[-96.644777,41.056916]}},{"properties":{"city":"Chadron","lon":-103.000081,"zip":"","librarysystem":"Chadron Public Library","id":"a62qwnyg2zzo","address":"507 Bordeaux Street","lat":42.826202,"libraryname":"Chadron Public Library","state":"NE"},"type":"Feature","geometry":{"type":"Point","coordinates":[-103.000081,42.826202]}},{"properties":{"city":"Chappell","lon":-102.471129,"zip":"","librarysystem":"Chappell Memorial Library &amp; Art Gallery","id":"a62qwnoq3kgh","address":"289 Babcock Avenue","lat":41.093451,"libraryname":"Chappell Memorial Library","state":"NE"},"type":"Feature","geometry":{"type":"Point","coordinates":[-102.471129,41.093451]}},{"properties":{"city":"Omaha","lon":-95.954604,"zip":"","librarysystem":"Omaha Public Library","id":"a62qwnymbt66","address":"2869 Ames Avenue","lat":41.299419,"libraryname":"Charles B Washington Branch Library","state":"NE"},"type":"Feature","geometry":{"type":"Point","coordinates":[-95.954604,41.299419]}},{"properties":{"city":"Lincoln","lon":-96.684639,"zip":"","librarysystem":"Lincoln City Libraries","id":"a62qwnv0b182","address":"2400 South 26th Street","lat":40.79169,"libraryname":"Charles H. Gere Branch Library","state":"NE"},"type":"Feature","geometry":{"type":"Point","coordinates":[-96.684639,40.79169]}},{"properties":{"city":"Chester","lon":-97.618863,"zip":"","librarysystem":"Chester Public Library","id":"a62qwnpsnx5q","address":"623 Thayer Avenue","lat":40.013865,"libraryname":"Chester Public Library","state":"NE"},"type":"Feature","geometry":{"type":"Point","coordinates":[-97.618863,40.013865]}},{"properties":{"city":"Clarks","lon":-97.837775,"zip":"","librarysystem":"Clarks Public Library","id":"a62qwnqtcpox","address":"108 West Amity Street","lat":41.216464,"libraryname":"Clarks Public Library","state":"NE"},"type":"Feature","geometry":{"type":"Point","coordinates":[-97.837775,41.216464]}},{"properties":{"city":"Clarkson","lon":-97.12229,"zip":"","librarysystem":"Clarkson Public Library","id":"a62qwnv82rsx","address":"318 Pine Street","lat":41.721268,"libraryname":"Clarkson Memorial Library","state":"NE"},"type":"Feature","geometry":{"type":"Point","coordinates":[-97.12229,41.721268]}},{"properties":{"city":"Clay Center","lon":-98.056121,"zip":"","librarysystem":"Clay Center Public Library","id":"a62qwnscdx9u","address":"117 West Edgar Street","lat":40.52063,"libraryname":"Clay Center Public Library","state":"NE"},"type":"Feature","geometry":{"type":"Point","coordinates":[-98.056121,40.52063]}},{"properties":{"city":"Clearwater","lon":-98.188389,"zip":"","librarysystem":"Clearwater Public Library","id":"a62qwnv8ntcn","address":"626 Main Street","lat":42.17252,"libraryname":"Clearwater Public Library","state":"NE"},"type":"Feature","geometry":{"type":"Point","coordinates":[-98.188389,42.17252]}},{"properties":{"city":"Columbus","lon":-97.358302,"zip":"","librarysystem":"Columbus Public Library","id":"a62qwnyvul05","address":"2504 14th Street","lat":41.430381,"libraryname":"Columbus Public Library","state":"NE"},"type":"Feature","geometry":{"type":"Point","coordinates":[-97.358302,41.430381]}},{"properties":{"city":"Comstock","lon":-99.238709,"zip":"","librarysystem":"Comstock Township Library","id":"a62qwnqi1ezu","address":"119 West Main Street","lat":41.556625,"libraryname":"Comstock Township Library","state":"NE"},"type":"Feature","geometry":{"type":"Point","coordinates":[-99.238709,41.556625]}},{"properties":{"city":"Orleans","lon":-99.455139,"zip":"","librarysystem":"Cordelia B Preston Memorial Library","id":"a62qwnqminuf","address":"510 South Orleans Avenue","lat":40.12896,"libraryname":"Cordelia B. Preston Memorial Library","state":"NE"},"type":"Feature","geometry":{"type":"Point","coordinates":[-99.455139,40.12896]}},{"properties":{"city":"Cozad","lon":-99.985759,"zip":"","librarysystem":"Wilson Public Library","id":"a62qwnqrmczu","address":"910 Meridian","lat":40.860766,"libraryname":"Cozad Public Library","state":"NE"},"type":"Feature","geometry":{"type":"Point","coordinates":[-99.985759,40.860766]}},{"properties":{"city":"Hay Springs","lon":-102.689707,"zip":"","librarysystem":"Cravath Memorial Library","id":"a62qwo1tfbbz","address":"243 North Main","lat":42.684783,"libraryname":"Cravath Memorial Library","state":"NE"},"type":"Feature","geometry":{"type":"Point","coordinates":[-102.689707,42.684783]}},{"properties":{"city":"Crawford","lon":-103.413302,"zip":"","librarysystem":"Crawford Public Library","id":"a62qwo1o9tjs","address":"601 Second Street","lat":42.683556,"libraryname":"Crawford Public Library","state":"NE"},"type":"Feature","geometry":{"type":"Point","coordinates":[-103.413302,42.683556]}},{"properties":{"city":"Creighton","lon":-97.905008,"zip":"","librarysystem":"Creighton Public Library","id":"a62qwnst2wwm","address":"701 State Street","lat":42.46753,"libraryname":"Creighton Public Library","state":"NE"},"type":"Feature","geometry":{"type":"Point","coordinates":[-97.905008,42.46753]}},{"properties":{"city":"Crete","lon":-96.958885,"zip":"","librarysystem":"Crete Public Library","id":"a62qwo37r778","address":"305 East 13th Street","lat":40.625059,"libraryname":"Crete Public Library","state":"NE"},"type":"Feature","geometry":{"type":"Point","coordinates":[-96.958885,40.625059]}},{"properties":{"city":"Culbertson","lon":-100.840379,"zip":"","librarysystem":"Culbertson Public Library","id":"a62qwno51mw8","address":"503 New York","lat":40.22857,"libraryname":"Culbertson Public Library","state":"NE"},"type":"Feature","geometry":{"type":"Point","coordinates":[-100.840379,40.22857]}},{"properties":{"city":"Dakota City","lon":-96.421785,"zip":"","librarysystem":"Dakota City Public Library","id":"a62qwnnxnokb","address":"1710 Broadway","lat":42.415287,"libraryname":"Dakota City Public Library","state":"NE"},"type":"Feature","geometry":{"type":"Point","coordinates":[-96.421785,42.415287]}},{"properties":{"city":"Dalton","lon":-102.974026,"zip":"","librarysystem":"Dalton Public Library","id":"a62qwns58j5h","address":"306 Main Street","lat":41.407026,"libraryname":"Dalton Public Library","state":"NE"},"type":"Feature","geometry":{"type":"Point","coordinates":[-102.974026,41.407026]}},{"properties":{"city":"Davenport","lon":-97.812434,"zip":"","librarysystem":"Davenport Public Library","id":"a62qwnw8e5lb","address":"109 North Maple Avenue","lat":40.307185,"libraryname":"Davenport Public Library","state":"NE"},"type":"Feature","geometry":{"type":"Point","coordinates":[-97.812434,40.307185]}},{"properties":{"city":"Butte","lon":-98.849159,"zip":"","librarysystem":"Davies Memorial Library","id":"a62qwnsppno1","address":"612 Thayer Street","lat":42.90903,"libraryname":"Davies Memorial Library","state":"NE"},"type":"Feature","geometry":{"type":"Point","coordinates":[-98.849159,42.90903]}},{"properties":{"city":"Daykin","lon":-97.297511,"zip":"","librarysystem":"Daykin Public Library","id":"a62qwnt3r8au","address":"201 Mary Avenue","lat":40.320403,"libraryname":"Daykin Public Library","state":"NE"},"type":"Feature","geometry":{"type":"Point","coordinates":[-97.297511,40.320403]}},{"properties":{"city":"Deshler","lon":-97.724007,"zip":"","librarysystem":"Deshler Public Library","id":"a62qwnwe3716","address":"310 Pearl Street","lat":40.142066,"libraryname":"Deshler Public Library","state":"NE"},"type":"Feature","geometry":{"type":"Point","coordinates":[-97.724007,40.142066]}},{"properties":{"city":"Dorchester","lon":-97.113469,"zip":"","librarysystem":"Dorchester Public Library","id":"a62qwnov6xb0","address":"6th &amp; Washington","lat":40.64621,"libraryname":"Dorchester Public Library","state":"NE"},"type":"Feature","geometry":{"type":"Point","coordinates":[-97.113469,40.64621]}},{"properties":{"city":"Douglas","lon":-96.384464,"zip":"","librarysystem":"Douglas Public Library","id":"a62qwo2rdhf4","address":"Route 1","lat":40.59045,"libraryname":"Douglas Public Library","state":"NE"},"type":"Feature","geometry":{"type":"Point","coordinates":[-96.384464,40.59045]}},{"properties":{"city":"Benkelman","lon":-101.532461,"zip":"","librarysystem":"Dundy County Library","id":"a62qwnpyk2qc","address":"126 7th Avenue East","lat":40.050328,"libraryname":"Dundy County Library","state":"NE"},"type":"Feature","geometry":{"type":"Point","coordinates":[-101.532461,40.050328]}},{"properties":{"city":"Wilber","lon":-96.964596,"zip":"","librarysystem":"Dvoracek Memorial Library","id":"a62qwo2srr8x","address":"419 West Third Street","lat":40.481183,"libraryname":"Dvoracek Memorial Library","state":"NE"},"type":"Feature","geometry":{"type":"Point","coordinates":[-96.964596,40.481183]}},{"properties":{"city":"Dwight","lon":-96.947049,"zip":"","librarysystem":"Dwight Community Library","id":"a62qwo2lcj4c","address":"142 West Pine","lat":41.07514,"libraryname":"Dwight Community Library","state":"NE"},"type":"Feature","geometry":{"type":"Point","coordinates":[-96.947049,41.07514]}},{"properties":{"city":"Crofton","lon":-97.497121,"zip":"","librarysystem":"Eastern Township Library","id":"a62qwo1dhu7s","address":"206 West Main Street","lat":42.73224,"libraryname":"Eastern Township Library","state":"NE"},"type":"Feature","geometry":{"type":"Point","coordinates":[-97.497121,42.73224]}},{"properties":{"city":"Edgar","lon":-97.972765,"zip":"","librarysystem":"Edgar Public Library","id":"a62qwo1zxk63","address":"703 4th Street","lat":40.371185,"libraryname":"Edgar Public Library","state":"NE"},"type":"Feature","geometry":{"type":"Point","coordinates":[-97.972765,40.371185]}},{"properties":{"city":"Elgin","lon":-98.084549,"zip":"","librarysystem":"Elgin Public Library","id":"a62qwnovlzu7","address":"2nd And Bowen","lat":41.97884,"libraryname":"Elgin Public Library","state":"NE"},"type":"Feature","geometry":{"type":"Point","coordinates":[-98.084549,41.97884]}},{"properties":{"city":"Elm Creek","lon":-99.373471,"zip":"","librarysystem":"Elm Creek Public Library","id":"a62qwnx11r39","address":"241 North Tyler Street","lat":40.719915,"libraryname":"Elm Creek Public Library","state":"NE"},"type":"Feature","geometry":{"type":"Point","coordinates":[-99.373471,40.719915]}},{"properties":{"city":"Elmwood","lon":-96.295609,"zip":"","librarysystem":"Elmwood Public Library","id":"a62qwo3jj8gp","address":"124 West D Street","lat":40.841758,"libraryname":"Elmwood Public Library","state":"NE"},"type":"Feature","geometry":{"type":"Point","coordinates":[-96.295609,40.841758]}},{"properties":{"city":"Elwood","lon":-99.859809,"zip":"","librarysystem":"Elwood Public Library","id":"a62qwnyyy9y0","address":"505 Ripley Street","lat":40.590406,"libraryname":"Elwood Public Library","state":"NE"},"type":"Feature","geometry":{"type":"Point","coordinates":[-99.859809,40.590406]}},{"properties":{"city":"Emerson","lon":-96.726746,"zip":"","librarysystem":"Emerson Public Library","id":"a62qwnoes1q6","address":"110 Main Street","lat":42.278607,"libraryname":"Emerson Public Library","state":"NE"},"type":"Feature","geometry":{"type":"Point","coordinates":[-96.726746,42.278607]}},{"properties":{"city":"Eustis","lon":-100.030359,"zip":"","librarysystem":"Eustis Public Library","id":"a62qwnzm9snr","address":"108 N Morton St.","lat":40.662696,"libraryname":"Eustis Public Library","state":"NE"},"type":"Feature","geometry":{"type":"Point","coordinates":[-100.030359,40.662696]}},{"properties":{"city":"Ewing","lon":-98.344981,"zip":"","librarysystem":"Ewing Township Library","id":"a62qwo4dzy4n","address":"202 East Nebraska","lat":42.257908,"libraryname":"Ewing Township Library","state":"NE"},"type":"Feature","geometry":{"type":"Point","coordinates":[-98.344981,42.257908]}},{"properties":{"city":"Exeter","lon":-97.450054,"zip":"","librarysystem":"Exeter Public Library","id":"a62qwo3e7967","address":"202 South Exeter Avenue","lat":40.644051,"libraryname":"Exeter Public Library","state":"NE"},"type":"Feature","geometry":{"type":"Point","coordinates":[-97.450054,40.644051]}},{"properties":{"city":"Fairbury","lon":-97.178422,"zip":"","librarysystem":"Fairbury Public Library","id":"a62qwnt6b0a5","address":"601 7th Street","lat":40.138362,"libraryname":"Fairbury Public Library","state":"NE"},"type":"Feature","geometry":{"type":"Point","coordinates":[-97.178422,40.138362]}},{"properties":{"city":"Fairfield","lon":-98.105614,"zip":"","librarysystem":"Fairfield Public Library","id":"a62qwo2xs1uw","address":"412 D Street","lat":40.430582,"libraryname":"Fairfield Public Library","state":"NE"},"type":"Feature","geometry":{"type":"Point","coordinates":[-98.105614,40.430582]}},{"properties":{"city":"Fairmont","lon":-97.689126,"zip":"","librarysystem":"Fairmont Public Library","id":"a62qwnx70l25","address":"600 F Street","lat":40.625916,"libraryname":"Fairmont Public Library","state":"NE"},"type":"Feature","geometry":{"type":"Point","coordinates":[-97.689126,40.625916]}},{"properties":{"city":"Wallace","lon":-101.166313,"zip":"","librarysystem":"Faith Memorial Library","id":"a62qwny0u56s","address":"122 North Garrison Avenue","lat":40.839472,"libraryname":"Faith Memorial Library","state":"NE"},"type":"Feature","geometry":{"type":"Point","coordinates":[-101.166313,40.839472]}},{"properties":{"city":"Farnam","lon":-100.214564,"zip":"","librarysystem":"Farnam Public Library","id":"a62qwnp8r2n2","address":"313 Main Street","lat":40.705932,"libraryname":"Farnam Public Library","state":"NE"},"type":"Feature","geometry":{"type":"Point","coordinates":[-100.214564,40.705932]}},{"properties":{"city":"Arnold","lon":-100.194729,"zip":"","librarysystem":"Finch Memorial Library","id":"a62qwnzl6mpq","address":"205 North Walnut","lat":41.42445,"libraryname":"Finch Memorial Library","state":"NE"},"type":"Feature","geometry":{"type":"Point","coordinates":[-100.194729,41.42445]}},{"properties":{"city":"Omaha","lon":-95.960567,"zip":"","librarysystem":"Omaha Public Library","id":"a62qwnyfy79o","address":"2920 Bondesson Street","lat":41.340271,"libraryname":"Florence Branch Library","state":"NE"},"type":"Feature","geometry":{"type":"Point","coordinates":[-95.960567,41.340271]}},{"properties":{"city":"Franklin","lon":-98.953403,"zip":"","librarysystem":"Franklin Public Library","id":"a62qwnsydi1z","address":"1502 P Street","lat":40.099814,"libraryname":"Franklin Public Library","state":"NE"},"type":"Feature","geometry":{"type":"Point","coordinates":[-98.953403,40.099814]}},{"properties":{"city":"Fullerton","lon":-97.968453,"zip":"","librarysystem":"Fullerton Public Library","id":"a62qwnz25pbz","address":"903 Broadway","lat":41.356418,"libraryname":"Fullerton Public Library","state":"NE"},"type":"Feature","geometry":{"type":"Point","coordinates":[-97.968453,41.356418]}},{"properties":{"city":"Wakefield","lon":-96.866754,"zip":"","librarysystem":"Gardner Public Library","id":"a62qwnv1kj7k","address":"206 West Third Street","lat":42.269285,"libraryname":"Gardner Public Library","state":"NE"},"type":"Feature","geometry":{"type":"Point","coordinates":[-96.866754,42.269285]}},{"properties":{"city":"Burwell","lon":-99.128919,"zip":"","librarysystem":"Garfield County Library","id":"a62qwnxqqdc9","address":"217 G Street","lat":41.78202,"libraryname":"Garfield County Library","state":"NE"},"type":"Feature","geometry":{"type":"Point","coordinates":[-99.128919,41.78202]}},{"properties":{"city":"Geneva","lon":-97.600309,"zip":"","librarysystem":"Geneva Public Library","id":"a62qwnxbo71w","address":"1043 G Street","lat":40.525544,"libraryname":"Geneva Public Library","state":"NE"},"type":"Feature","geometry":{"type":"Point","coordinates":[-97.600309,40.525544]}},{"properties":{"city":"Genoa","lon":-97.729667,"zip":"","librarysystem":"Genoa Public Library","id":"a62qwnxtjwun","address":"421 Willard Avenue","lat":41.44835,"libraryname":"Genoa Public Library","state":"NE"},"type":"Feature","geometry":{"type":"Point","coordinates":[-97.729667,41.44835]}},{"properties":{"city":"Gering","lon":-103.661137,"zip":"","librarysystem":"Gering Public Library","id":"a62qwnu4vtix","address":"1055 P Street","lat":41.824519,"libraryname":"Gering Public Library","state":"NE"},"type":"Feature","geometry":{"type":"Point","coordinates":[-103.661137,41.824519]}},{"properties":{"city":"Gibbon","lon":-98.845192,"zip":"","librarysystem":"Gibbon Public Library","id":"a62qwnqqk86z","address":"116 Labarre Street","lat":40.747877,"libraryname":"Gibbon Public Library","state":"NE"},"type":"Feature","geometry":{"type":"Point","coordinates":[-98.845192,40.747877]}},{"properties":{"city":"Friend","lon":-97.285846,"zip":"","librarysystem":"Gilbert Public Library","id":"a62qwo1s4tb3","address":"628 Second Street","lat":40.653841,"libraryname":"Gilbert Public Library","state":"NE"},"type":"Feature","geometry":{"type":"Point","coordinates":[-97.285846,40.653841]}},{"properties":{"city":"Giltner","lon":-98.153605,"zip":"","librarysystem":"Giltner Public Library","id":"a62qwnx7ln87","address":"P. O. Box 205","lat":40.773457,"libraryname":"Giltner Public Library","state":"NE"},"type":"Feature","geometry":{"type":"Point","coordinates":[-98.153605,40.773457]}},{"properties":{"city":"Ogallala","lon":-101.720311,"zip":"","librarysystem":"Goodall City Library","id":"a62qwnwhxwiv","address":"203 West A Street","lat":41.125581,"libraryname":"Goodall City Library","state":"NE"},"type":"Feature","geometry":{"type":"Point","coordinates":[-101.720311,41.125581]}},{"properties":{"city":"Gordon","lon":-102.203388,"zip":"","librarysystem":"Gordon City Library","id":"a62qwnxjig0m","address":"101 West 5th Street","lat":42.808739,"libraryname":"Gordon City Library","state":"NE"},"type":"Feature","geometry":{"type":"Point","coordinates":[-102.203388,42.808739]}},{"properties":{"city":"Gothenburg","lon":-100.16076,"zip":"","librarysystem":"Gothenburg Public Library","id":"a62qwnpkx92r","address":"1104 Lake Avenue","lat":40.929757,"libraryname":"Gothenburg Public Library","state":"NE"},"type":"Feature","geometry":{"type":"Point","coordinates":[-100.16076,40.929757]}},{"properties":{"city":"Grand Island","lon":-98.351352,"zip":"","librarysystem":"Grand Island Public Library","id":"a62qwnsv6zud","address":"211 North Washington Street","lat":40.920266,"libraryname":"Grand Island Public Library","state":"NE"},"type":"Feature","geometry":{"type":"Point","coordinates":[-98.351352,40.920266]}},{"properties":{"city":"Hyannis","lon":-101.765164,"zip":"","librarysystem":"Grant County Library","id":"a62qwnonr62a","address":"Harrison &amp; Grant Street","lat":41.999955,"libraryname":"Grant County Library","state":"NE"},"type":"Feature","geometry":{"type":"Point","coordinates":[-101.765164,41.999955]}},{"properties":{"city":"Greeley","lon":-98.540109,"zip":"","librarysystem":"Greeley Village Public Library","id":"a62qwo1o31u8","address":"117 South Galloway Street","lat":41.547155,"libraryname":"Greely Public Library","state":"NE"},"type":"Feature","geometry":{"type":"Point","coordinates":[-98.540109,41.547155]}},{"properties":{"city":"Greenwood","lon":-96.440588,"zip":"","librarysystem":"Greenwood Public Library","id":"a62qwnsnduie","address":"619 Main Street","lat":40.962552,"libraryname":"Greenwood Public Library","state":"NE"},"type":"Feature","geometry":{"type":"Point","coordinates":[-96.440588,40.962552]}},{"properties":{"city":"Gresham","lon":-97.403674,"zip":"","librarysystem":"Gresham Public Library","id":"a62qwny6lcgq","address":"424 Elm Street","lat":41.02834,"libraryname":"Gresham Public Library","state":"NE"},"type":"Feature","geometry":{"type":"Point","coordinates":[-97.403674,41.02834]}},{"properties":{"city":"Gretna","lon":-96.248742,"zip":"","librarysystem":"Gretna Public Library","id":"a62qwo23zfti","address":"736 South Street","lat":41.136147,"libraryname":"Gretna Public Library","state":"NE"},"type":"Feature","geometry":{"type":"Point","coordinates":[-96.248742,41.136147]}},{"properties":{"city":"Bancroft","lon":-96.571599,"zip":"","librarysystem":"Bancroft Public Library","id":"a62qwnxz6rhx","address":"103 Poplar","lat":42.012865,"libraryname":"H. R. Jordan Memorial Library","state":"NE"},"type":"Feature","geometry":{"type":"Point","coordinates":[-96.571599,42.012865]}},{"properties":{"city":"Hartington","lon":-97.264856,"zip":"","librarysystem":"Hartington Public Library","id":"a62qwnxit3ti","address":"106 South Broadway","lat":42.617389,"libraryname":"Hartington Public Library","state":"NE"},"type":"Feature","geometry":{"type":"Point","coordinates":[-97.264856,42.617389]}},{"properties":{"city":"Harvard","lon":-98.097303,"zip":"","librarysystem":"Harvard Public Library","id":"a62qwnpcpmh0","address":"309 North Clay Avenue","lat":40.619105,"libraryname":"Harvard Public Library","state":"NE"},"type":"Feature","geometry":{"type":"Point","coordinates":[-98.097303,40.619105]}},{"properties":{"city":"Grant","lon":-101.725281,"zip":"","librarysystem":"Hastings Memorial Library","id":"a62qwo19eed4","address":"246 Central Avenue","lat":40.841406,"libraryname":"Hastings Memorial Library","state":"NE"},"type":"Feature","geometry":{"type":"Point","coordinates":[-101.725281,40.841406]}},{"properties":{"city":"Hastings","lon":-98.387804,"zip":"","librarysystem":"Hastings Public Library","id":"a62qwnosdzu4","address":"517 W. 4th St.","lat":40.586878,"libraryname":"Hastings Public Library","state":"NE"},"type":"Feature","geometry":{"type":"Point","coordinates":[-98.387804,40.586878]}},{"properties":{"city":"Hayes Center","lon":-101.022549,"zip":"","librarysystem":"Hayes Center Public Library","id":"a62qwnumysje","address":"402 Troth Street","lat":40.51085,"libraryname":"Hayes Center Public Library","state":"NE"},"type":"Feature","geometry":{"type":"Point","coordinates":[-101.022549,40.51085]}},{"properties":{"city":"Hebron","lon":-97.590142,"zip":"","librarysystem":"Hebron Secrest Library","id":"a62qwnwxrcye","address":"146 North 4th Street","lat":40.167193,"libraryname":"Hebron Public Library","state":"NE"},"type":"Feature","geometry":{"type":"Point","coordinates":[-97.590142,40.167193]}},{"properties":{"city":"Hemingford","lon":-103.073004,"zip":"","librarysystem":"Hemingford Public Library","id":"a62qwnqdg9b5","address":"812 Box Butte","lat":42.321724,"libraryname":"Hemingford Public Library","state":"NE"},"type":"Feature","geometry":{"type":"Point","coordinates":[-103.073004,42.321724]}},{"properties":{"city":"Hildreth","lon":-99.043524,"zip":"","librarysystem":"Hildreth Public Library","id":"a62qwnrx99rf","address":"248 Commercial Avenue","lat":40.335495,"libraryname":"Hildreth Public Library","state":"NE"},"type":"Feature","geometry":{"type":"Point","coordinates":[-99.043524,40.335495]}},{"properties":{"city":"Alma","lon":-99.360254,"zip":"","librarysystem":"Hoesch Memorial Library","id":"a62qwo0itvb2","address":"City Park West 2nd","lat":40.099345,"libraryname":"Hoesch Memorial Public Library","state":"NE"},"type":"Feature","geometry":{"type":"Point","coordinates":[-99.360254,40.099345]}},{"properties":{"city":"Holdrege","lon":-99.369785,"zip":"","librarysystem":"Holdrege Area Public Library","id":"a62qwo4f1uw5","address":"604 East Avenue","lat":40.440129,"libraryname":"Holdrege Area Public Library","state":"NE"},"type":"Feature","geometry":{"type":"Point","coordinates":[-99.369785,40.440129]}},{"properties":{"city":"Mullen","lon":-101.044899,"zip":"","librarysystem":"Hooker County Library","id":"a62qwnoyghik","address":"102 North Cleveland Avenue","lat":42.04293,"libraryname":"Hooker County Library","state":"NE"},"type":"Feature","geometry":{"type":"Point","coordinates":[-101.044899,42.04293]}},{"properties":{"city":"Hooper","lon":-96.547586,"zip":"","librarysystem":"Hooper Public Library","id":"a62qwnx0ewrm","address":"126 North Main","lat":41.611057,"libraryname":"Hooper Public Library","state":"NE"},"type":"Feature","geometry":{"type":"Point","coordinates":[-96.547586,41.611057]}},{"properties":{"city":"Pender","lon":-96.713589,"zip":"","librarysystem":"House Memorial Library","id":"a62qwnqdwrp9","address":"220 Thurston Avenue","lat":42.11202,"libraryname":"House Memorial Library","state":"NE"},"type":"Feature","geometry":{"type":"Point","coordinates":[-96.713589,42.11202]}},{"properties":{"city":"Howells","lon":-97.003046,"zip":"","librarysystem":"Howells Public Library","id":"a62qwo17a562","address":"128 N. 3rd Street","lat":41.724461,"libraryname":"Howells Public Library","state":"NE"},"type":"Feature","geometry":{"type":"Point","coordinates":[-97.003046,41.724461]}},{"properties":{"city":"David City","lon":-97.12878,"zip":"","librarysystem":"Hruska Memorial Library","id":"a62qwnof4y6k","address":"399 North 5th Street","lat":41.25266,"libraryname":"Hruska Memorial Library","state":"NE"},"type":"Feature","geometry":{"type":"Point","coordinates":[-97.12878,41.25266]}},{"properties":{"city":"Humphrey","lon":-97.484682,"zip":"","librarysystem":"Humphrey Public Library","id":"a62qwnwzfg4b","address":"309 Main Street","lat":41.69164,"libraryname":"Humphrey Public Library","state":"NE"},"type":"Feature","geometry":{"type":"Point","coordinates":[-97.484682,41.69164]}},{"properties":{"city":"Imperial","lon":-101.643109,"zip":"","librarysystem":"Imperial Public Library","id":"a62qwnuoaa30","address":"703 Broadway","lat":40.51696,"libraryname":"Imperial Public Library","state":"NE"},"type":"Feature","geometry":{"type":"Point","coordinates":[-101.643109,40.51696]}},{"properties":{"city":"Indianola","lon":-100.417279,"zip":"","librarysystem":"Indianola Public Library","id":"a62qwnxu5666","address":"122 North 4th Street","lat":40.23528,"libraryname":"Indianola Public Library","state":"NE"},"type":"Feature","geometry":{"type":"Point","coordinates":[-100.417279,40.23528]}},{"properties":{"city":"Minden","lon":-98.946435,"zip":"","librarysystem":"Jensen Memorial Library","id":"a62qwnwyb7c5","address":"443 North Kearney","lat":40.498936,"libraryname":"Jensen Memorial Library","state":"NE"},"type":"Feature","geometry":{"type":"Point","coordinates":[-98.946435,40.498936]}},{"properties":{"city":"West Point","lon":-96.709248,"zip":"","librarysystem":"John A. Stahl Library","id":"a62qwo0ofblp","address":"330 North Colfax","lat":41.84235,"libraryname":"John A. Stahl Library","state":"NE"},"type":"Feature","geometry":{"type":"Point","coordinates":[-96.709248,41.84235]}},{"properties":{"city":"Dawson","lon":-95.830817,"zip":"","librarysystem":"John G Smith Memorial Library","id":"a62qwnyn2euu","address":"517 Ridge Street","lat":40.131339,"libraryname":"John G Smith Memorial Library","state":"NE"},"type":"Feature","geometry":{"type":"Point","coordinates":[-95.830817,40.131339]}},{"properties":{"city":"Dodge","lon":-96.878693,"zip":"","librarysystem":"John Rogers Memorial Library","id":"a62qwno6n486","address":"703 2nd Street","lat":41.721172,"libraryname":"John Rogers Memorial Library","state":"NE"},"type":"Feature","geometry":{"type":"Point","coordinates":[-96.878693,41.721172]}},{"properties":{"city":"Beemer","lon":-96.807034,"zip":"","librarysystem":"Karlen Memorial Library","id":"a62qwnyserfo","address":"215 Blaine Street","lat":41.928832,"libraryname":"Karlen Memorial Library","state":"NE"},"type":"Feature","geometry":{"type":"Point","coordinates":[-96.807034,41.928832]}},{"properties":{"city":"Kearney","lon":-99.083308,"zip":"","librarysystem":"Kearney Public Library &amp; Information Center","id":"a62qwnxxdomz","address":"2020 First Avenue","lat":40.695479,"libraryname":"Kearney Public Library And Information Center","state":"NE"},"type":"Feature","geometry":{"type":"Point","coordinates":[-99.083308,40.695479]}},{"properties":{"city":"Fremont","lon":-96.497965,"zip":"","librarysystem":"Keene Memorial Library","id":"a62qwo40ovpj","address":"1030 N. Broad Street","lat":41.439076,"libraryname":"Keene Memorial Library","state":"NE"},"type":"Feature","geometry":{"type":"Point","coordinates":[-96.497965,41.439076]}},{"properties":{"city":"Springview","lon":-99.748953,"zip":"","librarysystem":"Keya Paha County Library","id":"a62qwnsq5bqh","address":"Turbine Avenue &amp; South Main","lat":42.86351,"libraryname":"Keya Paha County Library","state":"NE"},"type":"Feature","geometry":{"type":"Point","coordinates":[-99.748953,42.86351]}},{"properties":{"city":"York","lon":-97.590454,"zip":"","librarysystem":"Kilgore Memorial Library","id":"a62qwnwi7dx6","address":"520 Nebraska Avenue","lat":40.866163,"libraryname":"Kilgore Memorial Library","state":"NE"},"type":"Feature","geometry":{"type":"Point","coordinates":[-97.590454,40.866163]}},{"properties":{"city":"Kimball","lon":-103.66182,"zip":"","librarysystem":"Kimball Public Library","id":"a62qwny52heu","address":"208 South Walnut","lat":41.236835,"libraryname":"Kimball Public Library","state":"NE"},"type":"Feature","geometry":{"type":"Point","coordinates":[-103.66182,41.236835]}},{"properties":{"city":"Curtis","lon":-100.515264,"zip":"","librarysystem":"Klyte Burt Memorial Library","id":"a62qwo0b0tjd","address":"316 Center Avenue","lat":40.631222,"libraryname":"Klyte Burt Memorial Library","state":"NE"},"type":"Feature","geometry":{"type":"Point","coordinates":[-100.515264,40.631222]}},{"properties":{"city":"La Vista","lon":-96.053096,"zip":"","librarysystem":"La Vista Public Library","id":"a62qwo2z7gsy","address":"9110 Giles Road","lat":41.176499,"libraryname":"La Vista Public Library","state":"NE"},"type":"Feature","geometry":{"type":"Point","coordinates":[-96.053096,41.176499]}},{"properties":{"city":"Laurel","lon":-97.093949,"zip":"","librarysystem":"Laurel Community Learning Center","id":"a62qwnsmid73","address":"5th &amp; Wakefield Streets","lat":42.42609,"libraryname":"Laurel Community Learning Center","state":"NE"},"type":"Feature","geometry":{"type":"Point","coordinates":[-97.093949,42.42609]}},{"properties":{"city":"Leigh","lon":-97.237988,"zip":"","librarysystem":"Leigh Public Library","id":"a62qwnrs0uf0","address":"156 Main Street","lat":41.704583,"libraryname":"Leigh Public Library","state":"NE"},"type":"Feature","geometry":{"type":"Point","coordinates":[-97.237988,41.704583]}},{"properties":{"city":"Lewellen","lon":-102.144319,"zip":"","librarysystem":"Lewellen Public Library","id":"a62qwo1ijgnl","address":"208 Main Street","lat":41.32942,"libraryname":"Lewellen Public Library","state":"NE"},"type":"Feature","geometry":{"type":"Point","coordinates":[-102.144319,41.32942]}},{"properties":{"city":"Lexington","lon":-99.741328,"zip":"","librarysystem":"Lexington Public Library","id":"a62qwo357xw2","address":"103 East 10th Street","lat":40.783072,"libraryname":"Lexington Public Library","state":"NE"},"type":"Feature","geometry":{"type":"Point","coordinates":[-99.741328,40.783072]}},{"properties":{"city":"Pierce","lon":-97.528806,"zip":"","librarysystem":"Lied Pierce Public Library","id":"a62qwo1bbsih","address":"207 West Court","lat":42.200104,"libraryname":"Lied Pierce Public Library","state":"NE"},"type":"Feature","geometry":{"type":"Point","coordinates":[-97.528806,42.200104]}},{"properties":{"city":"Lincoln","lon":-96.700974,"zip":"","librarysystem":"Lincoln City Libraries","id":"a62qwo0r7jf7","address":"136 South 14th Street","lat":40.813145,"libraryname":"Lincoln City Libraries","state":"NE"},"type":"Feature","geometry":{"type":"Point","coordinates":[-96.700974,40.813145]}},{"properties":{"city":"Wausa","lon":-97.537617,"zip":"","librarysystem":"Lincoln Township Library","id":"a62qwo3aotkn","address":"105 South Hampton","lat":42.499082,"libraryname":"Lincoln Township Library","state":"NE"},"type":"Feature","geometry":{"type":"Point","coordinates":[-97.537617,42.499082]}},{"properties":{"city":"Litchfield","lon":-99.155833,"zip":"","librarysystem":"Litchfield Public Library","id":"a62qwnvxszal","address":"102 West Buford Street","lat":41.156545,"libraryname":"Litchfield Public Library","state":"NE"},"type":"Feature","geometry":{"type":"Point","coordinates":[-99.155833,41.156545]}},{"properties":{"city":"Stapleton","lon":-100.513059,"zip":"","librarysystem":"Logan County Library","id":"a62qwnyhzv04","address":"317 Main Street","lat":41.47695,"libraryname":"Logan County Library","state":"NE"},"type":"Feature","geometry":{"type":"Point","coordinates":[-100.513059,41.47695]}},{"properties":{"city":"Loomis","lon":-99.50734,"zip":"","librarysystem":"Loomis Public Library","id":"a62qwo0wa25l","address":"301 Commercial","lat":40.476624,"libraryname":"Loomis Public Library","state":"NE"},"type":"Feature","geometry":{"type":"Point","coordinates":[-99.50734,40.476624]}},{"properties":{"city":"Lincoln","lon":-96.698731,"zip":"","librarysystem":"Lincoln City Libraries","id":"a62qwnst7xc2","address":"1530 Superior Street","lat":40.85756,"libraryname":"Loren Corey Eiseley Branch","state":"NE"},"type":"Feature","geometry":{"type":"Point","coordinates":[-96.698731,40.85756]}},{"properties":{"city":"Louisville","lon":-96.16218,"zip":"","librarysystem":"Louisville Public Library","id":"a62qwo4ep04q","address":"217 Main Street","lat":41.000743,"libraryname":"Louisville Public Library","state":"NE"},"type":"Feature","geometry":{"type":"Point","coordinates":[-96.16218,41.000743]}},{"properties":{"city":"Loup City","lon":-98.968531,"zip":"","librarysystem":"Loup City Library","id":"a62qwnxlh7zn","address":"800 North 8th Street","lat":41.282412,"libraryname":"Loup City Library","state":"NE"},"type":"Feature","geometry":{"type":"Point","coordinates":[-98.968531,41.282412]}},{"properties":{"city":"Falls City","lon":-95.602671,"zip":"","librarysystem":"Lydia Bruun Woods Memorial Library","id":"a62qwo1xkz6a","address":"120 East 18th Street","lat":40.062856,"libraryname":"Lydia Bruun Woods Memorial Library","state":"NE"},"type":"Feature","geometry":{"type":"Point","coordinates":[-95.602671,40.062856]}},{"properties":{"city":"Lyman","lon":-104.039039,"zip":"","librarysystem":"Lyman Public Library","id":"a62qwnxgdy4f","address":"313 Jeffers Street","lat":41.91485,"libraryname":"Lyman Public Library","state":"NE"},"type":"Feature","geometry":{"type":"Point","coordinates":[-104.039039,41.91485]}},{"properties":{"city":"Lynch","lon":-98.459809,"zip":"","librarysystem":"Lynch Public Library","id":"a62qwnvzmlgo","address":"423 West Hoffman","lat":42.83029,"libraryname":"Lynch Public Library","state":"NE"},"type":"Feature","geometry":{"type":"Point","coordinates":[-98.459809,42.83029]}},{"properties":{"city":"Lyons","lon":-96.469126,"zip":"","librarysystem":"Lyons Public Library","id":"a62qwnoft0vx","address":"335 Main Street","lat":41.937661,"libraryname":"Lyons Public Library","state":"NE"},"type":"Feature","geometry":{"type":"Point","coordinates":[-96.469126,41.937661]}},{"properties":{"city":"Madison","lon":-97.456465,"zip":"","librarysystem":"Madison Public Library","id":"a62qwo0v0syg","address":"208 West 3rd Street","lat":41.828115,"libraryname":"Madison Public Library","state":"NE"},"type":"Feature","geometry":{"type":"Point","coordinates":[-97.456465,41.828115]}},{"properties":{"city":"Wood River","lon":-98.601762,"zip":"","librarysystem":"Maltman Memorial Public Library","id":"a62qwnp5i6o9","address":"910 Main Street","lat":40.820738,"libraryname":"Maltman Memorial Public Library","state":"NE"},"type":"Feature","geometry":{"type":"Point","coordinates":[-98.601762,40.820738]}},{"properties":{"city":"McCook","lon":-100.62585,"zip":"","librarysystem":"McCook Public Library","id":"a62qwnov3eu7","address":"802 Norris Avenue","lat":40.204797,"libraryname":"McCook Public Library","state":"NE"},"type":"Feature","geometry":{"type":"Point","coordinates":[-100.62585,40.204797]}},{"properties":{"city":"Mead","lon":-96.488944,"zip":"","librarysystem":"Mead Public Library","id":"a62qwo321tdr","address":"316 South Vine","lat":41.227406,"libraryname":"Mead Public Library","state":"NE"},"type":"Feature","geometry":{"type":"Point","coordinates":[-96.488944,41.227406]}},{"properties":{"city":"Meadow Grove","lon":-97.734584,"zip":"","librarysystem":"Meadow Grove Public Library","id":"a62qwno3xxju","address":"215 Main Street","lat":42.028629,"libraryname":"Meadow Grove Public Library","state":"NE"},"type":"Feature","geometry":{"type":"Point","coordinates":[-97.734584,42.028629]}},{"properties":{"city":"Omaha","lon":-96.120044,"zip":"","librarysystem":"Omaha Public Library","id":"a62qwno2yyd2","address":"13214 Westwood Lane","lat":41.227729,"libraryname":"Millard Branch Library","state":"NE"},"type":"Feature","geometry":{"type":"Point","coordinates":[-96.120044,41.227729]}},{"properties":{"city":"Milligan","lon":-97.388761,"zip":"","librarysystem":"Milligan Public Library","id":"a62qwo08trqj","address":"424 Main Street","lat":40.498704,"libraryname":"Milligan Public Library","state":"NE"},"type":"Feature","geometry":{"type":"Point","coordinates":[-97.388761,40.498704]}},{"properties":{"city":"Omaha","lon":-96.052122,"zip":"","librarysystem":"Omaha Public Library","id":"a62qwnxbpnqg","address":"5111 North 90th Street","lat":41.304647,"libraryname":"Milton R Abrahams Branch Library","state":"NE"},"type":"Feature","geometry":{"type":"Point","coordinates":[-96.052122,41.304647]}},{"properties":{"city":"Minatare","lon":-103.503562,"zip":"","librarysystem":"Minatare Public Library","id":"a62qwnzf2co1","address":"309 Main Street","lat":41.809295,"libraryname":"Minatare Public Library","state":"NE"},"type":"Feature","geometry":{"type":"Point","coordinates":[-103.503562,41.809295]}},{"properties":{"city":"Mitchell","lon":-103.808915,"zip":"","librarysystem":"Mitchell Public Library","id":"a62qwnp8xmjc","address":"1449 Center Avenue","lat":41.941935,"libraryname":"Mitchell Public Library","state":"NE"},"type":"Feature","geometry":{"type":"Point","coordinates":[-103.808915,41.941935]}},{"properties":{"city":"Morrill","lon":-103.924889,"zip":"","librarysystem":"Morrill Public Library","id":"a62qwnv0i2t3","address":"Madison &amp; Webster Streets","lat":41.96341,"libraryname":"Morrill Public Library","state":"NE"},"type":"Feature","geometry":{"type":"Point","coordinates":[-103.924889,41.96341]}},{"properties":{"city":"Nebraska City","lon":-95.858899,"zip":"","librarysystem":"Morton-James Public Library","id":"a62qwnwxjw1h","address":"923 First Corso","lat":40.677145,"libraryname":"Morton-James Public Library","state":"NE"},"type":"Feature","geometry":{"type":"Point","coordinates":[-95.858899,40.677145]}},{"properties":{"city":"Lodgepole","lon":-102.638172,"zip":"","librarysystem":"Nancy Fawcett Memorial Library","id":"a62qwnq0u19s","address":"724 Oberfelder Street","lat":41.149584,"libraryname":"Nancy Fawcett Memorial Library","state":"NE"},"type":"Feature","geometry":{"type":"Point","coordinates":[-102.638172,41.149584]}},{"properties":{"city":"Nehawka","lon":-95.988809,"zip":"","librarysystem":"Nehawka Public Library","id":"a62qwnxgag3f","address":"221 Maple Street","lat":40.82956,"libraryname":"Nehawka Public Library","state":"NE"},"type":"Feature","geometry":{"type":"Point","coordinates":[-95.988809,40.82956]}},{"properties":{"city":"Neligh","lon":-98.030072,"zip":"","librarysystem":"Neligh Public Library","id":"a62qwnodvbct","address":"710 Main Street","lat":42.131817,"libraryname":"Neligh Public Library","state":"NE"},"type":"Feature","geometry":{"type":"Point","coordinates":[-98.030072,42.131817]}},{"properties":{"city":"Nelson","lon":-98.067148,"zip":"","librarysystem":"Nelson Public Library","id":"a62qwnyo01p0","address":"10 West 3rd Street, Box 322","lat":40.202671,"libraryname":"Nelson Public Library","state":"NE"},"type":"Feature","geometry":{"type":"Point","coordinates":[-98.067148,40.202671]}},{"properties":{"city":"Newman Grove","lon":-97.776248,"zip":"","librarysystem":"Newman Grove Public Library","id":"a62qwo422yx7","address":"615 Hale Avenue","lat":41.74647,"libraryname":"Newman Grove Public Library","state":"NE"},"type":"Feature","geometry":{"type":"Point","coordinates":[-97.776248,41.74647]}},{"properties":{"city":"Callaway","lon":-99.924714,"zip":"","librarysystem":"Nigel Sprouse Memorial Library","id":"a62qwny4e8m7","address":"102 East Kimball","lat":41.29085,"libraryname":"Nigel Sprouse Memorial Library","state":"NE"},"type":"Feature","geometry":{"type":"Point","coordinates":[-99.924714,41.29085]}},{"properties":{"city":"Niobrara","lon":-98.030009,"zip":"","librarysystem":"Niobrara Public Library","id":"a62qwnrdrgbq","address":"254-14 Park Avenue","lat":42.74985,"libraryname":"Niobrara Public Library","state":"NE"},"type":"Feature","geometry":{"type":"Point","coordinates":[-98.030009,42.74985]}},{"properties":{"city":"Norfolk","lon":-97.403289,"zip":"","librarysystem":"Norfolk Public Library","id":"a62qwo17llz2","address":"308 Prospect Avenue","lat":42.036307,"libraryname":"Norfolk Public Library","state":"NE"},"type":"Feature","geometry":{"type":"Point","coordinates":[-97.403289,42.036307]}},{"properties":{"city":"North Bend","lon":-96.779618,"zip":"","librarysystem":"North Bend Public Library","id":"a62qwo35550q","address":"140 E. 8th Street","lat":41.463933,"libraryname":"North Bend Public Library","state":"NE"},"type":"Feature","geometry":{"type":"Point","coordinates":[-96.779618,41.463933]}},{"properties":{"city":"North Loup","lon":-98.774034,"zip":"","librarysystem":"North Loup Township Library","id":"a62qwnrhhzm3","address":"200 B Street","lat":41.497245,"libraryname":"North Loup Township Library","state":"NE"},"type":"Feature","geometry":{"type":"Point","coordinates":[-98.774034,41.497245]}},{"properties":{"city":"North Platte","lon":-100.763641,"zip":"","librarysystem":"North Platte Public Library","id":"a62qwnq5rnvm","address":"120 West 4th Street","lat":41.13643,"libraryname":"North Platte Public Library","state":"NE"},"type":"Feature","geometry":{"type":"Point","coordinates":[-100.763641,41.13643]}},{"properties":{"city":"O'neill","lon":-98.644446,"zip":"","librarysystem":"O'neill Public Library","id":"a62qwnu5nn8q","address":"601 East Douglas","lat":42.457591,"libraryname":"O'neill Public Library","state":"NE"},"type":"Feature","geometry":{"type":"Point","coordinates":[-98.644446,42.457591]}},{"properties":{"city":"Oakdale","lon":-97.959639,"zip":"","librarysystem":"Oakdale Public Library","id":"a62qwnx9yssj","address":"406 5th Street.","lat":42.069901,"libraryname":"Oakdale Public Library","state":"NE"},"type":"Feature","geometry":{"type":"Point","coordinates":[-97.959639,42.069901]}},{"properties":{"city":"Oakland","lon":-96.466465,"zip":"","librarysystem":"Oakland Public Library","id":"a62qwnymnwxh","address":"110 East 3rd Street","lat":41.835783,"libraryname":"Oakland Public Library","state":"NE"},"type":"Feature","geometry":{"type":"Point","coordinates":[-96.466465,41.835783]}},{"properties":{"city":"Oconto","lon":-99.765214,"zip":"","librarysystem":"Oconto Public Library","id":"a62qwo074ti3","address":"101 East 6th Street","lat":41.142265,"libraryname":"Oconto Public Library","state":"NE"},"type":"Feature","geometry":{"type":"Point","coordinates":[-99.765214,41.142265]}},{"properties":{"city":"Orchard","lon":-98.241224,"zip":"","librarysystem":"Orchard Public Library","id":"a62qwo0p2b5j","address":"232 Windom Street","lat":42.335939,"libraryname":"Orchard Public Library","state":"NE"},"type":"Feature","geometry":{"type":"Point","coordinates":[-98.241224,42.335939]}},{"properties":{"city":"Ord","lon":-98.93087,"zip":"","librarysystem":"Ord Township Library","id":"a62qwnxo6gn1","address":"1718 M Street","lat":41.60226,"libraryname":"Ord Publiclibrary","state":"NE"},"type":"Feature","geometry":{"type":"Point","coordinates":[-98.93087,41.60226]}},{"properties":{"city":"Osceola","lon":-97.546753,"zip":"","librarysystem":"Osceola Public Library","id":"a62qwnplaoyo","address":"131 North Main","lat":41.176767,"libraryname":"Osceola Public Library","state":"NE"},"type":"Feature","geometry":{"type":"Point","coordinates":[-97.546753,41.176767]}},{"properties":{"city":"Oshkosh","lon":-102.348709,"zip":"","librarysystem":"Oshkosh Public Library","id":"a62qwnudl1jt","address":"307 West 3rd Street","lat":41.404992,"libraryname":"Oshkosh Public Library","state":"NE"},"type":"Feature","geometry":{"type":"Point","coordinates":[-102.348709,41.404992]}},{"properties":{"city":"Osmond","lon":-97.595564,"zip":"","librarysystem":"Osmond Public Library","id":"a62qwnp1htwa","address":"412 N. Maple Street","lat":42.360046,"libraryname":"Osmond Public Library","state":"NE"},"type":"Feature","geometry":{"type":"Point","coordinates":[-97.595564,42.360046]}},{"properties":{"city":"Overton","lon":-99.545439,"zip":"","librarysystem":"Overton Community Library","id":"a62qwnp8rpmc","address":"407 Highway 30","lat":40.73931,"libraryname":"Overton Community Library","state":"NE"},"type":"Feature","geometry":{"type":"Point","coordinates":[-99.545439,40.73931]}},{"properties":{"city":"Oxford","lon":-99.633836,"zip":"","librarysystem":"Oxford Municipal Library","id":"a62qwo13p4i0","address":"411 Ogden Street","lat":40.248983,"libraryname":"Oxford Public Library","state":"NE"},"type":"Feature","geometry":{"type":"Point","coordinates":[-99.633836,40.248983]}},{"properties":{"city":"Palisade","lon":-101.107729,"zip":"","librarysystem":"Palisade Public Library","id":"a62qwnr71h2i","address":"124 North Main","lat":40.34937,"libraryname":"Palisade Public Library","state":"NE"},"type":"Feature","geometry":{"type":"Point","coordinates":[-101.107729,40.34937]}},{"properties":{"city":"Palmer","lon":-98.251364,"zip":"","librarysystem":"Palmer Public Library","id":"a62qwnzn156n","address":"P O Box 248","lat":41.21705,"libraryname":"Palmer Public Library","state":"NE"},"type":"Feature","geometry":{"type":"Point","coordinates":[-98.251364,41.21705]}},{"properties":{"city":"Palmyra","lon":-96.390384,"zip":"","librarysystem":"Palmyra Memorial Library","id":"a62qwo4et0xf","address":"525 Illinois Place","lat":40.704398,"libraryname":"Palmyra Memorial Library","state":"NE"},"type":"Feature","geometry":{"type":"Point","coordinates":[-96.390384,40.704398]}},{"properties":{"city":"Pawnee City","lon":-96.152811,"zip":"","librarysystem":"Pawnee City Carnegie Public Library","id":"a62qwo3j18w3","address":"730 G Street","lat":40.109857,"libraryname":"Pawnee City Carnegie Public Library","state":"NE"},"type":"Feature","geometry":{"type":"Point","coordinates":[-96.152811,40.109857]}},{"properties":{"city":"Paxton","lon":-101.356368,"zip":"","librarysystem":"Paxton Public Library","id":"a62qwns2f2ko","address":"110 North Oak Street","lat":41.123287,"libraryname":"Paxton Public Library","state":"NE"},"type":"Feature","geometry":{"type":"Point","coordinates":[-101.356368,41.123287]}},{"properties":{"city":"Petersburg","lon":-98.079429,"zip":"","librarysystem":"Petersburg Public Library","id":"a62qwnu0ui45","address":"103 South Second Street","lat":41.85135,"libraryname":"Petersburg Public Library","state":"NE"},"type":"Feature","geometry":{"type":"Point","coordinates":[-98.079429,41.85135]}},{"properties":{"city":"Pilger","lon":-97.053673,"zip":"","librarysystem":"Pilger Public Library","id":"a62qwo2m7kcf","address":"120 North Main","lat":42.007813,"libraryname":"Pilger Public Library","state":"NE"},"type":"Feature","geometry":{"type":"Point","coordinates":[-97.053673,42.007813]}},{"properties":{"city":"Plainview","lon":-97.793634,"zip":"","librarysystem":"Plainview Carnegie Library","id":"a62qwo28ley5","address":"102 Main Street","lat":42.350944,"libraryname":"Plainview Carnegie Library","state":"NE"},"type":"Feature","geometry":{"type":"Point","coordinates":[-97.793634,42.350944]}},{"properties":{"city":"Plattsmouth","lon":-95.883893,"zip":"","librarysystem":"Plattsmouth Public Library","id":"a62qwnz67rxu","address":"401 Avenue A","lat":41.012121,"libraryname":"Plattsmouth Public Library","state":"NE"},"type":"Feature","geometry":{"type":"Point","coordinates":[-95.883893,41.012121]}},{"properties":{"city":"Plymouth","lon":-96.988603,"zip":"","librarysystem":"Plymouth Public Library","id":"a62qwo1gf09i","address":"322 East Main","lat":40.30315,"libraryname":"Plymouth Public Library","state":"NE"},"type":"Feature","geometry":{"type":"Point","coordinates":[-96.988603,40.30315]}},{"properties":{"city":"Polk","lon":-97.783324,"zip":"","librarysystem":"Polk Public Library","id":"a62qwny5gcj6","address":"180 North Main","lat":41.075204,"libraryname":"Polk Public Library","state":"NE"},"type":"Feature","geometry":{"type":"Point","coordinates":[-97.783324,41.075204]}},{"properties":{"city":"Ponca","lon":-96.703723,"zip":"","librarysystem":"Ponca Public Library","id":"a62qwns1hoqi","address":"203 2nd Street","lat":42.563371,"libraryname":"Ponca Public Library","state":"NE"},"type":"Feature","geometry":{"type":"Point","coordinates":[-96.703723,42.563371]}},{"properties":{"city":"Potter","lon":-103.315404,"zip":"","librarysystem":"Potter Public Library","id":"a62qwno8rxqn","address":"333 Chestnut","lat":41.216655,"libraryname":"Potter Public Library","state":"NE"},"type":"Feature","geometry":{"type":"Point","coordinates":[-103.315404,41.216655]}},{"properties":{"city":"Primrose","lon":-98.238389,"zip":"","librarysystem":"Primrose Public Library","id":"a62qwo3cx7cd","address":"229 Commercial Street","lat":41.62456,"libraryname":"Primrose Public Library","state":"NE"},"type":"Feature","geometry":{"type":"Point","coordinates":[-98.238389,41.62456]}},{"properties":{"city":"Randolph","lon":-97.358161,"zip":"","librarysystem":"Randolph Public Library","id":"a62qwnshxcrc","address":"111 North Douglas","lat":42.378927,"libraryname":"Randolph Public Library","state":"NE"},"type":"Feature","geometry":{"type":"Point","coordinates":[-97.358161,42.378927]}},{"properties":{"city":"Ravenna","lon":-98.913111,"zip":"","librarysystem":"Ravenna Public Library","id":"a62qwo3p1n8p","address":"121 West Seneca","lat":41.026148,"libraryname":"Ravenna Public Library","state":"NE"},"type":"Feature","geometry":{"type":"Point","coordinates":[-98.913111,41.026148]}},{"properties":{"city":"Tilden","lon":-97.834257,"zip":"","librarysystem":"Raymond A. Whitwer Tilden Public Library","id":"a62qwo2kqc88","address":"202 South Center","lat":42.04685,"libraryname":"Raymond A. Whitwer Tilden Public Library","state":"NE"},"type":"Feature","geometry":{"type":"Point","coordinates":[-97.834257,42.04685]}},{"properties":{"city":"Rising City","lon":-97.296581,"zip":"","librarysystem":"Rising City Community Library","id":"a62qwo3r08hl","address":"675 Main Street","lat":41.198059,"libraryname":"Rising City Community Library","state":"NE"},"type":"Feature","geometry":{"type":"Point","coordinates":[-97.296581,41.198059]}},{"properties":{"city":"Bassett","lon":-99.536457,"zip":"","librarysystem":"Rock County Public Library","id":"a62qwnutwsld","address":"400 State Street","lat":42.589725,"libraryname":"Rock County Public Library","state":"NE"},"type":"Feature","geometry":{"type":"Point","coordinates":[-99.536457,42.589725]}},{"properties":{"city":"Royal","lon":-98.124869,"zip":"","librarysystem":"Royal Public Library","id":"a62qwo16p6zz","address":"3rd &amp; Ryan Streets","lat":42.33308,"libraryname":"Royal Public Library","state":"NE"},"type":"Feature","geometry":{"type":"Point","coordinates":[-98.124869,42.33308]}},{"properties":{"city":"Rushville","lon":-102.461054,"zip":"","librarysystem":"Rushville Public Library","id":"a62qwnw7lznm","address":"207 Sprague Street","lat":42.717907,"libraryname":"Rushville Public Library","state":"NE"},"type":"Feature","geometry":{"type":"Point","coordinates":[-102.461054,42.717907]}},{"properties":{"city":"Ruskin","lon":-97.872169,"zip":"","librarysystem":"Ruskin Public Library","id":"a62qwnpv0zho","address":"970 Main Street","lat":40.14386,"libraryname":"Ruskin Public Library","state":"NE"},"type":"Feature","geometry":{"type":"Point","coordinates":[-97.872169,40.14386]}},{"properties":{"city":"Sargent","lon":-99.365729,"zip":"","librarysystem":"Sargent Township Library","id":"a62qwo1vtjy0","address":"504 Main Street","lat":41.64051,"libraryname":"Sargent Township Library","state":"NE"},"type":"Feature","geometry":{"type":"Point","coordinates":[-99.365729,41.64051]}},{"properties":{"city":"Schuyler","lon":-97.058646,"zip":"","librarysystem":"Schuyler Public Library","id":"a62qwnonmcgj","address":"1123 A Street","lat":41.447627,"libraryname":"Schuyler Public Library","state":"NE"},"type":"Feature","geometry":{"type":"Point","coordinates":[-97.058646,41.447627]}},{"properties":{"city":"Scotia","lon":-98.701789,"zip":"","librarysystem":"Scotia Public Library","id":"a62qwnpqmpcx","address":"Scotia &amp; Greeley Avenue","lat":41.466409,"libraryname":"Scotia Public Library","state":"NE"},"type":"Feature","geometry":{"type":"Point","coordinates":[-98.701789,41.466409]}},{"properties":{"city":"Scottsbluff","lon":-103.658484,"zip":"","librarysystem":"Scottsbluff Public Library","id":"a62qwns463jx","address":"1809 3rd Avenue","lat":41.86441,"libraryname":"Scottsbluff Public Library","state":"NE"},"type":"Feature","geometry":{"type":"Point","coordinates":[-103.658484,41.86441]}},{"properties":{"city":"Scribner","lon":-96.665472,"zip":"","librarysystem":"Scribner Public Library","id":"a62qwnx0ooca","address":"504 Main Street","lat":41.666212,"libraryname":"Scribner Public Library","state":"NE"},"type":"Feature","geometry":{"type":"Point","coordinates":[-96.665472,41.666212]}},{"properties":{"city":"Seward","lon":-97.098024,"zip":"","librarysystem":"Seward Memorial Library","id":"a62qwny1t4bn","address":"233 South 5th Street","lat":40.90662,"libraryname":"Seward Memorial Library","state":"NE"},"type":"Feature","geometry":{"type":"Point","coordinates":[-97.098024,40.90662]}},{"properties":{"city":"Shelby","lon":-97.426142,"zip":"","librarysystem":"Shelby Public Library","id":"a62qwnosv2x1","address":"255 Walnut","lat":41.194268,"libraryname":"Shelby Public Library","state":"NE"},"type":"Feature","geometry":{"type":"Point","coordinates":[-97.426142,41.194268]}},{"properties":{"city":"Shelton","lon":-98.733799,"zip":"","librarysystem":"Shelton Township Library","id":"a62qwo2o3kgq","address":"313 C Street","lat":40.777713,"libraryname":"Shelton Township Library","state":"NE"},"type":"Feature","geometry":{"type":"Point","coordinates":[-98.733799,40.777713]}},{"properties":{"city":"Shickley","lon":-97.723057,"zip":"","librarysystem":"Virgil Biegert Public Library","id":"a62qwnyslttk","address":"214 North Market Street","lat":40.415148,"libraryname":"Shickley Public Library","state":"NE"},"type":"Feature","geometry":{"type":"Point","coordinates":[-97.723057,40.415148]}},{"properties":{"city":"Shubert","lon":-95.682994,"zip":"","librarysystem":"Shubert Public Library","id":"a62qwnnzuxeu","address":"313 Main Street","lat":40.235336,"libraryname":"Shubert Public Library And Museum","state":"NE"},"type":"Feature","geometry":{"type":"Point","coordinates":[-95.682994,40.235336]}},{"properties":{"city":"Sidney","lon":-102.979335,"zip":"","librarysystem":"Sidney Public Library","id":"a62qwnrdpx3w","address":"1112 12th Avenue","lat":41.142572,"libraryname":"Sidney Public Library","state":"NE"},"type":"Feature","geometry":{"type":"Point","coordinates":[-102.979335,41.142572]}},{"properties":{"city":"Silver Creek","lon":-97.665579,"zip":"","librarysystem":"Silver Creek Township Library","id":"a62qwo1olbdw","address":"309 Vine Street","lat":41.318,"libraryname":"Silver Creek Township Library","state":"NE"},"type":"Feature","geometry":{"type":"Point","coordinates":[-97.665579,41.318]}},{"properties":{"city":"Harrison","lon":-103.88104,"zip":"","librarysystem":"Sioux County Library","id":"a62qwo3i6a3y","address":"182 West 3rd","lat":42.68868,"libraryname":"Sioux County Library","state":"NE"},"type":"Feature","geometry":{"type":"Point","coordinates":[-103.88104,42.68868]}},{"properties":{"city":"Snyder","lon":-96.788589,"zip":"","librarysystem":"Snyder Public Library","id":"a62qwnqir9pd","address":"203 Ash Street","lat":41.70243,"libraryname":"Snyder Public Library","state":"NE"},"type":"Feature","geometry":{"type":"Point","coordinates":[-96.788589,41.70243]}},{"properties":{"city":"Lincoln","lon":-96.682763,"zip":"","librarysystem":"Lincoln City Libraries","id":"a62qwnr8ecyf","address":"2675 South Street","lat":40.81779,"libraryname":"South Branch Library","state":"NE"},"type":"Feature","geometry":{"type":"Point","coordinates":[-96.682763,40.81779]}},{"properties":{"city":"Omaha","lon":-95.945751,"zip":"","librarysystem":"Omaha Public Library","id":"a62qwnwe5v57","address":"2302 M Street","lat":41.211152,"libraryname":"South Branch Library","state":"NE"},"type":"Feature","geometry":{"type":"Point","coordinates":[-95.945751,41.211152]}},{"properties":{"city":"South Sioux City","lon":-96.414146,"zip":"","librarysystem":"South Sioux City Public Library","id":"a62qwnqhkzh0","address":"2219 Dakota Avenue","lat":42.46875,"libraryname":"South Sioux City Public Library","state":"NE"},"type":"Feature","geometry":{"type":"Point","coordinates":[-96.414146,42.46875]}},{"properties":{"city":"Spalding","lon":-98.362534,"zip":"","librarysystem":"Spalding Public Library","id":"a62qwnny398q","address":"141 Saint Joseph Street","lat":41.688631,"libraryname":"Spalding Public Library","state":"NE"},"type":"Feature","geometry":{"type":"Point","coordinates":[-98.362534,41.688631]}},{"properties":{"city":"Spencer","lon":-98.701597,"zip":"","librarysystem":"Spencer Township Library","id":"a62qwntdxzgf","address":"110 West Main","lat":42.874116,"libraryname":"Spencer Township Library","state":"NE"},"type":"Feature","geometry":{"type":"Point","coordinates":[-98.701597,42.874116]}},{"properties":{"city":"Allen","lon":-96.831204,"zip":"","librarysystem":"Springbank Township Library","id":"a62qwnx68jkd","address":"100 East 2nd Street","lat":42.50594,"libraryname":"Springbank Township Library","state":"NE"},"type":"Feature","geometry":{"type":"Point","coordinates":[-96.831204,42.50594]}},{"properties":{"city":"Springfield","lon":-96.128194,"zip":"","librarysystem":"Springfield Memorial Library","id":"a62qwo3atylq","address":"665 Main Street","lat":41.081643,"libraryname":"Springfield Memorial Library","state":"NE"},"type":"Feature","geometry":{"type":"Point","coordinates":[-96.128194,41.081643]}},{"properties":{"city":"St. Edward","lon":-97.8656,"zip":"","librarysystem":"St. Edward Public Library","id":"a62qwnshvade","address":"307 Beaver Street","lat":41.570004,"libraryname":"St. Edward Public Library","state":"NE"},"type":"Feature","geometry":{"type":"Point","coordinates":[-97.8656,41.570004]}},{"properties":{"city":"St. Paul","lon":-98.465353,"zip":"","librarysystem":"St. Paul Public Library","id":"a62qwo3eqbqf","address":"1301 Howard Avenue","lat":41.213319,"libraryname":"St. Paul Public Library","state":"NE"},"type":"Feature","geometry":{"type":"Point","coordinates":[-98.465353,41.213319]}},{"properties":{"city":"Stanton","lon":-97.223946,"zip":"","librarysystem":"Stanton Public Library","id":"a62qwo3burdx","address":"1009 Jackpine","lat":41.951137,"libraryname":"Stanton Public Library","state":"NE"},"type":"Feature","geometry":{"type":"Point","coordinates":[-97.223946,41.951137]}},{"properties":{"city":"Stella","lon":-95.773469,"zip":"","librarysystem":"Stella Community Library","id":"a62qwo0f0he6","address":"3rd &amp; Main Streets","lat":40.23106,"libraryname":"Stella Community Library","state":"NE"},"type":"Feature","geometry":{"type":"Point","coordinates":[-95.773469,40.23106]}},{"properties":{"city":"Sterling","lon":-96.376783,"zip":"","librarysystem":"Sterling Public Library","id":"a62qwnrzu4v2","address":"150 Broadway","lat":40.45904,"libraryname":"Sterling Public Library","state":"NE"},"type":"Feature","geometry":{"type":"Point","coordinates":[-96.376783,40.45904]}},{"properties":{"city":"Strang","lon":-97.586779,"zip":"","librarysystem":"Strang Public Library","id":"a62qwny5tb4o","address":"Main Street","lat":40.412995,"libraryname":"Strang Public Library","state":"NE"},"type":"Feature","geometry":{"type":"Point","coordinates":[-97.586779,40.412995]}},{"properties":{"city":"Stratton","lon":-101.226795,"zip":"","librarysystem":"Stratton Public Library","id":"a62qwnycwtw2","address":"502 Bailey Street","lat":40.14357,"libraryname":"Stratton Public Library","state":"NE"},"type":"Feature","geometry":{"type":"Point","coordinates":[-101.226795,40.14357]}},{"properties":{"city":"Stromsburg","lon":-97.594334,"zip":"","librarysystem":"Stromsburg Public Library","id":"a62qwnx6xo2d","address":"320 Central Street","lat":41.113339,"libraryname":"Stromsburg Public Library","state":"NE"},"type":"Feature","geometry":{"type":"Point","coordinates":[-97.594334,41.113339]}},{"properties":{"city":"Western","lon":-97.197919,"zip":"","librarysystem":"Struckman-Baatz Memorial Library","id":"a62qwo1duks0","address":"104 South West Avenue","lat":40.38969,"libraryname":"Struckman Baatz Public Library","state":"NE"},"type":"Feature","geometry":{"type":"Point","coordinates":[-97.197919,40.38969]}},{"properties":{"city":"Stuart","lon":-99.142629,"zip":"","librarysystem":"Stuart Township Library","id":"a62qwnxp472y","address":"2nd And Main Street","lat":42.59937,"libraryname":"Stuart Township Library","state":"NE"},"type":"Feature","geometry":{"type":"Point","coordinates":[-99.142629,42.59937]}},{"properties":{"city":"Papillion","lon":-96.041806,"zip":"","librarysystem":"Sump Memorial Library","id":"a62qwo2bqxti","address":"222 North Jefferson","lat":41.157452,"libraryname":"Sump Memorial Library","state":"NE"},"type":"Feature","geometry":{"type":"Point","coordinates":[-96.041806,41.157452]}},{"properties":{"city":"Mason City","lon":-99.300339,"zip":"","librarysystem":"Sunshine Township Library","id":"a62qwnr2wnok","address":"417 Main Street","lat":41.227336,"libraryname":"Sunshine Township Library","state":"NE"},"type":"Feature","geometry":{"type":"Point","coordinates":[-99.300339,41.227336]}},{"properties":{"city":"Superior","lon":-98.068834,"zip":"","librarysystem":"Superior Public Library","id":"a62qwnpzvgmf","address":"449 North Kansas Street","lat":40.020382,"libraryname":"Superior Public Library","state":"NE"},"type":"Feature","geometry":{"type":"Point","coordinates":[-98.068834,40.020382]}},{"properties":{"city":"Sutherland","lon":-101.126543,"zip":"","librarysystem":"Sutherland Public Library","id":"a62qwnul0wz8","address":"900 2nd Street","lat":41.158153,"libraryname":"Sutherland Public Library","state":"NE"},"type":"Feature","geometry":{"type":"Point","coordinates":[-101.126543,41.158153]}},{"properties":{"city":"Sutton","lon":-97.859594,"zip":"","librarysystem":"Sutton Memorial Library","id":"a62qwnxcwyw4","address":"201 South Saunders","lat":40.605419,"libraryname":"Sutton Memorial Library","state":"NE"},"type":"Feature","geometry":{"type":"Point","coordinates":[-97.859594,40.605419]}},{"properties":{"city":"Syracuse","lon":-96.1841,"zip":"","librarysystem":"Syracuse Public Library","id":"a62qwno2s0ln","address":"496 6th Street","lat":40.65815,"libraryname":"Syracuse Public Library","state":"NE"},"type":"Feature","geometry":{"type":"Point","coordinates":[-96.1841,40.65815]}},{"properties":{"city":"Table Rock","lon":-96.098954,"zip":"","librarysystem":"Table Rock Public Library","id":"a62qwo3dr8q5","address":"511 Luzerne Street","lat":40.178481,"libraryname":"Table Rock Public Library","state":"NE"},"type":"Feature","geometry":{"type":"Point","coordinates":[-96.098954,40.178481]}},{"properties":{"city":"Talmage","lon":-96.021785,"zip":"","librarysystem":"Talmage Public Library","id":"a62qwnt4hbe6","address":"405 Main Street","lat":40.53205,"libraryname":"Talmage Public Library","state":"NE"},"type":"Feature","geometry":{"type":"Point","coordinates":[-96.021785,40.53205]}},{"properties":{"city":"Taylor","lon":-99.384174,"zip":"","librarysystem":"Taylor Public Library","id":"a62qwo1jui6d","address":"207 Williams Street","lat":41.768275,"libraryname":"Taylor Public Library","state":"NE"},"type":"Feature","geometry":{"type":"Point","coordinates":[-99.384174,41.768275]}},{"properties":{"city":"Tecumseh","lon":-96.190449,"zip":"","librarysystem":"Tecumseh Public Library","id":"a62qwo3covu3","address":"170 Branch Street","lat":40.368606,"libraryname":"Tecumseh Public Library","state":"NE"},"type":"Feature","geometry":{"type":"Point","coordinates":[-96.190449,40.368606]}},{"properties":{"city":"Tekamah","lon":-96.221303,"zip":"","librarysystem":"Tekamah Public Library","id":"a62qwnz5fwbn","address":"204 South 13th Street","lat":41.776947,"libraryname":"Tekamah Public Library","state":"NE"},"type":"Feature","geometry":{"type":"Point","coordinates":[-96.221303,41.776947]}},{"properties":{"city":"Thedford","lon":-100.573079,"zip":"","librarysystem":"Thomas County Library","id":"a62qwnvs28on","address":"501 Main Street","lat":41.9775,"libraryname":"Thomas County Library","state":"NE"},"type":"Feature","geometry":{"type":"Point","coordinates":[-100.573079,41.9775]}},{"properties":{"city":"Tobias","lon":-97.336189,"zip":"","librarysystem":"Tobias Public Library","id":"a62qwo25qpdq","address":"101 Main Street","lat":40.41499,"libraryname":"Tobias Public Library","state":"NE"},"type":"Feature","geometry":{"type":"Point","coordinates":[-97.336189,40.41499]}},{"properties":{"city":"Trenton","lon":-101.013089,"zip":"","librarysystem":"Trenton Public Library","id":"a62qwnwdkly5","address":"402 Main Street, Box 307","lat":40.175235,"libraryname":"Trenton Public Library","state":"NE"},"type":"Feature","geometry":{"type":"Point","coordinates":[-101.013089,40.175235]}},{"properties":{"city":"Alexandria","lon":-97.389759,"zip":"","librarysystem":"Tucker Memorial Library","id":"a62qwnpjk54y","address":"313 Harbine Street","lat":40.245368,"libraryname":"Tucker Memorial Library","state":"NE"},"type":"Feature","geometry":{"type":"Point","coordinates":[-97.389759,40.245368]}},{"properties":{"city":"Ulysses","lon":-97.202282,"zip":"","librarysystem":"Ulysses Township Library","id":"a62qwnu5431c","address":"410 C Street","lat":41.071988,"libraryname":"Ulysses Township Library","state":"NE"},"type":"Feature","geometry":{"type":"Point","coordinates":[-97.202282,41.071988]}},{"properties":{"city":"Valentine","lon":-100.550502,"zip":"","librarysystem":"Valentine Public Library","id":"a62qwnpw7nor","address":"324 North Main Street","lat":42.875134,"libraryname":"Valentine Public Library","state":"NE"},"type":"Feature","geometry":{"type":"Point","coordinates":[-100.550502,42.875134]}},{"properties":{"city":"Valley","lon":-96.346932,"zip":"","librarysystem":"Valley Public Library","id":"a62qwns47f9f","address":"216 West Church Street","lat":41.313831,"libraryname":"Valley Public Library","state":"NE"},"type":"Feature","geometry":{"type":"Point","coordinates":[-96.346932,41.313831]}},{"properties":{"city":"Valparaiso","lon":-96.834342,"zip":"","librarysystem":"Valparaiso Public Library","id":"a62qwnxht2xy","address":"300 West 2nd","lat":41.081565,"libraryname":"Valparaiso Public Library","state":"NE"},"type":"Feature","geometry":{"type":"Point","coordinates":[-96.834342,41.081565]}},{"properties":{"city":"Verdigre","lon":-98.036072,"zip":"","librarysystem":"Verdigre Public Library","id":"a62qwnye5omh","address":"101 East 3rd Street","lat":42.600239,"libraryname":"Verdigre Public Library","state":"NE"},"type":"Feature","geometry":{"type":"Point","coordinates":[-98.036072,42.600239]}},{"properties":{"city":"Lincoln","lon":-96.640349,"zip":"","librarysystem":"Lincoln City Libraries","id":"a62qwnrth36t","address":"3635 Touzalin Avenue","lat":40.849041,"libraryname":"Victor E. Anderson Branch Library","state":"NE"},"type":"Feature","geometry":{"type":"Point","coordinates":[-96.640349,40.849041]}},{"properties":{"city":"Verdon","lon":-95.712881,"zip":"","librarysystem":"Village Of Verdon Library","id":"a62qwnszd6oq","address":"306 1/2 Main Street","lat":40.147493,"libraryname":"Village Of Verdonlibrary","state":"NE"},"type":"Feature","geometry":{"type":"Point","coordinates":[-95.712881,40.147493]}},{"properties":{"city":"Omaha","lon":-96.05399,"zip":"","librarysystem":"Omaha Public Library","id":"a62qwnrndnr6","address":"9101 West Dodge Road","lat":41.26311,"libraryname":"W Clarke Swanson Branch Library","state":"NE"},"type":"Feature","geometry":{"type":"Point","coordinates":[-96.05399,41.26311]}},{"properties":{"city":"Omaha","lon":-95.935684,"zip":"","librarysystem":"Omaha Public Library","id":"a62qwnrnrczn","address":"215 So. 15th Street","lat":41.258406,"libraryname":"W Dale Clark Library","state":"NE"},"type":"Feature","geometry":{"type":"Point","coordinates":[-95.935684,41.258406]}},{"properties":{"city":"Wahoo","lon":-96.620112,"zip":"","librarysystem":"Wahoo Public Library","id":"a62qwnxwk92n","address":"627 North Broadway Street","lat":41.211295,"libraryname":"Wahoo Public Library","state":"NE"},"type":"Feature","geometry":{"type":"Point","coordinates":[-96.620112,41.211295]}},{"properties":{"city":"Walthill","lon":-96.487433,"zip":"","librarysystem":"Walthill Public Library","id":"a62qwnvaw3xs","address":"222 Main Street","lat":42.14823,"libraryname":"Walthill Public Library","state":"NE"},"type":"Feature","geometry":{"type":"Point","coordinates":[-96.487433,42.14823]}},{"properties":{"city":"Wauneta","lon":-101.371181,"zip":"","librarysystem":"Wauneta Public Library","id":"a62qwnpzcfdx","address":"319 North Tecumseh","lat":40.413943,"libraryname":"Wauneta Public Library","state":"NE"},"type":"Feature","geometry":{"type":"Point","coordinates":[-101.371181,40.413943]}},{"properties":{"city":"Wayne","lon":-97.019414,"zip":"","librarysystem":"Wayne Public Library","id":"a62qwnwnbzu7","address":"410 North Pearl Street","lat":42.232653,"libraryname":"Wayne Public Library","state":"NE"},"type":"Feature","geometry":{"type":"Point","coordinates":[-97.019414,42.232653]}},{"properties":{"city":"Milford","lon":-97.053274,"zip":"","librarysystem":"Webermeier Memorial Library","id":"a62qwnvnsh8e","address":"617 C Street","lat":40.768824,"libraryname":"Webermeier Memorial Library","state":"NE"},"type":"Feature","geometry":{"type":"Point","coordinates":[-97.053274,40.768824]}},{"properties":{"city":"Weeping Water","lon":-96.141386,"zip":"","librarysystem":"Weeping Water Public Library","id":"a62qwnsxc67y","address":"206 West H Street","lat":40.870998,"libraryname":"Weeping Water Public Library","state":"NE"},"type":"Feature","geometry":{"type":"Point","coordinates":[-96.141386,40.870998]}},{"properties":{"city":"Wilcox","lon":-99.170049,"zip":"","librarysystem":"Wilcox Public Library","id":"a62qwnu74dau","address":"121 South Main Street","lat":40.35854,"libraryname":"Wilcox Public Library","state":"NE"},"type":"Feature","geometry":{"type":"Point","coordinates":[-99.170049,40.35854]}},{"properties":{"city":"Omaha","lon":-95.977941,"zip":"","librarysystem":"Omaha Public Library","id":"a62qwnptm5qj","address":"1905 South 44th Street","lat":41.24133,"libraryname":"Willa Cather Branch Library","state":"NE"},"type":"Feature","geometry":{"type":"Point","coordinates":[-95.977941,41.24133]}},{"properties":{"city":"Wilsonville","lon":-100.109014,"zip":"","librarysystem":"Wilsonville Public Library","id":"a62qwo02pd54","address":"203 Iva Street","lat":40.11278,"libraryname":"Wilsonville Public Library","state":"NE"},"type":"Feature","geometry":{"type":"Point","coordinates":[-100.109014,40.11278]}},{"properties":{"city":"Winside","lon":-97.176384,"zip":"","librarysystem":"Lied Winside Public Library","id":"a62qwo0dgrw1","address":"417 Main Street","lat":42.176002,"libraryname":"Winside Public Library","state":"NE"},"type":"Feature","geometry":{"type":"Point","coordinates":[-97.176384,42.176002]}},{"properties":{"city":"Wisner","lon":-96.912386,"zip":"","librarysystem":"Wisner Public Library","id":"a62qwnphwoln","address":"1015 East E Street","lat":41.986039,"libraryname":"Wisner Public Library","state":"NE"},"type":"Feature","geometry":{"type":"Point","coordinates":[-96.912386,41.986039]}},{"properties":{"city":"Wolbach","lon":-98.390608,"zip":"","librarysystem":"Wolbach Public Library","id":"a62qwnsfi6gs","address":"610 Kingston","lat":41.395794,"libraryname":"Wolbach Public Library","state":"NE"},"type":"Feature","geometry":{"type":"Point","coordinates":[-98.390608,41.395794]}},{"properties":{"city":"Wymore","lon":-96.663829,"zip":"","librarysystem":"Wymore Public Library","id":"a62qwno2ymra","address":"116 West F Street","lat":40.121452,"libraryname":"Wymore Public Library","state":"NE"},"type":"Feature","geometry":{"type":"Point","coordinates":[-96.663829,40.121452]}},{"properties":{"city":"Yutan","lon":-96.398345,"zip":"","librarysystem":"Yutan Public Library","id":"a62qwnv5opc3","address":"502 3rd Street","lat":41.244719,"libraryname":"Yutan Public Library","state":"NE"},"type":"Feature","geometry":{"type":"Point","coordinates":[-96.398345,41.244719]}}],"is_temporal":false,"author":{"url":"http://www.publiclibraries.com/nebraska.htm","metadata":"","contact_name":"","contact_address":"","source":"publiclibrairies.com","contact_phone":""},"source":"http://www.publiclibraries.com/nebraska.htm","pagination":{"sort":null,"start":0,"total":292,"limit":1000000},"state":"complete","tags":"books,education,libraries,library,nebraska,public","published":"2008-05-09T12:00:00Z","id":934}