{"type":"FeatureCollection","data_type":"Dataset","url_type":null,"permissions":[{"permissions":{"download":true,"view":true},"group_id":"everyone"}],"classification":null,"title":"Grow Gainesville Zipcodes","count":83,"stream_id":93582,"contributor":{"url":"http://geocommons.com/users/22231","name":"thescottrobertson"},"data_attributes":null,"calculation_params":null,"icon_link":null,"link":"http://geocommons.com/overlays/93582.json","extent":[-82.6878,29.5566,-82.1862,30.1055],"geometry_types":["point"],"unique_name":null,"name":"Grow Gainesville Zipcodes","feature_count":83,"description":"Heatmap of active gardeners within Grow Gainesville based on zipcode.","next_feature":null,"is_raster":false,"short_classification":"Y","stats":{},"features":[{"properties":{"zip":"32024","geo_score":0.714,"id":"a65u0ul7xd0r","geo_precision":"zip"},"type":"Feature","geometry":{"type":"Point","coordinates":[-82.68778,30.105451]}},{"properties":{"zip":"32601","geo_score":0.714,"id":"a65u0uesf7o0","geo_precision":"zip"},"type":"Feature","geometry":{"type":"Point","coordinates":[-82.186211,29.646635]}},{"properties":{"zip":"32601","geo_score":0.714,"id":"a65u0udvfh57","geo_precision":"zip"},"type":"Feature","geometry":{"type":"Point","coordinates":[-82.186211,29.646635]}},{"properties":{"zip":"32601","geo_score":0.714,"id":"a65u0ubd0ybz","geo_precision":"zip"},"type":"Feature","geometry":{"type":"Point","coordinates":[-82.186211,29.646635]}},{"properties":{"zip":"32601","geo_score":0.714,"id":"a65u0uc8ez2x","geo_precision":"zip"},"type":"Feature","geometry":{"type":"Point","coordinates":[-82.186211,29.646635]}},{"properties":{"zip":"32601","geo_score":0.714,"id":"a65u0uftyf3v","geo_precision":"zip"},"type":"Feature","geometry":{"type":"Point","coordinates":[-82.186211,29.646635]}},{"properties":{"zip":"32601","geo_score":0.714,"id":"a65u0uiu132l","geo_precision":"zip"},"type":"Feature","geometry":{"type":"Point","coordinates":[-82.186211,29.646635]}},{"properties":{"zip":"32601","geo_score":0.714,"id":"a65u0uipqb1r","geo_precision":"zip"},"type":"Feature","geometry":{"type":"Point","coordinates":[-82.186211,29.646635]}},{"properties":{"zip":"32601","geo_score":0.714,"id":"a65u0u9cjsxg","geo_precision":"zip"},"type":"Feature","geometry":{"type":"Point","coordinates":[-82.186211,29.646635]}},{"properties":{"zip":"32601","geo_score":0.714,"id":"a65u0u9qlctt","geo_precision":"zip"},"type":"Feature","geometry":{"type":"Point","coordinates":[-82.186211,29.646635]}},{"properties":{"zip":"32601","geo_score":0.714,"id":"a65u0unpcoz0","geo_precision":"zip"},"type":"Feature","geometry":{"type":"Point","coordinates":[-82.186211,29.646635]}},{"properties":{"zip":"32601","geo_score":0.714,"id":"a65u0u9q8kmn","geo_precision":"zip"},"type":"Feature","geometry":{"type":"Point","coordinates":[-82.186211,29.646635]}},{"properties":{"zip":"32601","geo_score":0.714,"id":"a65u0ub2yosh","geo_precision":"zip"},"type":"Feature","geometry":{"type":"Point","coordinates":[-82.186211,29.646635]}},{"properties":{"zip":"32601","geo_score":0.714,"id":"a65u0uh0hs4w","geo_precision":"zip"},"type":"Feature","geometry":{"type":"Point","coordinates":[-82.186211,29.646635]}},{"properties":{"zip":"32601","geo_score":0.714,"id":"a65u0up1y3om","geo_precision":"zip"},"type":"Feature","geometry":{"type":"Point","coordinates":[-82.186211,29.646635]}},{"properties":{"zip":"32601","geo_score":0.714,"id":"a65u0uew2t43","geo_precision":"zip"},"type":"Feature","geometry":{"type":"Point","coordinates":[-82.186211,29.646635]}},{"properties":{"zip":"32601","geo_score":0.714,"id":"a65u0ulli0sz","geo_precision":"zip"},"type":"Feature","geometry":{"type":"Point","coordinates":[-82.186211,29.646635]}},{"properties":{"zip":"32601","geo_score":0.714,"id":"a65u0uaqg3rw","geo_precision":"zip"},"type":"Feature","geometry":{"type":"Point","coordinates":[-82.186211,29.646635]}},{"properties":{"zip":"32601","geo_score":0.714,"id":"a65u0uozwlwo","geo_precision":"zip"},"type":"Feature","geometry":{"type":"Point","coordinates":[-82.186211,29.646635]}},{"properties":{"zip":"32601","geo_score":0.714,"id":"a65u0ujnox6b","geo_precision":"zip"},"type":"Feature","geometry":{"type":"Point","coordinates":[-82.186211,29.646635]}},{"properties":{"zip":"32601","geo_score":0.714,"id":"a65u0up3zaa9","geo_precision":"zip"},"type":"Feature","geometry":{"type":"Point","coordinates":[-82.186211,29.646635]}},{"properties":{"zip":"32603","geo_score":0.714,"id":"a65u0unr7mkw","geo_precision":"zip"},"type":"Feature","geometry":{"type":"Point","coordinates":[-82.353874,29.718807]}},{"properties":{"zip":"32603","geo_score":0.714,"id":"a65u0ub2qsjc","geo_precision":"zip"},"type":"Feature","geometry":{"type":"Point","coordinates":[-82.353874,29.718807]}},{"properties":{"zip":"32605","geo_score":0.714,"id":"a65u0uk7qfls","geo_precision":"zip"},"type":"Feature","geometry":{"type":"Point","coordinates":[-82.369273,29.702467]}},{"properties":{"zip":"32605","geo_score":0.714,"id":"a65u0ukhi5gi","geo_precision":"zip"},"type":"Feature","geometry":{"type":"Point","coordinates":[-82.369273,29.702467]}},{"properties":{"zip":"32605","geo_score":0.714,"id":"a65u0udxa9fw","geo_precision":"zip"},"type":"Feature","geometry":{"type":"Point","coordinates":[-82.369273,29.702467]}},{"properties":{"zip":"32605","geo_score":0.714,"id":"a65u0upohoes","geo_precision":"zip"},"type":"Feature","geometry":{"type":"Point","coordinates":[-82.369273,29.702467]}},{"properties":{"zip":"32605","geo_score":0.714,"id":"a65u0upcfaba","geo_precision":"zip"},"type":"Feature","geometry":{"type":"Point","coordinates":[-82.369273,29.702467]}},{"properties":{"zip":"32605","geo_score":0.714,"id":"a65u0umsayjf","geo_precision":"zip"},"type":"Feature","geometry":{"type":"Point","coordinates":[-82.369273,29.702467]}},{"properties":{"zip":"32605","geo_score":0.714,"id":"a65u0uem6pdj","geo_precision":"zip"},"type":"Feature","geometry":{"type":"Point","coordinates":[-82.369273,29.702467]}},{"properties":{"zip":"32605","geo_score":0.714,"id":"a65u0ub6mcpg","geo_precision":"zip"},"type":"Feature","geometry":{"type":"Point","coordinates":[-82.369273,29.702467]}},{"properties":{"zip":"32605","geo_score":0.714,"id":"a65u0ub50qwz","geo_precision":"zip"},"type":"Feature","geometry":{"type":"Point","coordinates":[-82.369273,29.702467]}},{"properties":{"zip":"32605","geo_score":0.714,"id":"a65u0u9mrw2a","geo_precision":"zip"},"type":"Feature","geometry":{"type":"Point","coordinates":[-82.369273,29.702467]}},{"properties":{"zip":"32606","geo_score":0.714,"id":"a65u0u9p969s","geo_precision":"zip"},"type":"Feature","geometry":{"type":"Point","coordinates":[-82.403746,29.697133]}},{"properties":{"zip":"32606","geo_score":0.714,"id":"a65u0u99f324","geo_precision":"zip"},"type":"Feature","geometry":{"type":"Point","coordinates":[-82.403746,29.697133]}},{"properties":{"zip":"32606","geo_score":0.714,"id":"a65u0udx2wyd","geo_precision":"zip"},"type":"Feature","geometry":{"type":"Point","coordinates":[-82.403746,29.697133]}},{"properties":{"zip":"32606","geo_score":0.714,"id":"a65u0ucqokon","geo_precision":"zip"},"type":"Feature","geometry":{"type":"Point","coordinates":[-82.403746,29.697133]}},{"properties":{"zip":"32606","geo_score":0.714,"id":"a65u0uestbxr","geo_precision":"zip"},"type":"Feature","geometry":{"type":"Point","coordinates":[-82.403746,29.697133]}},{"properties":{"zip":"32607","geo_score":0.714,"id":"a65u0ujqke6q","geo_precision":"zip"},"type":"Feature","geometry":{"type":"Point","coordinates":[-82.440667,29.653042]}},{"properties":{"zip":"32607","geo_score":0.714,"id":"a65u0un6nbj7","geo_precision":"zip"},"type":"Feature","geometry":{"type":"Point","coordinates":[-82.440667,29.653042]}},{"properties":{"zip":"32607","geo_score":0.714,"id":"a65u0ul3ud90","geo_precision":"zip"},"type":"Feature","geometry":{"type":"Point","coordinates":[-82.440667,29.653042]}},{"properties":{"zip":"32607","geo_score":0.714,"id":"a65u0uinpvbd","geo_precision":"zip"},"type":"Feature","geometry":{"type":"Point","coordinates":[-82.440667,29.653042]}},{"properties":{"zip":"32607","geo_score":0.714,"id":"a65u0uk5z7gr","geo_precision":"zip"},"type":"Feature","geometry":{"type":"Point","coordinates":[-82.440667,29.653042]}},{"properties":{"zip":"32607","geo_score":0.714,"id":"a65u0udaw41l","geo_precision":"zip"},"type":"Feature","geometry":{"type":"Point","coordinates":[-82.440667,29.653042]}},{"properties":{"zip":"32607","geo_score":0.714,"id":"a65u0ukyekth","geo_precision":"zip"},"type":"Feature","geometry":{"type":"Point","coordinates":[-82.440667,29.653042]}},{"properties":{"zip":"32607","geo_score":0.714,"id":"a65u0uf56zub","geo_precision":"zip"},"type":"Feature","geometry":{"type":"Point","coordinates":[-82.440667,29.653042]}},{"properties":{"zip":"32608","geo_score":0.714,"id":"a65u0uib97qh","geo_precision":"zip"},"type":"Feature","geometry":{"type":"Point","coordinates":[-82.407395,29.575246]}},{"properties":{"zip":"32608","geo_score":0.714,"id":"a65u0ucwz4qe","geo_precision":"zip"},"type":"Feature","geometry":{"type":"Point","coordinates":[-82.407395,29.575246]}},{"properties":{"zip":"32608","geo_score":0.714,"id":"a65u0uj8sof6","geo_precision":"zip"},"type":"Feature","geometry":{"type":"Point","coordinates":[-82.407395,29.575246]}},{"properties":{"zip":"32608","geo_score":0.714,"id":"a65u0ufg38et","geo_precision":"zip"},"type":"Feature","geometry":{"type":"Point","coordinates":[-82.407395,29.575246]}},{"properties":{"zip":"32608","geo_score":0.714,"id":"a65u0uosqvfb","geo_precision":"zip"},"type":"Feature","geometry":{"type":"Point","coordinates":[-82.407395,29.575246]}},{"properties":{"zip":"32608","geo_score":0.714,"id":"a65u0ukyqomy","geo_precision":"zip"},"type":"Feature","geometry":{"type":"Point","coordinates":[-82.407395,29.575246]}},{"properties":{"zip":"32608","geo_score":0.714,"id":"a65u0uoap7hb","geo_precision":"zip"},"type":"Feature","geometry":{"type":"Point","coordinates":[-82.407395,29.575246]}},{"properties":{"zip":"32609","geo_score":0.714,"id":"a65u0ueva03g","geo_precision":"zip"},"type":"Feature","geometry":{"type":"Point","coordinates":[-82.398315,29.761371]}},{"properties":{"zip":"32609","geo_score":0.714,"id":"a65u0ucjvykp","geo_precision":"zip"},"type":"Feature","geometry":{"type":"Point","coordinates":[-82.398315,29.761371]}},{"properties":{"zip":"32609","geo_score":0.714,"id":"a65u0unxr2nu","geo_precision":"zip"},"type":"Feature","geometry":{"type":"Point","coordinates":[-82.398315,29.761371]}},{"properties":{"zip":"32609","geo_score":0.714,"id":"a65u0ubufk3e","geo_precision":"zip"},"type":"Feature","geometry":{"type":"Point","coordinates":[-82.398315,29.761371]}},{"properties":{"zip":"32609","geo_score":0.714,"id":"a65u0ufnav0r","geo_precision":"zip"},"type":"Feature","geometry":{"type":"Point","coordinates":[-82.398315,29.761371]}},{"properties":{"zip":"32609","geo_score":0.714,"id":"a65u0uop71vu","geo_precision":"zip"},"type":"Feature","geometry":{"type":"Point","coordinates":[-82.398315,29.761371]}},{"properties":{"zip":"32609","geo_score":0.714,"id":"a65u0unmay8t","geo_precision":"zip"},"type":"Feature","geometry":{"type":"Point","coordinates":[-82.398315,29.761371]}},{"properties":{"zip":"32609","geo_score":0.714,"id":"a65u0ud0mcqn","geo_precision":"zip"},"type":"Feature","geometry":{"type":"Point","coordinates":[-82.398315,29.761371]}},{"properties":{"zip":"32609","geo_score":0.714,"id":"a65u0uik42yv","geo_precision":"zip"},"type":"Feature","geometry":{"type":"Point","coordinates":[-82.398315,29.761371]}},{"properties":{"zip":"32609","geo_score":0.714,"id":"a65u0uaqr7dg","geo_precision":"zip"},"type":"Feature","geometry":{"type":"Point","coordinates":[-82.398315,29.761371]}},{"properties":{"zip":"32609","geo_score":0.714,"id":"a65u0uh9xi6b","geo_precision":"zip"},"type":"Feature","geometry":{"type":"Point","coordinates":[-82.398315,29.761371]}},{"properties":{"zip":"32609","geo_score":0.714,"id":"a65u0upmsua8","geo_precision":"zip"},"type":"Feature","geometry":{"type":"Point","coordinates":[-82.398315,29.761371]}},{"properties":{"zip":"32609","geo_score":0.714,"id":"a65u0up6sz2t","geo_precision":"zip"},"type":"Feature","geometry":{"type":"Point","coordinates":[-82.398315,29.761371]}},{"properties":{"zip":"32610","geo_score":0.714,"id":"a65u0uph3u29","geo_precision":"zip"},"type":"Feature","geometry":{"type":"Point","coordinates":[-82.353862,29.681312]}},{"properties":{"zip":"32615","geo_score":0.714,"id":"a65u0up8zson","geo_precision":"zip"},"type":"Feature","geometry":{"type":"Point","coordinates":[-82.430391,29.883575]}},{"properties":{"zip":"32615","geo_score":0.714,"id":"a65u0ulzb57c","geo_precision":"zip"},"type":"Feature","geometry":{"type":"Point","coordinates":[-82.430391,29.883575]}},{"properties":{"zip":"32615","geo_score":0.714,"id":"a65u0uhbyeov","geo_precision":"zip"},"type":"Feature","geometry":{"type":"Point","coordinates":[-82.430391,29.883575]}},{"properties":{"zip":"32615","geo_score":0.714,"id":"a65u0ubv805f","geo_precision":"zip"},"type":"Feature","geometry":{"type":"Point","coordinates":[-82.430391,29.883575]}},{"properties":{"zip":"32641","geo_score":0.714,"id":"a65u0ug6fmau","geo_precision":"zip"},"type":"Feature","geometry":{"type":"Point","coordinates":[-82.201383,29.682383]}},{"properties":{"zip":"32641","geo_score":0.714,"id":"a65u0uihrckf","geo_precision":"zip"},"type":"Feature","geometry":{"type":"Point","coordinates":[-82.201383,29.682383]}},{"properties":{"zip":"32641","geo_score":0.714,"id":"a65u0unq3uj7","geo_precision":"zip"},"type":"Feature","geometry":{"type":"Point","coordinates":[-82.201383,29.682383]}},{"properties":{"zip":"32653","geo_score":0.714,"id":"a65u0ua6p31d","geo_precision":"zip"},"type":"Feature","geometry":{"type":"Point","coordinates":[-82.378158,29.772819]}},{"properties":{"zip":"32653","geo_score":0.714,"id":"a65u0uky2wid","geo_precision":"zip"},"type":"Feature","geometry":{"type":"Point","coordinates":[-82.378158,29.772819]}},{"properties":{"zip":"32653","geo_score":0.714,"id":"a65u0uhah2gm","geo_precision":"zip"},"type":"Feature","geometry":{"type":"Point","coordinates":[-82.378158,29.772819]}},{"properties":{"zip":"32653","geo_score":0.714,"id":"a65u0u9ohhxn","geo_precision":"zip"},"type":"Feature","geometry":{"type":"Point","coordinates":[-82.378158,29.772819]}},{"properties":{"zip":"32653","geo_score":0.714,"id":"a65u0ubh3mkl","geo_precision":"zip"},"type":"Feature","geometry":{"type":"Point","coordinates":[-82.378158,29.772819]}},{"properties":{"zip":"32667","geo_score":0.714,"id":"a65u0uhj0ea4","geo_precision":"zip"},"type":"Feature","geometry":{"type":"Point","coordinates":[-82.390938,29.556635]}},{"properties":{"zip":"32667","geo_score":0.714,"id":"a65u0uj5jj41","geo_precision":"zip"},"type":"Feature","geometry":{"type":"Point","coordinates":[-82.390938,29.556635]}},{"properties":{"zip":"32694","geo_score":0.714,"id":"a65u0ueky6fr","geo_precision":"zip"},"type":"Feature","geometry":{"type":"Point","coordinates":[-82.231216,29.837465]}},{"properties":{"zip":"32601","geo_score":0.714,"id":"a65u0unxvlc0","geo_precision":"zip"},"type":"Feature","geometry":{"type":"Point","coordinates":[-82.186211,29.646635]}}],"is_temporal":false,"author":{"url":"","metadata":"","contact_name":"","contact_address":"","source":"","contact_phone":""},"source":"","pagination":{"sort":null,"start":0,"total":83,"limit":1000000},"state":"complete","tags":"gardening,urban","published":"2011-02-17T15:10:51Z","id":93582}