{"type":"FeatureCollection","data_type":"Dataset","url_type":null,"permissions":[{"permissions":{"download":true,"view":true},"group_id":"everyone"}],"classification":null,"title":"publiclibraries.com, New Jersey Public Libraries, New Jersey, 1.2008","count":392,"stream_id":939,"contributor":{"url":"http://geocommons.com/users/2","name":"data"},"data_attributes":null,"calculation_params":null,"icon_link":null,"link":"http://geocommons.com/overlays/939.json","extent":[-96.4408,38.9732,-72.5064,44.4799],"geometry_types":["point"],"unique_name":null,"name":"publiclibraries.com, New Jersey Public Libraries, New Jersey, 1.2008","feature_count":392,"description":"This dataset displays the locations of all the public libraries in the state of New Jersey. The data included is the name of the library, name of the library system, library's address, phone, and lat/lon coordinates. The data came from publiclibraries.com which is a updated directory of all the public libraries throughout the United States.\n","next_feature":null,"is_raster":false,"short_classification":"Y","stats":{"lon":{"max":-72.506424,"mean":-74.495311142857,"variance":1.69402886005856,"stdev":1.30154863914437,"min":-96.440819,"median":-74.313683},"lat":{"max":44.479931,"mean":40.4931069234694,"variance":0.275678140405007,"stdev":0.525050607470373,"min":38.973209,"median":40.653332}},"features":[{"properties":{"city":"Allentown","lon":-74.585109,"zip":"08501-1613","librarysystem":"Monmouth County Library","phone":"Telephone: (609) 259-7565","id":"a672kubbftrn","address":"16 S. Main Street","lat":40.177375,"libraryname":"Allentown","state":"NJ"},"type":"Feature","geometry":{"type":"Point","coordinates":[-74.585109,40.177375]}},{"properties":{"city":"Clifton","lon":-74.161705,"zip":7012,"librarysystem":"Clifton Public Library","phone":"973-471-0555","id":"a672kugerft4","address":"44 Lyall Road","lat":40.847343,"libraryname":"Allwood Branch Library","state":"NJ"},"type":"Feature","geometry":{"type":"Point","coordinates":[-74.161705,40.847343]}},{"properties":{"city":"East Orange","lon":-74.194825,"zip":"","librarysystem":"East Orange Public Library","phone":"973-266-7047","id":"a672kucxryvi","address":"39 Ampere Plaza","lat":40.765453,"libraryname":"Ampere Branch","state":"NJ"},"type":"Feature","geometry":{"type":"Point","coordinates":[-74.194825,40.765453]}},{"properties":{"city":"Bellmawr","lon":-75.077988,"zip":8031,"librarysystem":"Camden County Library System","phone":"Phone: (856) 931-1400","id":"a672kuf88bvg","address":"35 East Browning Rd.","lat":39.866634,"libraryname":"Anthony P. Infanti Bellmawr Branch","state":"NJ"},"type":"Feature","geometry":{"type":"Point","coordinates":[-75.077988,39.866634]}},{"properties":{"city":"Atlantic Highlands","lon":-74.038231,"zip":7716,"librarysystem":"Monmouth County Library","phone":"Telephone: (732)291-1956","id":"a672kumhqeem","address":"Boro Hall","lat":40.412739,"libraryname":"Atlantic Highlands","state":"NJ"},"type":"Feature","geometry":{"type":"Point","coordinates":[-74.038231,40.412739]}},{"properties":{"city":"Bloomingdale","lon":-74.338684,"zip":7403,"librarysystem":"BLOOMINGDALE FREE PUBLIC LIBRARY","phone":"(973) 838-0077","id":"a672kuihegi2","address":"101 Hamburg Turnpike","lat":41.00811,"libraryname":"BLOOMINGDALE FREE PUBLIC LIBRARY","state":"NJ"},"type":"Feature","geometry":{"type":"Point","coordinates":[-74.338684,41.00811]}},{"properties":{"city":"Barnegat","lon":-74.23201,"zip":8005,"librarysystem":"Ocean County Library","phone":"Phone: (609) 698-3331","id":"a672kuh28rdx","address":"112 Burr Street","lat":39.756874,"libraryname":"Barnegat Branch","state":"NJ"},"type":"Feature","geometry":{"type":"Point","coordinates":[-74.23201,39.756874]}},{"properties":{"city":"Bay Head","lon":-74.049553,"zip":8742,"librarysystem":"Ocean County Library","phone":"Phone: (732) 892-0662","id":"a672kufek2vk","address":"136 Meadow Ave.","lat":40.069073,"libraryname":"Bay Head Reading Center","state":"NJ"},"type":"Feature","geometry":{"type":"Point","coordinates":[-74.049553,40.069073]}},{"properties":{"city":"Beachwood","lon":-74.190788,"zip":8722,"librarysystem":"Ocean County Library","phone":"Phone: (732) 244-4573","id":"a672kuf66f8x","address":"126 Beachwood Blvd.","lat":39.940151,"libraryname":"Beachwood Branch","state":"NJ"},"type":"Feature","geometry":{"type":"Point","coordinates":[-74.190788,39.940151]}},{"properties":{"city":"Belleville","lon":-74.152692,"zip":"07109-3189","librarysystem":"Belleville Public Library and Information Center","phone":"Tel: (973) 450-3434","id":"a672kuet5xkc","address":"221 Washington Avenue","lat":40.788445,"libraryname":"Belleville Public Library and Information Center","state":"NJ"},"type":"Feature","geometry":{"type":"Point","coordinates":[-74.152692,40.788445]}},{"properties":{"city":"Upper Montclair","lon":-74.204659,"zip":7043,"librarysystem":"Montclair Public Library","phone":"973-744-2468","id":"a672kuk3wflr","address":"185 Bellevue Ave","lat":40.840656,"libraryname":"Bellevue Ave Branch","state":"NJ"},"type":"Feature","geometry":{"type":"Point","coordinates":[-74.204659,40.840656]}},{"properties":{"city":"Belmar","lon":-74.022125,"zip":7719,"librarysystem":"Belmar Public Library","phone":"(732) 681-0775","id":"a672kudb0wh0","address":"517 10th Ave","lat":40.178566,"libraryname":"Belmar Public Library","state":"NJ"},"type":"Feature","geometry":{"type":"Point","coordinates":[-74.022125,40.178566]}},{"properties":{"city":"Belvidere","lon":-75.078675,"zip":"07823-1517","librarysystem":"Belvidere Free Public Library","phone":"201-475-5331","id":"a672kukavydv","address":"301 Second Street","lat":40.827247,"libraryname":"Belvidere Free Public Library","state":"NJ"},"type":"Feature","geometry":{"type":"Point","coordinates":[-75.078675,40.827247]}},{"properties":{"city":"Bergenfield","lon":-73.999451,"zip":7621,"librarysystem":"Bergen County Cooperative Library System","phone":"(201) 387-4040","id":"a672kud2ckvj","address":"50 W. Clinton Ave.","lat":40.923553,"libraryname":"Bergenfield Public Library","state":"NJ"},"type":"Feature","geometry":{"type":"Point","coordinates":[-73.999451,40.923553]}},{"properties":{"city":"Bayville","lon":-74.160019,"zip":8721,"librarysystem":"Ocean County Library","phone":"Phone: (732) 269-2144","id":"a672kuee3jch","address":"30 Station Rd.","lat":39.899002,"libraryname":"Berkeley Branch","state":"NJ"},"type":"Feature","geometry":{"type":"Point","coordinates":[-74.160019,39.899002]}},{"properties":{"city":"Berkeley Heights","lon":-74.439758,"zip":7922,"librarysystem":"Berkeley Heights Public Library","phone":"908-464-9333","id":"a672kudbzuri","address":"290 Plainfield Ave","lat":40.678852,"libraryname":"Berkeley Heights Public Library","state":"NJ"},"type":"Feature","geometry":{"type":"Point","coordinates":[-74.439758,40.678852]}},{"properties":{"city":"Basking Ridge","lon":-74.54792,"zip":7920,"librarysystem":"Bernards Township Library","phone":"Tel: 908-204-3031","id":"a672kui4jd0k","address":"32 South Maple Ave","lat":40.706131,"libraryname":"Bernards Township Library","state":"NJ"},"type":"Feature","geometry":{"type":"Point","coordinates":[-74.54792,40.706131]}},{"properties":{"city":"Basking Ridge","lon":-74.54792,"zip":7920,"librarysystem":"Morris Automated Information Network","phone":"908-204-3031","id":"a672kud8qg0h","address":"32 South Maple","lat":40.706131,"libraryname":"Bernards Township Library","state":"NJ"},"type":"Feature","geometry":{"type":"Point","coordinates":[-74.54792,40.706131]}},{"properties":{"city":"Bernardsville","lon":-74.569183,"zip":7924,"librarysystem":"Bernardsville Public Library","phone":"908-766-0118","id":"a672kuehxm0t","address":"1 Anderson Hill Road","lat":40.719105,"libraryname":"Bernardsville Public Library","state":"NJ"},"type":"Feature","geometry":{"type":"Point","coordinates":[-74.569183,40.719105]}},{"properties":{"city":"Vineland","lon":-75.013016,"zip":8360,"librarysystem":"Cumberland County Library System","phone":"Phone: (856) 691-0852","id":"a672kuduizmw","address":"1015 E. Park Avenue","lat":39.49099,"libraryname":"Beth Israel Library","state":"NJ"},"type":"Feature","geometry":{"type":"Point","coordinates":[-75.013016,39.49099]}},{"properties":{"city":"Beverly","lon":-74.921066,"zip":8010,"librarysystem":"Burlington County Library System","phone":"phone: 609-387-1259","id":"a672kujfho75","address":"441 Cooper Street","lat":40.063068,"libraryname":"Beverly","state":"NJ"},"type":"Feature","geometry":{"type":"Point","coordinates":[-74.921066,40.063068]}},{"properties":{"city":"Bloomfield","lon":-74.197456,"zip":7003,"librarysystem":"Bergen County Cooperative Library System","phone":"973-566-6200","id":"a672kufvompk","address":"90 Broad St","lat":40.796711,"libraryname":"Bloomfield Public Library","state":"NJ"},"type":"Feature","geometry":{"type":"Point","coordinates":[-74.197456,40.796711]}},{"properties":{"city":"Bogota","lon":-74.030113,"zip":7603,"librarysystem":"Bergen County Cooperative Library System","phone":"(201)488-7185","id":"a672ku8vf6bv","address":"375 Larch Ave.","lat":40.879345,"libraryname":"Bogota Public Library","state":"NJ"},"type":"Feature","geometry":{"type":"Point","coordinates":[-74.030113,40.879345]}},{"properties":{"city":"Boonton","lon":-74.410454,"zip":7005,"librarysystem":"Morris Automated Information Network","phone":"973-334-2980","id":"a672kufany4p","address":"621 Main St","lat":40.905018,"libraryname":"Boonton-Holmes Public Library","state":"NJ"},"type":"Feature","geometry":{"type":"Point","coordinates":[-74.410454,40.905018]}},{"properties":{"city":"Bordentown","lon":-74.707443,"zip":8505,"librarysystem":"Burlington County Library System","phone":"Phone: (609) 298-0622","id":"a672ku89y1px","address":"18 East Union Street","lat":40.143547,"libraryname":"Bordentown","state":"NJ"},"type":"Feature","geometry":{"type":"Point","coordinates":[-74.707443,40.143547]}},{"properties":{"city":"Bound Brook","lon":-74.529648,"zip":8805,"librarysystem":"Somerset County Library System","phone":"732-356-0043","id":"a672kudopvwo","address":"402 East High Street,","lat":40.563477,"libraryname":"Bound Brook Memorial Library","state":"NJ"},"type":"Feature","geometry":{"type":"Point","coordinates":[-74.529648,40.563477]}},{"properties":{"city":"Newark","lon":-74.176147,"zip":7104,"librarysystem":"The Newark Public Library","phone":"973-733-7760","id":"a672kufeyujs","address":"235 Clifton Avenue","lat":40.757885,"libraryname":"Branch Brook Branch","state":"NJ"},"type":"Feature","geometry":{"type":"Point","coordinates":[-74.176147,40.757885]}},{"properties":{"city":"Bayonne","lon":-74.104416,"zip":7002,"librarysystem":"Free Public Library &amp; Cultural Center of Bayonne","phone":"(201) 858-6977","id":"a672ku8ze5fv","address":"1055 Avenue C","lat":40.684422,"libraryname":"Branch II of the Library","state":"NJ"},"type":"Feature","geometry":{"type":"Point","coordinates":[-74.104416,40.684422]}},{"properties":{"city":"Neshanic Station","lon":-74.732124,"zip":8853,"librarysystem":"Somerset County Library System","phone":"(908) 369-5355","id":"a672kuckvw86","address":"Olive St","lat":40.510155,"libraryname":"Branchburg Reading Station","state":"NJ"},"type":"Feature","geometry":{"type":"Point","coordinates":[-74.732124,40.510155]}},{"properties":{"city":"Brick","lon":-74.149513,"zip":8723,"librarysystem":"Ocean County Library","phone":"Phone: (732) 477-4513","id":"a672ku8r2fni","address":"301 Chambers Bridge Rd.","lat":40.07106,"libraryname":"Brick Branch","state":"NJ"},"type":"Feature","geometry":{"type":"Point","coordinates":[-74.149513,40.07106]}},{"properties":{"city":"Bridgeton","lon":-75.231972,"zip":8302,"librarysystem":"Cumberland County Library System","phone":"Phone: (856) 451-2620","id":"a672kui6isse","address":"150 East Commerce Street","lat":39.428726,"libraryname":"Bridgeton Free Public Library","state":"NJ"},"type":"Feature","geometry":{"type":"Point","coordinates":[-75.231972,39.428726]}},{"properties":{"city":"Bridgewater","lon":-74.608452,"zip":8807,"librarysystem":"Somerset County Library System","phone":"(908) 526-4016","id":"a672kukbit2u","address":"1 Vogt Dr.","lat":40.589008,"libraryname":"Bridgewater Library","state":"NJ"},"type":"Feature","geometry":{"type":"Point","coordinates":[-74.608452,40.589008]}},{"properties":{"city":"Brielle","lon":-74.062279,"zip":8730,"librarysystem":"Monmouth County Library","phone":"Telephone: (732)528-9381","id":"a672kua7hzvc","address":"610 South Street","lat":40.114861,"libraryname":"Brielle","state":"NJ"},"type":"Feature","geometry":{"type":"Point","coordinates":[-74.062279,40.114861]}},{"properties":{"city":"Brigantine","lon":-74.374512,"zip":8203,"librarysystem":"Atlantic County Library System","phone":"(609) 266-0110","id":"a672kukqivbq","address":"201 15th St. South","lat":39.402763,"libraryname":"Brigatine Branch","state":"NJ"},"type":"Feature","geometry":{"type":"Point","coordinates":[-74.374512,39.402763]}},{"properties":{"city":"Trenton","lon":-74.738098,"zip":8609,"librarysystem":"Trenton Public Library","phone":"Phone: 609-392-7856","id":"a672kugktgr0","address":"1115 Greenwood Avenue","lat":40.223381,"libraryname":"Briggs Branch","state":"NJ"},"type":"Feature","geometry":{"type":"Point","coordinates":[-74.738098,40.223381]}},{"properties":{"city":"Califon","lon":-74.883652,"zip":7830,"librarysystem":"Hunterdon County Library","phone":"Telephone: (908) 638-8884","id":"a672kuj3ov8l","address":"7 Bunnvale Road","lat":40.70293,"libraryname":"Bunnvale Library","state":"NJ"},"type":"Feature","geometry":{"type":"Point","coordinates":[-74.883652,40.70293]}},{"properties":{"city":"Burlington","lon":-73.209435,"zip":8016,"librarysystem":"Burlington County Library System","phone":"phone: 609-386-1273","id":"a672kugempqb","address":"23 West Union Street","lat":44.479931,"libraryname":"Burlington","state":"NJ"},"type":"Feature","geometry":{"type":"Point","coordinates":[-73.209435,44.479931]}},{"properties":{"city":"Butler","lon":-74.342918,"zip":7405,"librarysystem":"Morris Automated Information Network","phone":"973-838-3262","id":"a672ku87rs0y","address":"1 Ace Rd","lat":41.003254,"libraryname":"Butler Public Library","state":"NJ"},"type":"Feature","geometry":{"type":"Point","coordinates":[-74.342918,41.003254]}},{"properties":{"city":"Trenton","lon":-74.782722,"zip":8618,"librarysystem":"Trenton Public Library","phone":"Phone: 609-392-7886","id":"a672kuaomk5j","address":"200 N. Hermitage Avenue","lat":40.230602,"libraryname":"Cadwalader Branch","state":"NJ"},"type":"Feature","geometry":{"type":"Point","coordinates":[-74.782722,40.230602]}},{"properties":{"city":"Caldwell","lon":-74.274048,"zip":7006,"librarysystem":"Caldwell Public Library","phone":"Phone: 973-226-2837","id":"a672kuib0amr","address":"268 Bloomfield Avenue","lat":40.838039,"libraryname":"Caldwell Public Library","state":"NJ"},"type":"Feature","geometry":{"type":"Point","coordinates":[-74.274048,40.838039]}},{"properties":{"city":"Cape May","lon":-74.947762,"zip":8204,"librarysystem":"Cape May County Library","phone":"609-884-9568","id":"a672kuie0z1v","address":"Ocean &amp; Hughes Ave","lat":38.973209,"libraryname":"Cape May City","state":"NJ"},"type":"Feature","geometry":{"type":"Point","coordinates":[-74.947762,38.973209]}},{"properties":{"city":"Old Bridge","lon":-74.29483,"zip":8857,"librarysystem":"Old Bridge Public Library","phone":"(732)721-5600 ext. 5010","id":"a672kui79a8l","address":"One Old Bridge Plaza","lat":40.407387,"libraryname":"Central Library","state":"NJ"},"type":"Feature","geometry":{"type":"Point","coordinates":[-74.29483,40.407387]}},{"properties":{"city":"Cherry Hill","lon":-75.003358,"zip":"08034-1911","librarysystem":"Cherry Hill Public Library","phone":"(856) 667-0300","id":"a672kud6w5pc","address":"1100 Kings Hwy North","lat":39.920454,"libraryname":"Cherry Hill Public Library","state":"NJ"},"type":"Feature","geometry":{"type":"Point","coordinates":[-75.003358,39.920454]}},{"properties":{"city":"Chester","lon":-74.675323,"zip":7930,"librarysystem":"Morris Automated Information Network","phone":"908-879-7612","id":"a672kufn1cxn","address":"250 Route 24","lat":40.784954,"libraryname":"Chester Library","state":"NJ"},"type":"Feature","geometry":{"type":"Point","coordinates":[-74.675323,40.784954]}},{"properties":{"city":"Cinnaminson","lon":-74.994156,"zip":8077,"librarysystem":"Burlington County Library System","phone":"Phone: 856-829-9340","id":"a672kunmi161","address":"1619 Riverton Road","lat":39.997993,"libraryname":"Cinnaminson","state":"NJ"},"type":"Feature","geometry":{"type":"Point","coordinates":[-74.994156,39.997993]}},{"properties":{"city":"Edison","lon":-74.331245,"zip":8837,"librarysystem":"Edison Public Library","phone":"(732) 738-0096","id":"a672kujxiurv","address":"141 Hoover Avenue","lat":40.534256,"libraryname":"Clara Barton Branch","state":"NJ"},"type":"Feature","geometry":{"type":"Point","coordinates":[-74.331245,40.534256]}},{"properties":{"city":"Clark","lon":-74.351959,"zip":7066,"librarysystem":"Clark Public Library","phone":"732-388-5999","id":"a672kunf7o0r","address":"303 Westfield Ave.","lat":40.649849,"libraryname":"Clark Public Library","state":"NJ"},"type":"Feature","geometry":{"type":"Point","coordinates":[-74.351959,40.649849]}},{"properties":{"city":"Cliffside Park","lon":-73.988319,"zip":7010,"librarysystem":"Bergen County Cooperative Library System","phone":"Phone: (201) 945-2867","id":"a672kuh301ia","address":"505 Palisade Ave","lat":40.821117,"libraryname":"Cliffside Park Public Library","state":"NJ"},"type":"Feature","geometry":{"type":"Point","coordinates":[-73.988319,40.821117]}},{"properties":{"city":"Clifton","lon":-74.147476,"zip":7011,"librarysystem":"Clifton Public Library","phone":"973-772-5500","id":"a672kudhskw9","address":"292 Piaget Avenue","lat":40.880245,"libraryname":"Clifton Memorial Library","state":"NJ"},"type":"Feature","geometry":{"type":"Point","coordinates":[-74.147476,40.880245]}},{"properties":{"city":"Newark","lon":-74.201561,"zip":7108,"librarysystem":"The Newark Public Library","phone":"973-733-7757","id":"a672kulewbvf","address":"739 Bergen Street","lat":40.718624,"libraryname":"Clinton Branch","state":"NJ"},"type":"Feature","geometry":{"type":"Point","coordinates":[-74.201561,40.718624]}},{"properties":{"city":"Closter","lon":-73.967216,"zip":7624,"librarysystem":"Bergen County Cooperative Library System","phone":"(201)768-4197","id":"a672ku8oht65","address":"280 High St.","lat":40.974396,"libraryname":"Closter Public Library","state":"NJ"},"type":"Feature","geometry":{"type":"Point","coordinates":[-73.967216,40.974396]}},{"properties":{"city":"Colts Neck","lon":-74.187833,"zip":"07722-2225","librarysystem":"Monmouth County Library","phone":"Telephone: (732) 431-5656","id":"a672kundaamh","address":"1 Winthrop Drive","lat":40.293554,"libraryname":"Colts Neck","state":"NJ"},"type":"Feature","geometry":{"type":"Point","coordinates":[-74.187833,40.293554]}},{"properties":{"city":"Westampton","lon":-74.836159,"zip":8060,"librarysystem":"Burlington County Library System","phone":"Phone: 609-267-9660","id":"a672kucn5wqw","address":"5 Pioneer Boulevard","lat":40.008282,"libraryname":"County Library/HQ","state":"NJ"},"type":"Feature","geometry":{"type":"Point","coordinates":[-74.836159,40.008282]}},{"properties":{"city":"Cranbury","lon":-74.516441,"zip":8512,"librarysystem":"Cranbury Public Library","phone":"Phone:  609-655-0555","id":"a672ku8ju43e","address":"23 North Main Street","lat":40.310966,"libraryname":"Cranbury Public Library","state":"NJ"},"type":"Feature","geometry":{"type":"Point","coordinates":[-74.516441,40.310966]}},{"properties":{"city":"Cranford","lon":-74.304199,"zip":7016,"librarysystem":"Cranford Public Library","phone":"908-709-7272","id":"a672kuhwqjtf","address":"224 Walnut Avenue","lat":40.65266,"libraryname":"Cranford Public Library","state":"NJ"},"type":"Feature","geometry":{"type":"Point","coordinates":[-74.304199,40.65266]}},{"properties":{"city":"Cresskill","lon":-73.960663,"zip":7626,"librarysystem":"Bergen County Cooperative Library System","phone":"(201) 567-3521","id":"a672kukta9wu","address":"53 Union Avenue","lat":40.94186,"libraryname":"Cresskill Public Library","state":"NJ"},"type":"Feature","geometry":{"type":"Point","coordinates":[-73.960663,40.94186]}},{"properties":{"city":"Crosswicks","lon":-74.645943,"zip":8515,"librarysystem":"Burlington County Library System","phone":"phone: 609-298-6271","id":"a672ku93znj3","address":"Main Street","lat":40.152199,"libraryname":"Crosswicks","state":"NJ"},"type":"Feature","geometry":{"type":"Point","coordinates":[-74.645943,40.152199]}},{"properties":{"city":"Bridgeton","lon":-75.205894,"zip":8302,"librarysystem":"Cumberland County Library System","phone":"Phone:(856) 453-2210","id":"a672kult92im","address":"800 East Commerce St.","lat":39.424416,"libraryname":"Cumberland County Library","state":"NJ"},"type":"Feature","geometry":{"type":"Point","coordinates":[-75.205894,39.424416]}},{"properties":{"city":"Jersey City","lon":-74.081924,"zip":7305,"librarysystem":"Jersey City Free Public Library","phone":"Phone: (201) 547 - 4555","id":"a672kufkglu6","address":"275 Martin Luther King Jr. Drive","lat":40.708546,"libraryname":"Cunningham","state":"NJ"},"type":"Feature","geometry":{"type":"Point","coordinates":[-74.081924,40.708546]}},{"properties":{"city":"Delanco","lon":-74.948105,"zip":8075,"librarysystem":"Burlington County Library System","phone":"856-461-6850","id":"a672kuej2s8p","address":"1303 Burlington Ave.","lat":40.05291,"libraryname":"Delanco","state":"NJ"},"type":"Feature","geometry":{"type":"Point","coordinates":[-74.948105,40.05291]}},{"properties":{"city":"Demarest","lon":-73.967613,"zip":7627,"librarysystem":"Bergen County Cooperative Library System","phone":"(201) 768-8714","id":"a672kuc27lq3","address":"90 Hardenburgh Avenue","lat":40.957508,"libraryname":"Demarest Public Library","state":"NJ"},"type":"Feature","geometry":{"type":"Point","coordinates":[-73.967613,40.957508]}},{"properties":{"city":"Newton","lon":-74.755622,"zip":7860,"librarysystem":"Sussex County Library System","phone":"Phone:  973-383-4810","id":"a672kueil3zf","address":"101 Main Street","lat":41.054299,"libraryname":"Dennis Branch","state":"NJ"},"type":"Feature","geometry":{"type":"Point","coordinates":[-74.755622,41.054299]}},{"properties":{"city":"Denville","lon":-74.473602,"zip":7834,"librarysystem":"Morris Automated Information Network","phone":"973-627-6555","id":"a672ku8pgs81","address":"121 Diamond Spring Rd","lat":40.895767,"libraryname":"Denville Public Library","state":"NJ"},"type":"Feature","geometry":{"type":"Point","coordinates":[-74.473602,40.895767]}},{"properties":{"city":"Dumont","lon":-73.993576,"zip":7628,"librarysystem":"Bergen County Cooperative Library System","phone":"201-384-2030","id":"a672kubk53pt","address":"180 Washington Ave","lat":40.941612,"libraryname":"Dixon Homestead Library","state":"NJ"},"type":"Feature","geometry":{"type":"Point","coordinates":[-73.993576,40.941612]}},{"properties":{"city":"Vernon","lon":-74.542694,"zip":7462,"librarysystem":"Sussex County Library System","phone":"Phone:  973-827-8095","id":"a672ku8ijp0r","address":"66 Route 94","lat":41.176929,"libraryname":"Dorothy Henry Branch","state":"NJ"},"type":"Feature","geometry":{"type":"Point","coordinates":[-74.542694,41.176929]}},{"properties":{"city":"Dover","lon":-74.557152,"zip":7801,"librarysystem":"Morris Automated Information Network","phone":"973-366-0172","id":"a672kum3kznc","address":"32 East Clinton St","lat":40.886517,"libraryname":"Dover Public Library","state":"NJ"},"type":"Feature","geometry":{"type":"Point","coordinates":[-74.557152,40.886517]}},{"properties":{"city":"Dunellen","lon":-74.461922,"zip":8812,"librarysystem":"Libraries of Middlesex Automation Consortium","phone":"Tel: (732) 968-4585","id":"a672kuj5r2tn","address":"100 New Market Road","lat":40.590725,"libraryname":"Dunellen Public Library Arnold A. Schwartz Memorial Library","state":"NJ"},"type":"Feature","geometry":{"type":"Point","coordinates":[-74.461922,40.590725]}},{"properties":{"city":"Totowa","lon":-74.218094,"zip":7512,"librarysystem":"TOTOWA PUBLIC LIBRARY","phone":"(973) 790-3265","id":"a672kud3e64a","address":"537 Totowa Road","lat":40.904053,"libraryname":"Dwight D. Eisenhower Library","state":"NJ"},"type":"Feature","geometry":{"type":"Point","coordinates":[-74.218094,40.904053]}},{"properties":{"city":"Elizabeth","lon":-74.191086,"zip":7202,"librarysystem":"Elizabeth Public Library","phone":"908-289-9032","id":"a672ku9n165s","address":"102-110 3rd ST","lat":40.652241,"libraryname":"E-Port Branch","state":"NJ"},"type":"Feature","geometry":{"type":"Point","coordinates":[-74.191086,40.652241]}},{"properties":{"city":"East Brunswick","lon":-74.420525,"zip":8816,"librarysystem":"East Brunswick Public Library","phone":"tel: 732.390.6950","id":"a672kunees5o","address":"2 Jean Walling Civic Center","lat":40.417931,"libraryname":"East Brunswick Public Library","state":"NJ"},"type":"Feature","geometry":{"type":"Point","coordinates":[-74.420525,40.417931]}},{"properties":{"city":"Mickleton","lon":-75.240868,"zip":8056,"librarysystem":"Gloucester County Library System","phone":"Phone: 856-423-1149","id":"a672kufmvb7v","address":"535 Kings Highway, PO Box 26","lat":39.788628,"libraryname":"East Greenwich Library","state":"NJ"},"type":"Feature","geometry":{"type":"Point","coordinates":[-75.240868,39.788628]}},{"properties":{"city":"East Hanover","lon":-74.360565,"zip":7936,"librarysystem":"Morris Automated Information Network","phone":"973-428-3075","id":"a672kunbg1mj","address":"415 Ridgedale Avenue","lat":40.825832,"libraryname":"East Hanover Public Library","state":"NJ"},"type":"Feature","geometry":{"type":"Point","coordinates":[-74.360565,40.825832]}},{"properties":{"city":"East Rutherford","lon":-74.098648,"zip":7073,"librarysystem":"Bergen County Cooperative Library System","phone":"(201) 939-3930","id":"a672ku7k02xf","address":"143 Boiling Springs Avenue","lat":40.832844,"libraryname":"East Rutherford Memorial Library","state":"NJ"},"type":"Feature","geometry":{"type":"Point","coordinates":[-74.098648,40.832844]}},{"properties":{"city":"East Rutherford","lon":-74.098648,"zip":7073,"librarysystem":"East Rutherford Memorial Library","phone":"(201) 939-3930","id":"a672kugccnbx","address":"143 Boiling Springs Avenue","lat":40.832844,"libraryname":"East Rutherford Memorial Library","state":"NJ"},"type":"Feature","geometry":{"type":"Point","coordinates":[-74.098648,40.832844]}},{"properties":{"city":"Trenton","lon":-74.742012,"zip":8638,"librarysystem":"Trenton Public Library","phone":"Phone: 609-392-7866","id":"a672kunim2e0","address":"701 N. Clinton Avenue","lat":40.23304,"libraryname":"East Trenton Branch","state":"NJ"},"type":"Feature","geometry":{"type":"Point","coordinates":[-74.742012,40.23304]}},{"properties":{"city":"Shrewsbury","lon":-74.062289,"zip":"07702-4398","librarysystem":"Monmouth County Library","phone":"Telephone: (732) 842-5995","id":"a672kucv4015","address":"1001 Route 35","lat":40.316978,"libraryname":"Eastern Branch","state":"NJ"},"type":"Feature","geometry":{"type":"Point","coordinates":[-74.062289,40.316978]}},{"properties":{"city":"Eatontown","lon":-74.058472,"zip":7724,"librarysystem":"Monmouth County Library","phone":"Telephone: (732)389-2665","id":"a672kufl8guj","address":"33 Broad Street","lat":40.305408,"libraryname":"Eatontown","state":"NJ"},"type":"Feature","geometry":{"type":"Point","coordinates":[-74.058472,40.305408]}},{"properties":{"city":"Edgewater","lon":-73.974037,"zip":7020,"librarysystem":"Bergen County Cooperative Library System","phone":"201-224-6144","id":"a672kuiwankv","address":"49 Hudson Avenue","lat":40.829552,"libraryname":"Edgewater Public Library","state":"NJ"},"type":"Feature","geometry":{"type":"Point","coordinates":[-73.974037,40.829552]}},{"properties":{"city":"Egg Harbor City","lon":-74.646927,"zip":8215,"librarysystem":"Atlantic County Library System","phone":"(609) 804-1063","id":"a672kuao2c1p","address":"134 Philadelphia Ave.","lat":39.52916,"libraryname":"Egg Harbor City Branch","state":"NJ"},"type":"Feature","geometry":{"type":"Point","coordinates":[-74.646927,39.52916]}},{"properties":{"city":"Egg Harbor Township","lon":-74.645287,"zip":8234,"librarysystem":"Atlantic County Library System","phone":"(609) 927-8664","id":"a672ku88nski","address":"1 Swift Ave.","lat":39.530769,"libraryname":"Egg Harbor Township Branch","state":"NJ"},"type":"Feature","geometry":{"type":"Point","coordinates":[-74.645287,39.530769]}},{"properties":{"city":"Long Branch","lon":-73.996124,"zip":7740,"librarysystem":"The Long Branch Free Public Library","phone":"732-870-1776","id":"a672kul1on6s","address":"168 Lincoln Ave","lat":40.265118,"libraryname":"Elberon Library","state":"NJ"},"type":"Feature","geometry":{"type":"Point","coordinates":[-73.996124,40.265118]}},{"properties":{"city":"Elmer","lon":-75.168579,"zip":8318,"librarysystem":"Cumberland County Library System","phone":"Phone: (856) 358-2014","id":"a672ku8dmvph","address":"116 S. Main St.","lat":39.593113,"libraryname":"Elmer Public Library","state":"NJ"},"type":"Feature","geometry":{"type":"Point","coordinates":[-75.168579,39.593113]}},{"properties":{"city":"Elizabeth","lon":-74.23608,"zip":7202,"librarysystem":"Elizabeth Public Library","phone":"(908- 353-4820","id":"a672kukv25pd","address":"740 W. Grand St.","lat":40.663817,"libraryname":"Elmora Branch","state":"NJ"},"type":"Feature","geometry":{"type":"Point","coordinates":[-74.23608,40.663817]}},{"properties":{"city":"East Orange","lon":-74.222243,"zip":"","librarysystem":"East Orange Public Library","phone":"973-266-7050","id":"a672kueumiw0","address":"317 S Clinton St","lat":40.755428,"libraryname":"Elmwood Branch","state":"NJ"},"type":"Feature","geometry":{"type":"Point","coordinates":[-74.222243,40.755428]}},{"properties":{"city":"Elmwood Park","lon":-74.119629,"zip":7407,"librarysystem":"Bergen County Cooperative Library System","phone":"Telephone: 201.796.8888","id":"a672kuftizx2","address":"210 Lee Street","lat":40.908192,"libraryname":"Elmwood Park Public Library","state":"NJ"},"type":"Feature","geometry":{"type":"Point","coordinates":[-74.119629,40.908192]}},{"properties":{"city":"Pompton Lakes","lon":-74.290916,"zip":7442,"librarysystem":"Free Public Library of the Borough of Pompton Lakes","phone":"973-835-0482","id":"a672kump5op7","address":"333 Wanaque Ave.","lat":41.002502,"libraryname":"Emanuel Einstein Memorial","state":"NJ"},"type":"Feature","geometry":{"type":"Point","coordinates":[-74.290916,41.002502]}},{"properties":{"city":"Emerson","lon":-74.026634,"zip":7630,"librarysystem":"Bergen County Cooperative Library System","phone":"201-261-5604","id":"a672kujvr10l","address":"20 Palisade Ave","lat":40.972847,"libraryname":"Emerson Public Library","state":"NJ"},"type":"Feature","geometry":{"type":"Point","coordinates":[-74.026634,40.972847]}},{"properties":{"city":"Englewood","lon":-73.972313,"zip":7631,"librarysystem":"Bergen County Cooperative Library System","phone":"(201)568-2215","id":"a672kuc0ppwg","address":"31 Engle St.","lat":40.893871,"libraryname":"Englewood Public Library","state":"NJ"},"type":"Feature","geometry":{"type":"Point","coordinates":[-73.972313,40.893871]}},{"properties":{"city":"Marlton","lon":-74.877151,"zip":8053,"librarysystem":"Burlington County Library System","phone":"Phone: 856-983-1444","id":"a672kume0jmc","address":"984 Tuckerton Road","lat":39.883175,"libraryname":"Evesham","state":"NJ"},"type":"Feature","geometry":{"type":"Point","coordinates":[-74.877151,39.883175]}},{"properties":{"city":"Ewing","lon":-74.800911,"zip":8628,"librarysystem":"The Mercer County Library System","phone":"Phone: (609) 882-3130","id":"a672kuc7nnva","address":"61 Scotch Road","lat":40.267513,"libraryname":"Ewing Branch Library","state":"NJ"},"type":"Feature","geometry":{"type":"Point","coordinates":[-74.800911,40.267513]}},{"properties":{"city":"Fords","lon":-74.317436,"zip":8863,"librarysystem":"Woodbridge Public Library","phone":"(732) 726-7071","id":"a672kumtsxvj","address":"211 Ford Avenue","lat":40.536804,"libraryname":"FORDS BRANCH","state":"NJ"},"type":"Feature","geometry":{"type":"Point","coordinates":[-74.317436,40.536804]}},{"properties":{"city":"Fair Haven","lon":-74.036003,"zip":7704,"librarysystem":"Monmouth County Library","phone":"Telephone: (732)747-5031","id":"a672kukxo7v4","address":"748 River Road","lat":40.364063,"libraryname":"Fair Haven","state":"NJ"},"type":"Feature","geometry":{"type":"Point","coordinates":[-74.036003,40.364063]}},{"properties":{"city":"Fairview","lon":-73.995773,"zip":7022,"librarysystem":"Bergen County Cooperative Library System","phone":"Phone: (201) 943-6244","id":"a672kuf8k486","address":"213 Anderson Ave.","lat":40.815674,"libraryname":"Fairview Free Public Library","state":"NJ"},"type":"Feature","geometry":{"type":"Point","coordinates":[-73.995773,40.815674]}},{"properties":{"city":"Fairview","lon":-73.995773,"zip":7022,"librarysystem":"Fairview Public Library","phone":"(201) 943-6244","id":"a672kuaqjyry","address":"213 Anderson Avenue","lat":40.815674,"libraryname":"Fairview Public Library","state":"NJ"},"type":"Feature","geometry":{"type":"Point","coordinates":[-73.995773,40.815674]}},{"properties":{"city":"Fanwood","lon":-74.38559,"zip":7023,"librarysystem":"Fanwood Memorial Library","phone":"Main: 908.3226400","id":"a672kulxhe77","address":"North Ave. &amp; Tillotson Rd.","lat":40.642248,"libraryname":"Fanwood Memorial Library","state":"NJ"},"type":"Feature","geometry":{"type":"Point","coordinates":[-74.38559,40.642248]}},{"properties":{"city":"Newark","lon":-74.185928,"zip":7107,"librarysystem":"The Newark Public Library","phone":"973-733-8091","id":"a672kujuesl2","address":"282 First Avenue","lat":40.768921,"libraryname":"First Avenue Branch","state":"NJ"},"type":"Feature","geometry":{"type":"Point","coordinates":[-74.185928,40.768921]}},{"properties":{"city":"Jersey City","lon":-74.059677,"zip":7306,"librarysystem":"Jersey City Free Public Library","phone":"Phone: (201) 547 - 4543","id":"a672kujrl8ig","address":"678 Newark Avenue","lat":40.735157,"libraryname":"Five Corners","state":"NJ"},"type":"Feature","geometry":{"type":"Point","coordinates":[-74.059677,40.735157]}},{"properties":{"city":"Flemington","lon":-74.858582,"zip":8822,"librarysystem":"Hunterdon County Library","phone":"Telephone: (908) 782-5733","id":"a672kucxni7a","address":"118 Main Street","lat":40.509113,"libraryname":"Flemington Free Public Library","state":"NJ"},"type":"Feature","geometry":{"type":"Point","coordinates":[-74.858582,40.509113]}},{"properties":{"city":"Roebling","lon":-74.779427,"zip":8554,"librarysystem":"Burlington County Library System","phone":"phone: 609-499-0143","id":"a672kum2c6iy","address":"1350 Hornberger Ave.","lat":40.116085,"libraryname":"Florence","state":"NJ"},"type":"Feature","geometry":{"type":"Point","coordinates":[-74.779427,40.116085]}},{"properties":{"city":"Florham Park","lon":-74.398796,"zip":7932,"librarysystem":"Morris Automated Information Network","phone":"973-377-2694","id":"a672kuf9315u","address":"107 Ridgedale Ave","lat":40.781662,"libraryname":"Florham Park Public Library","state":"NJ"},"type":"Feature","geometry":{"type":"Point","coordinates":[-74.398796,40.781662]}},{"properties":{"city":"Fort Lee","lon":-73.973129,"zip":7024,"librarysystem":"Bergen County Cooperative Library System","phone":"phone: 201-592-3615","id":"a672kumv51xi","address":"320 Main Street","lat":40.852467,"libraryname":"Fort Lee Public Library","state":"NJ"},"type":"Feature","geometry":{"type":"Point","coordinates":[-73.973129,40.852467]}},{"properties":{"city":"Franklin","lon":-74.586051,"zip":"","librarysystem":"Sussex County Library System","phone":"Phone:  973-827-6555","id":"a672ku8t8gy4","address":"103 Main Street","lat":41.121593,"libraryname":"Franklin Branch","state":"NJ"},"type":"Feature","geometry":{"type":"Point","coordinates":[-74.586051,41.121593]}},{"properties":{"city":"East Orange","lon":-74.209886,"zip":"","librarysystem":"East Orange Public Library","phone":"973-266-7053","id":"a672kujxjnam","address":"192 Dodd St","lat":40.781941,"libraryname":"Franklin Branch","state":"NJ"},"type":"Feature","geometry":{"type":"Point","coordinates":[-74.209886,40.781941]}},{"properties":{"city":"Franklin Lakes","lon":-74.199661,"zip":7417,"librarysystem":"Bergen County Cooperative Library System","phone":"201-891-2224","id":"a672kundihb2","address":"470 DeKorte Drive","lat":41.020065,"libraryname":"Franklin Lakes Public Library","state":"NJ"},"type":"Feature","geometry":{"type":"Point","coordinates":[-74.199661,41.020065]}},{"properties":{"city":"Somerset","lon":-74.522552,"zip":8873,"librarysystem":"Franklin Township Public Library","phone":"732-873-8700","id":"a672kuk5rt0w","address":"485 DeMott Lane","lat":40.498703,"libraryname":"Franklin Township Public Library","state":"NJ"},"type":"Feature","geometry":{"type":"Point","coordinates":[-74.522552,40.498703]}},{"properties":{"city":"Hasbrouck Heights","lon":-74.074776,"zip":7604,"librarysystem":"Bergen County Cooperative Library System","phone":"(201) 288-0484","id":"a672kudgpwuq","address":"320 Boulevard","lat":40.865093,"libraryname":"Free Public Library of Hasbrouck Heights","state":"NJ"},"type":"Feature","geometry":{"type":"Point","coordinates":[-74.074776,40.865093]}},{"properties":{"city":"Frenchtown","lon":-75.061462,"zip":8825,"librarysystem":"Hunterdon County Library","phone":"Telephone: (908) 996-4788","id":"a672kucu3eeo","address":"29 Second Street","lat":40.527496,"libraryname":"Frenchtown Public Library","state":"NJ"},"type":"Feature","geometry":{"type":"Point","coordinates":[-75.061462,40.527496]}},{"properties":{"city":"Galloway Township","lon":-74.501328,"zip":8205,"librarysystem":"Atlantic County Library System","phone":"(609) 652-2352","id":"a672kukbw69q","address":"306 E. Jimmie Leeds Rd.","lat":39.467693,"libraryname":"Galloway Township Branch","state":"NJ"},"type":"Feature","geometry":{"type":"Point","coordinates":[-74.501328,39.467693]}},{"properties":{"city":"Garfield","lon":-74.101082,"zip":7026,"librarysystem":"Bergen County Cooperative Library System","phone":"973-478-3800","id":"a672ku87ai4h","address":"500 Midland Avenue","lat":40.880775,"libraryname":"Garfield Public Library","state":"NJ"},"type":"Feature","geometry":{"type":"Point","coordinates":[-74.101082,40.880775]}},{"properties":{"city":"Glassboro","lon":-75.110741,"zip":8028,"librarysystem":"Gloucester County Library System","phone":"Phone: 856-881-0001","id":"a672kuhp2lv5","address":"2 Center Street","lat":39.702587,"libraryname":"Glassboro Public Library","state":"NJ"},"type":"Feature","geometry":{"type":"Point","coordinates":[-75.110741,39.702587]}},{"properties":{"city":"Glen Ridge","lon":-74.203766,"zip":7028,"librarysystem":"Bergen County Cooperative Library System","phone":"973-748-5482","id":"a672ku8blhzw","address":"240 Ridgewood Avenue","lat":40.801109,"libraryname":"Glen Ridge Free Public Library","state":"NJ"},"type":"Feature","geometry":{"type":"Point","coordinates":[-74.203766,40.801109]}},{"properties":{"city":"Glen Rock","lon":-74.126312,"zip":7452,"librarysystem":"Bergen County Cooperative Library System","phone":"(201) 670-3991","id":"a672kullbrz7","address":"315 Rock Road","lat":40.962475,"libraryname":"Glen Rock Public Library","state":"NJ"},"type":"Feature","geometry":{"type":"Point","coordinates":[-74.126312,40.962475]}},{"properties":{"city":"Gloucester City","lon":-75.118629,"zip":8030,"librarysystem":"Gloucester City Library","phone":"Phone 856-456-4181","id":"a672ku9a1o4f","address":"50 N. Railroad Ave.","lat":39.894299,"libraryname":"Gloucester City Library","state":"NJ"},"type":"Feature","geometry":{"type":"Point","coordinates":[-75.118629,39.894299]}},{"properties":{"city":"Blackwood","lon":-75.066566,"zip":8012,"librarysystem":"Camden County Library System","phone":"Phone: (856) 228-0022","id":"a672ku9mmrk8","address":"15 S. Black Horse Pike","lat":39.801746,"libraryname":"Gloucester Twp-Blackwood Rotary Public Library","state":"NJ"},"type":"Feature","geometry":{"type":"Point","coordinates":[-75.066566,39.801746]}},{"properties":{"city":"Jersey City","lon":-74.091148,"zip":7305,"librarysystem":"Jersey City Free Public Library","phone":"Phone: (201) 547 - 4553","id":"a672kukdpfoq","address":"1841 Kennedy Boulevard","lat":40.703068,"libraryname":"Greenville","state":"NJ"},"type":"Feature","geometry":{"type":"Point","coordinates":[-74.091148,40.703068]}},{"properties":{"city":"Gibbstown","lon":-75.265038,"zip":8027,"librarysystem":"Gloucester County Library System","phone":"Phone: 856-423-0684","id":"a672kucmn6cw","address":"411 Swedesboro Road","lat":39.818237,"libraryname":"Greenwich Township Branch","state":"NJ"},"type":"Feature","geometry":{"type":"Point","coordinates":[-75.265038,39.818237]}},{"properties":{"city":"Haddonfield","lon":-75.034577,"zip":"08033-2469","librarysystem":"HADDONFIELD PUBLIC LIBRARY","phone":"(856) 429-1304","id":"a672ku877jnw","address":"60 Haddon Avenue","lat":39.899116,"libraryname":"HADDONFIELD PUBLIC LIBRARY","state":"NJ"},"type":"Feature","geometry":{"type":"Point","coordinates":[-75.034577,39.899116]}},{"properties":{"city":"Colonia","lon":-74.328365,"zip":87067,"librarysystem":"Woodbridge Public Library","phone":"(732) 726-7072","id":"a672kui2016n","address":"607 Inman Avenue","lat":40.598506,"libraryname":"HENRY INMAN BRANCH","state":"NJ"},"type":"Feature","geometry":{"type":"Point","coordinates":[-74.328365,40.598506]}},{"properties":{"city":"Hackettstown","lon":-74.82798,"zip":7840,"librarysystem":"Hackettstown Free Public Library","phone":"(908) 852-4936","id":"a672kuj9he90","address":"110 Church Street","lat":40.852322,"libraryname":"Hackettstown Free Public Library","state":"NJ"},"type":"Feature","geometry":{"type":"Point","coordinates":[-74.82798,40.852322]}},{"properties":{"city":"Hammonton","lon":-74.809471,"zip":8037,"librarysystem":"Atlantic County Library System","phone":"(609) 561-2264","id":"a672kugyvzq5","address":"451 Egg Harbor Rd.","lat":39.638981,"libraryname":"Hammonton Branch","state":"NJ"},"type":"Feature","geometry":{"type":"Point","coordinates":[-74.809471,39.638981]}},{"properties":{"city":"New Vernon","lon":-74.493408,"zip":7976,"librarysystem":"Morris Automated Information Network","phone":"973-267-8000 - Ext. 132","id":"a672kub7uug5","address":"21 Blue Mill Road","lat":40.746887,"libraryname":"Harding Public Library","state":"NJ"},"type":"Feature","geometry":{"type":"Point","coordinates":[-74.493408,40.746887]}},{"properties":{"city":"Harrington Park","lon":-73.978195,"zip":7640,"librarysystem":"Bergen County Cooperative Library System","phone":"(201) 768-5675","id":"a672kufe2hny","address":"10 Herring Street","lat":40.987186,"libraryname":"Harrington Park Public Library","state":"NJ"},"type":"Feature","geometry":{"type":"Point","coordinates":[-73.978195,40.987186]}},{"properties":{"city":"Haworth","lon":-73.990952,"zip":7641,"librarysystem":"Bergen County Cooperative Library System","phone":"","id":"a672kuhrftq5","address":"300 Haworth Avenue","lat":40.960705,"libraryname":"Haworth Municipal Library","state":"NJ"},"type":"Feature","geometry":{"type":"Point","coordinates":[-73.990952,40.960705]}},{"properties":{"city":"Hazlet","lon":-74.176116,"zip":"07730-1942","librarysystem":"Monmouth County Library","phone":"Telephone: (732) 264-7164","id":"a672kukj4r49","address":"251 Middle Road","lat":40.42729,"libraryname":"Hazlet","state":"NJ"},"type":"Feature","geometry":{"type":"Point","coordinates":[-74.176116,40.42729]}},{"properties":{"city":"Manalapan","lon":-74.303821,"zip":"07726-3249","librarysystem":"Monmouth County Library","phone":"Telephone: (732) 431-7220","id":"a672kun45lo3","address":"125 Symmes Drive","lat":40.292483,"libraryname":"Headquarters","state":"NJ"},"type":"Feature","geometry":{"type":"Point","coordinates":[-74.303821,40.292483]}},{"properties":{"city":"Hibernia","lon":-74.49334,"zip":7842,"librarysystem":"Morris Automated Information Network","phone":"973-627-6872","id":"a672kuccac5t","address":"Green Pond Rd","lat":40.943665,"libraryname":"Hibernia Public Library (branch of Rockaway Twp. Public Library)","state":"NJ"},"type":"Feature","geometry":{"type":"Point","coordinates":[-74.49334,40.943665]}},{"properties":{"city":"East Windsor","lon":-74.55365,"zip":8520,"librarysystem":"The Mercer County Library System","phone":"Phone: (609) 448-1330","id":"a672kuitfu84","address":"138 Hickory Corner Road","lat":40.262215,"libraryname":"Hickory Corner Branch Library","state":"NJ"},"type":"Feature","geometry":{"type":"Point","coordinates":[-74.55365,40.262215]}},{"properties":{"city":"High Bridge","lon":-74.895752,"zip":8829,"librarysystem":"Hunterdon County Library","phone":"Telephone: (908) 638-8231","id":"a672ku9sj04k","address":"71 Main Street","lat":40.669056,"libraryname":"High Bridge Public Library","state":"NJ"},"type":"Feature","geometry":{"type":"Point","coordinates":[-74.895752,40.669056]}},{"properties":{"city":"Highland Park","lon":-74.424271,"zip":8904,"librarysystem":"Highland Park Public Library","phone":"(732) 572-2750","id":"a672kucvdiwt","address":"31 North 5th Ave.","lat":40.501652,"libraryname":"Highland Park Public Library","state":"NJ"},"type":"Feature","geometry":{"type":"Point","coordinates":[-74.424271,40.501652]}},{"properties":{"city":"Hightstown","lon":-74.521927,"zip":8520,"librarysystem":"The Mercer County Library System","phone":"Phone: (609) 448-1474","id":"a672kuj5gaqm","address":"114 Franklin Street","lat":40.270386,"libraryname":"Hightstown Memorial Library Branch","state":"NJ"},"type":"Feature","geometry":{"type":"Point","coordinates":[-74.521927,40.270386]}},{"properties":{"city":"Hillsborough","lon":-74.673157,"zip":8844,"librarysystem":"Somerset County Library System","phone":"(908) 369-2200","id":"a672kuhhw0ig","address":"379 South Branch Rd","lat":40.504894,"libraryname":"Hillsborough Library","state":"NJ"},"type":"Feature","geometry":{"type":"Point","coordinates":[-74.673157,40.504894]}},{"properties":{"city":"Hillsdale","lon":-74.045746,"zip":7642,"librarysystem":"Hillsdale Public Library","phone":"(201) 358-5072","id":"a672kua5exq1","address":"509 Hillsdale Avenue","lat":41.002541,"libraryname":"Hillsdale Public Library","state":"NJ"},"type":"Feature","geometry":{"type":"Point","coordinates":[-74.045746,41.002541]}},{"properties":{"city":"Hillsdale","lon":-74.045746,"zip":7642,"librarysystem":"Bergen County Cooperative Library System","phone":"201.358.5072","id":"a672ku78i2rr","address":"509 Hillsdale Avenue","lat":41.002541,"libraryname":"Hillsdale Public Library","state":"NJ"},"type":"Feature","geometry":{"type":"Point","coordinates":[-74.045746,41.002541]}},{"properties":{"city":"Hillside","lon":-74.229553,"zip":7205,"librarysystem":"Hillside Public Library","phone":"973.923.4413","id":"a672kumzobfi","address":"Hillside &amp; Liberty Avenues","lat":40.701204,"libraryname":"Hillside Public Library","state":"NJ"},"type":"Feature","geometry":{"type":"Point","coordinates":[-74.229553,40.701204]}},{"properties":{"city":"Maplewood","lon":-74.260948,"zip":7040,"librarysystem":"Maplewood Memorial Library","phone":"973-762-1688","id":"a672kulwl4p8","address":"1688 Springfield Avenue","lat":40.722084,"libraryname":"Hilton Branch","state":"NJ"},"type":"Feature","geometry":{"type":"Point","coordinates":[-74.260948,40.722084]}},{"properties":{"city":"Hoboken","lon":-74.032265,"zip":7030,"librarysystem":"Bergen County Cooperative Library System","phone":"(201) 420-2280","id":"a672kumoq16d","address":"500 Park Avenue","lat":40.74279,"libraryname":"Hoboken Public Library","state":"NJ"},"type":"Feature","geometry":{"type":"Point","coordinates":[-74.032265,40.74279]}},{"properties":{"city":"Milford","lon":-75.105972,"zip":8848,"librarysystem":"Hunterdon County Library","phone":"Telephone: (908) 995-4767","id":"a672kug9qcj2","address":"129 Spring Mills Road","lat":40.596291,"libraryname":"Holland Alexandria Free Public Library","state":"NJ"},"type":"Feature","geometry":{"type":"Point","coordinates":[-75.105972,40.596291]}},{"properties":{"city":"Trenton","lon":-74.759361,"zip":8638,"librarysystem":"The Mercer County Library System","phone":"Phone: (609) 883-5914","id":"a672kugywoho","address":"320 Hollowbrook Drive","lat":40.21777,"libraryname":"Hollowbrook Branch Library","state":"NJ"},"type":"Feature","geometry":{"type":"Point","coordinates":[-74.759361,40.21777]}},{"properties":{"city":"Holmdel","lon":-74.187329,"zip":"07733-1908","librarysystem":"Monmouth County Library","phone":"Telephone: (732) 946-4118","id":"a672kul7fa8z","address":"4 Crawfords Corner Road","lat":40.384376,"libraryname":"Holmdel","state":"NJ"},"type":"Feature","geometry":{"type":"Point","coordinates":[-74.187329,40.384376]}},{"properties":{"city":"Pennington","lon":-74.802635,"zip":8534,"librarysystem":"The Mercer County Library System","phone":"Phone: (609) 737-2610","id":"a672kulkynw4","address":"245 Pennington-Titusville Road","lat":40.327072,"libraryname":"Hopewell Branch Library","state":"NJ"},"type":"Feature","geometry":{"type":"Point","coordinates":[-74.802635,40.327072]}},{"properties":{"city":"Howell","lon":-74.181931,"zip":"07731 -8812","librarysystem":"Monmouth County Library","phone":"Telephone: (732) 938-2300","id":"a672ku9u8x5s","address":"318 Old Tavern Road","lat":40.171932,"libraryname":"Howell","state":"NJ"},"type":"Feature","geometry":{"type":"Point","coordinates":[-74.181931,40.171932]}},{"properties":{"city":"Flemington","lon":-74.896851,"zip":8822,"librarysystem":"Hunterdon County Library","phone":"Main phone: (908) 788-1444; Reference: (908) 788-1434","id":"a672kun3bvsp","address":"314 State Route 12, Bldg. #3","lat":40.504295,"libraryname":"Hunterdon County Library Headquarters","state":"NJ"},"type":"Feature","geometry":{"type":"Point","coordinates":[-74.896851,40.504295]}},{"properties":{"city":"Iselin","lon":-74.313683,"zip":8830,"librarysystem":"Woodbridge Public Library","phone":"(732) 726-7073","id":"a672kudgh2uk","address":"1081 Green Street","lat":40.571377,"libraryname":"ISELIN BRANCH","state":"NJ"},"type":"Feature","geometry":{"type":"Point","coordinates":[-74.313683,40.571377]}},{"properties":{"city":"Interlaken","lon":-74.010658,"zip":7712,"librarysystem":"Monmouth County Library","phone":"Telephone: (732)531-7405","id":"a672kugtp7is","address":"100 Grassmere Avenue","lat":40.232491,"libraryname":"Interlaken","state":"NJ"},"type":"Feature","geometry":{"type":"Point","coordinates":[-74.010658,40.232491]}},{"properties":{"city":"Irvington","lon":-74.233864,"zip":7111,"librarysystem":"Irvington Public Library","phone":"Phone: 973-372-6400","id":"a672kudpzotr","address":"Civic Square","lat":40.727188,"libraryname":"Irvington Public Library","state":"NJ"},"type":"Feature","geometry":{"type":"Point","coordinates":[-74.233864,40.727188]}},{"properties":{"city":"Island Heights","lon":-74.149666,"zip":8732,"librarysystem":"Ocean County Library","phone":"Phone: (732) 270-6266","id":"a672ku9raajz","address":"Summit and Central Ave.","lat":39.943751,"libraryname":"Island Heights Branch","state":"NJ"},"type":"Feature","geometry":{"type":"Point","coordinates":[-74.149666,39.943751]}},{"properties":{"city":"Jackson","lon":-74.357635,"zip":8527,"librarysystem":"Ocean County Library","phone":"Phone: (732) 928-4400","id":"a672kuiqngmp","address":"2 Jackson Drive","lat":40.111408,"libraryname":"Jackson Branch","state":"NJ"},"type":"Feature","geometry":{"type":"Point","coordinates":[-74.357635,40.111408]}},{"properties":{"city":"Jamesburg","lon":-74.441574,"zip":8831,"librarysystem":"Libraries of Middlesex Automation Consortium","phone":"Phone Number: (732) 521-0440","id":"a672kua55ocb","address":"229 Gatzmer Avenue","lat":40.352142,"libraryname":"Jamesburg Library","state":"NJ"},"type":"Feature","geometry":{"type":"Point","coordinates":[-74.441574,40.352142]}},{"properties":{"city":"Oak Ridge","lon":-74.548553,"zip":7438,"librarysystem":"Morris Automated Information Network","phone":"973-208-6115","id":"a672ku96g52c","address":"1031 Weldon Rd","lat":41.019173,"libraryname":"Jefferson Township Public Library","state":"NJ"},"type":"Feature","geometry":{"type":"Point","coordinates":[-74.548553,41.019173]}},{"properties":{"city":"Piscataway","lon":-74.471474,"zip":8854,"librarysystem":"Piscataway Public Library","phone":"732-752-1166","id":"a672kuarg8bb","address":"20 Murray Avenue","lat":40.539249,"libraryname":"Johanna Westergard Branch Library","state":"NJ"},"type":"Feature","geometry":{"type":"Point","coordinates":[-74.471474,40.539249]}},{"properties":{"city":"Piscataway","lon":-74.470932,"zip":8854,"librarysystem":"Piscataway Public Library","phone":"732-463-1633","id":"a672kub2w84i","address":"500 Hoes Lane","lat":40.536835,"libraryname":"John F. Kennedy Library","state":"NJ"},"type":"Feature","geometry":{"type":"Point","coordinates":[-74.470932,40.536835]}},{"properties":{"city":"Hackensack","lon":-74.041206,"zip":7601,"librarysystem":"Bergen County Cooperative Library System","phone":"(201) 343-4169","id":"a672kuf4c04q","address":"274 Main Street","lat":40.88681,"libraryname":"Johnson Public Library","state":"NJ"},"type":"Feature","geometry":{"type":"Point","coordinates":[-74.041206,40.88681]}},{"properties":{"city":"Keansburg","lon":-74.125511,"zip":7734,"librarysystem":"Monmouth County Library","phone":"Telephone: (732)787-0636","id":"a672kue35083","address":"55 Shore Boulevard","lat":40.449692,"libraryname":"Keansburg","state":"NJ"},"type":"Feature","geometry":{"type":"Point","coordinates":[-74.125511,40.449692]}},{"properties":{"city":"Kearny","lon":-74.141518,"zip":7032,"librarysystem":"Kearny Public Library","phone":"201-955-7988","id":"a672kujsp1rw","address":"759 Kearny Ave","lat":40.778072,"libraryname":"Kearny Branch Library","state":"NJ"},"type":"Feature","geometry":{"type":"Point","coordinates":[-74.141518,40.778072]}},{"properties":{"city":"Kearny","lon":-74.149887,"zip":7032,"librarysystem":"Kearny Public Library","phone":"201-998-2666","id":"a672kuh0dhex","address":"318 Kearny Ave","lat":40.761909,"libraryname":"Kearny Public Library","state":"NJ"},"type":"Feature","geometry":{"type":"Point","coordinates":[-74.149887,40.761909]}},{"properties":{"city":"Kenilworth","lon":-74.29007,"zip":7033,"librarysystem":"Libraries of Middlesex Automation Consortium","phone":"Phone: (908) 276-2451","id":"a672kum62beg","address":"548 Kenilworth Boulevard","lat":40.676319,"libraryname":"Kenilworth Public Library","state":"NJ"},"type":"Feature","geometry":{"type":"Point","coordinates":[-74.29007,40.676319]}},{"properties":{"city":"Kinnelon","lon":-74.37664,"zip":7405,"librarysystem":"Morris Automated Information Network","phone":"973-838-1321","id":"a672kugci80y","address":"132 Kinnelon Rd","lat":40.99828,"libraryname":"Kinnelon Public Library","state":"NJ"},"type":"Feature","geometry":{"type":"Point","coordinates":[-74.37664,40.99828]}},{"properties":{"city":"Elizabeth","lon":-74.206352,"zip":7202,"librarysystem":"Elizabeth Public Library","phone":"(908-820-4298","id":"a672kugchorq","address":"408 Palmer St.","lat":40.653332,"libraryname":"LaCorte Branch","state":"NJ"},"type":"Feature","geometry":{"type":"Point","coordinates":[-74.206352,40.653332]}},{"properties":{"city":"Forked River","lon":-74.190437,"zip":8731,"librarysystem":"Ocean County Library","phone":"Phone: (609) 693-8566","id":"a672kuib8p8p","address":"10 East Lacey Rd.","lat":39.839191,"libraryname":"Lacey Branch","state":"NJ"},"type":"Feature","geometry":{"type":"Point","coordinates":[-74.190437,39.839191]}},{"properties":{"city":"Jersey City","lon":-74.062553,"zip":7304,"librarysystem":"Jersey City Free Public Library","phone":"Phone: (201) 547 - 5017","id":"a672kulx0fes","address":"307 Pacific Avenue","lat":40.711666,"libraryname":"Lafayette","state":"NJ"},"type":"Feature","geometry":{"type":"Point","coordinates":[-74.062553,40.711666]}},{"properties":{"city":"Lake Hiawatha","lon":-74.381088,"zip":7034,"librarysystem":"Morris Automated Information Network","phone":"973-335-0952","id":"a672ku8t7v7m","address":"68 Nokomis Ave","lat":40.881042,"libraryname":"Lake Hiawatha Public Library (Branch of Par-Troy Public Library)","state":"NJ"},"type":"Feature","geometry":{"type":"Point","coordinates":[-74.381088,40.881042]}},{"properties":{"city":"Lakewood","lon":-74.212204,"zip":8701,"librarysystem":"Ocean County Library","phone":"Phone: (732) 363-1435","id":"a672kulp2bs1","address":"301 Lexington Ave.","lat":40.093536,"libraryname":"Lakewood Branch","state":"NJ"},"type":"Feature","geometry":{"type":"Point","coordinates":[-74.212204,40.093536]}},{"properties":{"city":"Lambertville","lon":-74.942543,"zip":8530,"librarysystem":"Hunterdon County Library","phone":"Telephone: (609) 397-0275","id":"a672kukaczkw","address":"6 Lilly Street","lat":40.365608,"libraryname":"Lambertville Free Public Library","state":"NJ"},"type":"Feature","geometry":{"type":"Point","coordinates":[-74.942543,40.365608]}},{"properties":{"city":"Laurence Harbor","lon":-74.246948,"zip":8879,"librarysystem":"Old Bridge Public Library","phone":"(732) 566-2227","id":"a672kukvma8w","address":"277 Shoreland Circle","lat":40.458035,"libraryname":"Laurence Harbor Library","state":"NJ"},"type":"Feature","geometry":{"type":"Point","coordinates":[-74.246948,40.458035]}},{"properties":{"city":"Lawrenceville","lon":-74.717484,"zip":8648,"librarysystem":"The Mercer County Library System","phone":"Phone: (609) 882-9246","id":"a672kun14il8","address":"2751 Brunswick Pike","lat":40.265984,"libraryname":"Lawrence Headquarters Branch","state":"NJ"},"type":"Feature","geometry":{"type":"Point","coordinates":[-74.717484,40.265984]}},{"properties":{"city":"Allendale","lon":-74.138527,"zip":7401,"librarysystem":"Bergen County Cooperative Library System","phone":"201-327-4338","id":"a672ku9nutwk","address":"500 W.Crescent Ave","lat":41.028893,"libraryname":"Lee Memorial Library","state":"NJ"},"type":"Feature","geometry":{"type":"Point","coordinates":[-74.138527,41.028893]}},{"properties":{"city":"Leonia","lon":-73.988724,"zip":7605,"librarysystem":"Bergen County Cooperative Library System","phone":"201-592-5773","id":"a672ku9ui508","address":"227 Fort Lee Road","lat":40.862392,"libraryname":"Leonia Public Library","state":"NJ"},"type":"Feature","geometry":{"type":"Point","coordinates":[-73.988724,40.862392]}},{"properties":{"city":"Chatham","lon":-74.380898,"zip":7928,"librarysystem":"Morris Automated Information Network","phone":"973-635-0603","id":"a672kukqqy1l","address":"214 Main St","lat":40.740391,"libraryname":"Library of the Chathams","state":"NJ"},"type":"Feature","geometry":{"type":"Point","coordinates":[-74.380898,40.740391]}},{"properties":{"city":"Lincoln Park","lon":-74.304886,"zip":7035,"librarysystem":"Morris Automated Information Network","phone":"973-694-8283","id":"a672ku8cyww2","address":"12 Boonton Turnpike","lat":40.922092,"libraryname":"Lincoln Park Public Library","state":"NJ"},"type":"Feature","geometry":{"type":"Point","coordinates":[-74.304886,40.922092]}},{"properties":{"city":"Linden","lon":-74.258347,"zip":7036,"librarysystem":"Linden Free Public Library","phone":"(908) 298-3830","id":"a672kuabov3i","address":"31 East Henry Street","lat":40.634216,"libraryname":"Linden Free Public Library","state":"NJ"},"type":"Feature","geometry":{"type":"Point","coordinates":[-74.258347,40.634216]}},{"properties":{"city":"Little Egg Harbor","lon":-74.373764,"zip":8087,"librarysystem":"Ocean County Library","phone":"Phone: (609) 294-1197","id":"a672kulkxnvl","address":"290 Mathistown Rd.","lat":39.585178,"libraryname":"Little Egg Harbor Branch","state":"NJ"},"type":"Feature","geometry":{"type":"Point","coordinates":[-74.373764,39.585178]}},{"properties":{"city":"Little Ferry","lon":-74.0439,"zip":7643,"librarysystem":"Bergen County Cooperative Library System","phone":"(201) 641-3721","id":"a672ku7pjn1x","address":"239 Liberty Street","lat":40.851334,"libraryname":"Little Ferry Public Library","state":"NJ"},"type":"Feature","geometry":{"type":"Point","coordinates":[-74.0439,40.851334]}},{"properties":{"city":"Little Silver","lon":-74.042053,"zip":7739,"librarysystem":"Monmouth County Library","phone":"Telephone: (732)747-9649","id":"a672kuagsnps","address":"484 Prospect Avenue","lat":40.338924,"libraryname":"Little Silver","state":"NJ"},"type":"Feature","geometry":{"type":"Point","coordinates":[-74.042053,40.338924]}},{"properties":{"city":"Livingston","lon":-74.319611,"zip":7039,"librarysystem":"Bergen County Cooperative Library System","phone":"(973) 992-4600","id":"a672kuai3auu","address":"10 Robert Harp Drive","lat":40.782906,"libraryname":"Livingston Public Library","state":"NJ"},"type":"Feature","geometry":{"type":"Point","coordinates":[-74.319611,40.782906]}},{"properties":{"city":"LODI","lon":-74.084991,"zip":7644,"librarysystem":"Bergen County Cooperative Library System","phone":"Phone: (973) 365-4044","id":"a672kugbsyyn","address":"1 MEMORIAL DRIVE","lat":40.877457,"libraryname":"Lodi Memorial Library","state":"NJ"},"type":"Feature","geometry":{"type":"Point","coordinates":[-74.084991,40.877457]}},{"properties":{"city":"Logan Twp.","lon":-75.353012,"zip":8085,"librarysystem":"Gloucester County Library System","phone":"Phone: 856-241-0202","id":"a672kuet81b9","address":"498 Beckett Road","lat":39.761765,"libraryname":"Logan Township Branch","state":"NJ"},"type":"Feature","geometry":{"type":"Point","coordinates":[-75.353012,39.761765]}},{"properties":{"city":"Surf City","lon":-74.173935,"zip":8008,"librarysystem":"Ocean County Library","phone":"Phone: (609) 494-2480","id":"a672kug6q6v1","address":"217 S. Central Ave.","lat":39.654022,"libraryname":"Long Beach Island Branch","state":"NJ"},"type":"Feature","geometry":{"type":"Point","coordinates":[-74.173935,39.654022]}},{"properties":{"city":"Gillette","lon":-74.478203,"zip":7933,"librarysystem":"Morris Automated Information Network","phone":"908-647-2088","id":"a672kugxtx99","address":"917 Valley Road","lat":40.670158,"libraryname":"Long Hill Township Public Library","state":"NJ"},"type":"Feature","geometry":{"type":"Point","coordinates":[-74.478203,40.670158]}},{"properties":{"city":"Hawthorne","lon":-74.155144,"zip":7506,"librarysystem":"Bergen County Cooperative Library System","phone":"Telephone: (973) 427-5745","id":"a672kua84o2s","address":"345 Lafayette Avenue","lat":40.950024,"libraryname":"Louis Bay 2nd Library","state":"NJ"},"type":"Feature","geometry":{"type":"Point","coordinates":[-74.155144,40.950024]}},{"properties":{"city":"Stanhope","lon":-74.695597,"zip":"","librarysystem":"Sussex County Library System","phone":"Phone:  973-770-1000","id":"a672ku9vv2r0","address":"21 Sparta Road","lat":40.917961,"libraryname":"Louise Childs Branch","state":"NJ"},"type":"Feature","geometry":{"type":"Point","coordinates":[-74.695597,40.917961]}},{"properties":{"city":"Villas","lon":-74.939194,"zip":8251,"librarysystem":"Cape May County Library","phone":"609-886-8999","id":"a672kuba29es","address":"2600 Bayshore Road","lat":39.010666,"libraryname":"Lower Township","state":"NJ"},"type":"Feature","geometry":{"type":"Point","coordinates":[-74.939194,39.010666]}},{"properties":{"city":"Lyndhurst","lon":-74.124626,"zip":7071,"librarysystem":"Lyndhurst Public Library","phone":"(201) 804-2478","id":"a672kul3htf7","address":"355 Valley Brook Avenue","lat":40.812237,"libraryname":"Lyndhurst Public Library","state":"NJ"},"type":"Feature","geometry":{"type":"Point","coordinates":[-74.124626,40.812237]}},{"properties":{"city":"Lyndhurst","lon":-74.124626,"zip":7071,"librarysystem":"Bergen County Cooperative Library System","phone":"201-804-2478","id":"a672kuedhw6l","address":"355 Valley Brook Avenue","lat":40.812237,"libraryname":"Lyndhurst Public Library","state":"NJ"},"type":"Feature","geometry":{"type":"Point","coordinates":[-74.124626,40.812237]}},{"properties":{"city":"Voorhees","lon":-75.002922,"zip":8043,"librarysystem":"Camden County Library System","phone":"Phone: (856) 772-1636","id":"a672ku7gn692","address":"203 Laurel Road","lat":39.847878,"libraryname":"M. Allan Vogelson Regional Branch Library","state":"NJ"},"type":"Feature","geometry":{"type":"Point","coordinates":[-75.002922,39.847878]}},{"properties":{"city":"Woodbridge","lon":-74.288169,"zip":"07095-2598","librarysystem":"Woodbridge Public Library","phone":"732-634-4450","id":"a672kumfvqo2","address":"George Frederick Plaza","lat":40.566765,"libraryname":"MAIN LIBRARY","state":"NJ"},"type":"Feature","geometry":{"type":"Point","coordinates":[-74.288169,40.566765]}},{"properties":{"city":"Matawan","lon":-74.230461,"zip":7747,"librarysystem":"Libraries of Middlesex Automation Consortium","phone":"Tel: (732) 583-9100","id":"a672ku8lwe1t","address":"165 Main Street","lat":40.413372,"libraryname":"MATAWAN ABERDEEN PUBLIC LIBRARY","state":"NJ"},"type":"Feature","geometry":{"type":"Point","coordinates":[-74.230461,40.413372]}},{"properties":{"city":"Metuchen","lon":-74.361707,"zip":"08840-1457","librarysystem":"METUCHEN LIBRARY","phone":"Tel: (732) 632-8526","id":"a672kujit7yp","address":"480 Middlesex Avenue","lat":40.5445,"libraryname":"METUCHEN LIBRARY","state":"NJ"},"type":"Feature","geometry":{"type":"Point","coordinates":[-74.361707,40.5445]}},{"properties":{"city":"Metuchen","lon":-74.361707,"zip":"08840-1457","librarysystem":"Libraries of Middlesex Automation Consortium","phone":"Tel: (732) 632-8526","id":"a672kudu3168","address":"480 Middlesex Avenue","lat":40.5445,"libraryname":"METUCHEN LIBRARY","state":"NJ"},"type":"Feature","geometry":{"type":"Point","coordinates":[-74.361707,40.5445]}},{"properties":{"city":"Montvale","lon":-74.061935,"zip":7645,"librarysystem":"Bergen County Cooperative Library System","phone":"Telephone:  (201) 391-5090","id":"a672kuaualnt","address":"12 Mercedes Dr.","lat":41.050137,"libraryname":"MONTVALE PUBLIC LIBRARY","state":"NJ"},"type":"Feature","geometry":{"type":"Point","coordinates":[-74.061935,41.050137]}},{"properties":{"city":"Newark","lon":-74.213783,"zip":7108,"librarysystem":"The Newark Public Library","phone":"973-733-8090","id":"a672kuklybaj","address":"790 Clinton Avenue","lat":40.723076,"libraryname":"Madison Branch","state":"NJ"},"type":"Feature","geometry":{"type":"Point","coordinates":[-74.213783,40.723076]}},{"properties":{"city":"Madison","lon":-74.41378,"zip":7940,"librarysystem":"Morris Automated Information Network","phone":"973-377-0722","id":"a672kuiss6ia","address":"39 Keep St","lat":40.753666,"libraryname":"Madison Public Library","state":"NJ"},"type":"Feature","geometry":{"type":"Point","coordinates":[-74.41378,40.753666]}},{"properties":{"city":"Mahwah","lon":-74.158592,"zip":7430,"librarysystem":"Bergen County Cooperative Library System","phone":"Phone: 201-529-READ (7323)","id":"a672kujktgd1","address":"100 Ridge Road","lat":41.088844,"libraryname":"Mahwah Public Library","state":"NJ"},"type":"Feature","geometry":{"type":"Point","coordinates":[-74.158592,41.088844]}},{"properties":{"city":"Bayonne","lon":-74.115349,"zip":7002,"librarysystem":"Free Public Library &amp; Cultural Center of Bayonne","phone":"(201) 858-6970","id":"a672kulq5who","address":"697 Avenue C (Corner of 31st Street)","lat":40.671478,"libraryname":"Main Branch","state":"NJ"},"type":"Feature","geometry":{"type":"Point","coordinates":[-74.115349,40.671478]}},{"properties":{"city":"Elizabeth","lon":-96.440819,"zip":7202,"librarysystem":"Elizabeth Public Library","phone":"(908)-354-6060","id":"a672kukk4oht","address":"11 South Broad St.","lat":40.965099,"libraryname":"Main Branch","state":"NJ"},"type":"Feature","geometry":{"type":"Point","coordinates":[-96.440819,40.965099]}},{"properties":{"city":"Jersey City","lon":-74.047569,"zip":7302,"librarysystem":"Jersey City Free Public Library","phone":"Phone: (201) 547 - 4500","id":"a672kuatew99","address":"472 Jersey Avenue","lat":40.71867,"libraryname":"Main Library","state":"NJ"},"type":"Feature","geometry":{"type":"Point","coordinates":[-74.047569,40.71867]}},{"properties":{"city":"Long Branch","lon":-73.993309,"zip":7740,"librarysystem":"The Long Branch Free Public Library","phone":"732-222-3900","id":"a672kueoktkd","address":"328 Broadway","lat":40.303646,"libraryname":"Main Library","state":"NJ"},"type":"Feature","geometry":{"type":"Point","coordinates":[-73.993309,40.303646]}},{"properties":{"city":"Newton","lon":-74.754539,"zip":7860,"librarysystem":"Sussex County Library System","phone":"Phone: 973-948-3660","id":"a672kudmbyg2","address":"125 Morris Turnpike","lat":41.122978,"libraryname":"Main Library","state":"NJ"},"type":"Feature","geometry":{"type":"Point","coordinates":[-74.754539,41.122978]}},{"properties":{"city":"Trenton","lon":-74.76387,"zip":8608,"librarysystem":"Trenton Public Library","phone":"Phone: 609-392-7188","id":"a672ku9awr1q","address":"120 Academy Street","lat":40.222038,"libraryname":"Main Library","state":"NJ"},"type":"Feature","geometry":{"type":"Point","coordinates":[-74.76387,40.222038]}},{"properties":{"city":"Newark","lon":-74.170097,"zip":7102,"librarysystem":"The Newark Public Library","phone":"973-733-7784","id":"a672ku9epyk3","address":"5 Washington Street","lat":40.74453,"libraryname":"Main Library","state":"NJ"},"type":"Feature","geometry":{"type":"Point","coordinates":[-74.170097,40.74453]}},{"properties":{"city":"East Orange","lon":-74.211845,"zip":7018,"librarysystem":"East Orange Public Library","phone":"Phone: (973) 266-5600","id":"a672kuchahd0","address":"21 S. Arlington Ave.","lat":40.759842,"libraryname":"Main Library","state":"NJ"},"type":"Feature","geometry":{"type":"Point","coordinates":[-74.211845,40.759842]}},{"properties":{"city":"Edison","lon":-74.407883,"zip":8817,"librarysystem":"Edison Public Library","phone":"(732) 287-2298","id":"a672kufg39yt","address":"340 Plainfield Avenue","lat":40.517635,"libraryname":"Main Library","state":"NJ"},"type":"Feature","geometry":{"type":"Point","coordinates":[-74.407883,40.517635]}},{"properties":{"city":"Cape May Court House","lon":-74.82428,"zip":8210,"librarysystem":"Cape May County Library","phone":"609-463-6350","id":"a672kuali4bl","address":"30 Mechanic Street","lat":39.082779,"libraryname":"Main Library","state":"NJ"},"type":"Feature","geometry":{"type":"Point","coordinates":[-74.82428,39.082779]}},{"properties":{"city":"Wayne","lon":-74.231285,"zip":7470,"librarysystem":"Wayne Public Library","phone":"973-694-4272","id":"a672ku9igzhu","address":"461 Valley Road","lat":40.927032,"libraryname":"Main Library","state":"NJ"},"type":"Feature","geometry":{"type":"Point","coordinates":[-74.231285,40.927032]}},{"properties":{"city":"Atlantic City","lon":-74.427948,"zip":8401,"librarysystem":"Atlantic City Free Public Library","phone":"(609) 345-2269","id":"a672kuh49bb2","address":"1 North Tennessee Avenue","lat":39.362274,"libraryname":"Main Library","state":"NJ"},"type":"Feature","geometry":{"type":"Point","coordinates":[-74.427948,39.362274]}},{"properties":{"city":"Maplewood","lon":-74.275955,"zip":7040,"librarysystem":"Maplewood Memorial Library","phone":"Adult Department - 973-762-1622","id":"a672kui6aoxq","address":"51 Baker Street","lat":40.729454,"libraryname":"Main Library","state":"NJ"},"type":"Feature","geometry":{"type":"Point","coordinates":[-74.275955,40.729454]}},{"properties":{"city":"Manasquan","lon":-74.050354,"zip":8736,"librarysystem":"Monmouth County Library","phone":"Telephone: (732)223-1503","id":"a672ku8ab6pe","address":"55 Broad Street","lat":40.125385,"libraryname":"Manasquan","state":"NJ"},"type":"Feature","geometry":{"type":"Point","coordinates":[-74.050354,40.125385]}},{"properties":{"city":"Manchester","lon":-72.506424,"zip":8759,"librarysystem":"Ocean County Library","phone":"Phone: (732) 657-7600","id":"a672kul7101t","address":"21 Colonial Dr.","lat":41.796421,"libraryname":"Manchester Branch","state":"NJ"},"type":"Feature","geometry":{"type":"Point","coordinates":[-72.506424,41.796421]}},{"properties":{"city":"Manville","lon":-74.595184,"zip":8835,"librarysystem":"Libraries of Middlesex Automation Consortium","phone":"Tel: 908-722-9722","id":"a672kuk2xk7l","address":"100 South 10th Avenue","lat":40.540989,"libraryname":"Manville Public Library","state":"NJ"},"type":"Feature","geometry":{"type":"Point","coordinates":[-74.595184,40.540989]}},{"properties":{"city":"Maple Shade","lon":-74.996147,"zip":8052,"librarysystem":"Burlington County Library System","phone":"Phone: 856-779-9767","id":"a672kubghnf5","address":"200 Stiles Avenue","lat":39.95982,"libraryname":"Maple Shade","state":"NJ"},"type":"Feature","geometry":{"type":"Point","coordinates":[-74.996147,39.95982]}},{"properties":{"city":"Hurffville","lon":-75.107948,"zip":8080,"librarysystem":"Margaret E. Heggan Free Public Library","phone":"Phone: 856-589-3334","id":"a672kudgg1s8","address":"208 East Holly Avenue","lat":39.76207,"libraryname":"Margaret E. Heggan Free Public Library","state":"NJ"},"type":"Feature","geometry":{"type":"Point","coordinates":[-75.107948,39.76207]}},{"properties":{"city":"Margate","lon":-74.499069,"zip":8402,"librarysystem":"Margate Public Library","phone":"609-822-4700","id":"a672kua8s1is","address":"8100 Atlantic Ave","lat":39.328018,"libraryname":"Margate Public Library","state":"NJ"},"type":"Feature","geometry":{"type":"Point","coordinates":[-74.499069,39.328018]}},{"properties":{"city":"Jersey City","lon":-74.071701,"zip":7306,"librarysystem":"Jersey City Free Public Library","phone":"Phone: (201) 547 - 4552","id":"a672kuepcv5x","address":"1017 West Side Avenue","lat":40.734135,"libraryname":"Marion","state":"NJ"},"type":"Feature","geometry":{"type":"Point","coordinates":[-74.071701,40.734135]}},{"properties":{"city":"Marlboro","lon":-74.262488,"zip":"07746-1184","librarysystem":"Monmouth County Library","phone":"Telephone: (732) 536-9406","id":"a672kug4ob9z","address":"1 Library Ct &amp; Wyncrest Dr.","lat":40.330596,"libraryname":"Marlboro","state":"NJ"},"type":"Feature","geometry":{"type":"Point","coordinates":[-74.262488,40.330596]}},{"properties":{"city":"Rocky Hill","lon":-74.639771,"zip":8553,"librarysystem":"Somerset County Library System","phone":"(609) 924-7073","id":"a672kug14kw4","address":"64 Washington St.","lat":40.401096,"libraryname":"Mary Jacobs Memorial Library","state":"NJ"},"type":"Feature","geometry":{"type":"Point","coordinates":[-74.639771,40.401096]}},{"properties":{"city":"Fair Lawn","lon":-74.131561,"zip":7410,"librarysystem":"Bergen County Cooperative Library System","phone":"(201)796-3400","id":"a672kulzl00p","address":"10-01 Fair Lawn Ave","lat":40.936329,"libraryname":"Maurice M. Pine Free Public Library","state":"NJ"},"type":"Feature","geometry":{"type":"Point","coordinates":[-74.131561,40.936329]}},{"properties":{"city":"Mays Landing","lon":-74.725983,"zip":8330,"librarysystem":"Atlantic County Library System","phone":"(609) 625-2776","id":"a672kuijtetd","address":"40 Farragut Ave.","lat":39.450161,"libraryname":"Mays Landing Branch","state":"NJ"},"type":"Feature","geometry":{"type":"Point","coordinates":[-74.725983,39.450161]}},{"properties":{"city":"Maywood","lon":-74.063179,"zip":7607,"librarysystem":"Bergen County Cooperative Library System","phone":"(201) 845-2915","id":"a672kum3bo95","address":"459 Maywood Avenue","lat":40.901012,"libraryname":"Maywood Public Library","state":"NJ"},"type":"Feature","geometry":{"type":"Point","coordinates":[-74.063179,40.901012]}},{"properties":{"city":"Mendham","lon":-74.599915,"zip":7945,"librarysystem":"Morris Automated Information Network","phone":"973-543-4152","id":"a672ku9vwu44","address":"10 Hilltop Road","lat":40.774479,"libraryname":"Mendham Borough Library","state":"NJ"},"type":"Feature","geometry":{"type":"Point","coordinates":[-74.599915,40.774479]}},{"properties":{"city":"Brookside","lon":-74.567993,"zip":7926,"librarysystem":"Morris Automated Information Network","phone":"973-543-4018","id":"a672kuicnqrx","address":"Cherry Lane","lat":40.793415,"libraryname":"Mendham Township Public Library","state":"NJ"},"type":"Feature","geometry":{"type":"Point","coordinates":[-74.567993,40.793415]}},{"properties":{"city":"Merchantville","lon":-75.048653,"zip":8109,"librarysystem":"Camden County Library System","phone":"Phone: (856) 665-3128","id":"a672kukrigw2","address":"130 South Centre Street","lat":39.949371,"libraryname":"Merchantville Public Library","state":"NJ"},"type":"Feature","geometry":{"type":"Point","coordinates":[-75.048653,39.949371]}},{"properties":{"city":"Midland Park","lon":-74.141006,"zip":7432,"librarysystem":"Bergen County Cooperative Library System","phone":"(201) 444-2390","id":"a672kunfnwie","address":"250 Godwin Avenue","lat":40.990173,"libraryname":"Midland Park Memorial Library","state":"NJ"},"type":"Feature","geometry":{"type":"Point","coordinates":[-74.141006,40.990173]}},{"properties":{"city":"Midland Park","lon":-74.141006,"zip":7432,"librarysystem":"Midland Park Memorial Library","phone":"(201) 444-2390","id":"a672kuimv677","address":"250 Godwin Avenue","lat":40.990173,"libraryname":"Midland Park Memorial Library","state":"NJ"},"type":"Feature","geometry":{"type":"Point","coordinates":[-74.141006,40.990173]}},{"properties":{"city":"Milford","lon":-75.093536,"zip":8848,"librarysystem":"Hunterdon County Library","phone":"Telephone: (908) 995-4072","id":"a672kulwuxtm","address":"40 Frenchtown Road","lat":40.568008,"libraryname":"Milford Public Library","state":"NJ"},"type":"Feature","geometry":{"type":"Point","coordinates":[-75.093536,40.568008]}},{"properties":{"city":"Millburn","lon":-74.305267,"zip":7041,"librarysystem":"Bergen County Cooperative Library System","phone":"Phone: (973) 376-1006","id":"a672ku7zujl6","address":"200 Glen Avenue","lat":40.726627,"libraryname":"Millburn Free Public Library","state":"NJ"},"type":"Feature","geometry":{"type":"Point","coordinates":[-74.305267,40.726627]}},{"properties":{"city":"Jersey City","lon":-74.076607,"zip":7305,"librarysystem":"Jersey City Free Public Library","phone":"Phone: (201) 547 - 4551","id":"a672kuasbr8t","address":"489 Bergen Avenue","lat":40.717831,"libraryname":"Miller","state":"NJ"},"type":"Feature","geometry":{"type":"Point","coordinates":[-74.076607,40.717831]}},{"properties":{"city":"Milltown","lon":-74.439812,"zip":8850,"librarysystem":"Libraries of Middlesex Automation Consortium","phone":"732-247-2270","id":"a672kuaw4b1u","address":"20 West Church Street","lat":40.451756,"libraryname":"Milltown Public Library","state":"NJ"},"type":"Feature","geometry":{"type":"Point","coordinates":[-74.439812,40.451756]}},{"properties":{"city":"Millville","lon":-75.040009,"zip":8332,"librarysystem":"Cumberland County Library System","phone":"Phone: (856) 825-7087","id":"a672kubgr68v","address":"210 Buck Street","lat":39.397465,"libraryname":"Millville Public Library","state":"NJ"},"type":"Feature","geometry":{"type":"Point","coordinates":[-75.040009,39.397465]}},{"properties":{"city":"Monmouth Beach","lon":-73.978615,"zip":7750,"librarysystem":"Monmouth County Library","phone":"Telephone: (732)229-1187","id":"a672ku9e6ubf","address":"18 Willow Avenue","lat":40.329643,"libraryname":"Monmouth Beach","state":"NJ"},"type":"Feature","geometry":{"type":"Point","coordinates":[-73.978615,40.329643]}},{"properties":{"city":"Monroe Township","lon":-74.440544,"zip":8831,"librarysystem":"Libraries of Middlesex Automation Consortium","phone":"Phone: 732-521-5000","id":"a672kukzqzb0","address":"4 Municipal Plaza","lat":40.326527,"libraryname":"Monroe Township Public Library","state":"NJ"},"type":"Feature","geometry":{"type":"Point","coordinates":[-74.440544,40.326527]}},{"properties":{"city":"Montclair","lon":-74.21843,"zip":7042,"librarysystem":"Montclair Public Library","phone":"973-744-0500","id":"a672kuf1le8s","address":"50 S Fullerton Ave","lat":40.811714,"libraryname":"Montclair Public Library","state":"NJ"},"type":"Feature","geometry":{"type":"Point","coordinates":[-74.21843,40.811714]}},{"properties":{"city":"Montville","lon":-74.356918,"zip":7045,"librarysystem":"Morris Automated Information Network","phone":"973-402-0900","id":"a672kugw0kbf","address":"90 Horseneck Rd","lat":40.891407,"libraryname":"Montville Public Library","state":"NJ"},"type":"Feature","geometry":{"type":"Point","coordinates":[-74.356918,40.891407]}},{"properties":{"city":"Moorestown","lon":-74.949478,"zip":8057,"librarysystem":"Moorestown Public Library","phone":"Phone: 856-234-0333","id":"a672kua2iaoi","address":"111 West Second Street","lat":39.964184,"libraryname":"Moorestown Public Library","state":"NJ"},"type":"Feature","geometry":{"type":"Point","coordinates":[-74.949478,39.964184]}},{"properties":{"city":"Whippany","lon":-74.411148,"zip":7981,"librarysystem":"Morris Automated Information Network","phone":"973-285-6930","id":"a672kuc8ugtl","address":"30 East Hanover Ave","lat":40.830719,"libraryname":"Morris County Library","state":"NJ"},"type":"Feature","geometry":{"type":"Point","coordinates":[-74.411148,40.830719]}},{"properties":{"city":"Morris Plains","lon":-74.486412,"zip":7950,"librarysystem":"Morris Automated Information Network","phone":"973-538-2599","id":"a672kugtis2c","address":"77 Glenbrook Rd","lat":40.828213,"libraryname":"Morris Plains Public Library","state":"NJ"},"type":"Feature","geometry":{"type":"Point","coordinates":[-74.486412,40.828213]}},{"properties":{"city":"Morristown","lon":-74.478188,"zip":7960,"librarysystem":"Morris Automated Information Network","phone":"973-538-6161","id":"a672kue1hos7","address":"1 Miller Rd","lat":40.793716,"libraryname":"Morristown &amp; Morris Township Library","state":"NJ"},"type":"Feature","geometry":{"type":"Point","coordinates":[-74.478188,40.793716]}},{"properties":{"city":"Mt. Holly","lon":-74.790436,"zip":8060,"librarysystem":"Burlington County Library System","phone":"609-267-7111","id":"a672ku7uiers","address":"307 High Street","lat":39.999386,"libraryname":"Mount Holly","state":"NJ"},"type":"Feature","geometry":{"type":"Point","coordinates":[-74.790436,39.999386]}},{"properties":{"city":"Mount Laurel","lon":-74.925201,"zip":8054,"librarysystem":"Mount Laurel Library","phone":"Phone: 856-234-7319","id":"a672kudl70pg","address":"100 Walt Whitman Ave.","lat":39.957386,"libraryname":"Mount Laurel Library","state":"NJ"},"type":"Feature","geometry":{"type":"Point","coordinates":[-74.925201,39.957386]}},{"properties":{"city":"Mountain Lakes","lon":-74.434341,"zip":7046,"librarysystem":"Morris Automated Information Network","phone":"973-334-5095","id":"a672kumpjr5f","address":"9 Elm Road","lat":40.88765,"libraryname":"Mountain Lakes Public Library","state":"NJ"},"type":"Feature","geometry":{"type":"Point","coordinates":[-74.434341,40.88765]}},{"properties":{"city":"Mountainside","lon":-74.358284,"zip":7092,"librarysystem":"Mountainside Public Library","phone":"908.233.0115","id":"a672ku8gjnrv","address":"Constitution Plaza","lat":40.673393,"libraryname":"Mountainside Public Library","state":"NJ"},"type":"Feature","geometry":{"type":"Point","coordinates":[-74.358284,40.673393]}},{"properties":{"city":"Mt. Arlington","lon":-74.63253,"zip":7856,"librarysystem":"Morris Automated Information Network","phone":"973-398-1516","id":"a672kude2dfq","address":"404 Howard Blvd","lat":40.929485,"libraryname":"Mt. Arlington Public Library","state":"NJ"},"type":"Feature","geometry":{"type":"Point","coordinates":[-74.63253,40.929485]}},{"properties":{"city":"Flanders","lon":-74.742561,"zip":7836,"librarysystem":"Morris Automated Information Network","phone":"973-691-8686","id":"a672kuacnhkx","address":"202 Flanders-Drakestown Rd","lat":40.848343,"libraryname":"Mt. Olive Public Library","state":"NJ"},"type":"Feature","geometry":{"type":"Point","coordinates":[-74.742561,40.848343]}},{"properties":{"city":"Mt. Tabor","lon":-74.480026,"zip":7878,"librarysystem":"Morris Automated Information Network","phone":"973-627-9508","id":"a672kue5hv02","address":"31 Trinity Park","lat":40.87339,"libraryname":"Mt. Tabor Public Library (branch of Par-Troy Public Library)","state":"NJ"},"type":"Feature","geometry":{"type":"Point","coordinates":[-74.480026,40.87339]}},{"properties":{"city":"Mullica Hill","lon":-75.218643,"zip":8062,"librarysystem":"Gloucester County Library System","phone":"Phone: 856-223-6000","id":"a672kugse308","address":"389 Wolfert Station Road","lat":39.748608,"libraryname":"Mullica Hill Branch","state":"NJ"},"type":"Feature","geometry":{"type":"Point","coordinates":[-75.218643,39.748608]}},{"properties":{"city":"Neptune City","lon":-74.030304,"zip":7753,"librarysystem":"Monmouth County Library","phone":"Telephone: (732)988-8866","id":"a672kugzagsd","address":"106 W. Sylvania Avenue","lat":40.197906,"libraryname":"Neptune City","state":"NJ"},"type":"Feature","geometry":{"type":"Point","coordinates":[-74.030304,40.197906]}},{"properties":{"city":"New Brunswick","lon":-74.445709,"zip":8901,"librarysystem":"Libraries of Middlesex Automation Consortium","phone":"732.745.5108","id":"a672kun3a8ks","address":"60 Livingston Avenue","lat":40.491512,"libraryname":"New Brunswick Free Public Library","state":"NJ"},"type":"Feature","geometry":{"type":"Point","coordinates":[-74.445709,40.491512]}},{"properties":{"city":"New Gretna","lon":-74.451691,"zip":8224,"librarysystem":"Burlington County Library System","phone":"phone: 609-296-6942","id":"a672kui04x8b","address":"North Maple Avenue","lat":39.59235,"libraryname":"New Gretna","state":"NJ"},"type":"Feature","geometry":{"type":"Point","coordinates":[-74.451691,39.59235]}},{"properties":{"city":"New Milford","lon":-74.022705,"zip":7646,"librarysystem":"Bergen County Cooperative Library System","phone":"(201) 262-1221","id":"a672kukk8s4c","address":"200 Dahlia Ave.","lat":40.919121,"libraryname":"New Milford Public Library","state":"NJ"},"type":"Feature","geometry":{"type":"Point","coordinates":[-74.022705,40.919121]}},{"properties":{"city":"Newfield","lon":-75.020821,"zip":8344,"librarysystem":"Gloucester County Library System","phone":"Phone: 856-697-0415","id":"a672kulmghrz","address":"115 Catawba Avenue","lat":39.547329,"libraryname":"Newfield Public Library","state":"NJ"},"type":"Feature","geometry":{"type":"Point","coordinates":[-75.020821,39.547329]}},{"properties":{"city":"North Arlington","lon":-74.133141,"zip":7031,"librarysystem":"Bergen County Cooperative Library System","phone":"201 955-5640","id":"a672kuh4envr","address":"210 Ridge Road","lat":40.788525,"libraryname":"North Arlington Public Library","state":"NJ"},"type":"Feature","geometry":{"type":"Point","coordinates":[-74.133141,40.788525]}},{"properties":{"city":"North Brunswick","lon":-74.464684,"zip":8902,"librarysystem":"Libraries of Middlesex Automation Consortium","phone":"732-246-3545","id":"a672kueh5fjt","address":"880 Hermann Road","lat":40.468727,"libraryname":"North Brunswick Public Library","state":"NJ"},"type":"Feature","geometry":{"type":"Point","coordinates":[-74.464684,40.468727]}},{"properties":{"city":"Clinton","lon":-74.911873,"zip":8809,"librarysystem":"Hunterdon County Library","phone":"Main phone: (908) 730-6262; Reference (908) 730-6135","id":"a672kudt6pfj","address":"65 Halstead Street","lat":40.642921,"libraryname":"North County Branch Library","state":"NJ"},"type":"Feature","geometry":{"type":"Point","coordinates":[-74.911873,40.642921]}},{"properties":{"city":"Edison","lon":-74.358467,"zip":8820,"librarysystem":"Edison Public Library","phone":"(732) 548-3045","id":"a672kufwco29","address":"777 Grove Avenue","lat":40.575382,"libraryname":"North Edison Branch","state":"NJ"},"type":"Feature","geometry":{"type":"Point","coordinates":[-74.358467,40.575382]}},{"properties":{"city":"Newark","lon":-74.162827,"zip":7104,"librarysystem":"The Newark Public Library","phone":"973-733-7766","id":"a672kuh4pego","address":"722 Summer Avenue","lat":40.776569,"libraryname":"North End Branch","state":"NJ"},"type":"Feature","geometry":{"type":"Point","coordinates":[-74.162827,40.776569]}},{"properties":{"city":"North Haledon","lon":-74.183449,"zip":7508,"librarysystem":"North Haledon Free Public Library","phone":"973-427-6213","id":"a672kunj7r1m","address":"129 Overlook Avenue","lat":40.953358,"libraryname":"North Haledon Free Public Library","state":"NJ"},"type":"Feature","geometry":{"type":"Point","coordinates":[-74.183449,40.953358]}},{"properties":{"city":"North Plainfield","lon":-74.434059,"zip":7060,"librarysystem":"Somerset County Library System","phone":"(908) 755-7909","id":"a672ku94cgjo","address":"6 Rockview Ave.","lat":40.620461,"libraryname":"North Plainfield Memorial Library","state":"NJ"},"type":"Feature","geometry":{"type":"Point","coordinates":[-74.434059,40.620461]}},{"properties":{"city":"Northvale","lon":-73.951854,"zip":"","librarysystem":"Bergen County Cooperative Library System","phone":"(201)768-4784","id":"a672kun4sh4q","address":"","lat":41.007765,"libraryname":"Northvale Public Library","state":"NJ"},"type":"Feature","geometry":{"type":"Point","coordinates":[-73.951854,41.007765]}},{"properties":{"city":"Norwood","lon":-74.362701,"zip":7648,"librarysystem":"Norwood Public Library","phone":"(201) 768-9555","id":"a672ku9n829m","address":"198 Summit Street","lat":40.719353,"libraryname":"Norwood Public Library","state":"NJ"},"type":"Feature","geometry":{"type":"Point","coordinates":[-74.362701,40.719353]}},{"properties":{"city":"Nutley","lon":-74.15847,"zip":7110,"librarysystem":"Bergen County Cooperative Library System","phone":"973-667-0405","id":"a672kueird3p","address":"93 Booth Drive","lat":40.817955,"libraryname":"Nutley Public Library","state":"NJ"},"type":"Feature","geometry":{"type":"Point","coordinates":[-74.15847,40.817955]}},{"properties":{"city":"Oakland","lon":-74.244888,"zip":7436,"librarysystem":"Bergen County Cooperative Library System","phone":"(201) 337-3742","id":"a672kumqutj2","address":"Municipal Plaza","lat":41.02383,"libraryname":"Oakland Public Library","state":"NJ"},"type":"Feature","geometry":{"type":"Point","coordinates":[-74.244888,41.02383]}},{"properties":{"city":"Ocean","lon":-74.228409,"zip":7712,"librarysystem":"Monmouth County Library","phone":"Telephone: (732) 531-5092","id":"a672kuarodpq","address":"701 Deal Rd.","lat":39.788067,"libraryname":"Ocean Township","state":"NJ"},"type":"Feature","geometry":{"type":"Point","coordinates":[-74.228409,39.788067]}},{"properties":{"city":"Rumson","lon":-74,"zip":7760,"librarysystem":"Monmouth County Library","phone":"Telephone: (732)842-2692","id":"a672kubztzl0","address":"Avenue of Two Rivers","lat":40.37619,"libraryname":"Oceanic (Rumson)","state":"NJ"},"type":"Feature","geometry":{"type":"Point","coordinates":[-74.0,40.37619]}},{"properties":{"city":"Oceanport","lon":-74.016914,"zip":7757,"librarysystem":"Monmouth County Library","phone":"Telephone: (732) 229-2626","id":"a672kum0aos0","address":"Monmouth Blvd. &amp; Myrtle Ave.","lat":40.321754,"libraryname":"Oceanport","state":"NJ"},"type":"Feature","geometry":{"type":"Point","coordinates":[-74.016914,40.321754]}},{"properties":{"city":"Oradell","lon":-74.031898,"zip":7649,"librarysystem":"Bergen County Cooperative Library System","phone":"(201) 262-2613","id":"a672ku8o9afw","address":"375 Kinderkamack","lat":40.953621,"libraryname":"Oradell Free Public Library","state":"NJ"},"type":"Feature","geometry":{"type":"Point","coordinates":[-74.031898,40.953621]}},{"properties":{"city":"PERTH AMBOY","lon":-74.270622,"zip":8861,"librarysystem":"Libraries of Middlesex Automation Consortium","phone":"(732) 826-2600","id":"a672ku8yy9qc","address":"196 JEFFERSON STREET","lat":40.510494,"libraryname":"PERTH AMBOY PUBLIC LIBRARY","state":"NJ"},"type":"Feature","geometry":{"type":"Point","coordinates":[-74.270622,40.510494]}},{"properties":{"city":"Paramus","lon":-74.060287,"zip":7652,"librarysystem":"Bergen County Cooperative Library System","phone":"(201)599-1300","id":"a672kun9t3l8","address":"E116 Century Road","lat":40.92667,"libraryname":"Paramus Public Library","state":"NJ"},"type":"Feature","geometry":{"type":"Point","coordinates":[-74.060287,40.92667]}},{"properties":{"city":"Park Ridge","lon":-74.038116,"zip":7656,"librarysystem":"Bergen County Cooperative Library System","phone":"(201) 391-5151","id":"a672ku9w0652","address":"51 Park Avenue","lat":41.033581,"libraryname":"Park Ridge Public Library","state":"NJ"},"type":"Feature","geometry":{"type":"Point","coordinates":[-74.038116,41.033581]}},{"properties":{"city":"Parsippany","lon":-74.452316,"zip":7054,"librarysystem":"Morris Automated Information Network","phone":"973-887-5150","id":"a672kua8sv8n","address":"449 Halsey Rd","lat":40.852459,"libraryname":"Parsippany-Troy Hills Public Library (main branch)","state":"NJ"},"type":"Feature","geometry":{"type":"Point","coordinates":[-74.452316,40.852459]}},{"properties":{"city":"Passaic","lon":-74.127708,"zip":7055,"librarysystem":"Passaic Public Library &amp; Reid Memorial Library","phone":"(973) 779-0474","id":"a672kumhy19p","address":"195 Gregory Avenue","lat":40.857502,"libraryname":"Passaic Public Library &amp; Reid Memorial Library","state":"NJ"},"type":"Feature","geometry":{"type":"Point","coordinates":[-74.127708,40.857502]}},{"properties":{"city":"Paterson","lon":-74.164192,"zip":7501,"librarysystem":"Paterson Free Public Library","phone":"973-321-1223","id":"a672ku7q5knf","address":"250 Broadway","lat":40.918625,"libraryname":"Paterson Free Public Library","state":"NJ"},"type":"Feature","geometry":{"type":"Point","coordinates":[-74.164192,40.918625]}},{"properties":{"city":"Jersey City","lon":-74.043228,"zip":7302,"librarysystem":"Jersey City Free Public Library","phone":"Phone: (201) 547 - 4808","id":"a672kuakngfu","address":"326 Eighth Street","lat":40.717449,"libraryname":"Pavonia","state":"NJ"},"type":"Feature","geometry":{"type":"Point","coordinates":[-74.043228,40.717449]}},{"properties":{"city":"Peapack","lon":-74.658493,"zip":7977,"librarysystem":"Somerset County Library System","phone":"(908) 234-0598","id":"a672kuaxxnhp","address":"School St.","lat":40.718163,"libraryname":"Peapack-Gladstone Library","state":"NJ"},"type":"Feature","geometry":{"type":"Point","coordinates":[-74.658493,40.718163]}},{"properties":{"city":"Jersey City","lon":-74.092789,"zip":7305,"librarysystem":"Jersey City Free Public Library","phone":"Phone: (201) 547 - 6557","id":"a672kun84skh","address":"104 Pearsall Avenue","lat":40.693478,"libraryname":"Pearsall","state":"NJ"},"type":"Feature","geometry":{"type":"Point","coordinates":[-74.092789,40.693478]}},{"properties":{"city":"Browns Mills","lon":-74.581108,"zip":8015,"librarysystem":"Burlington County Library System","phone":"Phone: (609) 893-8262","id":"a672kuaq4vn1","address":"16 Broadway","lat":39.974148,"libraryname":"Pemberton","state":"NJ"},"type":"Feature","geometry":{"type":"Point","coordinates":[-74.581108,39.974148]}},{"properties":{"city":"Penns Grove","lon":-75.473984,"zip":8069,"librarysystem":"Cumberland County Library System","phone":"(856) 299-4255","id":"a672kudit68k","address":"222 South Broad St.","lat":39.722973,"libraryname":"Penns Grove - Carney's Point Public Library","state":"NJ"},"type":"Feature","geometry":{"type":"Point","coordinates":[-75.473984,39.722973]}},{"properties":{"city":"Pennsauken","lon":-75.058044,"zip":8110,"librarysystem":"Pennsauken Free Public Library","phone":"856-665-5959","id":"a672kueyvl33","address":"5605 Crescent Blvd.","lat":39.956272,"libraryname":"Pennsauken Free Public Library","state":"NJ"},"type":"Feature","geometry":{"type":"Point","coordinates":[-75.058044,39.956272]}},{"properties":{"city":"Pennsville","lon":-75.518028,"zip":8070,"librarysystem":"Cumberland County Library System","phone":"(856) 678-5473","id":"a672kuiicf8m","address":"190 South Broadway","lat":39.645275,"libraryname":"Pennsville Public Library","state":"NJ"},"type":"Feature","geometry":{"type":"Point","coordinates":[-75.518028,39.645275]}},{"properties":{"city":"Pompton Plains","lon":-74.294357,"zip":7444,"librarysystem":"Morris Automated Information Network","phone":"973-835-7460","id":"a672kuk2ppaj","address":"477 Newark-Pompton Turnpike","lat":40.959366,"libraryname":"Pequannock Public Library","state":"NJ"},"type":"Feature","geometry":{"type":"Point","coordinates":[-74.294357,40.959366]}},{"properties":{"city":"Jersey City","lon":-74.047104,"zip":7302,"librarysystem":"Jersey City Free Public Library","phone":"Phone: (201) 547 - 4541","id":"a672kua93e3o","address":"280 First Street","lat":40.722198,"libraryname":"Perfecto Oyola Biblioteca Criolla &amp; Cultural Center","state":"NJ"},"type":"Feature","geometry":{"type":"Point","coordinates":[-74.047104,40.722198]}},{"properties":{"city":"Phillipsburg","lon":-75.180107,"zip":8865,"librarysystem":"Phillipsburg Free Public Library","phone":"908-454-3712","id":"a672kuguuv12","address":"200 Frost Ave.","lat":40.699726,"libraryname":"Phillipsburg Free Public Library","state":"NJ"},"type":"Feature","geometry":{"type":"Point","coordinates":[-75.180107,40.699726]}},{"properties":{"city":"Medford","lon":-74.823463,"zip":8055,"librarysystem":"Burlington County Library System","phone":"Phone: 609-654-6113","id":"a672kujan9h6","address":"39 Allen Avenue","lat":39.90057,"libraryname":"Pinelands/Medford","state":"NJ"},"type":"Feature","geometry":{"type":"Point","coordinates":[-74.823463,39.90057]}},{"properties":{"city":"Plainfield","lon":-74.415733,"zip":7060,"librarysystem":"Libraries of Middlesex Automation Consortium","phone":"908-757-1111","id":"a672ku82cxx5","address":"800 Park Avenue","lat":40.613953,"libraryname":"Plainfield Public Library","state":"NJ"},"type":"Feature","geometry":{"type":"Point","coordinates":[-74.415733,40.613953]}},{"properties":{"city":"Plainsboro","lon":-74.584816,"zip":8536,"librarysystem":"Libraries of Middlesex Automation Consortium","phone":"609-275-2897","id":"a672kufwolkc","address":"641 Plainsboro Road","lat":40.33149,"libraryname":"Plainsboro Public Library","state":"NJ"},"type":"Feature","geometry":{"type":"Point","coordinates":[-74.584816,40.33149]}},{"properties":{"city":"Pleasantville","lon":-74.522186,"zip":8232,"librarysystem":"Atlantic County Library System","phone":"(609) 641-1778","id":"a672kue0yafc","address":"33 Martin L. King Jr. Ave.","lat":39.392914,"libraryname":"Pleasantville Branch","state":"NJ"},"type":"Feature","geometry":{"type":"Point","coordinates":[-74.522186,39.392914]}},{"properties":{"city":"New Egypt","lon":-74.531639,"zip":8533,"librarysystem":"Ocean County Library","phone":"Phone: (609) 758-7888","id":"a672ku9w3i03","address":"119 Evergreen Rd.","lat":40.077644,"libraryname":"Plumsted Branch","state":"NJ"},"type":"Feature","geometry":{"type":"Point","coordinates":[-74.531639,40.077644]}},{"properties":{"city":"Wayne","lon":-74.236031,"zip":7470,"librarysystem":"Wayne Public Library","phone":"973-694-7110","id":"a672kue44444","address":"1006 Hamburg Turnpike","lat":40.959888,"libraryname":"Preakness Branch","state":"NJ"},"type":"Feature","geometry":{"type":"Point","coordinates":[-74.236031,40.959888]}},{"properties":{"city":"Princeton","lon":-74.660408,"zip":8542,"librarysystem":"Princeton Public Library","phone":"Tel: 609-924-9529","id":"a672kui4tqrf","address":"65 Witherspoon St.","lat":40.351688,"libraryname":"Princeton Public Library","state":"NJ"},"type":"Feature","geometry":{"type":"Point","coordinates":[-74.660408,40.351688]}},{"properties":{"city":"Pt. Pleasant Beach","lon":-74.052162,"zip":8742,"librarysystem":"Ocean County Library","phone":"Phone: (732) 892-4575","id":"a672kufym2do","address":"710 McLean Ave.","lat":40.093624,"libraryname":"Pt. Pleasant Beach Branch","state":"NJ"},"type":"Feature","geometry":{"type":"Point","coordinates":[-74.052162,40.093624]}},{"properties":{"city":"Pt. Pleasant","lon":-74.068878,"zip":8742,"librarysystem":"Ocean County Library","phone":"Phone: (732) 295-1555","id":"a672kum9ijnf","address":"834 Beaver Dam Rd.","lat":40.078224,"libraryname":"Pt. Pleasant Boro Branch","state":"NJ"},"type":"Feature","geometry":{"type":"Point","coordinates":[-74.068878,40.078224]}},{"properties":{"city":"Ramsey","lon":-74.146858,"zip":7446,"librarysystem":"Ramsey Free Public Library","phone":"(201) 327-1445","id":"a672kukgra0q","address":"30 Wyckoff Avenue","lat":41.056309,"libraryname":"Ramsey Free Public Library","state":"NJ"},"type":"Feature","geometry":{"type":"Point","coordinates":[-74.146858,41.056309]}},{"properties":{"city":"Ramsey","lon":-74.146858,"zip":7446,"librarysystem":"Bergen County Cooperative Library System","phone":"(201) 327-1445","id":"a672kudo06jx","address":"30 Wyckoff Ave","lat":41.056309,"libraryname":"Ramsey Free Public Library","state":"NJ"},"type":"Feature","geometry":{"type":"Point","coordinates":[-74.146858,41.056309]}},{"properties":{"city":"Randolph","lon":-74.590439,"zip":7869,"librarysystem":"Morris Automated Information Network","phone":"973-895-3556","id":"a672kuazel79","address":"28 Calais Rd","lat":40.828053,"libraryname":"Randolph Public Library","state":"NJ"},"type":"Feature","geometry":{"type":"Point","coordinates":[-74.590439,40.828053]}},{"properties":{"city":"Whitehouse Station","lon":-74.7715,"zip":8889,"librarysystem":"Hunterdon County Library","phone":"Telephone: (908) 534-4421","id":"a672kui430r8","address":"255 Main Street","lat":40.614204,"libraryname":"Readington Township Library","state":"NJ"},"type":"Feature","geometry":{"type":"Point","coordinates":[-74.7715,40.614204]}},{"properties":{"city":"Red Bank","lon":-74.06871,"zip":7701,"librarysystem":"Libraries of Middlesex Automation Consortium","phone":"Phone: 732-842-0690","id":"a672kug3qcwt","address":"84 West Front Street","lat":40.351387,"libraryname":"Red Bank Public Library/Eisner Memorial Library","state":"NJ"},"type":"Feature","geometry":{"type":"Point","coordinates":[-74.06871,40.351387]}},{"properties":{"city":"Atlantic City","lon":-74.459526,"zip":8401,"librarysystem":"Atlantic City Free Public Library","phone":"(609) 347-1902","id":"a672kubuzu0e","address":"Ventnor and Windsor Avenues","lat":39.349182,"libraryname":"Richmond Branch","state":"NJ"},"type":"Feature","geometry":{"type":"Point","coordinates":[-74.459526,39.349182]}},{"properties":{"city":"Ridgefield","lon":-74.005379,"zip":7657,"librarysystem":"Bergen County Cooperative Library System","phone":"(201) 941-0192","id":"a672kumifj7s","address":"527 Morse Avenue","lat":40.83157,"libraryname":"Ridgefield Public Library","state":"NJ"},"type":"Feature","geometry":{"type":"Point","coordinates":[-74.005379,40.83157]}},{"properties":{"city":"Ridgewood","lon":-74.112404,"zip":7450,"librarysystem":"Bergen County Cooperative Library System","phone":"201-670-5600","id":"a672kubq0dni","address":"125 N Maple Ave","lat":40.982037,"libraryname":"Ridgewood Public Library","state":"NJ"},"type":"Feature","geometry":{"type":"Point","coordinates":[-74.112404,40.982037]}},{"properties":{"city":"River Edge","lon":-74.037903,"zip":7661,"librarysystem":"Bergen County Cooperative Library System","phone":"(201) 261-1663","id":"a672kug3w2hx","address":"685 Elm Avenue","lat":40.933643,"libraryname":"River Edge Public Library","state":"NJ"},"type":"Feature","geometry":{"type":"Point","coordinates":[-74.037903,40.933643]}},{"properties":{"city":"River Vale","lon":-74.010422,"zip":7675,"librarysystem":"Bergen County Cooperative Library System","phone":"Phone: 201-391-2323","id":"a672kud47pv7","address":"412 Rivervale Road","lat":41.00806,"libraryname":"River Vale Free Public Library","state":"NJ"},"type":"Feature","geometry":{"type":"Point","coordinates":[-74.010422,41.00806]}},{"properties":{"city":"Riverdale","lon":-82.43618,"zip":7457,"librarysystem":"Morris Automated Information Network","phone":"973-835-5044","id":"a672ku9c5lsg","address":"93 Newark Pompton Tpk","lat":40.06583,"libraryname":"Riverdale Public Library","state":"NJ"},"type":"Feature","geometry":{"type":"Point","coordinates":[-82.43618,40.06583]}},{"properties":{"city":"Riverside","lon":-74.959119,"zip":8075,"librarysystem":"Burlington County Library System","phone":"856-461-6922","id":"a672kuctb3dx","address":"10 Zurbrugg Way","lat":40.038912,"libraryname":"Riverside","state":"NJ"},"type":"Feature","geometry":{"type":"Point","coordinates":[-74.959119,40.038912]}},{"properties":{"city":"Riverton","lon":-75.015656,"zip":8077,"librarysystem":"Burlington County Library System","phone":"Phone: 856 829-2476","id":"a672kuay15oe","address":"306 Main Street","lat":40.011909,"libraryname":"Riverton","state":"NJ"},"type":"Feature","geometry":{"type":"Point","coordinates":[-75.015656,40.011909]}},{"properties":{"city":"Robbinsville","lon":-74.621017,"zip":8691,"librarysystem":"The Mercer County Library System","phone":"Phone: (609) 259-2150","id":"a672ku8jy165","address":"42 Allentown-Robbinsville Road","lat":40.250042,"libraryname":"Robbinsville Branch","state":"NJ"},"type":"Feature","geometry":{"type":"Point","coordinates":[-74.621017,40.250042]}},{"properties":{"city":"Rochelle Park","lon":-74.078468,"zip":7662,"librarysystem":"Bergen County Cooperative Library System","phone":"(201) 587-7730 x8","id":"a672kudqvdoz","address":"151 West Passaic Street","lat":40.912571,"libraryname":"Rochelle Park Public Library","state":"NJ"},"type":"Feature","geometry":{"type":"Point","coordinates":[-74.078468,40.912571]}},{"properties":{"city":"Rockaway","lon":-74.508797,"zip":7866,"librarysystem":"Morris Automated Information Network","phone":"973-627-5709","id":"a672kuk0ctae","address":"82 East Main St","lat":40.898544,"libraryname":"Rockaway Boro Public Library","state":"NJ"},"type":"Feature","geometry":{"type":"Point","coordinates":[-74.508797,40.898544]}},{"properties":{"city":"Rockaway","lon":-74.52491,"zip":7866,"librarysystem":"Morris Automated Information Network","phone":"973-627-2344","id":"a672kuemd1r8","address":"61 Mt. Hope Rd","lat":40.910061,"libraryname":"Rockaway Township Public Library","state":"NJ"},"type":"Feature","geometry":{"type":"Point","coordinates":[-74.52491,40.910061]}},{"properties":{"city":"Roseland","lon":-74.29213,"zip":7068,"librarysystem":"Bergen County Cooperative Library System","phone":"Phone: (973) 226-8636","id":"a672ku7chfc2","address":"20 Roseland Avenue","lat":40.822868,"libraryname":"Roseland Free Public Library","state":"NJ"},"type":"Feature","geometry":{"type":"Point","coordinates":[-74.29213,40.822868]}},{"properties":{"city":"Roselle Park","lon":-74.264999,"zip":7204,"librarysystem":"Libraries of Middlesex Automation Consortium","phone":"908-245-2456","id":"a672kuni513z","address":"404 Chestnut Street","lat":40.665459,"libraryname":"Roselle Park Veterans Memorial Library","state":"NJ"},"type":"Feature","geometry":{"type":"Point","coordinates":[-74.264999,40.665459]}},{"properties":{"city":"Roselle","lon":-74.263008,"zip":7203,"librarysystem":"Libraries of Middlesex Automation Consortium","phone":"Phone: (908) 245-5809","id":"a672kuhxyndb","address":"104 West Fourth Ave","lat":40.656425,"libraryname":"Roselle Public Library","state":"NJ"},"type":"Feature","geometry":{"type":"Point","coordinates":[-74.263008,40.656425]}},{"properties":{"city":"Newark","lon":-82.407303,"zip":7107,"librarysystem":"The Newark Public Library","phone":"973-733-7770","id":"a672kuhsbfr2","address":"99 Fifth Street","lat":40.059235,"libraryname":"Roseville Branch","state":"NJ"},"type":"Feature","geometry":{"type":"Point","coordinates":[-82.407303,40.059235]}},{"properties":{"city":"Succasunna","lon":-74.63887,"zip":7876,"librarysystem":"Morris Automated Information Network","phone":"973-584-2400","id":"a672kufug1ph","address":"103 Main St","lat":40.868851,"libraryname":"Roxbury Public Library","state":"NJ"},"type":"Feature","geometry":{"type":"Point","coordinates":[-74.63887,40.868851]}},{"properties":{"city":"Rutherford","lon":-74.106987,"zip":7070,"librarysystem":"Bergen County Cooperative Library System","phone":"201-939-8600","id":"a672kuk0wdmf","address":"150 Park Ave","lat":40.826397,"libraryname":"Rutherford Free Public Library","state":"NJ"},"type":"Feature","geometry":{"type":"Point","coordinates":[-74.106987,40.826397]}},{"properties":{"city":"Somerville","lon":-74.619591,"zip":8876,"librarysystem":"Libraries of Middlesex Automation Consortium","phone":"Telephone:  (908) 725-1336","id":"a672kuacgm3b","address":"35 West End Avenue","lat":40.570713,"libraryname":"SOMERVILLE PUBLIC LIBRARY","state":"NJ"},"type":"Feature","geometry":{"type":"Point","coordinates":[-74.619591,40.570713]}},{"properties":{"city":"South River","lon":-74.378082,"zip":8882,"librarysystem":"Libraries of Middlesex Automation Consortium","phone":"Telephone: 732-254-2488","id":"a672ku7zhthw","address":"55 Appleby Avenue","lat":40.434418,"libraryname":"SOUTH RIVER LIBRARY","state":"NJ"},"type":"Feature","geometry":{"type":"Point","coordinates":[-74.378082,40.434418]}},{"properties":{"city":"Saddle Brook","lon":-74.089233,"zip":7663,"librarysystem":"Bergen County Cooperative Library System","phone":"Tel: 201-843-3287","id":"a672kul1yej4","address":"340 Mayhill Street","lat":40.904984,"libraryname":"Saddle Brook Free Public Library","state":"NJ"},"type":"Feature","geometry":{"type":"Point","coordinates":[-74.089233,40.904984]}},{"properties":{"city":"South Amboy","lon":-74.273132,"zip":8879,"librarysystem":"Sadie Pope Dowdell Public Library","phone":"Phone: (732) 721 - 6060","id":"a672kud7b2f7","address":"100 Harold G. Hoffman Plaza","lat":40.463158,"libraryname":"Sadie Pope Dowdell Public Library","state":"NJ"},"type":"Feature","geometry":{"type":"Point","coordinates":[-74.273132,40.463158]}},{"properties":{"city":"Salem","lon":-75.469902,"zip":8079,"librarysystem":"Cumberland County Library System","phone":"(856) 935-0526","id":"a672kunmq4mq","address":"112 W. Broadway","lat":39.572868,"libraryname":"Salem Free Public Library","state":"NJ"},"type":"Feature","geometry":{"type":"Point","coordinates":[-75.469902,39.572868]}},{"properties":{"city":"Parlin","lon":-74.317101,"zip":8859,"librarysystem":"Libraries of Middlesex Automation Consortium","phone":"732-727-0212","id":"a672kudwi9ao","address":"1050 Washington Road","lat":40.463974,"libraryname":"Sayreville Public Library","state":"NJ"},"type":"Feature","geometry":{"type":"Point","coordinates":[-74.317101,40.463974]}},{"properties":{"city":"Scotch Plains","lon":-74.397316,"zip":7076,"librarysystem":"Scotch Plains Public Library","phone":"908-322-5007","id":"a672ku8tx7h6","address":"1927 Bartle Avenue","lat":40.65147,"libraryname":"Scotch Plains Public Library","state":"NJ"},"type":"Feature","geometry":{"type":"Point","coordinates":[-74.397316,40.65147]}},{"properties":{"city":"Sea Bright","lon":-73.973923,"zip":7760,"librarysystem":"Monmouth County Library","phone":"Telephone: (732)758-9554","id":"a672kuil3jya","address":"1097 Ocean Avenue","lat":40.362568,"libraryname":"Sea Bright","state":"NJ"},"type":"Feature","geometry":{"type":"Point","coordinates":[-73.973923,40.362568]}},{"properties":{"city":"Sea Girt","lon":-74.047753,"zip":8750,"librarysystem":"Monmouth County Library","phone":"Telephone: (732)449-1099","id":"a672kuie5rnt","address":"Railroad Station at the Plaza","lat":40.120916,"libraryname":"Sea Girt","state":"NJ"},"type":"Feature","geometry":{"type":"Point","coordinates":[-74.047753,40.120916]}},{"properties":{"city":"Sea Isle City","lon":-74.691528,"zip":8243,"librarysystem":"Cape May County Library","phone":"609-263-8485","id":"a672kun80n63","address":"125 John F. Kennedy Blvd.","lat":39.155975,"libraryname":"Sea Isle City","state":"NJ"},"type":"Feature","geometry":{"type":"Point","coordinates":[-74.691528,39.155975]}},{"properties":{"city":"Trenton","lon":-74.748001,"zip":8611,"librarysystem":"Trenton Public Library","phone":"Phone: 609-392-7876","id":"a672ku8xhfq9","address":"943 S. Broad Street","lat":40.206074,"libraryname":"Skelton Branch","state":"NJ"},"type":"Feature","geometry":{"type":"Point","coordinates":[-74.748001,40.206074]}},{"properties":{"city":"Somers Point","lon":-74.596436,"zip":8244,"librarysystem":"Atlantic County Library System","phone":"(609) 927-7113","id":"a672ku9b9epx","address":"801 Shore Rd.","lat":39.312645,"libraryname":"Somers Point  Branch","state":"NJ"},"type":"Feature","geometry":{"type":"Point","coordinates":[-74.596436,39.312645]}},{"properties":{"city":"Monmouth Junction","lon":-74.530083,"zip":8852,"librarysystem":"Libraries of Middlesex Automation Consortium","phone":"Telephone: 732-329-4000 X7286","id":"a672kueioexk","address":"110 Kingston Lane","lat":40.383446,"libraryname":"South Brunswick Public Library","state":"NJ"},"type":"Feature","geometry":{"type":"Point","coordinates":[-74.530083,40.383446]}},{"properties":{"city":"Ringoes","lon":-74.868042,"zip":8551,"librarysystem":"Hunterdon County Library","phone":"Telephone: (908) 782-3564","id":"a672kull5jv5","address":"1108-A Old York Road","lat":40.425678,"libraryname":"South County Branch Library","state":"NJ"},"type":"Feature","geometry":{"type":"Point","coordinates":[-74.868042,40.425678]}},{"properties":{"city":"Atco","lon":-74.892921,"zip":8004,"librarysystem":"Camden County Library System","phone":"Phone: (856) 753-2537","id":"a672kufr2c47","address":"35 Coopers Folly Road","lat":39.762634,"libraryname":"South County Regional Branch  Library","state":"NJ"},"type":"Feature","geometry":{"type":"Point","coordinates":[-74.892921,39.762634]}},{"properties":{"city":"South Orange","lon":-74.257225,"zip":7079,"librarysystem":"South Orange Public Library","phone":"Phone Number: 973-762-0230","id":"a672kumbvi47","address":"65 Scotland Rd","lat":40.746868,"libraryname":"South Orange Public Library","state":"NJ"},"type":"Feature","geometry":{"type":"Point","coordinates":[-74.257225,40.746868]}},{"properties":{"city":"South Plainfield","lon":-74.424667,"zip":7080,"librarysystem":"South Plainfield Public Library","phone":"Phone: (908) 754-7885","id":"a672kulw8xnv","address":"2484 Plainfield Avenue","lat":40.609516,"libraryname":"South Plainfield Public Library","state":"NJ"},"type":"Feature","geometry":{"type":"Point","coordinates":[-74.424667,40.609516]}},{"properties":{"city":"Sparta","lon":-74.637817,"zip":7871,"librarysystem":"Sparta Public Library","phone":"973.729.3101","id":"a672kug5mfol","address":"22 Woodport Road","lat":41.034748,"libraryname":"Sparta Public Library","state":"NJ"},"type":"Feature","geometry":{"type":"Point","coordinates":[-74.637817,41.034748]}},{"properties":{"city":"Spotswood","lon":-74.390907,"zip":"","librarysystem":"Libraries of Middlesex Automation Consortium","phone":"Tel. 732-251-1515","id":"a672kugjocw3","address":"548 Main Street","lat":40.391657,"libraryname":"Spotswood Public Library","state":"NJ"},"type":"Feature","geometry":{"type":"Point","coordinates":[-74.390907,40.391657]}},{"properties":{"city":"Springfield","lon":-74.312416,"zip":7081,"librarysystem":"Springfield  Free  Public  Library","phone":"(973) 376-4930","id":"a672kumnt0yd","address":"66 Mountain Ave.","lat":40.709877,"libraryname":"Springfield  Free  Public  Library","state":"NJ"},"type":"Feature","geometry":{"type":"Point","coordinates":[-74.312416,40.709877]}},{"properties":{"city":"Newark","lon":-74.188919,"zip":7103,"librarysystem":"The Newark Public Library","phone":"973-733-7736","id":"a672kuk73pqv","address":"50 Hayes Street","lat":40.736126,"libraryname":"Springfield Branch","state":"NJ"},"type":"Feature","geometry":{"type":"Point","coordinates":[-74.188919,40.736126]}},{"properties":{"city":"Manahawkin","lon":-74.257133,"zip":8050,"librarysystem":"Ocean County Library","phone":"Phone: (609) 597-3381","id":"a672kulwhl8l","address":"129 N. Main Street","lat":39.69878,"libraryname":"Stafford Branch","state":"NJ"},"type":"Feature","geometry":{"type":"Point","coordinates":[-74.257133,39.69878]}},{"properties":{"city":"Stone Harbor","lon":-74.75795,"zip":8247,"librarysystem":"Cape May County Library","phone":"609-368-6809","id":"a672kuj02u5f","address":"9508 Second Avenue","lat":39.053833,"libraryname":"Stone Harbor","state":"NJ"},"type":"Feature","geometry":{"type":"Point","coordinates":[-74.75795,39.053833]}},{"properties":{"city":"Bayonne","lon":-74.128983,"zip":7002,"librarysystem":"Free Public Library &amp; Cultural Center of Bayonne","phone":"(201) 858-6979","id":"a672kukqa2vo","address":"16 West 4th Street","lat":40.649849,"libraryname":"Story Court Branch of the Library","state":"NJ"},"type":"Feature","geometry":{"type":"Point","coordinates":[-74.128983,40.649849]}},{"properties":{"city":"Wantage","lon":-74.626121,"zip":"","librarysystem":"Sussex County Library System","phone":"Phone:  973-875-3940","id":"a672kun7zb94","address":"69 Route 639","lat":41.200835,"libraryname":"Sussex-Wantage Branch","state":"NJ"},"type":"Feature","geometry":{"type":"Point","coordinates":[-74.626121,41.200835]}},{"properties":{"city":"Swedesboro","lon":-75.310287,"zip":8085,"librarysystem":"Gloucester County Library System","phone":"Phone: 856-467-0111","id":"a672kum2mvqd","address":"1442 Kings Highway","lat":39.747635,"libraryname":"Swedesboro Public Library Branch","state":"NJ"},"type":"Feature","geometry":{"type":"Point","coordinates":[-75.310287,39.747635]}},{"properties":{"city":"Teaneck","lon":-74.006516,"zip":7666,"librarysystem":"Bergen County Cooperative Library System","phone":"Tel.: (201) 837-4171","id":"a672kukgowpg","address":"840 Teaneck Road","lat":40.885056,"libraryname":"Teaneck Public Library","state":"NJ"},"type":"Feature","geometry":{"type":"Point","coordinates":[-74.006516,40.885056]}},{"properties":{"city":"Tenafly","lon":-73.969193,"zip":7670,"librarysystem":"Bergen County Cooperative Library System","phone":"(201) 568-8680","id":"a672kukjs5qy","address":"100 Riveredge Road","lat":40.927578,"libraryname":"Tenafly Public Library","state":"NJ"},"type":"Feature","geometry":{"type":"Point","coordinates":[-73.969193,40.927578]}},{"properties":{"city":"Oldwick","lon":-74.74958,"zip":8858,"librarysystem":"Hunterdon County Library","phone":"Telephone: (908) 439-3761","id":"a672kul7dtbm","address":"31 Old Turnpike Road","lat":40.670269,"libraryname":"Tewksbury Township Public Library","state":"NJ"},"type":"Feature","geometry":{"type":"Point","coordinates":[-74.74958,40.670269]}},{"properties":{"city":"Jersey City","lon":-74.050316,"zip":7307,"librarysystem":"Jersey City Free Public Library","phone":"Phone: (201) 547 - 4556","id":"a672kum99lkl","address":"14 Zabriskie Street","lat":40.745796,"libraryname":"The Heights","state":"NJ"},"type":"Feature","geometry":{"type":"Point","coordinates":[-74.050316,40.745796]}},{"properties":{"city":"Middlesex","lon":-74.499741,"zip":8846,"librarysystem":"The Middlesex Public Library","phone":"Phone - 732-356-6602","id":"a672kujxtfyp","address":"1300 Mountain Ave.","lat":40.578331,"libraryname":"The Middlesex Public Library","state":"NJ"},"type":"Feature","geometry":{"type":"Point","coordinates":[-74.499741,40.578331]}},{"properties":{"city":"North Bergen","lon":-74.004623,"zip":7047,"librarysystem":"Bergen County Cooperative Library System","phone":"201-869-4715","id":"a672kugww7s9","address":"8411 Bergenline Avenue","lat":40.804779,"libraryname":"The North Bergen Free Public Library","state":"NJ"},"type":"Feature","geometry":{"type":"Point","coordinates":[-74.004623,40.804779]}},{"properties":{"city":"Palisades Park","lon":-73.997002,"zip":7650,"librarysystem":"Bergen County Cooperative Library System","phone":"(201) 585-4150","id":"a672kul6cdct","address":"257 Second Street","lat":40.846676,"libraryname":"The Palisades Park Public Library Multimedia Center","state":"NJ"},"type":"Feature","geometry":{"type":"Point","coordinates":[-73.997002,40.846676]}},{"properties":{"city":"Rahway","lon":-74.274219,"zip":"","librarysystem":"The Rahway Public Library","phone":"(732) 340-1551","id":"a672kue8duf9","address":"2 City Hall Plaza","lat":40.605275,"libraryname":"The Rahway Public Library","state":"NJ"},"type":"Feature","geometry":{"type":"Point","coordinates":[-74.274219,40.605275]}},{"properties":{"city":"Ridgefield Park","lon":-74.022031,"zip":"","librarysystem":"Bergen County Cooperative Library System","phone":"201-641-0689","id":"a672kucfx3bp","address":"107 Cedar Street (Corner of Euclid Avenue)","lat":40.854412,"libraryname":"The Ridgefield Park Public Library","state":"NJ"},"type":"Feature","geometry":{"type":"Point","coordinates":[-74.022031,40.854412]}},{"properties":{"city":"Secaucus","lon":-74.058418,"zip":7094,"librarysystem":"Bergen County Cooperative Library System","phone":"Phone (201) 330-2083","id":"a672kufgcpf4","address":"1379 Paterson Plank Road","lat":40.793423,"libraryname":"The Secaucus Public Library","state":"NJ"},"type":"Feature","geometry":{"type":"Point","coordinates":[-74.058418,40.793423]}},{"properties":{"city":"Ho-Ho-Kus","lon":-74.112061,"zip":7423,"librarysystem":"Bergen County Cooperative Library System","phone":"(201) 445-8078","id":"a672kubry5pj","address":"91 Warren Avenue","lat":40.998848,"libraryname":"The Worth-Pinkham Memorial Library","state":"NJ"},"type":"Feature","geometry":{"type":"Point","coordinates":[-74.112061,40.998848]}},{"properties":{"city":"Three Bridges","lon":-74.799263,"zip":8887,"librarysystem":"Hunterdon County Library","phone":"Telephone: (908) 782-2908","id":"a672kug8we8f","address":"449 Main Street","lat":40.520962,"libraryname":"Three Bridges Library","state":"NJ"},"type":"Feature","geometry":{"type":"Point","coordinates":[-74.799263,40.520962]}},{"properties":{"city":"Tinton Falls","lon":-74.097832,"zip":7724,"librarysystem":"Monmouth County Library","phone":"Telephone: (732)542-3110","id":"a672kuc8qfms","address":"664 Tinton Avenue","lat":40.302094,"libraryname":"Tinton Falls","state":"NJ"},"type":"Feature","geometry":{"type":"Point","coordinates":[-74.097832,40.302094]}},{"properties":{"city":"Toms River","lon":-74.195793,"zip":8753,"librarysystem":"Ocean County Library","phone":"Phone: (732) 349-6200","id":"a672kuawf4mh","address":"101 Washington St.","lat":39.952789,"libraryname":"Toms River Branch","state":"NJ"},"type":"Feature","geometry":{"type":"Point","coordinates":[-74.195793,39.952789]}},{"properties":{"city":"Township of Washington","lon":-74.061478,"zip":7676,"librarysystem":"Bergen County Cooperative Library System","phone":"Phone: 201.664.4586","id":"a672ku7ydi3f","address":"144 Woodfield Road","lat":40.987518,"libraryname":"Township of Washington Public Library","state":"NJ"},"type":"Feature","geometry":{"type":"Point","coordinates":[-74.061478,40.987518]}},{"properties":{"city":"Tuckerton","lon":-74.33725,"zip":8087,"librarysystem":"Ocean County Library","phone":"Phone: (609) 296-1470","id":"a672kulg72fw","address":"380 Bay Ave.","lat":39.596066,"libraryname":"Tuckerton Branch","state":"NJ"},"type":"Feature","geometry":{"type":"Point","coordinates":[-74.33725,39.596066]}},{"properties":{"city":"East Windsor","lon":-74.491409,"zip":8520,"librarysystem":"The Mercer County Library System","phone":"Phone: (609) 443-1880","id":"a672ku7xpobv","address":"276 Abbington Drive","lat":40.266747,"libraryname":"Twin Rivers Branch","state":"NJ"},"type":"Feature","geometry":{"type":"Point","coordinates":[-74.491409,40.266747]}},{"properties":{"city":"Union Beach","lon":-74.165459,"zip":7735,"librarysystem":"Monmouth County Library","phone":"Telephone: (732)264-3792","id":"a672ku97dhji","address":"810 Union Avenue","lat":40.443092,"libraryname":"Union Beach","state":"NJ"},"type":"Feature","geometry":{"type":"Point","coordinates":[-74.165459,40.443092]}},{"properties":{"city":"Union","lon":-74.268917,"zip":7083,"librarysystem":"Union Public Library","phone":"1-908-851-5450","id":"a672kugzlxpr","address":"1980 Morris Avenue","lat":40.696057,"libraryname":"Union Public Library","state":"NJ"},"type":"Feature","geometry":{"type":"Point","coordinates":[-74.268917,40.696057]}},{"properties":{"city":"Upper Saddle River","lon":-74.094986,"zip":7458,"librarysystem":"Bergen County Cooperative Library System","phone":"Telephone 201-327-2583","id":"a672kuj9tdr6","address":"245 Lake Street","lat":41.05909,"libraryname":"Upper Saddle River Library","state":"NJ"},"type":"Feature","geometry":{"type":"Point","coordinates":[-74.094986,41.05909]}},{"properties":{"city":"Lavallette","lon":-74.071991,"zip":8735,"librarysystem":"Ocean County Library","phone":"Phone: (732) 793-3996","id":"a672kueo38ra","address":"112 Jersey City Ave.","lat":39.963703,"libraryname":"Upper Shores Branch","state":"NJ"},"type":"Feature","geometry":{"type":"Point","coordinates":[-74.071991,39.963703]}},{"properties":{"city":"Petersburg","lon":-74.726135,"zip":8270,"librarysystem":"Cape May County Library","phone":"609-628-2607","id":"a672kuhqfg81","address":"2050 Route 631","lat":39.262993,"libraryname":"Upper Township","state":"NJ"},"type":"Feature","geometry":{"type":"Point","coordinates":[-74.726135,39.262993]}},{"properties":{"city":"Newark","lon":-74.22541,"zip":7106,"librarysystem":"The Newark Public Library","phone":"973-733-7755","id":"a672kuagjgik","address":"75 Alexander Street","lat":40.743149,"libraryname":"Vailsburg Branch","state":"NJ"},"type":"Feature","geometry":{"type":"Point","coordinates":[-74.22541,40.743149]}},{"properties":{"city":"Newark","lon":-74.157463,"zip":7105,"librarysystem":"The Newark Public Library","phone":"973-733-7750","id":"a672kumsormo","address":"140 Van Buren Street","lat":40.727798,"libraryname":"Van Buren Branch","state":"NJ"},"type":"Feature","geometry":{"type":"Point","coordinates":[-74.157463,40.727798]}},{"properties":{"city":"Ventnor","lon":-74.482208,"zip":8406,"librarysystem":"Atlantic County Library System","phone":"(609) 823-4614","id":"a672kuk9gsfy","address":"6500 Atlantic Ave.","lat":39.336182,"libraryname":"Ventnor Branch","state":"NJ"},"type":"Feature","geometry":{"type":"Point","coordinates":[-74.482208,39.336182]}},{"properties":{"city":"Verona","lon":-74.246353,"zip":7044,"librarysystem":"Verona Public Library","phone":"(973) 857-4848","id":"a672kui00kdk","address":"17 Gould Street","lat":40.833138,"libraryname":"Verona Public Library","state":"NJ"},"type":"Feature","geometry":{"type":"Point","coordinates":[-74.246353,40.833138]}},{"properties":{"city":"Vincentown","lon":-74.750458,"zip":8088,"librarysystem":"Burlington County Library System","phone":"609-859-3598","id":"a672kun9grz5","address":"94 Main St.","lat":39.935604,"libraryname":"Vincentown","state":"NJ"},"type":"Feature","geometry":{"type":"Point","coordinates":[-74.750458,39.935604]}},{"properties":{"city":"Vineland","lon":-75.009476,"zip":8360,"librarysystem":"Cumberland County Library System","phone":"Phone: (856) 794-4244","id":"a672kuh8hgkq","address":"1058 East Landis Avenue","lat":39.485508,"libraryname":"Vineland Public Library","state":"NJ"},"type":"Feature","geometry":{"type":"Point","coordinates":[-75.009476,39.485508]}},{"properties":{"city":"Waldwick","lon":-74.117844,"zip":7463,"librarysystem":"Bergen County Cooperative Library System","phone":"201-652-5104","id":"a672kue299yr","address":"19 East Prospect Street","lat":41.011009,"libraryname":"Waldwick Public Library","state":"NJ"},"type":"Feature","geometry":{"type":"Point","coordinates":[-74.117844,41.011009]}},{"properties":{"city":"Wall","lon":-74.071449,"zip":7719,"librarysystem":"Monmouth County Library","phone":"Telephone: (732) 449-8877","id":"a672ku8mqn9g","address":"2700 Allaire Rd.","lat":40.119389,"libraryname":"Wall","state":"NJ"},"type":"Feature","geometry":{"type":"Point","coordinates":[-74.071449,40.119389]}},{"properties":{"city":"Wallington","lon":-74.11338,"zip":7057,"librarysystem":"Bergen County Cooperative Library System","phone":"973-471-1692","id":"a672kufj45jg","address":"92 Hathaway Street","lat":40.856102,"libraryname":"Wallington John F. Kennedy Memorial Free Public Library","state":"NJ"},"type":"Feature","geometry":{"type":"Point","coordinates":[-74.11338,40.856102]}},{"properties":{"city":"Wanaque","lon":-74.289192,"zip":7465,"librarysystem":"Wanaque Public Library","phone":"973-839-4434 (phone)","id":"a672kua88szo","address":"616 Ringwood Ave","lat":41.050037,"libraryname":"Wanaque Public Library","state":"NJ"},"type":"Feature","geometry":{"type":"Point","coordinates":[-74.289192,41.050037]}},{"properties":{"city":"Waretown","lon":-74.192436,"zip":8758,"librarysystem":"Ocean County Library","phone":"Phone: (609) 693-5133","id":"a672kuf69rzi","address":"112 Main St.","lat":39.794624,"libraryname":"Waretown Branch","state":"NJ"},"type":"Feature","geometry":{"type":"Point","coordinates":[-74.192436,39.794624]}},{"properties":{"city":"Warren","lon":-74.490654,"zip":7059,"librarysystem":"Somerset County Library System","phone":"(908) 754-5554","id":"a672kubi8b2m","address":"42 Mountain Blvd.","lat":40.619095,"libraryname":"Warren Township Library","state":"NJ"},"type":"Feature","geometry":{"type":"Point","coordinates":[-74.490654,40.619095]}},{"properties":{"city":"Washington","lon":-74.984863,"zip":7882,"librarysystem":"Washington Public Library (Warren County)","phone":"908-689-0201","id":"a672kukp2ubq","address":"20 West Carlton Ave","lat":40.763077,"libraryname":"Washington Public Library (Warren County)","state":"NJ"},"type":"Feature","geometry":{"type":"Point","coordinates":[-74.984863,40.763077]}},{"properties":{"city":"Long Valley","lon":-74.78936,"zip":7853,"librarysystem":"Morris Automated Information Network","phone":"908-876-3596","id":"a672kullyhse","address":"37 East Springtown Rd","lat":40.800804,"libraryname":"Washington Township Public Library","state":"NJ"},"type":"Feature","geometry":{"type":"Point","coordinates":[-74.78936,40.800804]}},{"properties":{"city":"Martinsville","lon":-74.556549,"zip":8836,"librarysystem":"Somerset County Library System","phone":"(732) 356-2363","id":"a672kuk14vmn","address":"Washington Valley Rd","lat":40.600235,"libraryname":"Washington Valley Reading Station","state":"NJ"},"type":"Feature","geometry":{"type":"Point","coordinates":[-74.556549,40.600235]}},{"properties":{"city":"Watchung","lon":-74.45166,"zip":7069,"librarysystem":"Somerset County Library System","phone":"(908) 561-0117","id":"a672kuk3owe4","address":"12 Stirling Rd.","lat":40.636806,"libraryname":"Watchung Library","state":"NJ"},"type":"Feature","geometry":{"type":"Point","coordinates":[-74.45166,40.636806]}},{"properties":{"city":"Weehawken","lon":-74.022896,"zip":7086,"librarysystem":"Bergen County Cooperative Library System","phone":"201-863-7823","id":"a672kujhs6xl","address":"49 Hauxhurst Avenue","lat":40.769226,"libraryname":"Weehawken Free Public Library and Media Center","state":"NJ"},"type":"Feature","geometry":{"type":"Point","coordinates":[-74.022896,40.769226]}},{"properties":{"city":"Newark","lon":-74.211472,"zip":7112,"librarysystem":"The Newark Public Library","phone":"973-733-7751","id":"a672ku985hjn","address":"355 Osborne Terrace","lat":40.711048,"libraryname":"Weequahic Branch","state":"NJ"},"type":"Feature","geometry":{"type":"Point","coordinates":[-74.211472,40.711048]}},{"properties":{"city":"Jersey City","lon":-74.084747,"zip":7304,"librarysystem":"Jersey City Free Public Library","phone":"Telephone: (201) 547 - 4554","id":"a672kul7o3p0","address":"476 West Side Avenue","lat":40.717064,"libraryname":"West Bergen","state":"NJ"},"type":"Feature","geometry":{"type":"Point","coordinates":[-74.084747,40.717064]}},{"properties":{"city":"West Caldwell","lon":-74.293365,"zip":7006,"librarysystem":"Bergen County Cooperative Library System","phone":"Phone:  973-226-5441","id":"a672ku9nhj4l","address":"30 Clinton Road","lat":40.850777,"libraryname":"West Caldwell Public Library","state":"NJ"},"type":"Feature","geometry":{"type":"Point","coordinates":[-74.293365,40.850777]}},{"properties":{"city":"West Long Branch","lon":-74.016037,"zip":7764,"librarysystem":"Monmouth County Library","phone":"Telephone: (732)222-5993","id":"a672kuhk228w","address":"95 Poplar Avenue","lat":40.29047,"libraryname":"West Long Branch","state":"NJ"},"type":"Feature","geometry":{"type":"Point","coordinates":[-74.016037,40.29047]}},{"properties":{"city":"West Orange","lon":-74.240822,"zip":7052,"librarysystem":"West Orange Public Library","phone":"973-736-0198","id":"a672ku7fmp8d","address":"46 Mount Pleasant Avenue","lat":40.779308,"libraryname":"West Orange Public Library","state":"NJ"},"type":"Feature","geometry":{"type":"Point","coordinates":[-74.240822,40.779308]}},{"properties":{"city":"Princeton Jct.","lon":-74.632462,"zip":8550,"librarysystem":"The Mercer County Library System","phone":"Phone: (609) 799-0462","id":"a672ku85prjs","address":"333 N. Post Road","lat":40.305805,"libraryname":"West Windsor Branch","state":"NJ"},"type":"Feature","geometry":{"type":"Point","coordinates":[-74.632462,40.305805]}},{"properties":{"city":"Westwood NJ","lon":-74.034492,"zip":7675,"librarysystem":"Bergen County Cooperative Library System","phone":"(201)664-0583","id":"a672kuixc0k8","address":"49 Park Avenue","lat":40.990498,"libraryname":"Westwood Public Library","state":"NJ"},"type":"Feature","geometry":{"type":"Point","coordinates":[-74.034492,40.990498]}},{"properties":{"city":"Wharton","lon":-74.58342,"zip":7885,"librarysystem":"Morris Automated Information Network","phone":"973-361-1333","id":"a672kuhs8fz6","address":"15 South Main St","lat":40.898411,"libraryname":"Wharton Public Library","state":"NJ"},"type":"Feature","geometry":{"type":"Point","coordinates":[-74.58342,40.898411]}},{"properties":{"city":"Whippany","lon":-74.420097,"zip":7981,"librarysystem":"Morris Automated Information Network","phone":"973-428-2460","id":"a672kue77sda","address":"1000 Route 10","lat":40.825478,"libraryname":"Whippanong Library Association","state":"NJ"},"type":"Feature","geometry":{"type":"Point","coordinates":[-74.420097,40.825478]}},{"properties":{"city":"Whiting","lon":-74.379799,"zip":8759,"librarysystem":"Ocean County Library","phone":"Phone: (732) 849-0391","id":"a672kuiekryt","address":"Route 530","lat":39.954784,"libraryname":"Whiting Branch","state":"NJ"},"type":"Feature","geometry":{"type":"Point","coordinates":[-74.379799,39.954784]}},{"properties":{"city":"Wildwood Crest","lon":-74.829689,"zip":8260,"librarysystem":"Cape May County Library","phone":"609-522-0564","id":"a672kujcp85o","address":"6301 Ocean Avenue","lat":38.973633,"libraryname":"Wildwood Crest","state":"NJ"},"type":"Feature","geometry":{"type":"Point","coordinates":[-74.829689,38.973633]}},{"properties":{"city":"Carlstadt","lon":-74.091225,"zip":7072,"librarysystem":"Bergen County Cooperative Library System","phone":"201-438-8866","id":"a672kull58pi","address":"420 Hackensack St","lat":40.838387,"libraryname":"William E. Dermody Library","state":"NJ"},"type":"Feature","geometry":{"type":"Point","coordinates":[-74.091225,40.838387]}},{"properties":{"city":"Westmont","lon":-75.062614,"zip":8108,"librarysystem":"Camden County Library System","phone":"Phone: (856) 854-2752","id":"a672kuerlvdq","address":"15 MacArthur Blvd.","lat":39.902691,"libraryname":"William G. Rohrer Memorial Library - Haddon Twp Branch","state":"NJ"},"type":"Feature","geometry":{"type":"Point","coordinates":[-75.062614,39.902691]}},{"properties":{"city":"Wood-Ridge","lon":-74.081863,"zip":7075,"librarysystem":"Bergen County Cooperative Library System","phone":"Tel: (201) 438-2455","id":"a672kuhoor89","address":"231 Hackensack Street","lat":40.847878,"libraryname":"Wood-Ridge Memorial Library","state":"NJ"},"type":"Feature","geometry":{"type":"Point","coordinates":[-74.081863,40.847878]}},{"properties":{"city":"Woodbine","lon":-74.816727,"zip":8270,"librarysystem":"Cape May County Library","phone":"609-861-2501","id":"a672kudwkr4e","address":"801 Webster Street","lat":39.235065,"libraryname":"Woodbine","state":"NJ"},"type":"Feature","geometry":{"type":"Point","coordinates":[-74.816727,39.235065]}},{"properties":{"city":"Wyckoff","lon":-74.168213,"zip":7481,"librarysystem":"Bergen County Cooperative Library System","phone":"phone 201-891-4866","id":"a672kucravqj","address":"200 Woodland Avenue","lat":41.008186,"libraryname":"Wyckoff Public Library","state":"NJ"},"type":"Feature","geometry":{"type":"Point","coordinates":[-74.168213,41.008186]}}],"is_temporal":false,"author":{"url":"http://www.publiclibraries.com/newjersey.htmt","metadata":"","contact_name":"","contact_address":"","source":"publiclibrairies.com","contact_phone":""},"source":"http://www.publiclibraries.com/newjersey.htmt","pagination":{"sort":null,"start":0,"total":392,"limit":1000000},"state":"complete","tags":"books,education,jersey,libraries,library,new,public","published":"2008-05-09T12:00:00Z","id":939}