{"type":"FeatureCollection","data_type":"Dataset","url_type":null,"permissions":[{"permissions":{"download":true,"view":true},"group_id":"everyone"}],"classification":null,"title":"publiclibraries.com, North Carolina Public Libraries, North Carolina, 1.2008","count":379,"stream_id":942,"contributor":{"url":"http://geocommons.com/users/2","name":"data"},"data_attributes":null,"calculation_params":null,"icon_link":null,"link":"http://geocommons.com/overlays/942.json","extent":[-98.1965,33.816,-75.6608,36.5059],"geometry_types":["point"],"unique_name":null,"name":"publiclibraries.com, North Carolina Public Libraries, North Carolina, 1.2008","feature_count":379,"description":"This dataset displays the locations of all the public libraries in the state of North Carolina. The data included is the name of the library, name of the library system, library's address, phone, and lat/lon coordinates. The data came from publiclibraries.com which is a updated directory of all the public libraries throughout the United States.\n","next_feature":null,"is_raster":false,"short_classification":"Y","stats":{"lon":{"max":-75.66075,"mean":-79.6529772401055,"variance":4.13487342247832,"stdev":2.03343881699901,"min":-98.196517,"median":-79.570075},"phone":{"max":9199693006,"mean":6673961169.77836,"variance":7.11782148887207e+18,"stdev":2667924565.81367,"min":2522235108,"median":8282741007},"lat":{"max":36.5059,"mean":35.5269550026385,"variance":0.300934914302749,"stdev":0.548575349703893,"min":33.815991,"median":35.542798}},"features":[{"properties":{"city":"Ahoskie","lon":-76.985456,"zip":"","librarysystem":"Albemarle Regional Library","phone":2523325500,"id":"a645ehxu93uy","address":"210 East Church Street","lat":36.283913,"libraryname":"Ahoskie Public Library","state":"NC"},"type":"Feature","geometry":{"type":"Point","coordinates":[-76.985456,36.283913]}},{"properties":{"city":"Cashiers","lon":-83.100034,"zip":"","librarysystem":"Fontana Regional Library","phone":8287430215,"id":"a645ei2wausu","address":"249 Frank Allen Road","lat":35.11105,"libraryname":"Albert Carlton-Cashiers Community Library","state":"NC"},"type":"Feature","geometry":{"type":"Point","coordinates":[-83.100034,35.11105]}},{"properties":{"city":"Taylorsville","lon":-81.174329,"zip":"","librarysystem":"Alexander County Library","phone":8286324058,"id":"a645ehpw084g","address":"77 First Ave Southwest","lat":35.921236,"libraryname":"Alexander County Library","state":"NC"},"type":"Feature","geometry":{"type":"Point","coordinates":[-81.174329,35.921236]}},{"properties":{"city":"Sparta","lon":-81.121294,"zip":"","librarysystem":"Northwestern Regional Library","phone":3363725573,"id":"a645ehzrg4ga","address":"P.O. Box 656","lat":36.5059,"libraryname":"Alleghany County Public Library","state":"NC"},"type":"Feature","geometry":{"type":"Point","coordinates":[-81.121294,36.5059]}},{"properties":{"city":"Bunnlevel","lon":-78.916453,"zip":"","librarysystem":"Harnett County Public Library System","phone":9108144012,"id":"a645ei26vwb7","address":"914 Anderson Creek School Rd","lat":35.283553,"libraryname":"Anderson Creek Public Library","state":"NC"},"type":"Feature","geometry":{"type":"Point","coordinates":[-78.916453,35.283553]}},{"properties":{"city":"Andrews","lon":-83.826397,"zip":"","librarysystem":"Nantahala Regional Library","phone":8283215956,"id":"a645ehxh9cp3","address":"871 Main Street","lat":35.200589,"libraryname":"Andrews Public Library","state":"NC"},"type":"Feature","geometry":{"type":"Point","coordinates":[-83.826397,35.200589]}},{"properties":{"city":"Angier","lon":-78.740718,"zip":"","librarysystem":"Harnett County Public Library System","phone":9196394413,"id":"a645ehrtuzpj","address":"28 N. Raleigh Rd.","lat":35.507552,"libraryname":"Angier Public Library","state":"NC"},"type":"Feature","geometry":{"type":"Point","coordinates":[-78.740718,35.507552]}},{"properties":{"city":"Archdale","lon":-79.938303,"zip":"","librarysystem":"Randolph County Public Library","phone":3364313811,"id":"a645ehugjzlo","address":"10433 South Main Street","lat":35.893014,"libraryname":"Archdale Public Library","state":"NC"},"type":"Feature","geometry":{"type":"Point","coordinates":[-79.938303,35.893014]}},{"properties":{"city":"West Jefferson","lon":-81.493726,"zip":"","librarysystem":"Appalachian Regional Library","phone":3368462041,"id":"a645ehyow7v2","address":"148 Library Drive","lat":36.400671,"libraryname":"Ashe County Public Library","state":"NC"},"type":"Feature","geometry":{"type":"Point","coordinates":[-81.493726,36.400671]}},{"properties":{"city":"Asheboro","lon":-79.811561,"zip":"","librarysystem":"Randolph County Public Library","phone":3363186800,"id":"a645ehx8rf6b","address":"201 Worth Street","lat":35.705934,"libraryname":"Asheboro Public Library","state":"NC"},"type":"Feature","geometry":{"type":"Point","coordinates":[-79.811561,35.705934]}},{"properties":{"city":"Asheville","lon":-82.555168,"zip":"","librarysystem":"Asheville-Buncombe Library System","phone":8282504700,"id":"a645ei30ldn9","address":"67 Haywood Street","lat":35.596595,"libraryname":"Asheville-Buncombe Library System","state":"NC"},"type":"Feature","geometry":{"type":"Point","coordinates":[-82.555168,35.596595]}},{"properties":{"city":"Raleigh","lon":-78.710608,"zip":"","librarysystem":"Wake County Public Libraries","phone":9192334000,"id":"a645ei40dys2","address":"1420 Athens Drive","lat":35.769587,"libraryname":"Athens Drive Community Library","state":"NC"},"type":"Feature","geometry":{"type":"Point","coordinates":[-78.710608,35.769587]}},{"properties":{"city":"Newland","lon":-81.926836,"zip":"","librarysystem":"Avery-Mitchell-Yancey Regional Library","phone":8287339393,"id":"a645ehxzuxy8","address":"150 Library Place","lat":36.088288,"libraryname":"Avery County Library","state":"NC"},"type":"Feature","geometry":{"type":"Point","coordinates":[-81.926836,36.088288]}},{"properties":{"city":"Washington","lon":-77.054787,"zip":"","librarysystem":"BHM Regional Library","phone":2529466401,"id":"a645ehsng2i4","address":"158 North Market Street","lat":35.542798,"libraryname":"BHM Regional Library","state":"NC"},"type":"Feature","geometry":{"type":"Point","coordinates":[-77.054787,35.542798]}},{"properties":{"city":"Badin","lon":-80.112103,"zip":"","librarysystem":"Stanly County Public Library","phone":7044223218,"id":"a645ehu5h6q7","address":"62 Pine Street","lat":35.405312,"libraryname":"Badin Branch Library","state":"NC"},"type":"Feature","geometry":{"type":"Point","coordinates":[-80.112103,35.405312]}},{"properties":{"city":"Bath","lon":-76.814193,"zip":"","librarysystem":"BHM Regional Library","phone":2529236371,"id":"a645ehs4j16m","address":"100 Carteret Street","lat":35.4777,"libraryname":"Bath Community Library","state":"NC"},"type":"Feature","geometry":{"type":"Point","coordinates":[-76.814193,35.4777]}},{"properties":{"city":"Charlotte","lon":-80.85382,"zip":"","librarysystem":"Public Library of Charlotte &amp; Mecklenburg County","phone":7043362882,"id":"a645ehuur9v7","address":"2412 Beatties Ford Rd","lat":35.267537,"libraryname":"Beatties Ford Road Branch Library","state":"NC"},"type":"Feature","geometry":{"type":"Point","coordinates":[-80.85382,35.267537]}},{"properties":{"city":"Belhaven","lon":-76.620037,"zip":"","librarysystem":"BHM Regional Library","phone":2529432993,"id":"a645ei18w663","address":"333 East Main Street","lat":35.537716,"libraryname":"Belhaven Public Library","state":"NC"},"type":"Feature","geometry":{"type":"Point","coordinates":[-76.620037,35.537716]}},{"properties":{"city":"Belmont","lon":-81.042335,"zip":"","librarysystem":"Gaston-Lincoln Regional Library System","phone":7048255426,"id":"a645ehwwtj9s","address":"111 Central Avenue","lat":35.241599,"libraryname":"Belmont Branch Library","state":"NC"},"type":"Feature","geometry":{"type":"Point","coordinates":[-81.042335,35.241599]}},{"properties":{"city":"Charlotte","lon":-80.819693,"zip":"","librarysystem":"Public Library of Charlotte &amp; Mecklenburg County","phone":7043362470,"id":"a645ei1idg5w","address":"700 Parkwood Avenue","lat":35.234696,"libraryname":"Belmont Center Branch","state":"NC"},"type":"Feature","geometry":{"type":"Point","coordinates":[-80.819693,35.234696]}},{"properties":{"city":"Oxford","lon":-78.736837,"zip":"","librarysystem":"Granville County Library System","phone":9196931231,"id":"a645ehvd8nwp","address":"1211 Hwy 158","lat":36.314123,"libraryname":"Berea Branch Library","state":"NC"},"type":"Feature","geometry":{"type":"Point","coordinates":[-78.736837,36.314123]}},{"properties":{"city":"Bessemer City","lon":-81.283767,"zip":"","librarysystem":"Gaston-Lincoln Regional Library System","phone":7046293321,"id":"a645ehv9bdfz","address":"207 North 12th Street","lat":35.285966,"libraryname":"Bessemer City Branch Library","state":"NC"},"type":"Feature","geometry":{"type":"Point","coordinates":[-81.283767,35.285966]}},{"properties":{"city":"Biscoe","lon":-79.780419,"zip":"","librarysystem":"Sandhill Regional Library System","phone":9104282551,"id":"a645ei3v2ivq","address":"307 Page Street","lat":35.3641,"libraryname":"Biscoe Branch Library (Allen Library)","state":"NC"},"type":"Feature","geometry":{"type":"Point","coordinates":[-79.780419,35.3641]}},{"properties":{"city":"Black Creek","lon":-77.934752,"zip":"","librarysystem":"Wilson County Public Library","phone":2522373715,"id":"a645ehs0eniw","address":"103 Central Avenue","lat":35.635216,"libraryname":"Black Creek Branch Library","state":"NC"},"type":"Feature","geometry":{"type":"Point","coordinates":[-77.934752,35.635216]}},{"properties":{"city":"Black Mountain","lon":-82.322517,"zip":"","librarysystem":"Asheville-Buncombe Library System","phone":8286692652,"id":"a645ehtbryfj","address":"105 Dougherty Street","lat":35.616213,"libraryname":"Black Mountain Branch Library","state":"NC"},"type":"Feature","geometry":{"type":"Point","coordinates":[-82.322517,35.616213]}},{"properties":{"city":"Elizabethtown","lon":-78.603899,"zip":"","librarysystem":"Bladen County Public Library","phone":9108626990,"id":"a645ehx2tdao","address":"111 North Cypress St.","lat":34.62908,"libraryname":"Bladen County Public Library","state":"NC"},"type":"Feature","geometry":{"type":"Point","coordinates":[-78.603899,34.62908]}},{"properties":{"city":"Greensboro","lon":-79.830812,"zip":"","librarysystem":"Greensboro Public Library","phone":3365455340,"id":"a645ehsutn49","address":"1530 Benjamin Parkway","lat":36.102874,"libraryname":"Blanche Benjamin Branch Library","state":"NC"},"type":"Feature","geometry":{"type":"Point","coordinates":[-79.830812,36.102874]}},{"properties":{"city":"Pine Knoll Shores","lon":-76.824295,"zip":"","librarysystem":"Craven-Pamlico-Carteret Regional Library","phone":2522474660,"id":"a645ei0mfocv","address":"320 Salter Path Road","lat":34.69471,"libraryname":"Bogue Banks Public Library","state":"NC"},"type":"Feature","geometry":{"type":"Point","coordinates":[-76.824295,34.69471]}},{"properties":{"city":"Boonville","lon":-80.709131,"zip":"","librarysystem":"Northwestern Regional Library","phone":3363677737,"id":"a645ehznz38z","address":"121 West Main Street","lat":36.232632,"libraryname":"Boonville Community Public Library","state":"NC"},"type":"Feature","geometry":{"type":"Point","coordinates":[-80.709131,36.232632]}},{"properties":{"city":"Fayetteville","lon":-78.93993,"zip":"","librarysystem":"Cumberland County Public Library &amp; Information Center","phone":9104244008,"id":"a645ehper48t","address":"3711 Village Drive","lat":35.0268,"libraryname":"Bordeaux Branch Library","state":"NC"},"type":"Feature","geometry":{"type":"Point","coordinates":[-78.93993,35.0268]}},{"properties":{"city":"Durham","lon":-78.871639,"zip":"","librarysystem":"Durham County Library","phone":9195600210,"id":"a645ehtqnhcc","address":"3200 Dearborn Drive","lat":36.037425,"libraryname":"Bragtown Branch Library","state":"NC"},"type":"Feature","geometry":{"type":"Point","coordinates":[-78.871639,36.037425]}},{"properties":{"city":"Rocky Mount","lon":-77.797081,"zip":"","librarysystem":"Braswell Memorial Library","phone":2524421951,"id":"a645ei0helo5","address":"727 North Grace Street","lat":35.949678,"libraryname":"Braswell Memorial Library","state":"NC"},"type":"Feature","geometry":{"type":"Point","coordinates":[-77.797081,35.949678]}},{"properties":{"city":"Bladenboro","lon":-78.788879,"zip":"","librarysystem":"Bladen County Public Library","phone":9108634586,"id":"a645ei1vkb43","address":"313 S. Main St.","lat":34.537772,"libraryname":"Bridger Memorial Library","state":"NC"},"type":"Feature","geometry":{"type":"Point","coordinates":[-78.788879,34.537772]}},{"properties":{"city":"Broadway","lon":-79.052138,"zip":"","librarysystem":"Lee County Library","phone":9192586513,"id":"a645eht2hx23","address":"206 S Main St","lat":35.455112,"libraryname":"Broadway Branch Library","state":"NC"},"type":"Feature","geometry":{"type":"Point","coordinates":[-79.052138,35.455112]}},{"properties":{"city":"Newton Grove","lon":-78.355371,"zip":"","librarysystem":"Sampson-Clinton Public Library System","phone":9105941260,"id":"a645ehykj16f","address":"302 West Weeksdale Street","lat":35.242874,"libraryname":"Bryan Memorial Library","state":"NC"},"type":"Feature","geometry":{"type":"Point","coordinates":[-78.355371,35.242874]}},{"properties":{"city":"Asheville","lon":-82.549012,"zip":"","librarysystem":"Asheville-Buncombe Library System","phone":8282504735,"id":"a645ei4gqv5u","address":"60 Court Plaza","lat":35.596183,"libraryname":"Buncombe County Law Library","state":"NC"},"type":"Feature","geometry":{"type":"Point","coordinates":[-82.549012,35.596183]}},{"properties":{"city":"Bunn","lon":-78.246012,"zip":"","librarysystem":"Franklin County Library","phone":9194966764,"id":"a645ehop046e","address":"610 Main Street","lat":35.953687,"libraryname":"Bunn Branch Library","state":"NC"},"type":"Feature","geometry":{"type":"Point","coordinates":[-78.246012,35.953687]}},{"properties":{"city":"Morganton","lon":-81.687498,"zip":"","librarysystem":"Burke County Public Library","phone":8284375638,"id":"a645ei3s3eg2","address":"204 South King Street","lat":35.743296,"libraryname":"Burke County Public Library","state":"NC"},"type":"Feature","geometry":{"type":"Point","coordinates":[-81.687498,35.743296]}},{"properties":{"city":"Hildebran","lon":-81.423089,"zip":"","librarysystem":"Burke County Public Library","phone":8283973600,"id":"a645ei0lbmkj","address":"201 South Center St.","lat":35.7131,"libraryname":"C B Hildebrand Public Library","state":"NC"},"type":"Feature","geometry":{"type":"Point","coordinates":[-81.423089,35.7131]}},{"properties":{"city":"Winterville","lon":-77.402051,"zip":"","librarysystem":"Sheppard Memorial Library","phone":2527561786,"id":"a645ehtyoeyk","address":"Railroad &amp; Main St","lat":35.528063,"libraryname":"C. D. Langston &amp; R. E. Boyd Library","state":"NC"},"type":"Feature","geometry":{"type":"Point","coordinates":[-77.402051,35.528063]}},{"properties":{"city":"Concord","lon":-80.58217,"zip":"","librarysystem":"Cabarrus County Public Library","phone":7049202050,"id":"a645ei3c4gk2","address":"27 Union St. North","lat":35.41109,"libraryname":"Cabarrus County Public Library","state":"NC"},"type":"Feature","geometry":{"type":"Point","coordinates":[-80.58217,35.41109]}},{"properties":{"city":"Lenoir","lon":-81.522499,"zip":"","librarysystem":"Caldwell County Public Library","phone":8287571270,"id":"a645ehurr0gy","address":"120 Hospital Avenue","lat":35.923114,"libraryname":"Caldwell County Public Library","state":"NC"},"type":"Feature","geometry":{"type":"Point","coordinates":[-81.522499,35.923114]}},{"properties":{"city":"Raleigh","lon":-78.657093,"zip":"","librarysystem":"Wake County Public Libraries","phone":9198566710,"id":"a645ehq9yisn","address":"1930 Clark Avenue","lat":35.789201,"libraryname":"Cameron Village Regional Library","state":"NC"},"type":"Feature","geometry":{"type":"Point","coordinates":[-78.657093,35.789201]}},{"properties":{"city":"Canton","lon":-82.836641,"zip":"","librarysystem":"Haywood County Public Library","phone":7046482924,"id":"a645ei1jvukb","address":"11 Pennsylvania Avenue","lat":35.52952,"libraryname":"Canton Branch Library","state":"NC"},"type":"Feature","geometry":{"type":"Point","coordinates":[-82.836641,35.52952]}},{"properties":{"city":"Charlotte","lon":-80.852759,"zip":"","librarysystem":"Public Library of Charlotte &amp; Mecklenburg County","phone":7045420401,"id":"a645ehs13209","address":"6624 Walsh Blvd","lat":35.089968,"libraryname":"Carmel Branch Library","state":"NC"},"type":"Feature","geometry":{"type":"Point","coordinates":[-80.852759,35.089968]}},{"properties":{"city":"Carolina Beach","lon":-77.896256,"zip":"","librarysystem":"New Hanover County Public Library","phone":9104585016,"id":"a645ehv3zgfy","address":"300 Cape Fear Boulevard","lat":34.034228,"libraryname":"Carolina Beach Library","state":"NC"},"type":"Feature","geometry":{"type":"Point","coordinates":[-77.896256,34.034228]}},{"properties":{"city":"Carrboro","lon":-79.100091,"zip":"","librarysystem":"Hyconeechee Regional Library","phone":9199693006,"id":"a645ehzb38h4","address":"900 Fayetteville Road","lat":35.927091,"libraryname":"Carrboro Branch Library","state":"NC"},"type":"Feature","geometry":{"type":"Point","coordinates":[-79.100091,35.927091]}},{"properties":{"city":"Beaufort","lon":-76.664512,"zip":"","librarysystem":"Craven-Pamlico-Carteret Regional Library","phone":2527282050,"id":"a645ehz4e71n","address":"210 Turner Street","lat":34.718627,"libraryname":"Carteret County Public Library","state":"NC"},"type":"Feature","geometry":{"type":"Point","coordinates":[-76.664512,34.718627]}},{"properties":{"city":"Greenville","lon":-77.387273,"zip":"","librarysystem":"Sheppard Memorial Library","phone":2523294583,"id":"a645ei06vvay","address":"618 West 14th Ave.","lat":35.611718,"libraryname":"Carver Branch Library","state":"NC"},"type":"Feature","geometry":{"type":"Point","coordinates":[-77.387273,35.611718]}},{"properties":{"city":"Winston-Salem","lon":-80.213512,"zip":"","librarysystem":"Forsyth County Public Library","phone":3366614917,"id":"a645ehqm670y","address":"4915 Lansing Dr","lat":36.150812,"libraryname":"Carver School Road Branch Library","state":"NC"},"type":"Feature","geometry":{"type":"Point","coordinates":[-80.213512,36.150812]}},{"properties":{"city":"Cary","lon":-78.78131,"zip":"","librarysystem":"Wake County Public Libraries","phone":9194603350,"id":"a645ehwganyt","address":"310 South Academy Street","lat":35.783791,"libraryname":"Cary Library","state":"NC"},"type":"Feature","geometry":{"type":"Point","coordinates":[-78.78131,35.783791]}},{"properties":{"city":"Newton","lon":-81.224343,"zip":"","librarysystem":"Catawba County Library","phone":8284658664,"id":"a645ehqbhwud","address":"115 West C Street","lat":35.661627,"libraryname":"Catawba County Library","state":"NC"},"type":"Feature","geometry":{"type":"Point","coordinates":[-81.224343,35.661627]}},{"properties":{"city":"Chadbourn","lon":-78.825003,"zip":"","librarysystem":"Columbus County Public Library","phone":9106543322,"id":"a645ehyhb374","address":"301 North Wilson St","lat":34.324715,"libraryname":"Chadbourn Community Library","state":"NC"},"type":"Feature","geometry":{"type":"Point","coordinates":[-78.825003,34.324715]}},{"properties":{"city":"Chapel Hill","lon":-79.0352,"zip":"","librarysystem":"Chapel Hill Public Library","phone":9199682777,"id":"a645ehwhpurf","address":"100 Library Drive","lat":35.93224,"libraryname":"Chapel Hill Public Library","state":"NC"},"type":"Feature","geometry":{"type":"Point","coordinates":[-79.0352,35.93224]}},{"properties":{"city":"Pilot Mountain","lon":-80.470169,"zip":"","librarysystem":"Northwestern Regional Library","phone":3363682370,"id":"a645ei3z28cv","address":"319 W. Main St.","lat":36.386712,"libraryname":"Charles H. Stone Memorial Library","state":"NC"},"type":"Feature","geometry":{"type":"Point","coordinates":[-80.470169,36.386712]}},{"properties":{"city":"Lincolnton","lon":-81.26016,"zip":"","librarysystem":"Gaston-Lincoln Regional Library System","phone":7047358044,"id":"a645ehpo3biy","address":"306 West Main Street","lat":35.470448,"libraryname":"Charles R. Jonas Library","state":"NC"},"type":"Feature","geometry":{"type":"Point","coordinates":[-81.26016,35.470448]}},{"properties":{"city":"Cherryville","lon":-81.373875,"zip":"","librarysystem":"Gaston-Lincoln Regional Library System","phone":7044356767,"id":"a645ehrg981n","address":"605 East Main Street","lat":35.380876,"libraryname":"Cherryville Branch Library","state":"NC"},"type":"Feature","geometry":{"type":"Point","coordinates":[-81.373875,35.380876]}},{"properties":{"city":"Charlotte","lon":-80.893383,"zip":"","librarysystem":"Public Library of Charlotte &amp; Mecklenburg County","phone":7043362721,"id":"a645ehtjv5jv","address":"1516 Alleghany St","lat":35.238514,"libraryname":"Cityview Branch Library","state":"NC"},"type":"Feature","geometry":{"type":"Point","coordinates":[-80.893383,35.238514]}},{"properties":{"city":"Claremont","lon":-81.145916,"zip":"","librarysystem":"Catawba County Library","phone":8284599311,"id":"a645ehvkko3s","address":"3288 East Main Street","lat":35.715482,"libraryname":"Claremont Branch Library","state":"NC"},"type":"Feature","geometry":{"type":"Point","coordinates":[-81.145916,35.715482]}},{"properties":{"city":"Clarkton","lon":-78.654769,"zip":"","librarysystem":"Bladen County Public Library","phone":9106473661,"id":"a645ehx0e0wu","address":"10413 N. College St.","lat":34.48978,"libraryname":"Clarkton Public Library","state":"NC"},"type":"Feature","geometry":{"type":"Point","coordinates":[-78.654769,34.48978]}},{"properties":{"city":"Clemmons","lon":-80.376508,"zip":"","librarysystem":"Forsyth County Public Library","phone":3367124450,"id":"a645ehvs21bc","address":"3554 Clemmons Road","lat":36.021982,"libraryname":"Clemmons Branch Library","state":"NC"},"type":"Feature","geometry":{"type":"Point","coordinates":[-80.376508,36.021982]}},{"properties":{"city":"Shelby","lon":-81.556221,"zip":"","librarysystem":"Cleveland County Library","phone":7044879069,"id":"a645ehvrz1f2","address":"104 Howie Drive","lat":35.293755,"libraryname":"Cleveland County Library","state":"NC"},"type":"Feature","geometry":{"type":"Point","coordinates":[-81.556221,35.293755]}},{"properties":{"city":"Fayetteville","lon":-79.01142,"zip":"","librarysystem":"Cumberland County Public Library &amp; Information Center","phone":9108643800,"id":"a645ehvjmucg","address":"6882 Cliffdale Road","lat":35.060029,"libraryname":"Cliffdale Branch Library","state":"NC"},"type":"Feature","geometry":{"type":"Point","coordinates":[-79.01142,35.060029]}},{"properties":{"city":"Coats","lon":-78.672028,"zip":"","librarysystem":"Harnett County Public Library System","phone":9102301944,"id":"a645ei4ajaca","address":"243 S. Mckinley St.","lat":35.404326,"libraryname":"Coats Public Library","state":"NC"},"type":"Feature","geometry":{"type":"Point","coordinates":[-78.672028,35.404326]}},{"properties":{"city":"Whiteville","lon":-78.70835,"zip":"","librarysystem":"Columbus County Public Library","phone":9106423116,"id":"a645ei0yltf3","address":"407 N. Powell Boulevard","lat":34.33413,"libraryname":"Columbus County Public Library","state":"NC"},"type":"Feature","geometry":{"type":"Point","coordinates":[-78.70835,34.33413]}},{"properties":{"city":"Trenton","lon":-77.460521,"zip":"","librarysystem":"Neuse Regional Library","phone":9103245061,"id":"a645ei1dwz92","address":"4889 Highway 41 West","lat":35.036123,"libraryname":"Comfort Branch Library","state":"NC"},"type":"Feature","geometry":{"type":"Point","coordinates":[-77.460521,35.036123]}},{"properties":{"city":"Conover","lon":-81.218409,"zip":"","librarysystem":"Catawba County Library","phone":8284665108,"id":"a645ehqjwvsn","address":"101 First St E","lat":35.706449,"libraryname":"Conover Express Branch Library","state":"NC"},"type":"Feature","geometry":{"type":"Point","coordinates":[-81.218409,35.706449]}},{"properties":{"city":"Cooleemee","lon":-80.550209,"zip":"","librarysystem":"Davie County Public Library","phone":3362842805,"id":"a645ehpen4ln","address":"7796 Hwy 801 S","lat":35.81581,"libraryname":"Cooleemee Branch Library","state":"NC"},"type":"Feature","geometry":{"type":"Point","coordinates":[-80.550209,35.81581]}},{"properties":{"city":"Cornelius","lon":-80.86437,"zip":"","librarysystem":"Public Library of Charlotte &amp; Mecklenburg County","phone":7046559409,"id":"a645eht4s3w3","address":"21105 Catawba Avenue","lat":35.483192,"libraryname":"Cornelius Branch Library","state":"NC"},"type":"Feature","geometry":{"type":"Point","coordinates":[-80.86437,35.483192]}},{"properties":{"city":"Corolla","lon":-75.830234,"zip":"","librarysystem":"East Albemarle Regional Library","phone":2524530496,"id":"a645ehosawo3","address":"1123 Ocean Trail","lat":36.379697,"libraryname":"Corolla Branch Library","state":"NC"},"type":"Feature","geometry":{"type":"Point","coordinates":[-75.830234,36.379697]}},{"properties":{"city":"Charlotte","lon":-80.937538,"zip":"","librarysystem":"Public Library of Charlotte &amp; Mecklenburg County","phone":7043947820,"id":"a645ehy379p7","address":"8410 Bellhaven Blvd.","lat":35.304556,"libraryname":"Coulwood Branch Library","state":"NC"},"type":"Feature","geometry":{"type":"Point","coordinates":[-80.937538,35.304556]}},{"properties":{"city":"Cove City","lon":-77.320447,"zip":"","librarysystem":"Craven-Pamlico-Carteret Regional Library","phone":2526386363,"id":"a645ehokuefo","address":"102 North Main Street","lat":35.187057,"libraryname":"Cove City-Craven County Public Library","state":"NC"},"type":"Feature","geometry":{"type":"Point","coordinates":[-77.320447,35.187057]}},{"properties":{"city":"Stantonsburg","lon":-77.823527,"zip":"","librarysystem":"Wilson County Public Library","phone":2522383758,"id":"a645ehyy9lfk","address":"114 S Main St","lat":35.606903,"libraryname":"Crocker Branch Library","state":"NC"},"type":"Feature","geometry":{"type":"Point","coordinates":[-77.823527,35.606903]}},{"properties":{"city":"Fayetteville","lon":-78.880924,"zip":"","librarysystem":"Cumberland County Public Library &amp; Information Center","phone":9104837727,"id":"a645ei3v6yne","address":"300 Maiden Lane","lat":35.055106,"libraryname":"Cumberland County Public Library &amp; Information Center","state":"NC"},"type":"Feature","geometry":{"type":"Point","coordinates":[-78.880924,35.055106]}},{"properties":{"city":"Candor","lon":-79.746589,"zip":"","librarysystem":"Sandhill Regional Library System","phone":9109744033,"id":"a645ehthhfc0","address":"138 S School St","lat":35.294345,"libraryname":"Currie Memorial Library","state":"NC"},"type":"Feature","geometry":{"type":"Point","coordinates":[-79.746589,35.294345]}},{"properties":{"city":"Barco","lon":-75.97041,"zip":"","librarysystem":"East Albemarle Regional Library","phone":2524538345,"id":"a645ehsfr739","address":"4261 Caratoke Highway","lat":36.369393,"libraryname":"Currituck County Library","state":"NC"},"type":"Feature","geometry":{"type":"Point","coordinates":[-75.97041,36.369393]}},{"properties":{"city":"Dallas","lon":-81.177429,"zip":"","librarysystem":"Gaston-Lincoln Regional Library System","phone":7049223621,"id":"a645ehq2fn73","address":"105 South Holland Street","lat":35.315353,"libraryname":"Dallas Branch Library","state":"NC"},"type":"Feature","geometry":{"type":"Point","coordinates":[-81.177429,35.315353]}},{"properties":{"city":"Danbury","lon":-80.214196,"zip":"","librarysystem":"Northwestern Regional Library","phone":3365932419,"id":"a645ehpq14qq","address":"1104 Main Street","lat":36.411175,"libraryname":"Danbury Public Library","state":"NC"},"type":"Feature","geometry":{"type":"Point","coordinates":[-80.214196,36.411175]}},{"properties":{"city":"Manteo","lon":-75.667223,"zip":"","librarysystem":"East Albemarle Regional Library","phone":2524732372,"id":"a645ehtisk3r","address":"700 N. Highway 64/264","lat":35.895887,"libraryname":"Dare County Library","state":"NC"},"type":"Feature","geometry":{"type":"Point","coordinates":[-75.667223,35.895887]}},{"properties":{"city":"Davidson","lon":-80.848446,"zip":"","librarysystem":"Public Library of Charlotte &amp; Mecklenburg County","phone":7048928557,"id":"a645ehtf390o","address":"119 South Main Street","lat":35.498892,"libraryname":"Davidson Branch Library","state":"NC"},"type":"Feature","geometry":{"type":"Point","coordinates":[-80.848446,35.498892]}},{"properties":{"city":"Lexington","lon":-80.258771,"zip":"","librarysystem":"Davidson County Public Library","phone":3362422064,"id":"a645ehtm0ees","address":"602 South Main Street","lat":35.819216,"libraryname":"Davidson County Public Library","state":"NC"},"type":"Feature","geometry":{"type":"Point","coordinates":[-80.258771,35.819216]}},{"properties":{"city":"Mocksville","lon":-80.559691,"zip":"","librarysystem":"Davie County Public Library","phone":3367512023,"id":"a645ei0qqmu4","address":"371 N. Main St","lat":35.897468,"libraryname":"Davie County Public Library","state":"NC"},"type":"Feature","geometry":{"type":"Point","coordinates":[-80.559691,35.897468]}},{"properties":{"city":"Denton","lon":-80.118929,"zip":"","librarysystem":"Davidson County Public Library","phone":3368592215,"id":"a645ehw2lvqw","address":"310 West Salisbury Street","lat":35.633541,"libraryname":"Denton Public Library","state":"NC"},"type":"Feature","geometry":{"type":"Point","coordinates":[-80.118929,35.633541]}},{"properties":{"city":"Dobson","lon":-80.721667,"zip":"","librarysystem":"Northwestern Regional Library","phone":3363868208,"id":"a645ehw6on3i","address":"305 S. Main St.","lat":36.394406,"libraryname":"Dobson Community Library","state":"NC"},"type":"Feature","geometry":{"type":"Point","coordinates":[-80.721667,36.394406]}},{"properties":{"city":"Dunn","lon":-78.610695,"zip":"","librarysystem":"Harnett County Public Library System","phone":9108922899,"id":"a645ehohkva6","address":"110 East Divine Street","lat":35.305862,"libraryname":"Dunn Public Library","state":"NC"},"type":"Feature","geometry":{"type":"Point","coordinates":[-78.610695,35.305862]}},{"properties":{"city":"Kenansville","lon":-77.964647,"zip":"","librarysystem":"Duplin County Library","phone":9102962117,"id":"a645ehz4kb1u","address":"107 Bowden Drive","lat":34.963426,"libraryname":"Duplin County - Dorothy Wightman Library","state":"NC"},"type":"Feature","geometry":{"type":"Point","coordinates":[-77.964647,34.963426]}},{"properties":{"city":"Durham","lon":-78.896014,"zip":"","librarysystem":"Durham County Library","phone":9195600100,"id":"a645ehu0nbw6","address":"P.O. Box 3809, 300 N. Roxboro St.","lat":35.995275,"libraryname":"Durham County Library","state":"NC"},"type":"Feature","geometry":{"type":"Point","coordinates":[-78.896014,35.995275]}},{"properties":{"city":"Asheville","lon":-82.50249,"zip":"","librarysystem":"Asheville-Buncombe Library System","phone":8282981889,"id":"a645ei49tipb","address":"902 Tunnel Road","lat":35.587667,"libraryname":"East Asheville Branch Library","state":"NC"},"type":"Feature","geometry":{"type":"Point","coordinates":[-82.50249,35.587667]}},{"properties":{"city":"East Bend","lon":-80.507668,"zip":"","librarysystem":"Northwestern Regional Library","phone":3366993890,"id":"a645ei1oau7v","address":"332 West Main Street","lat":36.216498,"libraryname":"East Bend Public Library","state":"NC"},"type":"Feature","geometry":{"type":"Point","coordinates":[-80.507668,36.216498]}},{"properties":{"city":"Greenville","lon":-77.342999,"zip":"","librarysystem":"Sheppard Memorial Library","phone":2523294582,"id":"a645ei3s6u3z","address":"2000 Cedar Lane","lat":35.595317,"libraryname":"East Branch Library","state":"NC"},"type":"Feature","geometry":{"type":"Point","coordinates":[-77.342999,35.595317]}},{"properties":{"city":"Wilson","lon":-77.933916,"zip":"","librarysystem":"Wilson County Public Library","phone":2522372627,"id":"a645ei4b9ky8","address":"1006-C Ward Blvd","lat":35.717872,"libraryname":"East Branch Library","state":"NC"},"type":"Feature","geometry":{"type":"Point","coordinates":[-77.933916,35.717872]}},{"properties":{"city":"Rockwell","lon":-80.407294,"zip":"","librarysystem":"Rowan Public Library","phone":7042795014,"id":"a645ehpa7631","address":"P.O. Box 550","lat":35.551645,"libraryname":"East Branch Library","state":"NC"},"type":"Feature","geometry":{"type":"Point","coordinates":[-80.407294,35.551645]}},{"properties":{"city":"Riegelwood","lon":-78.222627,"zip":"","librarysystem":"Columbus County Public Library","phone":9106554157,"id":"a645ehwgoswr","address":"P.O. Box 27","lat":34.336263,"libraryname":"East Columbus Branch Library","state":"NC"},"type":"Feature","geometry":{"type":"Point","coordinates":[-78.222627,34.336263]}},{"properties":{"city":"Fayetteville","lon":-78.757584,"zip":"","librarysystem":"Cumberland County Public Library &amp; Information Center","phone":9104852955,"id":"a645ehv8uzvp","address":"4809 Clinton Road","lat":35.035983,"libraryname":"East Regional Branch Library","state":"NC"},"type":"Feature","geometry":{"type":"Point","coordinates":[-78.757584,35.035983]}},{"properties":{"city":"Knightdale","lon":-78.48947,"zip":"","librarysystem":"Wake County Public Libraries","phone":9192175300,"id":"a645ehy5fzyu","address":"946 Steeple Square Court","lat":35.803006,"libraryname":"East Regional Library","state":"NC"},"type":"Feature","geometry":{"type":"Point","coordinates":[-78.48947,35.803006]}},{"properties":{"city":"Winston-Salem","lon":-80.23238,"zip":"","librarysystem":"Forsyth County Public Library","phone":3367272202,"id":"a645ei2q4yir","address":"1110 East Seventh Street","lat":36.101948,"libraryname":"East Winston Heritage Center","state":"NC"},"type":"Feature","geometry":{"type":"Point","coordinates":[-80.23238,36.101948]}},{"properties":{"city":"Eden","lon":-79.736407,"zip":"","librarysystem":"Rockingham County Public Library","phone":3366233168,"id":"a645ei0r50az","address":"598 S Pierce Street","lat":36.494578,"libraryname":"Eden Branch Library","state":"NC"},"type":"Feature","geometry":{"type":"Point","coordinates":[-79.736407,36.494578]}},{"properties":{"city":"Tarboro","lon":-77.537021,"zip":"","librarysystem":"Edgecombe County Memorial Library","phone":2528231141,"id":"a645ehoscpab","address":"909 Main Street","lat":35.90138,"libraryname":"Edgecombe County Memorial Library","state":"NC"},"type":"Feature","geometry":{"type":"Point","coordinates":[-77.537021,35.90138]}},{"properties":{"city":"Edneyville","lon":-82.343049,"zip":"","librarysystem":"Henderson County Public Library","phone":8286850110,"id":"a645ei1ff6uw","address":"2 Firehouse Lane","lat":35.391975,"libraryname":"Edneyville Branch Library","state":"NC"},"type":"Feature","geometry":{"type":"Point","coordinates":[-82.343049,35.391975]}},{"properties":{"city":"Raleigh","lon":-78.639614,"zip":"","librarysystem":"Wake County Public Libraries","phone":9198566690,"id":"a645ehrkevh2","address":"334 Fayetteville Street Mall","lat":35.776433,"libraryname":"Electronic Information Center","state":"NC"},"type":"Feature","geometry":{"type":"Point","coordinates":[-78.639614,35.776433]}},{"properties":{"city":"Murfreesboro","lon":-77.098209,"zip":"","librarysystem":"Albemarle Regional Library","phone":2523984494,"id":"a645ehopw7c8","address":"213 East Main Street Po Drawer 186","lat":36.442363,"libraryname":"Elizabeth Sewell Parker Library","state":"NC"},"type":"Feature","geometry":{"type":"Point","coordinates":[-77.098209,36.442363]}},{"properties":{"city":"Elkin","lon":-80.854383,"zip":"","librarysystem":"Northwestern Regional Library","phone":3368355586,"id":"a645ehves180","address":"111 North Front Street","lat":36.243869,"libraryname":"Elkin Public Library","state":"NC"},"type":"Feature","geometry":{"type":"Point","coordinates":[-80.854383,36.243869]}},{"properties":{"city":"Elm City","lon":-77.831109,"zip":"","librarysystem":"Wilson County Public Library","phone":2522364269,"id":"a645ei4cdnn7","address":"117 N Railroad St","lat":35.86195,"libraryname":"Elm City Branch","state":"NC"},"type":"Feature","geometry":{"type":"Point","coordinates":[-77.831109,35.86195]}},{"properties":{"city":"Emerald Isle","lon":-76.952998,"zip":"","librarysystem":"Craven-Pamlico-Carteret Regional Library","phone":2523549219,"id":"a645ei380fl8","address":"100 Leisure Lane","lat":34.677446,"libraryname":"Emerald Isle Library","state":"NC"},"type":"Feature","geometry":{"type":"Point","coordinates":[-76.952998,34.677446]}},{"properties":{"city":"Enka","lon":-82.648129,"zip":"","librarysystem":"Asheville-Buncombe Library System","phone":8286678153,"id":"a645ehqjwmpd","address":"1404 Sandhill Rd, Po Box 1559","lat":35.5498,"libraryname":"Enka Branch Library","state":"NC"},"type":"Feature","geometry":{"type":"Point","coordinates":[-82.648129,35.5498]}},{"properties":{"city":"Erwin","lon":-78.6762,"zip":"","librarysystem":"Harnett County Public Library System","phone":9108975780,"id":"a645ehywmsy1","address":"110 W. F. St.","lat":35.326093,"libraryname":"Erwin Public Library","state":"NC"},"type":"Feature","geometry":{"type":"Point","coordinates":[-78.6762,35.326093]}},{"properties":{"city":"Etowah","lon":-82.594704,"zip":"","librarysystem":"Henderson County Public Library","phone":8288916577,"id":"a645ehsi66o8","address":"245 Brickyard Road","lat":35.321538,"libraryname":"Etowah Branch Library","state":"NC"},"type":"Feature","geometry":{"type":"Point","coordinates":[-82.594704,35.321538]}},{"properties":{"city":"Apex","lon":-78.824587,"zip":"","librarysystem":"Wake County Public Libraries","phone":9193872100,"id":"a645ehv0n63h","address":"2100 Shepherd's Vineyard Drive","lat":35.742592,"libraryname":"Eva Perry Regional Library","state":"NC"},"type":"Feature","geometry":{"type":"Point","coordinates":[-78.824587,35.742592]}},{"properties":{"city":"Fair Bluff","lon":-79.032707,"zip":"","librarysystem":"Columbus County Public Library","phone":9106497098,"id":"a645ei245t5p","address":"P.O. Box 428","lat":34.314966,"libraryname":"Fair Bluff Community Library","state":"NC"},"type":"Feature","geometry":{"type":"Point","coordinates":[-79.032707,34.314966]}},{"properties":{"city":"Fairview","lon":-82.413823,"zip":"","librarysystem":"Asheville-Buncombe Library System","phone":8286285837,"id":"a645ehv231bz","address":"1 Taylor Rd","lat":35.525231,"libraryname":"Fairview Branch Library","state":"NC"},"type":"Feature","geometry":{"type":"Point","coordinates":[-82.413823,35.525231]}},{"properties":{"city":"Faison","lon":-78.139109,"zip":"","librarysystem":"Duplin County Library","phone":9102670601,"id":"a645ehpqkcqu","address":"106 Park Circle","lat":35.118158,"libraryname":"Faison Branch Library (Emily Hill Library)","state":"NC"},"type":"Feature","geometry":{"type":"Point","coordinates":[-78.139109,35.118158]}},{"properties":{"city":"Farmville","lon":-77.586582,"zip":"","librarysystem":"Farmville Public Library","phone":2527533355,"id":"a645ei1gsrnz","address":"115 W. Church Street","lat":35.596354,"libraryname":"Farmville Public Library","state":"NC"},"type":"Feature","geometry":{"type":"Point","coordinates":[-77.586582,35.596354]}},{"properties":{"city":"Gastonia","lon":-81.192485,"zip":"","librarysystem":"Gaston-Lincoln Regional Library System","phone":7048688046,"id":"a645ehoosgxw","address":"913 Pryor Street","lat":35.273052,"libraryname":"Ferguson Branch Library - Erwin Center","state":"NC"},"type":"Feature","geometry":{"type":"Point","coordinates":[-81.192485,35.273052]}},{"properties":{"city":"Fletcher","lon":-82.503049,"zip":"","librarysystem":"Henderson County Public Library","phone":8286871218,"id":"a645ehwj4m7n","address":"120 Library Road","lat":35.434829,"libraryname":"Fletcher Branch Library","state":"NC"},"type":"Feature","geometry":{"type":"Point","coordinates":[-82.503049,35.434829]}},{"properties":{"city":"Magnolia","lon":-78.055764,"zip":"","librarysystem":"Duplin County Library","phone":9102897056,"id":"a645ehxhawzj","address":"104 West Main St.","lat":34.896264,"libraryname":"Florence Gallier Library","state":"NC"},"type":"Feature","geometry":{"type":"Point","coordinates":[-78.055764,34.896264]}},{"properties":{"city":"Denver","lon":-80.989142,"zip":"","librarysystem":"Gaston-Lincoln Regional Library System","phone":7044833589,"id":"a645ei0wfx7l","address":"7837 Fairfield Forest Rd.","lat":35.506756,"libraryname":"Florence S. Shanklin Branch Library","state":"NC"},"type":"Feature","geometry":{"type":"Point","coordinates":[-80.989142,35.506756]}},{"properties":{"city":"Winston-Salem","lon":-80.251746,"zip":"","librarysystem":"Forsyth County Public Library","phone":3367272556,"id":"a645ei0rm75x","address":"660 West Fifth Street","lat":36.098964,"libraryname":"Forsyth County Public Library","state":"NC"},"type":"Feature","geometry":{"type":"Point","coordinates":[-80.251746,36.098964]}},{"properties":{"city":"Louisburg","lon":-78.296428,"zip":"","librarysystem":"Franklin County Library","phone":9194962111,"id":"a645ei1q4xts","address":"906 N. Main Street","lat":36.110112,"libraryname":"Franklin County Library","state":"NC"},"type":"Feature","geometry":{"type":"Point","coordinates":[-78.296428,36.110112]}},{"properties":{"city":"Franklinton","lon":-78.457175,"zip":"","librarysystem":"Franklin County Library","phone":9194942736,"id":"a645ehvexhoy","address":"9 West Mason Street","lat":36.103516,"libraryname":"Franklinton Public Library","state":"NC"},"type":"Feature","geometry":{"type":"Point","coordinates":[-78.457175,36.103516]}},{"properties":{"city":"Charlotte","lon":-80.889587,"zip":"","librarysystem":"Public Library of Charlotte &amp; Mecklenburg County","phone":7043362721,"id":"a645ehz0umt9","address":"1230 Alleghany St","lat":35.23757,"libraryname":"Freedom Regional Branch","state":"NC"},"type":"Feature","geometry":{"type":"Point","coordinates":[-80.889587,35.23757]}},{"properties":{"city":"Fremont","lon":-77.975584,"zip":"","librarysystem":"Wayne County Public Library","phone":9192425442,"id":"a645ehp6h7h5","address":"202 Goldsboro St","lat":35.542681,"libraryname":"Fremont Public Library","state":"NC"},"type":"Feature","geometry":{"type":"Point","coordinates":[-77.975584,35.542681]}},{"properties":{"city":"Fuquay-Varina","lon":-78.79807,"zip":"","librarysystem":"Wake County Public Libraries","phone":9195572788,"id":"a645ehxgwx1r","address":"133 S. Fuquay Avenue","lat":35.583756,"libraryname":"Fuquay-Varina Library","state":"NC"},"type":"Feature","geometry":{"type":"Point","coordinates":[-78.79807,35.583756]}},{"properties":{"city":"Oak Island","lon":-78.070969,"zip":"","librarysystem":"Brunswick County Library","phone":9102784283,"id":"a645ei17hmx4","address":"818 Yaupon Dr.","lat":33.90215,"libraryname":"G. V. Barbee Sr. Library","state":"NC"},"type":"Feature","geometry":{"type":"Point","coordinates":[-78.070969,33.90215]}},{"properties":{"city":"Gastonia","lon":-81.157552,"zip":"","librarysystem":"Gaston-Lincoln Regional Library System","phone":7048682164,"id":"a645ehqdln35","address":"1555 East Garrison Blvd.","lat":35.252688,"libraryname":"Gaston County Public Library","state":"NC"},"type":"Feature","geometry":{"type":"Point","coordinates":[-81.157552,35.252688]}},{"properties":{"city":"Gatesville","lon":-76.752367,"zip":"","librarysystem":"Albemarle Regional Library","phone":2523570110,"id":"a645ehxj4bws","address":"115 Court Street","lat":36.403521,"libraryname":"Gates County Library","state":"NC"},"type":"Feature","geometry":{"type":"Point","coordinates":[-76.752367,36.403521]}},{"properties":{"city":"Washington","lon":-77.059564,"zip":"","librarysystem":"George H. And Laura E. Brown Public Library","phone":2529464300,"id":"a645ehrbjqj1","address":"122 Van Norden Street","lat":35.544579,"libraryname":"George H. And Laura E. Brown Public Library","state":"NC"},"type":"Feature","geometry":{"type":"Point","coordinates":[-77.059564,35.544579]}},{"properties":{"city":"Maxton","lon":-79.350648,"zip":"","librarysystem":"Robeson County Public Library","phone":9108443884,"id":"a645ehp6e3o2","address":"210 N Florence St","lat":34.737436,"libraryname":"Gilbert Patterson Memorial Public Library","state":"NC"},"type":"Feature","geometry":{"type":"Point","coordinates":[-79.350648,34.737436]}},{"properties":{"city":"Greensboro","lon":-79.821137,"zip":"","librarysystem":"Greensboro Public Library","phone":3362975000,"id":"a645ehrjdyg3","address":"1901 W. Florida Street","lat":36.052137,"libraryname":"Glenwood Branch","state":"NC"},"type":"Feature","geometry":{"type":"Point","coordinates":[-79.821137,36.052137]}},{"properties":{"city":"Goldston","lon":-79.334848,"zip":"","librarysystem":"Central North Carolina Regional Library","phone":9198984522,"id":"a645eho8q55e","address":"355 Goldston-Glendon Rd","lat":35.590465,"libraryname":"Goldston Public Library","state":"NC"},"type":"Feature","geometry":{"type":"Point","coordinates":[-79.334848,35.590465]}},{"properties":{"city":"Robbinsville","lon":-83.810552,"zip":"","librarysystem":"Nantahala Regional Library","phone":8284798796,"id":"a645ei3wkhxs","address":"80 Knight Street","lat":35.326239,"libraryname":"Graham County Public Library","state":"NC"},"type":"Feature","geometry":{"type":"Point","coordinates":[-83.810552,35.326239]}},{"properties":{"city":"Graham","lon":-79.40054,"zip":"","librarysystem":"Central North Carolina Regional Library","phone":3365706730,"id":"a645ehpjc4u5","address":"211 S. Main Street","lat":36.067467,"libraryname":"Graham Public Library","state":"NC"},"type":"Feature","geometry":{"type":"Point","coordinates":[-79.40054,36.067467]}},{"properties":{"city":"Granite Falls","lon":-81.42736,"zip":"","librarysystem":"Caldwell County Public Library","phone":8283967703,"id":"a645ehpazpv4","address":"30 Falls Avenue","lat":35.798548,"libraryname":"Granite Falls Branch Library","state":"NC"},"type":"Feature","geometry":{"type":"Point","coordinates":[-81.42736,35.798548]}},{"properties":{"city":"Tuxedo","lon":-82.430308,"zip":"","librarysystem":"Henderson County Public Library","phone":8286974969,"id":"a645ei0qdyb5","address":"50 Green River Road","lat":35.224967,"libraryname":"Green River Branch Library","state":"NC"},"type":"Feature","geometry":{"type":"Point","coordinates":[-82.430308,35.224967]}},{"properties":{"city":"Raleigh","lon":-78.591534,"zip":"","librarysystem":"Wake County Public Libraries","phone":9197903200,"id":"a645ehygungy","address":"4101 Green Road","lat":35.839062,"libraryname":"Green Road Library","state":"NC"},"type":"Feature","geometry":{"type":"Point","coordinates":[-78.591534,35.839062]}},{"properties":{"city":"Snow Hill","lon":-77.683507,"zip":"","librarysystem":"Neuse Regional Library","phone":2527473437,"id":"a645ei20m9px","address":"229 Kingold Blvd","lat":35.451403,"libraryname":"Greene County Public Library","state":"NC"},"type":"Feature","geometry":{"type":"Point","coordinates":[-77.683507,35.451403]}},{"properties":{"city":"Greensboro","lon":-79.786834,"zip":"","librarysystem":"Greensboro Public Library","phone":3363732474,"id":"a645ehx2ezrl","address":"219 North Church Street","lat":36.073866,"libraryname":"Greensboro Public Library","state":"NC"},"type":"Feature","geometry":{"type":"Point","coordinates":[-79.786834,36.073866]}},{"properties":{"city":"Greensboro","lon":-79.88489,"zip":"","librarysystem":"Greensboro Public Library","phone":3363732923,"id":"a645eho6bq8c","address":"615 Dolley Madison Road","lat":36.087852,"libraryname":"Guilford College Branch","state":"NC"},"type":"Feature","geometry":{"type":"Point","coordinates":[-79.88489,36.087852]}},{"properties":{"city":"Yanceyville","lon":-79.331563,"zip":"","librarysystem":"Hyconeechee Regional Library","phone":3366946241,"id":"a645ehydovsr","address":"161 Main Street East","lat":36.404231,"libraryname":"Gunn Memorial Public Library","state":"NC"},"type":"Feature","geometry":{"type":"Point","coordinates":[-79.331563,36.404231]}},{"properties":{"city":"Henderson","lon":-78.404447,"zip":"","librarysystem":"H. Leslie Perry Memorial Library","phone":2524383316,"id":"a645ehwm35io","address":"205 Breckenridge St.","lat":36.327105,"libraryname":"H. Leslie Perry Memorial Library","state":"NC"},"type":"Feature","geometry":{"type":"Point","coordinates":[-78.404447,36.327105]}},{"properties":{"city":"Halifax","lon":-77.589229,"zip":"","librarysystem":"Halifax County Library System","phone":9195833631,"id":"a645ei387pqt","address":"33 Granville St., P.O. Box 97","lat":36.32888,"libraryname":"Halifax County Library","state":"NC"},"type":"Feature","geometry":{"type":"Point","coordinates":[-77.589229,36.32888]}},{"properties":{"city":"Hamlet","lon":-79.694173,"zip":"","librarysystem":"Sandhill Regional Library System","phone":9105823477,"id":"a645ehtvb85w","address":"302 Main Street","lat":34.879396,"libraryname":"Hamlet Public Library","state":"NC"},"type":"Feature","geometry":{"type":"Point","coordinates":[-79.694173,34.879396]}},{"properties":{"city":"Hampstead","lon":-77.711274,"zip":"","librarysystem":"Pender County Public Library","phone":9102704603,"id":"a645ei3zut0e","address":"Library Drive","lat":34.36693,"libraryname":"Hampstead Branch Library","state":"NC"},"type":"Feature","geometry":{"type":"Point","coordinates":[-77.711274,34.36693]}},{"properties":{"city":"Wadesboro","lon":-80.077101,"zip":"","librarysystem":"Sandhill Regional Library System","phone":7046945177,"id":"a645ehogxj2q","address":"120 South Greene Street","lat":34.965643,"libraryname":"Hampton B. Allen Library","state":"NC"},"type":"Feature","geometry":{"type":"Point","coordinates":[-80.077101,34.965643]}},{"properties":{"city":"Winston-Salem","lon":-80.232422,"zip":"","librarysystem":"Forsyth County Public Library","phone":3366317994,"id":"a645ehv2ob5s","address":"920 Mock Street","lat":36.079102,"libraryname":"Happy Hill Mini Library","state":"NC"},"type":"Feature","geometry":{"type":"Point","coordinates":[-80.232422,36.079102]}},{"properties":{"city":"Harmony","lon":-80.772862,"zip":"","librarysystem":"Iredell County Public Library","phone":7045467086,"id":"a645ehpzh6zv","address":"3393 Harmony Highway","lat":35.949842,"libraryname":"Harmony Branch Library","state":"NC"},"type":"Feature","geometry":{"type":"Point","coordinates":[-80.772862,35.949842]}},{"properties":{"city":"Lillington","lon":-78.729572,"zip":"","librarysystem":"Harnett County Public Library System","phone":9108933446,"id":"a645ehqrruou","address":"601 Main Street","lat":35.423363,"libraryname":"Harnett County Public Library","state":"NC"},"type":"Feature","geometry":{"type":"Point","coordinates":[-78.729572,35.423363]}},{"properties":{"city":"Nashville","lon":-77.966411,"zip":"","librarysystem":"Harold D. Cooley Library","phone":2524592106,"id":"a645ei135wc1","address":"202 S. Alston St.","lat":35.973061,"libraryname":"Harold D. Cooley Library","state":"NC"},"type":"Feature","geometry":{"type":"Point","coordinates":[-77.966411,35.973061]}},{"properties":{"city":"Southport","lon":-78.01952,"zip":"","librarysystem":"Brunswick County Library","phone":9104576237,"id":"a645ei1vkji7","address":"109 W. Moore Street","lat":33.918024,"libraryname":"Harper Library","state":"NC"},"type":"Feature","geometry":{"type":"Point","coordinates":[-78.01952,33.918024]}},{"properties":{"city":"Harrisburg","lon":-80.66392,"zip":"","librarysystem":"Cabarrus County Public Library","phone":7049202080,"id":"a645ehzqhknt","address":"201 Sims Parkway","lat":35.320801,"libraryname":"Harrisburg Library","state":"NC"},"type":"Feature","geometry":{"type":"Point","coordinates":[-80.66392,35.320801]}},{"properties":{"city":"Hatteras","lon":-75.689593,"zip":"","librarysystem":"East Albemarle Regional Library","phone":2529862385,"id":"a645ei1q7iqg","address":"57709 Highway 12","lat":35.218674,"libraryname":"Hatteras Branch Library","state":"NC"},"type":"Feature","geometry":{"type":"Point","coordinates":[-75.689593,35.218674]}},{"properties":{"city":"Havelock","lon":-76.91583,"zip":"","librarysystem":"Craven-Pamlico-Carteret Regional Library","phone":2524477509,"id":"a645ehs1icj1","address":"300 Miller Blvd.","lat":34.882795,"libraryname":"Havelock-Craven County Public","state":"NC"},"type":"Feature","geometry":{"type":"Point","coordinates":[-76.91583,34.882795]}},{"properties":{"city":"Henrietta","lon":-98.196517,"zip":"","librarysystem":"Rutherford County Library","phone":8286575278,"id":"a645ehv1gdbv","address":"141 N Main St, Suite 110","lat":33.815991,"libraryname":"Haynes Public Library","state":"NC"},"type":"Feature","geometry":{"type":"Point","coordinates":[-98.196517,33.815991]}},{"properties":{"city":"Waynesville","lon":-82.993924,"zip":"","librarysystem":"Haywood County Public Library","phone":8284525169,"id":"a645ehyemqzt","address":"678 S Haywood St","lat":35.484171,"libraryname":"Haywood County Public Library","state":"NC"},"type":"Feature","geometry":{"type":"Point","coordinates":[-82.993924,35.484171]}},{"properties":{"city":"Aurora","lon":-76.789061,"zip":"","librarysystem":"BHM Regional Library","phone":2523225046,"id":"a645ei1s3kns","address":"524 Main Street","lat":35.304702,"libraryname":"Hazel W. Guilford Memorial Library","state":"NC"},"type":"Feature","geometry":{"type":"Point","coordinates":[-76.789061,35.304702]}},{"properties":{"city":"Burlington","lon":-79.43649,"zip":"","librarysystem":"Central North Carolina Regional Library","phone":3362293588,"id":"a645ehz3a1lh","address":"342 S. Spring Street","lat":36.092851,"libraryname":"Headquarters-Central NC Regional Library","state":"NC"},"type":"Feature","geometry":{"type":"Point","coordinates":[-79.43649,36.092851]}},{"properties":{"city":"Fairmont","lon":-79.114373,"zip":"","librarysystem":"Robeson County Public Library","phone":9106289331,"id":"a645ehw9vpck","address":"106 South Main Street","lat":34.494075,"libraryname":"Hector Maclean Public Library","state":"NC"},"type":"Feature","geometry":{"type":"Point","coordinates":[-79.114373,34.494075]}},{"properties":{"city":"Hendersonville","lon":-82.462588,"zip":"","librarysystem":"Henderson County Public Library","phone":8286974725,"id":"a645ei20kle1","address":"301 N. Washington Street","lat":35.315585,"libraryname":"Henderson County Public Library","state":"NC"},"type":"Feature","geometry":{"type":"Point","coordinates":[-82.462588,35.315585]}},{"properties":{"city":"Winton","lon":-76.935829,"zip":"","librarysystem":"Albemarle Regional Library","phone":2523587855,"id":"a645eht0bp3k","address":"303 West Tryon Street","lat":36.3975,"libraryname":"Hertford County Library","state":"NC"},"type":"Feature","geometry":{"type":"Point","coordinates":[-76.935829,36.3975]}},{"properties":{"city":"Charlotte","lon":-80.724021,"zip":"","librarysystem":"Public Library of Charlotte &amp; Mecklenburg County","phone":7045639418,"id":"a645ei3y8aao","address":"7209 E.W.T. Harris Boulevard","lat":35.221855,"libraryname":"Hickory Grove Branch Library","state":"NC"},"type":"Feature","geometry":{"type":"Point","coordinates":[-80.724021,35.221855]}},{"properties":{"city":"High Point","lon":-80.012762,"zip":"","librarysystem":"High Point Public Library","phone":3368833631,"id":"a645eht81r92","address":"901 N. Main St.","lat":35.965756,"libraryname":"High Point Public Library","state":"NC"},"type":"Feature","geometry":{"type":"Point","coordinates":[-80.012762,35.965756]}},{"properties":{"city":"Clayton","lon":-78.458912,"zip":"","librarysystem":"Public Library Of Johnston County &amp; Smithfield","phone":9195535542,"id":"a645ehqj9vxy","address":"100 South Church St","lat":35.652298,"libraryname":"Hocutt Ellington Memorial Library","state":"NC"},"type":"Feature","geometry":{"type":"Point","coordinates":[-78.458912,35.652298]}},{"properties":{"city":"Raeford","lon":-79.223946,"zip":"","librarysystem":"Sandhill Regional Library System","phone":9108752502,"id":"a645ehv4ah1c","address":"334 North Main Street","lat":34.983654,"libraryname":"Hoke County Public Library","state":"NC"},"type":"Feature","geometry":{"type":"Point","coordinates":[-79.223946,34.983654]}},{"properties":{"city":"Hope Mills","lon":-78.959229,"zip":"","librarysystem":"Cumberland County Public Library &amp; Information Center","phone":9104258455,"id":"a645ehs6ws06","address":"3411 Golfview Road","lat":34.974723,"libraryname":"Hope Mills Branch Library","state":"NC"},"type":"Feature","geometry":{"type":"Point","coordinates":[-78.959229,34.974723]}},{"properties":{"city":"Hot Springs","lon":-82.832915,"zip":"","librarysystem":"Madison County Public Library","phone":8286223584,"id":"a645ehsd806l","address":"356 Nw Us 25/70","lat":35.891869,"libraryname":"Hot Springs Branch Library","state":"NC"},"type":"Feature","geometry":{"type":"Point","coordinates":[-82.832915,35.891869]}},{"properties":{"city":"Hudson","lon":-81.495571,"zip":"","librarysystem":"Caldwell County Public Library","phone":8287284207,"id":"a645ei0f4w2n","address":"530 Central Street","lat":35.847606,"libraryname":"Hudson Branch Library","state":"NC"},"type":"Feature","geometry":{"type":"Point","coordinates":[-81.495571,35.847606]}},{"properties":{"city":"Highlands","lon":-83.194825,"zip":"","librarysystem":"Fontana Regional Library","phone":8285263031,"id":"a645ei2ax9kh","address":"554 Main Street","lat":35.052038,"libraryname":"Hudson Library","state":"NC"},"type":"Feature","geometry":{"type":"Point","coordinates":[-83.194825,35.052038]}},{"properties":{"city":"Charlotte","lon":-80.756097,"zip":"","librarysystem":"Public Library of Charlotte &amp; Mecklenburg County","phone":7045683151,"id":"a645ehrphke4","address":"6015 Conference Drive","lat":35.177203,"libraryname":"Independence Branch Library","state":"NC"},"type":"Feature","geometry":{"type":"Point","coordinates":[-80.756097,35.177203]}},{"properties":{"city":"Statesville","lon":-80.888345,"zip":"","librarysystem":"Iredell County Public Library","phone":7048783090,"id":"a645ehxqoyrg","address":"135 East Water St","lat":35.786464,"libraryname":"Iredell County Public Library","state":"NC"},"type":"Feature","geometry":{"type":"Point","coordinates":[-80.888345,35.786464]}},{"properties":{"city":"Clinton","lon":-78.321511,"zip":"","librarysystem":"Sampson-Clinton Public Library System","phone":9105924153,"id":"a645ehzjrrbf","address":"217 Graham Street","lat":34.997079,"libraryname":"J.C. Holliday Library","state":"NC"},"type":"Feature","geometry":{"type":"Point","coordinates":[-78.321511,34.997079]}},{"properties":{"city":"Sylva","lon":-83.225396,"zip":"","librarysystem":"Fontana Regional Library","phone":8285862016,"id":"a645ehppzl0u","address":"755 West Main Street","lat":35.373539,"libraryname":"Jackson County Public Library","state":"NC"},"type":"Feature","geometry":{"type":"Point","coordinates":[-83.225396,35.373539]}},{"properties":{"city":"Kings Mountain","lon":-81.342544,"zip":"","librarysystem":"Jacob Mauney Memorial Library","phone":7047392371,"id":"a645ehwkcdoh","address":"100 South Piedmont Avenue","lat":35.240733,"libraryname":"Jacob Mauney Memorial Library","state":"NC"},"type":"Feature","geometry":{"type":"Point","coordinates":[-81.342544,35.240733]}},{"properties":{"city":"Four Oaks","lon":-78.456894,"zip":"","librarysystem":"Public Library Of Johnston County &amp; Smithfield","phone":9199636013,"id":"a645ehw4x40x","address":"Black Creek Road","lat":35.46258,"libraryname":"James Bryan Creech Library","state":"NC"},"type":"Feature","geometry":{"type":"Point","coordinates":[-78.456894,35.46258]}},{"properties":{"city":"Franklinville","lon":-79.694244,"zip":"","librarysystem":"Randolph County Public Library","phone":3368244020,"id":"a645ehx6yi7e","address":"111 Sumner Place","lat":35.744129,"libraryname":"John W. Clark Public Library","state":"NC"},"type":"Feature","geometry":{"type":"Point","coordinates":[-79.694244,35.744129]}},{"properties":{"city":"Sanford","lon":-79.153699,"zip":"","librarysystem":"Lee County Library","phone":9197763141,"id":"a645ei1hh4cr","address":"309 West Main Street","lat":35.455902,"libraryname":"Jonesboro Branch Library","state":"NC"},"type":"Feature","geometry":{"type":"Point","coordinates":[-79.153699,35.455902]}},{"properties":{"city":"Jonesville","lon":-80.843263,"zip":"","librarysystem":"Northwestern Regional Library","phone":3368357604,"id":"a645ei2dikkc","address":"150 West Main Street","lat":36.234256,"libraryname":"Jonesville Public Library","state":"NC"},"type":"Feature","geometry":{"type":"Point","coordinates":[-80.843263,36.234256]}},{"properties":{"city":"Kannapolis","lon":-80.635314,"zip":"","librarysystem":"Cabarrus County Public Library","phone":7049201180,"id":"a645ehxzi28y","address":"1050 Mountain St.","lat":35.505161,"libraryname":"Kannapolis Branch Library","state":"NC"},"type":"Feature","geometry":{"type":"Point","coordinates":[-80.635314,35.505161]}},{"properties":{"city":"Ellerbe","lon":-79.762881,"zip":"","librarysystem":"Sandhill Regional Library System","phone":9106526130,"id":"a645ehq68sg8","address":"279 2nd Street","lat":35.070118,"libraryname":"Kemp Sugg Memorial Library","state":"NC"},"type":"Feature","geometry":{"type":"Point","coordinates":[-79.762881,35.070118]}},{"properties":{"city":"Kenly","lon":-78.124112,"zip":"","librarysystem":"Public Library Of Johnston County &amp; Smithfield","phone":9192844217,"id":"a645ehyeh7h6","address":"205 Edgerton St","lat":35.592295,"libraryname":"Kenly Public Library","state":"NC"},"type":"Feature","geometry":{"type":"Point","coordinates":[-78.124112,35.592295]}},{"properties":{"city":"Kernersville","lon":-80.07281,"zip":"","librarysystem":"Forsyth County Public Library","phone":3369938141,"id":"a645ehxdcrln","address":"130 East Mountain Street","lat":36.119436,"libraryname":"Kernersville Branch Library","state":"NC"},"type":"Feature","geometry":{"type":"Point","coordinates":[-80.07281,36.119436]}},{"properties":{"city":"Kill Devil Hills","lon":-75.66075,"zip":"","librarysystem":"East Albemarle Regional Library","phone":2524414331,"id":"a645ei3bo2y6","address":"400 Mustian Street","lat":36.010241,"libraryname":"Kill Devil Hills Branch Library","state":"NC"},"type":"Feature","geometry":{"type":"Point","coordinates":[-75.66075,36.010241]}},{"properties":{"city":"King","lon":-80.364311,"zip":"","librarysystem":"Northwestern Regional Library","phone":3369833868,"id":"a645eht6ve4q","address":"101 Pilot View Drive","lat":36.283125,"libraryname":"King Public Library","state":"NC"},"type":"Feature","geometry":{"type":"Point","coordinates":[-80.364311,36.283125]}},{"properties":{"city":"Kinston","lon":-77.581215,"zip":"","librarysystem":"Neuse Regional Library","phone":2525277066,"id":"a645ei1o5zjz","address":"510 North Queen Street","lat":35.265332,"libraryname":"Kinston-Lenoir County Public Library","state":"NC"},"type":"Feature","geometry":{"type":"Point","coordinates":[-77.581215,35.265332]}},{"properties":{"city":"La Grange","lon":-77.788561,"zip":"","librarysystem":"Neuse Regional Library","phone":2525663722,"id":"a645ei15b6tg","address":"119 East Washington Street","lat":35.305185,"libraryname":"La Grange Branch Library","state":"NC"},"type":"Feature","geometry":{"type":"Point","coordinates":[-77.788561,35.305185]}},{"properties":{"city":"Jacksonville","lon":-77.432691,"zip":"","librarysystem":"Onslow County Public Library","phone":9104554458,"id":"a645ei0l0e5t","address":"109 Old Bridge St.","lat":34.751156,"libraryname":"Law Library","state":"NC"},"type":"Feature","geometry":{"type":"Point","coordinates":[-77.432691,34.751156]}},{"properties":{"city":"Fayetteville","lon":-78.87691,"zip":"","librarysystem":"Cumberland County Public Library &amp; Information Center","phone":9103216600,"id":"a645ehv60m55","address":"117 Dick Street","lat":35.0511,"libraryname":"Law Library","state":"NC"},"type":"Feature","geometry":{"type":"Point","coordinates":[-78.87691,35.0511]}},{"properties":{"city":"Marion","lon":-82.00864,"zip":"","librarysystem":"McDowell County Public Library","phone":8286593241,"id":"a645ei18kjph","address":"21 S Main St","lat":35.683726,"libraryname":"Law Library","state":"NC"},"type":"Feature","geometry":{"type":"Point","coordinates":[-82.00864,35.683726]}},{"properties":{"city":"Wilmington","lon":-77.945917,"zip":"","librarysystem":"New Hanover County Public Library","phone":9103414328,"id":"a645ehxdfwzg","address":"310 Princess Street","lat":34.236557,"libraryname":"Law Library","state":"NC"},"type":"Feature","geometry":{"type":"Point","coordinates":[-77.945917,34.236557]}},{"properties":{"city":"Windsor","lon":-76.944848,"zip":"","librarysystem":"Albemarle Regional Library","phone":2527942244,"id":"a645ehsc4mwg","address":"204 E Dundee Street","lat":35.997724,"libraryname":"Lawrence Memorial Library","state":"NC"},"type":"Feature","geometry":{"type":"Point","coordinates":[-76.944848,35.997724]}},{"properties":{"city":"Reidsville","lon":-79.664501,"zip":"","librarysystem":"Rockingham County Public Library","phone":3363496733,"id":"a645ei4c217d","address":"116 N. Scales St","lat":36.362033,"libraryname":"Learning Place Library","state":"NC"},"type":"Feature","geometry":{"type":"Point","coordinates":[-79.664501,36.362033]}},{"properties":{"city":"Rockingham","lon":-79.770541,"zip":"","librarysystem":"Sandhill Regional Library System","phone":9108956337,"id":"a645ei1ogney","address":"412 East Franklin Street","lat":34.938466,"libraryname":"Leath Memorial Library","state":"NC"},"type":"Feature","geometry":{"type":"Point","coordinates":[-79.770541,34.938466]}},{"properties":{"city":"Sanford","lon":-79.177839,"zip":"","librarysystem":"Lee County Library","phone":9197746045,"id":"a645ei43krjw","address":"107 Hawkins Avenue","lat":35.482018,"libraryname":"Lee County Library System","state":"NC"},"type":"Feature","geometry":{"type":"Point","coordinates":[-79.177839,35.482018]}},{"properties":{"city":"Leicester","lon":-82.693617,"zip":"","librarysystem":"Asheville-Buncombe Library System","phone":8286838867,"id":"a645ehwip8ga","address":"1561 Alexander Rd","lat":35.657987,"libraryname":"Leicester Branch Library","state":"NC"},"type":"Feature","geometry":{"type":"Point","coordinates":[-82.693617,35.657987]}},{"properties":{"city":"Leland","lon":-78.009066,"zip":"","librarysystem":"Brunswick County Library","phone":9103719442,"id":"a645ehuqf6t0","address":"487 Village Road","lat":34.239359,"libraryname":"Leland Branch Library","state":"NC"},"type":"Feature","geometry":{"type":"Point","coordinates":[-78.009066,34.239359]}},{"properties":{"city":"Lewisville","lon":-80.420126,"zip":"","librarysystem":"Forsyth County Public Library","phone":3369453786,"id":"a645ehq3ar4n","address":"6479 Shallowford Rd","lat":36.097002,"libraryname":"Lewisville Branch Library","state":"NC"},"type":"Feature","geometry":{"type":"Point","coordinates":[-80.420126,36.097002]}},{"properties":{"city":"Liberty","lon":-79.570075,"zip":"","librarysystem":"Randolph County Public Library","phone":3366224605,"id":"a645eho5ext8","address":"239 South Fayetteville Street","lat":35.849876,"libraryname":"Liberty Public Library","state":"NC"},"type":"Feature","geometry":{"type":"Point","coordinates":[-79.570075,35.849876]}},{"properties":{"city":"Littleton","lon":-77.914774,"zip":"","librarysystem":"Halifax County Library System","phone":2525863608,"id":"a645ehyp8zgp","address":"127 West South Main St.","lat":36.43316,"libraryname":"Littleton Public Library (Wc Jones Memorial)","state":"NC"},"type":"Feature","geometry":{"type":"Point","coordinates":[-77.914774,36.43316]}},{"properties":{"city":"Locust","lon":-80.438367,"zip":"","librarysystem":"Stanly County Public Library","phone":7048880103,"id":"a645ehxgw2vb","address":"1016 W. Main Street","lat":35.254344,"libraryname":"Locust Branch Library","state":"NC"},"type":"Feature","geometry":{"type":"Point","coordinates":[-80.438367,35.254344]}},{"properties":{"city":"Lowell","lon":-81.095619,"zip":"","librarysystem":"Gaston-Lincoln Regional Library System","phone":7048241266,"id":"a645ei3dwmgj","address":"203 Mcadenville Road","lat":35.26573,"libraryname":"Lowell Branch Library","state":"NC"},"type":"Feature","geometry":{"type":"Point","coordinates":[-81.095619,35.26573]}},{"properties":{"city":"Lowgap","lon":-80.763379,"zip":"","librarysystem":"Northwestern Regional Library","phone":3363523000,"id":"a645eho8dnpt","address":"5210 West Pine Street","lat":36.480354,"libraryname":"Lowgap Public Library","state":"NC"},"type":"Feature","geometry":{"type":"Point","coordinates":[-80.763379,36.480354]}},{"properties":{"city":"Lucama","lon":-78.009106,"zip":"","librarysystem":"Wilson County Public Library","phone":2522390046,"id":"a645ehuez7iu","address":"103 E Spring St","lat":35.644421,"libraryname":"Lucama Branch Library","state":"NC"},"type":"Feature","geometry":{"type":"Point","coordinates":[-78.009106,35.644421]}},{"properties":{"city":"Franklin","lon":-83.385374,"zip":"","librarysystem":"Fontana Regional Library","phone":8285243600,"id":"a645ehs4t0su","address":"108 Wayah Street","lat":35.174518,"libraryname":"Macon County Public Library","state":"NC"},"type":"Feature","geometry":{"type":"Point","coordinates":[-83.385374,35.174518]}},{"properties":{"city":"Madison","lon":-79.95873,"zip":"","librarysystem":"Rockingham County Public Library","phone":3365486553,"id":"a645ehta5i6v","address":"140 East Murphy Street","lat":36.387407,"libraryname":"Madison Branch Library","state":"NC"},"type":"Feature","geometry":{"type":"Point","coordinates":[-79.95873,36.387407]}},{"properties":{"city":"Marshall","lon":-82.691824,"zip":"","librarysystem":"Madison County Public Library","phone":8286493741,"id":"a645ehq4m0n6","address":"1335 North Main Street","lat":35.812447,"libraryname":"Madison County Public Library","state":"NC"},"type":"Feature","geometry":{"type":"Point","coordinates":[-82.691824,35.812447]}},{"properties":{"city":"Waynesville","lon":-83.010659,"zip":"","librarysystem":"Haywood County Public Library","phone":7049260461,"id":"a645ei13k4kc","address":"%Haywood Cpl/678 S. Haywood St.","lat":35.48294,"libraryname":"Maggie Valley Library","state":"NC"},"type":"Feature","geometry":{"type":"Point","coordinates":[-83.010659,35.48294]}},{"properties":{"city":"Maiden","lon":-81.215264,"zip":"","librarysystem":"Catawba County Library","phone":8284284712,"id":"a645ei2no1y2","address":"11 South A Avenue","lat":35.576824,"libraryname":"Maiden Branch Library","state":"NC"},"type":"Feature","geometry":{"type":"Point","coordinates":[-81.215264,35.576824]}},{"properties":{"city":"Bethel","lon":-77.374044,"zip":"","librarysystem":"Sheppard Memorial Library","phone":2528250782,"id":"a645ehyes9ho","address":"P.O. Box 1170, 201 Ives Street","lat":35.806736,"libraryname":"Margaret Little Blount Library","state":"NC"},"type":"Feature","geometry":{"type":"Point","coordinates":[-77.374044,35.806736]}},{"properties":{"city":"Bryson City","lon":-83.444751,"zip":"","librarysystem":"Fontana Regional Library","phone":8284883030,"id":"a645eho9k980","address":"33 Fryemont Street","lat":35.426348,"libraryname":"Marianna Black Library","state":"NC"},"type":"Feature","geometry":{"type":"Point","coordinates":[-83.444751,35.426348]}},{"properties":{"city":"Mars Hill","lon":-82.553057,"zip":"","librarysystem":"Madison County Public Library","phone":8286895183,"id":"a645ehpsgdkq","address":"P.O. Box 28","lat":35.826403,"libraryname":"Mars Hill Branch Library","state":"NC"},"type":"Feature","geometry":{"type":"Point","coordinates":[-82.553057,35.826403]}},{"properties":{"city":"Marshville","lon":-80.368025,"zip":"","librarysystem":"Union County Public Library","phone":7046242828,"id":"a645ehr5lii8","address":"118 East Union Street","lat":34.98799,"libraryname":"Marshville Branch Library","state":"NC"},"type":"Feature","geometry":{"type":"Point","coordinates":[-80.368025,34.98799]}},{"properties":{"city":"Williamston","lon":-77.055974,"zip":"","librarysystem":"BHM Regional Library","phone":2527927476,"id":"a645ei2dh2og","address":"200 North Smithwick Street","lat":35.856589,"libraryname":"Martin Memorial Library","state":"NC"},"type":"Feature","geometry":{"type":"Point","coordinates":[-77.055974,35.856589]}},{"properties":{"city":"Benson","lon":-78.547984,"zip":"","librarysystem":"Public Library Of Johnston County &amp; Smithfield","phone":9198943724,"id":"a645ei0m0cs8","address":"100 W. Main Street","lat":35.381514,"libraryname":"Mary Duncan Public Library","state":"NC"},"type":"Feature","geometry":{"type":"Point","coordinates":[-78.547984,35.381514]}},{"properties":{"city":"Swan Quarter","lon":-76.218411,"zip":"","librarysystem":"BHM Regional Library","phone":2529268841,"id":"a645ehuhfaur","address":"20418 Us 264","lat":35.441946,"libraryname":"Mattamuskeet Library","state":"NC"},"type":"Feature","geometry":{"type":"Point","coordinates":[-76.218411,35.441946]}},{"properties":{"city":"Matthews","lon":-80.723058,"zip":"","librarysystem":"Public Library of Charlotte &amp; Mecklenburg County","phone":7048476691,"id":"a645ehuitbxe","address":"124 W. John Street","lat":35.116459,"libraryname":"Matthews Branch Library","state":"NC"},"type":"Feature","geometry":{"type":"Point","coordinates":[-80.723058,35.116459]}},{"properties":{"city":"Mayodan","lon":-79.976216,"zip":"","librarysystem":"Rockingham County Public Library","phone":3365486951,"id":"a645ehzag5ur","address":"101 N. 10th Ave","lat":36.415042,"libraryname":"Mayodan Branch Library","state":"NC"},"type":"Feature","geometry":{"type":"Point","coordinates":[-79.976216,36.415042]}},{"properties":{"city":"Maysville","lon":-77.226099,"zip":"","librarysystem":"Neuse Regional Library","phone":9107433796,"id":"a645ehye1h0c","address":"605 Seventh Street","lat":34.90263,"libraryname":"Maysville Public Library","state":"NC"},"type":"Feature","geometry":{"type":"Point","coordinates":[-77.226099,34.90263]}},{"properties":{"city":"Marion","lon":-82.018393,"zip":"","librarysystem":"McDowell County Public Library","phone":8286523858,"id":"a645ehw4wl6b","address":"90 West Court Street","lat":35.682513,"libraryname":"McDowell County Public Library","state":"NC"},"type":"Feature","geometry":{"type":"Point","coordinates":[-82.018393,35.682513]}},{"properties":{"city":"Durham","lon":-78.890911,"zip":"","librarysystem":"Durham County Library","phone":9195600240,"id":"a645ehv9uvsb","address":"1101 Lawson Street","lat":35.974657,"libraryname":"Mcdougald Terrace Branch","state":"NC"},"type":"Feature","geometry":{"type":"Point","coordinates":[-78.890911,35.974657]}},{"properties":{"city":"Greensboro","lon":-79.74495,"zip":"","librarysystem":"Greensboro Public Library","phone":3363735810,"id":"a645ei1vu1ui","address":"2509 Phillips Avenue","lat":36.095038,"libraryname":"Mcgirt-Horton Branch Library","state":"NC"},"type":"Feature","geometry":{"type":"Point","coordinates":[-79.74495,36.095038]}},{"properties":{"city":"Mebane","lon":-79.267923,"zip":"","librarysystem":"Central North Carolina Regional Library","phone":9195636431,"id":"a645ehz9jpoz","address":"106 E. Washington St","lat":36.095744,"libraryname":"Mebane Public Library","state":"NC"},"type":"Feature","geometry":{"type":"Point","coordinates":[-79.267923,36.095744]}},{"properties":{"city":"Charlotte","lon":-80.65976,"zip":"","librarysystem":"Public Library of Charlotte &amp; Mecklenburg County","phone":7045453932,"id":"a645ei4fm8xj","address":"6840 Matthews Mint Hill Rd.","lat":35.171496,"libraryname":"Mint Hill Branch Library","state":"NC"},"type":"Feature","geometry":{"type":"Point","coordinates":[-80.65976,35.171496]}},{"properties":{"city":"Garland","lon":-78.398534,"zip":"","librarysystem":"Sampson-Clinton Public Library System","phone":9105292441,"id":"a645ei3hglln","address":"144 South Church Avenue","lat":34.784263,"libraryname":"Miriam B. Lamb Memorial Library","state":"NC"},"type":"Feature","geometry":{"type":"Point","coordinates":[-78.398534,34.784263]}},{"properties":{"city":"Bakersville","lon":-82.157961,"zip":"","librarysystem":"Avery-Mitchell-Yancey Regional Library","phone":8286882511,"id":"a645ehznoks2","address":"18 North Mitchell Avenue","lat":36.015272,"libraryname":"Mitchell County Library","state":"NC"},"type":"Feature","geometry":{"type":"Point","coordinates":[-82.157961,36.015272]}},{"properties":{"city":"Troy","lon":-79.896612,"zip":"","librarysystem":"Sandhill Regional Library System","phone":9105721311,"id":"a645eht4p2xm","address":"215 W. Main St.","lat":35.35848,"libraryname":"Montgomery County Library","state":"NC"},"type":"Feature","geometry":{"type":"Point","coordinates":[-79.896612,35.35848]}},{"properties":{"city":"Carthage","lon":-79.415799,"zip":"","librarysystem":"Sandhill Regional Library System","phone":9109475335,"id":"a645ei2egzaa","address":"101 Saunders Street","lat":35.34333,"libraryname":"Moore County Library","state":"NC"},"type":"Feature","geometry":{"type":"Point","coordinates":[-79.415799,35.34333]}},{"properties":{"city":"Mooresville","lon":-80.81657,"zip":"","librarysystem":"Mooresville Public Library","phone":7046642927,"id":"a645ei1rifbx","address":"304 South Main Street","lat":35.57944,"libraryname":"Mooresville Public Library","state":"NC"},"type":"Feature","geometry":{"type":"Point","coordinates":[-80.81657,35.57944]}},{"properties":{"city":"Charlotte","lon":-80.823154,"zip":"","librarysystem":"Public Library of Charlotte &amp; Mecklenburg County","phone":7043362011,"id":"a645ehr0tnad","address":"7015 Morrison Blvd.","lat":35.151162,"libraryname":"Morrison Regional Library","state":"NC"},"type":"Feature","geometry":{"type":"Point","coordinates":[-80.823154,35.151162]}},{"properties":{"city":"Hayesville","lon":-83.819364,"zip":"","librarysystem":"Nantahala Regional Library","phone":8283898401,"id":"a645ei1c04rz","address":"26 Andreson Street","lat":35.046145,"libraryname":"Moss Memorial Library","state":"NC"},"type":"Feature","geometry":{"type":"Point","coordinates":[-83.819364,35.046145]}},{"properties":{"city":"Mount Airy","lon":-80.607477,"zip":"","librarysystem":"Northwestern Regional Library","phone":3367895108,"id":"a645ehs7x656","address":"145 Rockford Street","lat":36.498455,"libraryname":"Mount Airy Public Library","state":"NC"},"type":"Feature","geometry":{"type":"Point","coordinates":[-80.607477,36.498455]}},{"properties":{"city":"Mount Gilead","lon":-76.986222,"zip":"","librarysystem":"Sandhill Regional Library System","phone":9104396651,"id":"a645ei36pk7a","address":"110 West Allenton Street","lat":35.450952,"libraryname":"Mount Gilead Branch","state":"NC"},"type":"Feature","geometry":{"type":"Point","coordinates":[-76.986222,35.450952]}},{"properties":{"city":"Lake Lure","lon":-82.162367,"zip":"","librarysystem":"Rutherford County Library","phone":8286250456,"id":"a645ei07qr5q","address":"150 Bills Creek Rd","lat":35.424711,"libraryname":"Mountains Branch Library","state":"NC"},"type":"Feature","geometry":{"type":"Point","coordinates":[-82.162367,35.424711]}},{"properties":{"city":"Mt. Holly","lon":-81.020012,"zip":"","librarysystem":"Gaston-Lincoln Regional Library System","phone":7048273581,"id":"a645ei38w5rk","address":"245 West Catawba Avenue","lat":35.295819,"libraryname":"Mt. Holly Branch Library","state":"NC"},"type":"Feature","geometry":{"type":"Point","coordinates":[-81.020012,35.295819]}},{"properties":{"city":"Mt. Pleasant","lon":-80.433188,"zip":"","librarysystem":"Cabarrus County Public Library","phone":7044362202,"id":"a645ehv93yjl","address":"8556 Cook St.","lat":35.403375,"libraryname":"Mt. Pleasant Branch Library","state":"NC"},"type":"Feature","geometry":{"type":"Point","coordinates":[-80.433188,35.403375]}},{"properties":{"city":"Murphy","lon":-84.031997,"zip":"","librarysystem":"Nantahala Regional Library","phone":8288372417,"id":"a645ehrn1zzk","address":"9 Blumenthal Street","lat":35.08619,"libraryname":"Murphy Public Library","state":"NC"},"type":"Feature","geometry":{"type":"Point","coordinates":[-84.031997,35.08619]}},{"properties":{"city":"Charlotte","lon":-80.827475,"zip":"","librarysystem":"Public Library of Charlotte &amp; Mecklenburg County","phone":7043362011,"id":"a645ehzvlc9b","address":"1361 Queens Road","lat":35.196253,"libraryname":"Myers Park Branch Library","state":"NC"},"type":"Feature","geometry":{"type":"Point","coordinates":[-80.827475,35.196253]}},{"properties":{"city":"Wilmington","lon":-77.892232,"zip":"","librarysystem":"New Hanover County Public Library","phone":9104526414,"id":"a645ehx8g2ht","address":"5155 S. College Road","lat":34.14577,"libraryname":"Myrtle Grove Branch","state":"NC"},"type":"Feature","geometry":{"type":"Point","coordinates":[-77.892232,34.14577]}},{"properties":{"city":"Topton","lon":-83.632013,"zip":"","librarysystem":"Fontana Regional Library","phone":8283213020,"id":"a645ehqcz21u","address":"128 Nantahala School Road","lat":35.254813,"libraryname":"Nantahala Community Library","state":"NC"},"type":"Feature","geometry":{"type":"Point","coordinates":[-83.632013,35.254813]}},{"properties":{"city":"New Bern","lon":-77.039286,"zip":"","librarysystem":"Craven-Pamlico-Carteret Regional Library","phone":9196387800,"id":"a645ehqmi90o","address":"400 Johnson Street","lat":35.111013,"libraryname":"New Bern-Craven County Public Library","state":"NC"},"type":"Feature","geometry":{"type":"Point","coordinates":[-77.039286,35.111013]}},{"properties":{"city":"Wilmington","lon":-77.947544,"zip":"","librarysystem":"New Hanover County Public Library","phone":9107986300,"id":"a645ei1ma3e3","address":"201 Chestnut Street","lat":34.237759,"libraryname":"New Hanover County Public Library","state":"NC"},"type":"Feature","geometry":{"type":"Point","coordinates":[-77.947544,34.237759]}},{"properties":{"city":"Newport","lon":-76.860274,"zip":"","librarysystem":"Craven-Pamlico-Carteret Regional Library","phone":2522235108,"id":"a645ehrn1y1k","address":"210 Howard Blvd.","lat":34.786768,"libraryname":"Newport Public Library","state":"NC"},"type":"Feature","geometry":{"type":"Point","coordinates":[-76.860274,34.786768]}},{"properties":{"city":"Asheville","lon":-82.553442,"zip":"","librarysystem":"Asheville-Buncombe Library System","phone":8282543028,"id":"a645ehvi2y8s","address":"37 East Larchmont Drive","lat":35.623164,"libraryname":"North Asheville Branch Library","state":"NC"},"type":"Feature","geometry":{"type":"Point","coordinates":[-82.553442,35.623164]}},{"properties":{"city":"Huntersville","lon":-80.863852,"zip":"","librarysystem":"Public Library of Charlotte &amp; Mecklenburg County","phone":7048954020,"id":"a645ehz4c8lm","address":"16500 Holly Crest Lane","lat":35.440067,"libraryname":"North County Regional Branch Library","state":"NC"},"type":"Feature","geometry":{"type":"Point","coordinates":[-80.863852,35.440067]}},{"properties":{"city":"Welcome","lon":-80.255322,"zip":"","librarysystem":"Davidson County Public Library","phone":3362422050,"id":"a645ehys5rem","address":"559 Critcher Drive","lat":35.909619,"libraryname":"North Davidson Branch Library","state":"NC"},"type":"Feature","geometry":{"type":"Point","coordinates":[-80.255322,35.909619]}},{"properties":{"city":"Durham","lon":-78.907401,"zip":"","librarysystem":"Durham County Library","phone":9195600250,"id":"a645ehsf0eub","address":"5120 N. Roxboro Rd.","lat":36.068604,"libraryname":"North Durham Branch Library","state":"NC"},"type":"Feature","geometry":{"type":"Point","coordinates":[-78.907401,36.068604]}},{"properties":{"city":"Burlington","lon":-79.421795,"zip":"","librarysystem":"Central North Carolina Regional Library","phone":3362267185,"id":"a645ehyt8v0f","address":"849 Sharpe Rd","lat":36.112453,"libraryname":"North Park Library/Community Center","state":"NC"},"type":"Feature","geometry":{"type":"Point","coordinates":[-79.421795,36.112453]}},{"properties":{"city":"Fayetteville","lon":-78.896698,"zip":"","librarysystem":"Cumberland County Public Library &amp; Information Center","phone":9108221998,"id":"a645ei20yzrc","address":"855 McArthur Road","lat":35.129459,"libraryname":"North Regional Branch Library","state":"NC"},"type":"Feature","geometry":{"type":"Point","coordinates":[-78.896698,35.129459]}},{"properties":{"city":"Raleigh","lon":-78.648404,"zip":"","librarysystem":"Wake County Public Libraries","phone":9198704000,"id":"a645ehxqefom","address":"200 Horizon Drive","lat":35.884035,"libraryname":"North Regional Library","state":"NC"},"type":"Feature","geometry":{"type":"Point","coordinates":[-78.648404,35.884035]}},{"properties":{"city":"Jackson","lon":-77.421727,"zip":"","librarysystem":"Albemarle Regional Library","phone":2525343571,"id":"a645ehtpn1j8","address":"207 West Jefferson St.","lat":36.389603,"libraryname":"Northampton County Memorial Library","state":"NC"},"type":"Feature","geometry":{"type":"Point","coordinates":[-77.421727,36.389603]}},{"properties":{"city":"Wilmington","lon":-77.828888,"zip":"","librarysystem":"New Hanover County Public Library","phone":9102562173,"id":"a645ehthhwqd","address":"1241 Military Cutoff Road","lat":34.232347,"libraryname":"Northeast Regional","state":"NC"},"type":"Feature","geometry":{"type":"Point","coordinates":[-77.828888,34.232347]}},{"properties":{"city":"Norwood","lon":-80.119291,"zip":"","librarysystem":"Stanly County Public Library","phone":7044223218,"id":"a645ei4e6sxl","address":"207 Pee Dee Avenue","lat":35.225802,"libraryname":"Norwood Branch Library","state":"NC"},"type":"Feature","geometry":{"type":"Point","coordinates":[-80.119291,35.225802]}},{"properties":{"city":"Oakboro","lon":-80.325819,"zip":"","librarysystem":"Stanly County Public Library","phone":7044854310,"id":"a645ehxiqbk5","address":"214 Main Street","lat":35.223762,"libraryname":"Oakboro Branch Library","state":"NC"},"type":"Feature","geometry":{"type":"Point","coordinates":[-80.325819,35.223762]}},{"properties":{"city":"Ocracoke","lon":-75.976414,"zip":"","librarysystem":"BHM Regional Library","phone":2529284436,"id":"a645ehxc22qt","address":"225 Back Road","lat":35.11126,"libraryname":"Ocracoke Branch Library","state":"NC"},"type":"Feature","geometry":{"type":"Point","coordinates":[-75.976414,35.11126]}},{"properties":{"city":"Old Fort","lon":-82.180716,"zip":"","librarysystem":"McDowell County Public Library","phone":8286687111,"id":"a645ehru5msp","address":"65 East Mitchell Street","lat":35.626138,"libraryname":"Old Fort Branch Library","state":"NC"},"type":"Feature","geometry":{"type":"Point","coordinates":[-82.180716,35.626138]}},{"properties":{"city":"Raleigh","lon":-78.568783,"zip":"","librarysystem":"Wake County Public Libraries","phone":9192501196,"id":"a645ei4megan","address":"4016 Carya Drive","lat":35.768277,"libraryname":"Olivia Raney Local History Library","state":"NC"},"type":"Feature","geometry":{"type":"Point","coordinates":[-78.568783,35.768277]}},{"properties":{"city":"Jacksonville","lon":-77.418841,"zip":"","librarysystem":"Onslow County Public Library","phone":9104557350,"id":"a645ehp41ybe","address":"58 Doris Avenue East","lat":34.777869,"libraryname":"Onslow County Public Library","state":"NC"},"type":"Feature","geometry":{"type":"Point","coordinates":[-77.418841,34.777869]}},{"properties":{"city":"Hillsborough","lon":-79.105646,"zip":"","librarysystem":"Hyconeechee Regional Library","phone":9196443011,"id":"a645ei45mmcg","address":"300 West Tryon St","lat":36.07704,"libraryname":"Orange County Public Library","state":"NC"},"type":"Feature","geometry":{"type":"Point","coordinates":[-79.105646,36.07704]}},{"properties":{"city":"Aberdeen","lon":-79.428797,"zip":"","librarysystem":"Sandhill Regional Library System","phone":9109441200,"id":"a645ehtog7nq","address":"100 S. Poplar Street","lat":35.131245,"libraryname":"Page Memorial Library","state":"NC"},"type":"Feature","geometry":{"type":"Point","coordinates":[-79.428797,35.131245]}},{"properties":{"city":"Bayboro","lon":-76.778536,"zip":"","librarysystem":"Craven-Pamlico-Carteret Regional Library","phone":2527453515,"id":"a645ehxstzo2","address":"603 Main Street","lat":35.143246,"libraryname":"Pamlico County Library","state":"NC"},"type":"Feature","geometry":{"type":"Point","coordinates":[-76.778536,35.143246]}},{"properties":{"city":"Durham","lon":-78.910234,"zip":"","librarysystem":"Durham County Library","phone":9195600260,"id":"a645ei1g8km7","address":"5122 Revere Road","lat":35.894189,"libraryname":"Parkwood Branch Library","state":"NC"},"type":"Feature","geometry":{"type":"Point","coordinates":[-78.910234,35.894189]}},{"properties":{"city":"Elizabeth City","lon":-76.222891,"zip":"","librarysystem":"East Albemarle Regional Library","phone":2523352473,"id":"a645ehrvj5e8","address":"205 East Main Street","lat":36.300085,"libraryname":"Pasquotank-Camden Library","state":"NC"},"type":"Feature","geometry":{"type":"Point","coordinates":[-76.222891,36.300085]}},{"properties":{"city":"Hickory","lon":-81.333334,"zip":"","librarysystem":"Hickory Public Library","phone":8283040500,"id":"a645ehxqf7la","address":"375 3rd Street Ne","lat":35.736848,"libraryname":"Patrick Beaver Memorial Library","state":"NC"},"type":"Feature","geometry":{"type":"Point","coordinates":[-81.333334,35.736848]}},{"properties":{"city":"Pembroke","lon":-79.19149,"zip":"","librarysystem":"Robeson County Public Library","phone":9105211554,"id":"a645ehwe8qf9","address":"413 Blaine St","lat":34.677947,"libraryname":"Pembroke Public Library","state":"NC"},"type":"Feature","geometry":{"type":"Point","coordinates":[-79.19149,34.677947]}},{"properties":{"city":"Burgaw","lon":-77.923991,"zip":"","librarysystem":"Pender County Public Library","phone":9102591234,"id":"a645ei3lqwlr","address":"103 S Cowan St","lat":34.551801,"libraryname":"Pender County Public Library","state":"NC"},"type":"Feature","geometry":{"type":"Point","coordinates":[-77.923991,34.551801]}},{"properties":{"city":"Hertford","lon":-76.47094,"zip":"","librarysystem":"Pettigrew Regional Library","phone":2524265319,"id":"a645ehqqps25","address":"110 West Academy Street","lat":36.188914,"libraryname":"Perquimans County Library","state":"NC"},"type":"Feature","geometry":{"type":"Point","coordinates":[-76.47094,36.188914]}},{"properties":{"city":"Roxboro","lon":-78.985282,"zip":"","librarysystem":"Hyconeechee Regional Library","phone":3365977881,"id":"a645ehw87ojn","address":"319 South Main St","lat":36.391547,"libraryname":"Person County Public Library","state":"NC"},"type":"Feature","geometry":{"type":"Point","coordinates":[-78.985282,36.391547]}},{"properties":{"city":"Beulaville","lon":-77.765396,"zip":"","librarysystem":"Duplin County Library","phone":9102984677,"id":"a645ehz2m6mr","address":"807 East Broad St","lat":34.921326,"libraryname":"Phillip Leff Memorial Library","state":"NC"},"type":"Feature","geometry":{"type":"Point","coordinates":[-77.765396,34.921326]}},{"properties":{"city":"Pikeville","lon":-77.984308,"zip":"","librarysystem":"Wayne County Public Library","phone":9192426446,"id":"a645ehrbb04f","address":"106 W Main St","lat":35.497074,"libraryname":"Pikeville Public Library","state":"NC"},"type":"Feature","geometry":{"type":"Point","coordinates":[-77.984308,35.497074]}},{"properties":{"city":"Pinebluff","lon":-79.471636,"zip":"","librarysystem":"Sandhill Regional Library System","phone":9102813004,"id":"a645ei15xgnf","address":"305 East Baltimore Avenue","lat":35.10974,"libraryname":"Pinebluff Public Library","state":"NC"},"type":"Feature","geometry":{"type":"Point","coordinates":[-79.471636,35.10974]}},{"properties":{"city":"Pinetops","lon":-77.638219,"zip":"","librarysystem":"Edgecombe County Memorial Library","phone":2528274621,"id":"a645ei1g0v5v","address":"201 South East 1st Street","lat":35.789703,"libraryname":"Pinetops Branch Library","state":"NC"},"type":"Feature","geometry":{"type":"Point","coordinates":[-77.638219,35.789703]}},{"properties":{"city":"Pink Hill","lon":-77.745204,"zip":"","librarysystem":"Neuse Regional Library","phone":2525683631,"id":"a645ehxydkk6","address":"114 West Broadway St","lat":35.055188,"libraryname":"Pink Hill Branch Library","state":"NC"},"type":"Feature","geometry":{"type":"Point","coordinates":[-77.745204,35.055188]}},{"properties":{"city":"Pittsboro","lon":-79.181216,"zip":"","librarysystem":"Central North Carolina Regional Library","phone":9195423524,"id":"a645ehvzu4bg","address":"204 West St","lat":35.720539,"libraryname":"Pittsboro Memorial Library","state":"NC"},"type":"Feature","geometry":{"type":"Point","coordinates":[-79.181216,35.720539]}},{"properties":{"city":"Charlotte","lon":-80.81184,"zip":"","librarysystem":"Public Library of Charlotte &amp; Mecklenburg County","phone":7043362982,"id":"a645ehpj8qag","address":"1623 Central Avenue","lat":35.22044,"libraryname":"Plaza Midwood Branch Library","state":"NC"},"type":"Feature","geometry":{"type":"Point","coordinates":[-80.81184,35.22044]}},{"properties":{"city":"Columbus","lon":-82.197481,"zip":"","librarysystem":"Polk County Public Library","phone":8288948721,"id":"a645ehr002ln","address":"51 Walker Street","lat":35.246227,"libraryname":"Polk County Public Library","state":"NC"},"type":"Feature","geometry":{"type":"Point","coordinates":[-82.197481,35.246227]}},{"properties":{"city":"Pollocksville","lon":-77.222702,"zip":"","librarysystem":"Neuse Regional Library","phone":2522245011,"id":"a645ei21py6j","address":"Po Box 6, 415 Green Hill St","lat":35.002781,"libraryname":"Pollocksville Public Library","state":"NC"},"type":"Feature","geometry":{"type":"Point","coordinates":[-77.222702,35.002781]}},{"properties":{"city":"Princeton","lon":-78.157222,"zip":"","librarysystem":"Public Library Of Johnston County &amp; Smithfield","phone":9199369996,"id":"a645ei4kf2ak","address":"101 Dr. Donnie H. Jones, Jr Blvd","lat":35.466604,"libraryname":"Princeton Public Library","state":"NC"},"type":"Feature","geometry":{"type":"Point","coordinates":[-78.157222,35.466604]}},{"properties":{"city":"Smithfield","lon":-78.345712,"zip":"","librarysystem":"Public Library Of Johnston County &amp; Smithfield","phone":9199348146,"id":"a645ei27n2e6","address":"305 Market Street","lat":35.511238,"libraryname":"Public Library Of Johnston County &amp; Smithfield","state":"NC"},"type":"Feature","geometry":{"type":"Point","coordinates":[-78.345712,35.511238]}},{"properties":{"city":"Charlotte","lon":-80.840523,"zip":"","librarysystem":"Public Library of Charlotte &amp; Mecklenburg County","phone":7043362801,"id":"a645ei2ry6gg","address":"310 North Tryon Street","lat":35.228797,"libraryname":"Public Library of Charlotte &amp; Mecklenburg County","state":"NC"},"type":"Feature","geometry":{"type":"Point","coordinates":[-80.840523,35.228797]}},{"properties":{"city":"Ramseur","lon":-79.654741,"zip":"","librarysystem":"Randolph County Public Library","phone":3368242232,"id":"a645ehugq91i","address":"1512 Main Street","lat":35.73351,"libraryname":"Ramseur Public Library","state":"NC"},"type":"Feature","geometry":{"type":"Point","coordinates":[-79.654741,35.73351]}},{"properties":{"city":"Randleman","lon":-79.804663,"zip":"","librarysystem":"Randolph County Public Library","phone":3364983141,"id":"a645ei47zq48","address":"122 Commerce Square","lat":35.817458,"libraryname":"Randleman Public Library","state":"NC"},"type":"Feature","geometry":{"type":"Point","coordinates":[-79.804663,35.817458]}},{"properties":{"city":"Reidsville","lon":-79.664513,"zip":"","librarysystem":"Rockingham County Public Library","phone":3363498476,"id":"a645ei04za0y","address":"204 W. Morehead St","lat":36.361692,"libraryname":"Reidsville Branch Library","state":"NC"},"type":"Feature","geometry":{"type":"Point","coordinates":[-79.664513,36.361692]}},{"properties":{"city":"Winston-Salem","lon":-80.299847,"zip":"","librarysystem":"Forsyth County Public Library","phone":3367272948,"id":"a645ehpg7v3u","address":"2839 Fairlawn Drive","lat":36.141846,"libraryname":"Reynolda Manor Branch Library","state":"NC"},"type":"Feature","geometry":{"type":"Point","coordinates":[-80.299847,36.141846]}},{"properties":{"city":"Raleigh","lon":-78.618741,"zip":"","librarysystem":"Wake County Public Libraries","phone":9198565720,"id":"a645ehwuzv4w","address":"1313 New Bern Avenue","lat":35.780054,"libraryname":"Richard B. Harrison Library","state":"NC"},"type":"Feature","geometry":{"type":"Point","coordinates":[-78.618741,35.780054]}},{"properties":{"city":"Oxford","lon":-78.587175,"zip":"","librarysystem":"Granville County Library System","phone":9196931121,"id":"a645ehs4x1ej","address":"210 Main St","lat":36.309697,"libraryname":"Richard H. Thornton Library","state":"NC"},"type":"Feature","geometry":{"type":"Point","coordinates":[-78.587175,36.309697]}},{"properties":{"city":"Richlands","lon":-77.544891,"zip":"","librarysystem":"Onslow County Public Library","phone":9103245321,"id":"a645ehu00kwf","address":"299s Wilmington Street","lat":34.901981,"libraryname":"Richlands Public Library","state":"NC"},"type":"Feature","geometry":{"type":"Point","coordinates":[-77.544891,34.901981]}},{"properties":{"city":"Hickory","lon":-81.33947,"zip":"","librarysystem":"Hickory Public Library","phone":8283456037,"id":"a645ehok3tgj","address":"706 First Street, Sw","lat":35.723684,"libraryname":"Ridgeview Branch Library","state":"NC"},"type":"Feature","geometry":{"type":"Point","coordinates":[-81.33947,35.723684]}},{"properties":{"city":"Robbins","lon":-79.590952,"zip":"","librarysystem":"Sandhill Regional Library System","phone":9109484000,"id":"a645ei175la7","address":"161 East Magnolia Drive","lat":35.432295,"libraryname":"Robbins Area Branch","state":"NC"},"type":"Feature","geometry":{"type":"Point","coordinates":[-79.590952,35.432295]}},{"properties":{"city":"Robersonville","lon":-77.25354,"zip":"","librarysystem":"BHM Regional Library","phone":2527953591,"id":"a645ei3z0tzx","address":"119 South Main Street","lat":35.823812,"libraryname":"Robersonville Public Library","state":"NC"},"type":"Feature","geometry":{"type":"Point","coordinates":[-77.25354,35.823812]}},{"properties":{"city":"Lumberton","lon":-79.007868,"zip":"","librarysystem":"Robeson County Public Library","phone":9107384859,"id":"a645ehtd4i29","address":"101 N. Chestnut Street","lat":34.617239,"libraryname":"Robeson County Public Library","state":"NC"},"type":"Feature","geometry":{"type":"Point","coordinates":[-79.007868,34.617239]}},{"properties":{"city":"Ronda","lon":-80.943635,"zip":"","librarysystem":"Appalachian Regional Library","phone":3368352377,"id":"a645ehv9j0mi","address":"123 Chatham St","lat":36.216237,"libraryname":"Ronda Branch Library","state":"NC"},"type":"Feature","geometry":{"type":"Point","coordinates":[-80.943635,36.216237]}},{"properties":{"city":"Rose Hill","lon":-78.021019,"zip":"","librarysystem":"Duplin County Library","phone":9102892490,"id":"a645ehqqgecl","address":"113 South Walnut St","lat":34.826534,"libraryname":"Rose Hill Community Memorial Library","state":"NC"},"type":"Feature","geometry":{"type":"Point","coordinates":[-78.021019,34.826534]}},{"properties":{"city":"Roseboro","lon":-78.512825,"zip":"","librarysystem":"Sampson-Clinton Public Library System","phone":9105255436,"id":"a645ehtzsvhb","address":"300 West Roseboro Street","lat":34.952176,"libraryname":"Roseboro Public Library","state":"NC"},"type":"Feature","geometry":{"type":"Point","coordinates":[-78.512825,34.952176]}},{"properties":{"city":"Shallotte","lon":-78.393606,"zip":"","librarysystem":"Brunswick County Library","phone":9107546578,"id":"a645ehpzgiq5","address":"5068 Main Street","lat":33.966958,"libraryname":"Rourk Branch Library","state":"NC"},"type":"Feature","geometry":{"type":"Point","coordinates":[-78.393606,33.966958]}},{"properties":{"city":"Salisbury","lon":-80.472363,"zip":"","librarysystem":"Rowan Public Library","phone":7046383000,"id":"a645ehsg1pfg","address":"201 W. Fisher St","lat":35.66749,"libraryname":"Rowan Public Library","state":"NC"},"type":"Feature","geometry":{"type":"Point","coordinates":[-80.472363,35.66749]}},{"properties":{"city":"Rowland","lon":-79.288987,"zip":"","librarysystem":"Robeson County Public Library","phone":9104223996,"id":"a645ei320cdd","address":"401 E. Main Street","lat":34.53569,"libraryname":"Rowland Public Library","state":"NC"},"type":"Feature","geometry":{"type":"Point","coordinates":[-79.288987,34.53569]}},{"properties":{"city":"Lake Waccamaw","lon":-78.524527,"zip":"","librarysystem":"Columbus County Public Library","phone":9196423116,"id":"a645ei0d1t5u","address":"301 Fleming Drive","lat":34.317156,"libraryname":"Rube Mccray Memorial Library","state":"NC"},"type":"Feature","geometry":{"type":"Point","coordinates":[-78.524527,34.317156]}},{"properties":{"city":"Rural Hall","lon":-80.286773,"zip":"","librarysystem":"Forsyth County Public Library","phone":3369699545,"id":"a645ehpn5pix","address":"7125 Broad Street","lat":36.225803,"libraryname":"Rural Hall Branch Library","state":"NC"},"type":"Feature","geometry":{"type":"Point","coordinates":[-80.286773,36.225803]}},{"properties":{"city":"Spindale","lon":-81.910675,"zip":"","librarysystem":"Rutherford County Library","phone":8282876115,"id":"a645ehs4e3y1","address":"255 Callahan Koone Rd.","lat":35.349184,"libraryname":"Rutherford County Library","state":"NC"},"type":"Feature","geometry":{"type":"Point","coordinates":[-81.910675,35.349184]}},{"properties":{"city":"Aulander","lon":-77.111785,"zip":"","librarysystem":"Albemarle Regional Library","phone":2523454461,"id":"a645ehoclgxb","address":"302 Broad Street","lat":36.227123,"libraryname":"Sallie H. Jenkins Memorial Library","state":"NC"},"type":"Feature","geometry":{"type":"Point","coordinates":[-77.111785,36.227123]}},{"properties":{"city":"Saluda","lon":-82.344725,"zip":"","librarysystem":"Polk County Public Library","phone":8287492117,"id":"a645ehxo3wu5","address":"44 West Main St.","lat":35.235776,"libraryname":"Saluda Branch Library","state":"NC"},"type":"Feature","geometry":{"type":"Point","coordinates":[-82.344725,35.235776]}},{"properties":{"city":"Winston-Salem","lon":-80.220754,"zip":"","librarysystem":"Forsyth County Public Library","phone":3367885761,"id":"a645ei2hdnmx","address":"1922 S. Martin Luther King Drive","lat":36.071877,"libraryname":"Salvation Army Boys &amp; Girls Club","state":"NC"},"type":"Feature","geometry":{"type":"Point","coordinates":[-80.220754,36.071877]}},{"properties":{"city":"Durham","lon":-78.885875,"zip":"","librarysystem":"Durham County Library","phone":9195600280,"id":"a645ehroa8b2","address":"810 N. Alston Avenue","lat":35.992884,"libraryname":"Salvation Army Boys Club","state":"NC"},"type":"Feature","geometry":{"type":"Point","coordinates":[-78.885875,35.992884]}},{"properties":{"city":"Charlotte","lon":-80.875258,"zip":"","librarysystem":"Public Library of Charlotte &amp; Mecklenburg County","phone":7045290632,"id":"a645ei2ft9bp","address":"101 Scaleybark Road","lat":35.188878,"libraryname":"Scaleybark Branch Library","state":"NC"},"type":"Feature","geometry":{"type":"Point","coordinates":[-80.875258,35.188878]}},{"properties":{"city":"Laurinburg","lon":-79.452482,"zip":"","librarysystem":"Scotland County Memorial Library","phone":9103692966,"id":"a645ehxk2lce","address":"Main Street","lat":34.787828,"libraryname":"Scotland County Memorial Library","state":"NC"},"type":"Feature","geometry":{"type":"Point","coordinates":[-79.452482,34.787828]}},{"properties":{"city":"Scotland Neck","lon":-77.420178,"zip":"","librarysystem":"Halifax County Library System","phone":2528265578,"id":"a645ehu965tw","address":"1600 Main St.","lat":36.13629,"libraryname":"Scotland Neck Memorial","state":"NC"},"type":"Feature","geometry":{"type":"Point","coordinates":[-77.420178,36.13629]}},{"properties":{"city":"Seagrove","lon":-79.777799,"zip":"","librarysystem":"Randolph County Public Library","phone":3368737521,"id":"a645ehtlxhuy","address":"P.O. Box 258, 354 Old Plank Road","lat":35.541048,"libraryname":"Seagrove Public Library","state":"NC"},"type":"Feature","geometry":{"type":"Point","coordinates":[-79.777799,35.541048]}},{"properties":{"city":"Selma","lon":-78.283104,"zip":"","librarysystem":"Public Library Of Johnston County &amp; Smithfield","phone":9199658613,"id":"a645ehobp89x","address":"301 N. Pollock St.","lat":35.538116,"libraryname":"Selma Public Library","state":"NC"},"type":"Feature","geometry":{"type":"Point","coordinates":[-78.283104,35.538116]}},{"properties":{"city":"Seven Springs","lon":-77.846022,"zip":"","librarysystem":"Wayne County Public Library","phone":9195692631,"id":"a645ehyux6pm","address":"506 Church St","lat":35.224255,"libraryname":"Seven Springs Public Library","state":"NC"},"type":"Feature","geometry":{"type":"Point","coordinates":[-77.846022,35.224255]}},{"properties":{"city":"Edenton","lon":-76.609837,"zip":"","librarysystem":"Pettigrew Regional Library","phone":2524824112,"id":"a645ei1f6e6f","address":"106 West Water Street","lat":36.057245,"libraryname":"Shepard-Pruden Memorial Library","state":"NC"},"type":"Feature","geometry":{"type":"Point","coordinates":[-76.609837,36.057245]}},{"properties":{"city":"Greenville","lon":-77.373508,"zip":"","librarysystem":"Sheppard Memorial Library","phone":2523294580,"id":"a645ehtbldwi","address":"530 S. Evans Street","lat":35.609893,"libraryname":"Sheppard Memorial Library","state":"NC"},"type":"Feature","geometry":{"type":"Point","coordinates":[-77.373508,35.609893]}},{"properties":{"city":"Sherrils Ford","lon":-80.987042,"zip":"","librarysystem":"Catawba County Library","phone":8284782729,"id":"a645ehsh1hw7","address":"8456 Sherrills Ford Road","lat":35.61235,"libraryname":"Sherrills Ford Branch","state":"NC"},"type":"Feature","geometry":{"type":"Point","coordinates":[-80.987042,35.61235]}},{"properties":{"city":"Sneads Ferry","lon":-77.395406,"zip":"","librarysystem":"Onslow County Public Library","phone":9103276471,"id":"a645ei1evxhr","address":"242 Sneads Ferry Road","lat":34.551993,"libraryname":"Sneads Ferry Branch Library","state":"NC"},"type":"Feature","geometry":{"type":"Point","coordinates":[-77.395406,34.551993]}},{"properties":{"city":"Asheville","lon":-82.513229,"zip":"","librarysystem":"Asheville-Buncombe Library System","phone":8282741007,"id":"a645ehuwksza","address":"749 Fairview Road","lat":35.564477,"libraryname":"South Asheville Branch Library","state":"NC"},"type":"Feature","geometry":{"type":"Point","coordinates":[-82.513229,35.564477]}},{"properties":{"city":"Landis","lon":-80.609418,"zip":"","librarysystem":"Rowan Public Library","phone":7048573579,"id":"a645ehre0fhe","address":"102 North Central Avenue","lat":35.546566,"libraryname":"South Branch Library","state":"NC"},"type":"Feature","geometry":{"type":"Point","coordinates":[-80.609418,35.546566]}},{"properties":{"city":"Creedmoor","lon":-78.685894,"zip":"","librarysystem":"Granville County Library System","phone":9195281752,"id":"a645ehp7ndz1","address":"1547 S. Campus Dr.","lat":36.122265,"libraryname":"South Branch Library","state":"NC"},"type":"Feature","geometry":{"type":"Point","coordinates":[-78.685894,36.122265]}},{"properties":{"city":"Skyland","lon":-82.525433,"zip":"","librarysystem":"Asheville-Buncombe Library System","phone":8286841827,"id":"a645ehseug1q","address":"260 Overlook Rd","lat":35.485584,"libraryname":"South Buncombe Branch Library","state":"NC"},"type":"Feature","geometry":{"type":"Point","coordinates":[-82.525433,35.485584]}},{"properties":{"city":"Charlotte","lon":-80.778354,"zip":"","librarysystem":"Public Library of Charlotte &amp; Mecklenburg County","phone":7045441042,"id":"a645ei2sv86x","address":"8140-100 Providence Road","lat":35.097777,"libraryname":"South County Regional Library","state":"NC"},"type":"Feature","geometry":{"type":"Point","coordinates":[-80.778354,35.097777]}},{"properties":{"city":"Raleigh","lon":-78.614715,"zip":"","librarysystem":"Wake County Public Libraries","phone":9198566598,"id":"a645ei2dpmeg","address":"1601-14 Crosslink Road","lat":35.75402,"libraryname":"South Raleigh Library","state":"NC"},"type":"Feature","geometry":{"type":"Point","coordinates":[-78.614715,35.75402]}},{"properties":{"city":"Garner","lon":-78.621719,"zip":"","librarysystem":"Wake County Public Libraries","phone":9196622250,"id":"a645ehue9go5","address":"908 7th Avenue","lat":35.705928,"libraryname":"Southeast Regional Library","state":"NC"},"type":"Feature","geometry":{"type":"Point","coordinates":[-78.621719,35.705928]}},{"properties":{"city":"Southern Pines","lon":-79.389548,"zip":"","librarysystem":"Southern Pines Public Library","phone":9106928235,"id":"a645ei2iur4f","address":"170 W. Connecticut Ave.","lat":35.175514,"libraryname":"Southern Pines Public Library","state":"NC"},"type":"Feature","geometry":{"type":"Point","coordinates":[-79.389548,35.175514]}},{"properties":{"city":"Winston-Salem","lon":-80.254045,"zip":"","librarysystem":"Forsyth County Public Library","phone":3367714722,"id":"a645ehywxj2y","address":"3185 Buchanan Street","lat":36.054588,"libraryname":"Southside Branch Library","state":"NC"},"type":"Feature","geometry":{"type":"Point","coordinates":[-80.254045,36.054588]}},{"properties":{"city":"Greensboro","lon":-79.868236,"zip":"","librarysystem":"Greensboro Public Library","phone":3363732925,"id":"a645ei19x5w5","address":"4707 High Point Road","lat":36.030152,"libraryname":"Southwest Branch Library","state":"NC"},"type":"Feature","geometry":{"type":"Point","coordinates":[-79.868236,36.030152]}},{"properties":{"city":"Durham","lon":-78.954824,"zip":"","librarysystem":"Durham County Library","phone":9195600290,"id":"a645ehu4n87m","address":"3605 Shannon Road","lat":35.958197,"libraryname":"Southwest Branch Library","state":"NC"},"type":"Feature","geometry":{"type":"Point","coordinates":[-78.954824,35.958197]}},{"properties":{"city":"Hickory","lon":-81.366488,"zip":"","librarysystem":"Catawba County Library","phone":8282942343,"id":"a645ei36a7bh","address":"2944 Highway 127 South","lat":35.686828,"libraryname":"Southwest Branch Library","state":"NC"},"type":"Feature","geometry":{"type":"Point","coordinates":[-81.366488,35.686828]}},{"properties":{"city":"Lawndale","lon":-81.551683,"zip":"","librarysystem":"Cleveland County Library","phone":7045387005,"id":"a645ei22vvv6","address":"112 Piedmont Dr","lat":35.419027,"libraryname":"Spangler Branch Library","state":"NC"},"type":"Feature","geometry":{"type":"Point","coordinates":[-81.551683,35.419027]}},{"properties":{"city":"Spring Lake","lon":-78.986414,"zip":"","librarysystem":"Cumberland County Public Library &amp; Information Center","phone":9104973650,"id":"a645ehoinmj9","address":"101 Laketree Blvd","lat":35.182197,"libraryname":"Spring Lake Branch","state":"NC"},"type":"Feature","geometry":{"type":"Point","coordinates":[-78.986414,35.182197]}},{"properties":{"city":"Spruce Pine","lon":-82.067097,"zip":"","librarysystem":"Avery-Mitchell-Yancey Regional Library","phone":8287654673,"id":"a645ehzp8jm2","address":"142 Walnut Avenue","lat":35.916278,"libraryname":"Spruce Pine Public Library","state":"NC"},"type":"Feature","geometry":{"type":"Point","coordinates":[-82.067097,35.916278]}},{"properties":{"city":"St. Pauls","lon":-78.972881,"zip":"","librarysystem":"Robeson County Public Library","phone":9108654002,"id":"a645ehqzqc6k","address":"223 W. Broad Street","lat":34.806703,"libraryname":"St. Pauls Public Library","state":"NC"},"type":"Feature","geometry":{"type":"Point","coordinates":[-78.972881,34.806703]}},{"properties":{"city":"Hickory","lon":-81.273643,"zip":"","librarysystem":"Catawba County Library","phone":8282563030,"id":"a645ehz70c3j","address":"3225 Springs Road","lat":35.758432,"libraryname":"St. Stephens Branch Library","state":"NC"},"type":"Feature","geometry":{"type":"Point","coordinates":[-81.273643,35.758432]}},{"properties":{"city":"Durham","lon":-78.898753,"zip":"","librarysystem":"Durham County Library","phone":9195600270,"id":"a645ei1gij60","address":"1201 Fayetteville Street","lat":35.982749,"libraryname":"Stanford L Warren Branch Library","state":"NC"},"type":"Feature","geometry":{"type":"Point","coordinates":[-78.898753,35.982749]}},{"properties":{"city":"Stanley","lon":-81.094821,"zip":"","librarysystem":"Gaston-Lincoln Regional Library System","phone":7042634166,"id":"a645ei4at1zo","address":"205 Peterson Street","lat":35.361043,"libraryname":"Stanley Branch Library","state":"NC"},"type":"Feature","geometry":{"type":"Point","coordinates":[-81.094821,35.361043]}},{"properties":{"city":"Albemarle","lon":-80.197495,"zip":"","librarysystem":"Stanly County Public Library","phone":7049863765,"id":"a645ehvz1duc","address":"133 E. Main Street","lat":35.35042,"libraryname":"Stanly County Public Library","state":"NC"},"type":"Feature","geometry":{"type":"Point","coordinates":[-80.197495,35.35042]}},{"properties":{"city":"Star","lon":-79.783973,"zip":"","librarysystem":"Sandhill Regional Library System","phone":9104282338,"id":"a645ehrk9pps","address":"222 South Main St","lat":35.398513,"libraryname":"Star Branch","state":"NC"},"type":"Feature","geometry":{"type":"Point","coordinates":[-79.783973,35.398513]}},{"properties":{"city":"Charlotte","lon":-80.939794,"zip":"","librarysystem":"Public Library of Charlotte &amp; Mecklenburg County","phone":7045884345,"id":"a645ehrg2en5","address":"9124-F South Tryon Street","lat":35.13417,"libraryname":"Steele Creek Branch","state":"NC"},"type":"Feature","geometry":{"type":"Point","coordinates":[-80.939794,35.13417]}},{"properties":{"city":"Mt. Olive","lon":-78.068199,"zip":"","librarysystem":"Wayne County Public Library","phone":9196582580,"id":"a645ehz67brs","address":"111 N Chestnut St","lat":35.196456,"libraryname":"Steele Memorial Library","state":"NC"},"type":"Feature","geometry":{"type":"Point","coordinates":[-78.068199,35.196456]}},{"properties":{"city":"Stoneville","lon":-79.905449,"zip":"","librarysystem":"Rockingham County Public Library","phone":3365739040,"id":"a645ehwfk0cm","address":"201 E. Main St","lat":36.466618,"libraryname":"Stoneville Branch Library","state":"NC"},"type":"Feature","geometry":{"type":"Point","coordinates":[-79.905449,36.466618]}},{"properties":{"city":"Stovall","lon":-78.574576,"zip":"","librarysystem":"Granville County Library System","phone":9196935722,"id":"a645ehuwuawk","address":"101 Hwy 15 N","lat":36.440667,"libraryname":"Stovall Branch Library","state":"NC"},"type":"Feature","geometry":{"type":"Point","coordinates":[-78.574576,36.440667]}},{"properties":{"city":"Charlotte","lon":-80.797955,"zip":"","librarysystem":"Public Library of Charlotte &amp; Mecklenburg County","phone":7043362469,"id":"a645ehsyz5s1","address":"4045 North Tryon Street","lat":35.256788,"libraryname":"Sugar Creek Branch Library","state":"NC"},"type":"Feature","geometry":{"type":"Point","coordinates":[-80.797955,35.256788]}},{"properties":{"city":"Swannonoa","lon":-82.385895,"zip":"","librarysystem":"Asheville-Buncombe Library System","phone":8286865516,"id":"a645ehx4eeui","address":"101 West Charleston St","lat":35.60944,"libraryname":"Swannanoa Branch Library","state":"NC"},"type":"Feature","geometry":{"type":"Point","coordinates":[-82.385895,35.60944]}},{"properties":{"city":"Swansboro","lon":-77.160356,"zip":"","librarysystem":"Onslow County Public Library","phone":9103264888,"id":"a645ehshe861","address":"1460 W Corbett Ave.","lat":34.706856,"libraryname":"Swansboro Branch Library","state":"NC"},"type":"Feature","geometry":{"type":"Point","coordinates":[-77.160356,34.706856]}},{"properties":{"city":"Tabor City","lon":-78.876422,"zip":"","librarysystem":"Columbus County Public Library","phone":9106533774,"id":"a645eht7hcmn","address":"1 East Fifth Street","lat":34.148802,"libraryname":"Tabor City Public Library","state":"NC"},"type":"Feature","geometry":{"type":"Point","coordinates":[-78.876422,34.148802]}},{"properties":{"city":"Thomasville","lon":-80.081405,"zip":"","librarysystem":"Davidson County Public Library","phone":3364742690,"id":"a645ehomj0dy","address":"14 Randolph Street","lat":35.882113,"libraryname":"Thomasville Public Library","state":"NC"},"type":"Feature","geometry":{"type":"Point","coordinates":[-80.081405,35.882113]}},{"properties":{"city":"Brevard","lon":-82.734756,"zip":"","librarysystem":"Transylvania County Library","phone":8288843151,"id":"a645eho8bsnc","address":"105 South Broad Street","lat":35.232857,"libraryname":"Transylvania County Library","state":"NC"},"type":"Feature","geometry":{"type":"Point","coordinates":[-82.734756,35.232857]}},{"properties":{"city":"Traphill","lon":-81.023022,"zip":"","librarysystem":"Appalachian Regional Library","phone":3369572534,"id":"a645ehvdmk1c","address":"11964 Austin Traphill Rd","lat":36.343301,"libraryname":"Traphill Branch Library","state":"NC"},"type":"Feature","geometry":{"type":"Point","coordinates":[-81.023022,36.343301]}},{"properties":{"city":"Trenton","lon":-77.355914,"zip":"","librarysystem":"Neuse Regional Library","phone":2524484261,"id":"a645ehvuysl6","address":"204 Lakeview Drive","lat":35.062977,"libraryname":"Trenton Public Library","state":"NC"},"type":"Feature","geometry":{"type":"Point","coordinates":[-77.355914,35.062977]}},{"properties":{"city":"Columbia","lon":-76.251704,"zip":"","librarysystem":"Pettigrew Regional Library","phone":2527963771,"id":"a645ei0f215l","address":"414 Main Street","lat":35.917944,"libraryname":"Tyrrell County Library","state":"NC"},"type":"Feature","geometry":{"type":"Point","coordinates":[-76.251704,35.917944]}},{"properties":{"city":"Monroe","lon":-80.546947,"zip":"","librarysystem":"Union County Public Library","phone":7042838184,"id":"a645ei406crs","address":"316 East Windsor Street","lat":34.981289,"libraryname":"Union County Public Library","state":"NC"},"type":"Feature","geometry":{"type":"Point","coordinates":[-80.546947,34.981289]}},{"properties":{"city":"Gastonia","lon":-81.131703,"zip":"","librarysystem":"Gaston-Lincoln Regional Library System","phone":7048524073,"id":"a645ehypj9fu","address":"5800 S. Union Road","lat":35.17749,"libraryname":"Union Road Branch Library","state":"NC"},"type":"Feature","geometry":{"type":"Point","coordinates":[-81.131703,35.17749]}},{"properties":{"city":"Indian Trail","lon":-80.66628,"zip":"","librarysystem":"Union County Public Library","phone":7048217475,"id":"a645ei430duo","address":"123 Unionville-Indian Trail Road","lat":35.078357,"libraryname":"Union West Branch Library","state":"NC"},"type":"Feature","geometry":{"type":"Point","coordinates":[-80.66628,35.078357]}},{"properties":{"city":"Charlotte","lon":-80.837539,"zip":"","librarysystem":"Public Library of Charlotte &amp; Mecklenburg County","phone":7045959828,"id":"a645ehq8rwgh","address":"301 North E.W.T. Harris Road","lat":35.2225,"libraryname":"University City Regional","state":"NC"},"type":"Feature","geometry":{"type":"Point","coordinates":[-80.837539,35.2225]}},{"properties":{"city":"Valdese","lon":-81.561285,"zip":"","librarysystem":"Burke County Public Library","phone":8288742421,"id":"a645ei3x7eun","address":"213 St. Germain Avenue, Se","lat":35.741678,"libraryname":"Valdese Public Library","state":"NC"},"type":"Feature","geometry":{"type":"Point","coordinates":[-81.561285,35.741678]}},{"properties":{"city":"Greensboro","lon":-79.771211,"zip":"","librarysystem":"Greensboro Public Library","phone":3363735838,"id":"a645ei0x536q","address":"900 S. Benbow Road","lat":36.064201,"libraryname":"Vance H. Chavis Lifelong Learning Center","state":"NC"},"type":"Feature","geometry":{"type":"Point","coordinates":[-79.771211,36.064201]}},{"properties":{"city":"Vanceboro","lon":-77.152516,"zip":"","librarysystem":"Craven-Pamlico-Carteret Regional Library","phone":2522440571,"id":"a645ei4dihml","address":"7931 Main Street","lat":35.299647,"libraryname":"Vanceboro-Craven County Public Library","state":"NC"},"type":"Feature","geometry":{"type":"Point","coordinates":[-77.152516,35.299647]}},{"properties":{"city":"Vass","lon":-79.281825,"zip":"","librarysystem":"Sandhill Regional Library System","phone":9102452200,"id":"a645eht5c09g","address":"128 Seaboard Street","lat":35.25608,"libraryname":"Vass Area Library","state":"NC"},"type":"Feature","geometry":{"type":"Point","coordinates":[-79.281825,35.25608]}},{"properties":{"city":"Wagram","lon":-79.36443,"zip":"","librarysystem":"Scotland County Memorial Library","phone":9103692966,"id":"a645ei04ph9s","address":"P.O. Box 118","lat":34.889526,"libraryname":"Wagram Branch Library","state":"NC"},"type":"Feature","geometry":{"type":"Point","coordinates":[-79.36443,34.889526]}},{"properties":{"city":"Wake Forest","lon":-78.508003,"zip":"","librarysystem":"Wake County Public Libraries","phone":9195548498,"id":"a645ehy0zorh","address":"400 E. Holding Avenue","lat":35.968503,"libraryname":"Wake Forest Library","state":"NC"},"type":"Feature","geometry":{"type":"Point","coordinates":[-78.508003,35.968503]}},{"properties":{"city":"Walkertown","lon":-80.151472,"zip":"","librarysystem":"Forsyth County Public Library","phone":3365956863,"id":"a645ei47m2c6","address":"2969 Main Street","lat":36.17063,"libraryname":"Walkertown Branch Library","state":"NC"},"type":"Feature","geometry":{"type":"Point","coordinates":[-80.151472,36.17063]}},{"properties":{"city":"Walnut Cove","lon":-80.139649,"zip":"","librarysystem":"Northwestern Regional Library","phone":3365917496,"id":"a645ei4cr8xj","address":"106 West Fifth Street","lat":36.29812,"libraryname":"Walnut Cove Public Library","state":"NC"},"type":"Feature","geometry":{"type":"Point","coordinates":[-80.139649,36.29812]}},{"properties":{"city":"Warrenton","lon":-78.155171,"zip":"","librarysystem":"Warren County Memorial Library","phone":9192574990,"id":"a645ehsz4887","address":"117 S. Main Street","lat":36.398054,"libraryname":"Warren County Memorial Library","state":"NC"},"type":"Feature","geometry":{"type":"Point","coordinates":[-78.155171,36.398054]}},{"properties":{"city":"Warsaw","lon":-78.091214,"zip":"","librarysystem":"Duplin County Library","phone":9102934664,"id":"a645ehqmsmkz","address":"117 East College St","lat":34.999584,"libraryname":"Warsaw-Kornegay Public Library","state":"NC"},"type":"Feature","geometry":{"type":"Point","coordinates":[-78.091214,34.999584]}},{"properties":{"city":"Plymouth","lon":-76.747412,"zip":"","librarysystem":"Pettigrew Regional Library","phone":2527932113,"id":"a645ehwlow1o","address":"201 East Third Street","lat":35.865633,"libraryname":"Washington County Library","state":"NC"},"type":"Feature","geometry":{"type":"Point","coordinates":[-76.747412,35.865633]}},{"properties":{"city":"Boone","lon":-81.684797,"zip":"","librarysystem":"Appalachian Regional Library","phone":8282648784,"id":"a645ehyx0f1z","address":"140 Queen Street","lat":36.220122,"libraryname":"Watauga County Public Library","state":"NC"},"type":"Feature","geometry":{"type":"Point","coordinates":[-81.684797,36.220122]}},{"properties":{"city":"Waxhaw","lon":-80.741223,"zip":"","librarysystem":"Union County Public Library","phone":7048433131,"id":"a645ehuinpi9","address":"509 South Providence Street","lat":34.922226,"libraryname":"Waxhaw Library","state":"NC"},"type":"Feature","geometry":{"type":"Point","coordinates":[-80.741223,34.922226]}},{"properties":{"city":"Goldsboro","lon":-77.981198,"zip":"","librarysystem":"Wayne County Public Library","phone":9197351824,"id":"a645ei0s0isi","address":"1001 East Ash Street","lat":35.381693,"libraryname":"Wayne County Public Library","state":"NC"},"type":"Feature","geometry":{"type":"Point","coordinates":[-77.981198,35.381693]}},{"properties":{"city":"Weaverville","lon":-82.5604,"zip":"","librarysystem":"Asheville-Buncombe Library System","phone":8286453592,"id":"a645ei3kt6sp","address":"41 N. Main","lat":35.698736,"libraryname":"Weaverville-Bess Tilson Sprinkle Mem. Library","state":"NC"},"type":"Feature","geometry":{"type":"Point","coordinates":[-82.5604,35.698736]}},{"properties":{"city":"Weldon","lon":-77.5961,"zip":"","librarysystem":"Halifax County Library System","phone":2525363837,"id":"a645ei4k1mo3","address":"6 West First Street","lat":36.428512,"libraryname":"Weldon Memorial Library","state":"NC"},"type":"Feature","geometry":{"type":"Point","coordinates":[-77.5961,36.428512]}},{"properties":{"city":"Wendell","lon":-78.366251,"zip":"","librarysystem":"Wake County Public Libraries","phone":9193652600,"id":"a645ehy4729c","address":"207 South Hollybrook Road","lat":35.779094,"libraryname":"Wendell Library","state":"NC"},"type":"Feature","geometry":{"type":"Point","coordinates":[-78.366251,35.779094]}},{"properties":{"city":"Asheville","lon":-82.601886,"zip":"","librarysystem":"Asheville-Buncombe Library System","phone":8282514990,"id":"a645ehojzzrr","address":"970 Haywood Road","lat":35.581011,"libraryname":"West Asheville Branch Library","state":"NC"},"type":"Feature","geometry":{"type":"Point","coordinates":[-82.601886,35.581011]}},{"properties":{"city":"Charlotte","lon":-80.895759,"zip":"","librarysystem":"Public Library of Charlotte &amp; Mecklenburg County","phone":7043731050,"id":"a645eht6koit","address":"2157 West Boulevard","lat":35.211626,"libraryname":"West Boulevard Branch Library","state":"NC"},"type":"Feature","geometry":{"type":"Point","coordinates":[-80.895759,35.211626]}},{"properties":{"city":"Lexington","lon":-80.376945,"zip":"","librarysystem":"Davidson County Public Library","phone":3368534800,"id":"a645ehw00zsa","address":"246 Tyro School Road","lat":35.809902,"libraryname":"West Davidson Public Library","state":"NC"},"type":"Feature","geometry":{"type":"Point","coordinates":[-80.376945,35.809902]}},{"properties":{"city":"Vale","lon":-81.419255,"zip":"","librarysystem":"Gaston-Lincoln Regional Library System","phone":7042769946,"id":"a645ehqo6mfv","address":"5545 West Nc Hwy 27","lat":35.496961,"libraryname":"West Lincoln Branch Library","state":"NC"},"type":"Feature","geometry":{"type":"Point","coordinates":[-81.419255,35.496961]}},{"properties":{"city":"Raleigh","lon":-78.712276,"zip":"","librarysystem":"Wake County Public Libraries","phone":9198811344,"id":"a645ehrcltde","address":"5800 Duraleigh Road","lat":35.856849,"libraryname":"West Popular Lending Library","state":"NC"},"type":"Feature","geometry":{"type":"Point","coordinates":[-78.712276,35.856849]}},{"properties":{"city":"Sugar Grove","lon":-81.788432,"zip":"","librarysystem":"Appalachian Regional Library","phone":8282975515,"id":"a645ehs9v1hh","address":"1085 Old Us Hwy 421","lat":36.253149,"libraryname":"Western Watauga Branch Library","state":"NC"},"type":"Feature","geometry":{"type":"Point","coordinates":[-81.788432,36.253149]}},{"properties":{"city":"North Wilkesboro","lon":-81.148009,"zip":"","librarysystem":"Appalachian Regional Library","phone":3368382818,"id":"a645ehs1u6yp","address":"215 10th Street","lat":36.159021,"libraryname":"Wilkes County Library","state":"NC"},"type":"Feature","geometry":{"type":"Point","coordinates":[-81.148009,36.159021]}},{"properties":{"city":"Wilson","lon":-77.916158,"zip":"","librarysystem":"Wilson County Public Library","phone":9192375355,"id":"a645ehtth370","address":"P.O. Box 400","lat":35.721714,"libraryname":"Wilson County Public Library","state":"NC"},"type":"Feature","geometry":{"type":"Point","coordinates":[-77.916158,35.721714]}},{"properties":{"city":"Siler City","lon":-79.464645,"zip":"","librarysystem":"Central North Carolina Regional Library","phone":9197422016,"id":"a645ehvdb2nc","address":"502 North 2nd Avenue","lat":35.727461,"libraryname":"Wren Memorial Library","state":"NC"},"type":"Feature","geometry":{"type":"Point","coordinates":[-79.464645,35.727461]}},{"properties":{"city":"Yadkinville","lon":-80.657892,"zip":"","librarysystem":"Northwestern Regional Library","phone":3366798792,"id":"a645ehztye61","address":"233 East Main Street","lat":36.134586,"libraryname":"Yadkin County Public Library","state":"NC"},"type":"Feature","geometry":{"type":"Point","coordinates":[-80.657892,36.134586]}},{"properties":{"city":"Burnsville","lon":-82.299794,"zip":"","librarysystem":"Avery-Mitchell-Yancey Regional Library","phone":8286822600,"id":"a645ehpis8vq","address":"18 Town Square","lat":35.923049,"libraryname":"Yancey County Library","state":"NC"},"type":"Feature","geometry":{"type":"Point","coordinates":[-82.299794,35.923049]}},{"properties":{"city":"Youngsville","lon":-78.512899,"zip":"","librarysystem":"Franklin County Library","phone":9195561612,"id":"a645ehsmpwuk","address":"218 Us1a Hwy. South","lat":36.02008,"libraryname":"Youngsville Branch Library","state":"NC"},"type":"Feature","geometry":{"type":"Point","coordinates":[-78.512899,36.02008]}},{"properties":{"city":"Winston-Salem","lon":-80.245572,"zip":"","librarysystem":"Forsyth County Public Library","phone":3367714722,"id":"a645ehq9g2b2","address":"610 N. Liberty Street","lat":36.101666,"libraryname":"Ywca Youth Mini Library","state":"NC"},"type":"Feature","geometry":{"type":"Point","coordinates":[-80.245572,36.101666]}},{"properties":{"city":"Zebulon","lon":-78.32118,"zip":"","librarysystem":"Wake County Public Libraries","phone":9194043610,"id":"a645ehoiwyv7","address":"1000 Dogwood Drive","lat":35.836539,"libraryname":"Zebulon Library","state":"NC"},"type":"Feature","geometry":{"type":"Point","coordinates":[-78.32118,35.836539]}}],"is_temporal":false,"author":{"url":"http://www.publiclibraries.com/northcarolina.htm","metadata":"","contact_name":"","contact_address":"","source":"publiclibrairies.com","contact_phone":""},"source":"http://www.publiclibraries.com/northcarolina.htm","pagination":{"sort":null,"start":0,"total":379,"limit":1000000},"state":"complete","tags":"books,carolina,education,libraries,library,north,public","published":"2008-05-09T12:00:00Z","id":942}