{"type":"FeatureCollection","data_type":"Dataset","url_type":null,"permissions":[{"permissions":{"download":true,"view":true},"group_id":"everyone"}],"classification":null,"title":"publiclibraries.com, North Dakota Public Libraries, North Dakota, 1.2008","count":90,"stream_id":943,"contributor":{"url":"http://geocommons.com/users/2","name":"data"},"data_attributes":null,"calculation_params":null,"icon_link":null,"link":"http://geocommons.com/overlays/943.json","extent":[-104.006,46.0009,-96.6059,48.9671],"geometry_types":["point"],"unique_name":null,"name":"publiclibraries.com, North Dakota Public Libraries, North Dakota, 1.2008","feature_count":90,"description":"This dataset displays the locations of all the public libraries in the state of North Dakota. The data included is the name of the library, name of the library system, library's address, phone, and lat/lon coordinates. The data came from publiclibraries.com which is a updated directory of all the public libraries throughout the United States.\n","next_feature":null,"is_raster":false,"short_classification":"Y","stats":{"lon":{"max":-96.605854,"mean":-99.7049100222222,"variance":4.34351223370542,"stdev":2.08410945818722,"min":-104.006021,"median":-99.373021},"zip":{"max":58835,"mean":58413.3444444444,"variance":56841.2171036205,"stdev":238.41396163736,"min":58011,"median":58433},"lat":{"max":48.967132,"mean":47.3695561222222,"variance":0.765490555349142,"stdev":0.874923171112265,"min":46.00095,"median":47.449009}},"features":[{"properties":{"city":"Hettinger","lon":-102.635428,"zip":58639,"librarysystem":"Adams County Library","id":"a65x6hgwly32","address":"103 N 6th Street","lat":46.001312,"libraryname":"Adams County Library","state":"ND"},"type":"Feature","geometry":{"type":"Point","coordinates":[-102.635428,46.001312]}},{"properties":{"city":"Reeder","lon":-102.944949,"zip":58649,"librarysystem":"Adams County Library","id":"a65x6hk8l4me","address":"Main Street","lat":46.10684,"libraryname":"Adams County Library","state":"ND"},"type":"Feature","geometry":{"type":"Point","coordinates":[-102.944949,46.10684]}},{"properties":{"city":"Jamestown","lon":-98.708195,"zip":58041,"librarysystem":"Alfred Dickey Public Library","id":"a65x6hfsq0ck","address":"105 Third Street SE","lat":46.906456,"libraryname":"Alfred Dickey Public Library","state":"ND"},"type":"Feature","geometry":{"type":"Point","coordinates":[-98.708195,46.906456]}},{"properties":{"city":"Ashley","lon":-99.373021,"zip":58413,"librarysystem":"Ashley Public Library","id":"a65x6h6f9mui","address":"113 First Avenue NW","lat":46.035742,"libraryname":"Ashley Public Library","state":"ND"},"type":"Feature","geometry":{"type":"Point","coordinates":[-99.373021,46.035742]}},{"properties":{"city":"Beulah","lon":-101.777834,"zip":58523,"librarysystem":"Beulah Public Library","id":"a65x6hbatal1","address":"116 North Central Avenue","lat":47.263659,"libraryname":"Beulah Public Library","state":"ND"},"type":"Feature","geometry":{"type":"Point","coordinates":[-101.777834,47.263659]}},{"properties":{"city":"Bismarck","lon":-100.784306,"zip":58501,"librarysystem":"Bismarck Veterans Memorial Public Library","id":"a65x6hbq82jx","address":"515 N Fifth Street","lat":46.809804,"libraryname":"Bismarck Veterans Memorial Public Library","state":"ND"},"type":"Feature","geometry":{"type":"Point","coordinates":[-100.784306,46.809804]}},{"properties":{"city":"Bottineau","lon":-100.449443,"zip":58318,"librarysystem":"Bottineau County Library","id":"a65x6hirqzjl","address":"314 West 5th Street","lat":48.827459,"libraryname":"Bottineau County Library","state":"ND"},"type":"Feature","geometry":{"type":"Point","coordinates":[-100.449443,48.827459]}},{"properties":{"city":"Bowman","lon":-103.395321,"zip":58623,"librarysystem":"Bowman Public Library","id":"a65x6hhbx8er","address":"15 1st Street NW","lat":46.18307,"libraryname":"Bowman Public Library","state":"ND"},"type":"Feature","geometry":{"type":"Point","coordinates":[-103.395321,46.18307]}},{"properties":{"city":"Cando","lon":-99.203214,"zip":58324,"librarysystem":"Cando Community Library","id":"a65x6hctlbc2","address":"523 Main","lat":48.490012,"libraryname":"Cando Community Library","state":"ND"},"type":"Feature","geometry":{"type":"Point","coordinates":[-99.203214,48.490012]}},{"properties":{"city":"Grafton","lon":-97.412659,"zip":58237,"librarysystem":"Carnegie Regional Library","id":"a65x6hly415a","address":"7th &amp; Griggs","lat":48.41756,"libraryname":"Carnegie Regional Library","state":"ND"},"type":"Feature","geometry":{"type":"Point","coordinates":[-97.412659,48.41756]}},{"properties":{"city":"Michigan","lon":-98.12142,"zip":58259,"librarysystem":"Carnegie Regional Library","id":"a65x6h89549q","address":"105 1st Street East","lat":48.024253,"libraryname":"Carnegie Regional Library","state":"ND"},"type":"Feature","geometry":{"type":"Point","coordinates":[-98.12142,48.024253]}},{"properties":{"city":"Aneta","lon":-97.839519,"zip":58212,"librarysystem":"Carnegie Regional Library","id":"a65x6hhjrxpj","address":"Rr 1 Box 88","lat":47.68668,"libraryname":"Carnegie Regional Library","state":"ND"},"type":"Feature","geometry":{"type":"Point","coordinates":[-97.839519,47.68668]}},{"properties":{"city":"Adams","lon":-98.092779,"zip":58210,"librarysystem":"Carnegie Regional Library","id":"a65x6h99nzze","address":"503 Briggs Ave.","lat":48.41302,"libraryname":"Carnegie Regional Library","state":"ND"},"type":"Feature","geometry":{"type":"Point","coordinates":[-98.092779,48.41302]}},{"properties":{"city":"Carrington","lon":-99.124954,"zip":58421,"librarysystem":"Carrington City Library","id":"a65x6hlxnbyf","address":"55 Ninth Ave S","lat":47.449009,"libraryname":"Carrington City Library","state":"ND"},"type":"Feature","geometry":{"type":"Point","coordinates":[-99.124954,47.449009]}},{"properties":{"city":"Casselton","lon":-97.211026,"zip":58012,"librarysystem":"Casselton Public Library","id":"a65x6h5m8h8u","address":"702 1st Street N","lat":46.901656,"libraryname":"Casselton Public Library","state":"ND"},"type":"Feature","geometry":{"type":"Point","coordinates":[-97.211026,46.901656]}},{"properties":{"city":"Langdon","lon":-98.373077,"zip":58249,"librarysystem":"Cavalier County Library","id":"a65x6h8kvp8i","address":"600 Fifth Avenue","lat":48.759452,"libraryname":"Cavalier County Library","state":"ND"},"type":"Feature","geometry":{"type":"Point","coordinates":[-98.373077,48.759452]}},{"properties":{"city":"Cavalier","lon":-97.625407,"zip":58220,"librarysystem":"Cavalier Public Library","id":"a65x6had7mq0","address":"106A West 2nd Ave S","lat":48.793745,"libraryname":"Cavalier Public Library","state":"ND"},"type":"Feature","geometry":{"type":"Point","coordinates":[-97.625407,48.793745]}},{"properties":{"city":"Dickinson","lon":-102.787198,"zip":58601,"librarysystem":"Dickinson Public Library","id":"a65x6hdcng60","address":"139 3rd Street West","lat":46.881812,"libraryname":"Dickinson Public Library","state":"ND"},"type":"Feature","geometry":{"type":"Point","coordinates":[-102.787198,46.881812]}},{"properties":{"city":"Crosby","lon":-103.29286,"zip":58730,"librarysystem":"Divide County Public Library","id":"a65x6hc8e2cr","address":"204 First Street NE","lat":48.914917,"libraryname":"Divide County Public Library","state":"ND"},"type":"Feature","geometry":{"type":"Point","coordinates":[-103.29286,48.914917]}},{"properties":{"city":"Drake","lon":-100.372139,"zip":58736,"librarysystem":"Drake Public Library","id":"a65x6hhcrlhg","address":"5th Avenue &amp; Main Street","lat":47.92628,"libraryname":"Drake Public Library","state":"ND"},"type":"Feature","geometry":{"type":"Point","coordinates":[-100.372139,47.92628]}},{"properties":{"city":"Edgeley","lon":-98.761912,"zip":58433,"librarysystem":"Edgeley Public Library","id":"a65x6hcgv6gu","address":"530 Main Street","lat":46.207527,"libraryname":"Edgeley Public Library","state":"ND"},"type":"Feature","geometry":{"type":"Point","coordinates":[-98.761912,46.207527]}},{"properties":{"city":"Larimore","lon":-97.623937,"zip":58251,"librarysystem":"Edna Ralston Public Library","id":"a65x6hcvhdxt","address":"116 1/2 Towner Avenue","lat":47.904012,"libraryname":"Edna Ralston Public Library","state":"ND"},"type":"Feature","geometry":{"type":"Point","coordinates":[-97.623937,47.904012]}},{"properties":{"city":"Ellendale","lon":-98.525852,"zip":58436,"librarysystem":"Ellendale Public Library","id":"a65x6hana0cm","address":"50 South Second","lat":46.00095,"libraryname":"Ellendale Public Library","state":"ND"},"type":"Feature","geometry":{"type":"Point","coordinates":[-98.525852,46.00095]}},{"properties":{"city":"Enderlin","lon":-97.60208,"zip":58027,"librarysystem":"Enderlin Municipal Library","id":"a65x6hiypmlq","address":"303 Railway Street","lat":46.624591,"libraryname":"Enderlin Municipal Library","state":"ND"},"type":"Feature","geometry":{"type":"Point","coordinates":[-97.60208,46.624591]}},{"properties":{"city":"Fargo","lon":-96.783287,"zip":58102,"librarysystem":"Fargo Public Library","id":"a65x6hcgo4oc","address":"102 3rd St N","lat":46.877189,"libraryname":"Fargo Public Library","state":"ND"},"type":"Feature","geometry":{"type":"Point","coordinates":[-96.783287,46.877189]}},{"properties":{"city":"Flasher","lon":-101.23225,"zip":58535,"librarysystem":"Flasher Public Library","id":"a65x6h9g2ch5","address":"114 North Main","lat":46.453858,"libraryname":"Flasher Public Library","state":"ND"},"type":"Feature","geometry":{"type":"Point","coordinates":[-101.23225,46.453858]}},{"properties":{"city":"Forman","lon":-97.636578,"zip":58032,"librarysystem":"Forman Public Library","id":"a65x6hjwhq3o","address":"347 Main Street","lat":46.10725,"libraryname":"Forman Public Library","state":"ND"},"type":"Feature","geometry":{"type":"Point","coordinates":[-97.636578,46.10725]}},{"properties":{"city":"Gackle","lon":-99.142456,"zip":58442,"librarysystem":"Gackle Public Library","id":"a65x6hbus1fe","address":"302 Main","lat":46.627751,"libraryname":"Gackle Public Library","state":"ND"},"type":"Feature","geometry":{"type":"Point","coordinates":[-99.142456,46.627751]}},{"properties":{"city":"Garrison","lon":-101.417254,"zip":58540,"librarysystem":"Garrison Public Library","id":"a65x6hfh44fm","address":"32 South Main Street","lat":47.651046,"libraryname":"Garrison Public Library","state":"ND"},"type":"Feature","geometry":{"type":"Point","coordinates":[-101.417254,47.651046]}},{"properties":{"city":"Beach","lon":-104.006021,"zip":58621,"librarysystem":"Golden Valley County Library","id":"a65x6hku1ztx","address":"54 Central Avenue","lat":46.914265,"libraryname":"Golden Valley County Library","state":"ND"},"type":"Feature","geometry":{"type":"Point","coordinates":[-104.006021,46.914265]}},{"properties":{"city":"Goodrich","lon":-100.125638,"zip":58444,"librarysystem":"Goodrich Public Library","id":"a65x6hh06pfw","address":"122 Mckinley Ave.","lat":47.476649,"libraryname":"Goodrich Public Library","state":"ND"},"type":"Feature","geometry":{"type":"Point","coordinates":[-100.125638,47.476649]}},{"properties":{"city":"Grand Forks","lon":-97.048192,"zip":58206,"librarysystem":"Grand Forks Public Library","id":"a65x6hbt672o","address":"2110 Library Circle","lat":47.899723,"libraryname":"Grand Forks Public Library","state":"ND"},"type":"Feature","geometry":{"type":"Point","coordinates":[-97.048192,47.899723]}},{"properties":{"city":"Cooperstown","lon":-98.123642,"zip":58425,"librarysystem":"Griggs County Public Library","id":"a65x6hen5aay","address":"902 Burrel Ave SE","lat":47.44444,"libraryname":"Griggs County Public Library","state":"ND"},"type":"Feature","geometry":{"type":"Point","coordinates":[-98.123642,47.44444]}},{"properties":{"city":"Hankinson","lon":-96.901914,"zip":58041,"librarysystem":"Hankinson Public Library","id":"a65x6hbw6uwc","address":"315 Main Avenue S","lat":46.069481,"libraryname":"Hankinson Public Library","state":"ND"},"type":"Feature","geometry":{"type":"Point","coordinates":[-96.901914,46.069481]}},{"properties":{"city":"Linton","lon":-100.231211,"zip":58552,"librarysystem":"Harry L. Petrie Public Library","id":"a65x6hldosbi","address":"101 NE First","lat":46.267017,"libraryname":"Harry L. Petrie Public Library","state":"ND"},"type":"Feature","geometry":{"type":"Point","coordinates":[-100.231211,46.267017]}},{"properties":{"city":"Harvey","lon":-99.936034,"zip":58341,"librarysystem":"Harvey Public Library","id":"a65x6hj67ljf","address":"119 East 10th Street","lat":47.768427,"libraryname":"Harvey Public Library","state":"ND"},"type":"Feature","geometry":{"type":"Point","coordinates":[-99.936034,47.768427]}},{"properties":{"city":"Hatton","lon":-97.460759,"zip":58240,"librarysystem":"Hatton School &amp; Public Library","id":"a65x6hk0or09","address":"503 4th Street","lat":47.640557,"libraryname":"Hatton School &amp; Public Library","state":"ND"},"type":"Feature","geometry":{"type":"Point","coordinates":[-97.460759,47.640557]}},{"properties":{"city":"Hazen","lon":-101.452464,"zip":58545,"librarysystem":"Hazen Public Library","id":"a65x6hjrjkdt","address":"203 East Main","lat":47.51139,"libraryname":"Hazen Public Library","state":"ND"},"type":"Feature","geometry":{"type":"Point","coordinates":[-101.452464,47.51139]}},{"properties":{"city":"Rugby","lon":-99.997801,"zip":58368,"librarysystem":"Heart Of America Library","id":"a65x6hca1uqs","address":"201 W 3rd Street","lat":48.37303,"libraryname":"Heart Of America Library","state":"ND"},"type":"Feature","geometry":{"type":"Point","coordinates":[-99.997801,48.37303]}},{"properties":{"city":"Hebron","lon":-102.046257,"zip":58638,"librarysystem":"Hebron Public Library","id":"a65x6hajfj3o","address":"606 Lincoln Avenue","lat":46.899629,"libraryname":"Hebron Public Library","state":"ND"},"type":"Feature","geometry":{"type":"Point","coordinates":[-102.046257,46.899629]}},{"properties":{"city":"Steele","lon":-99.915367,"zip":58482,"librarysystem":"Kidder County Public Library","id":"a65x6hb0l62m","address":"115 West Broadway","lat":46.854779,"libraryname":"Kidder County Public Library","state":"ND"},"type":"Feature","geometry":{"type":"Point","coordinates":[-99.915367,46.854779]}},{"properties":{"city":"Killdeer","lon":-102.75442,"zip":58640,"librarysystem":"Killdeer Public Library","id":"a65x6hb7wp6o","address":"100 West High Street NW","lat":47.37214,"libraryname":"Killdeer Public Library","state":"ND"},"type":"Feature","geometry":{"type":"Point","coordinates":[-102.75442,47.37214]}},{"properties":{"city":"Kindred","lon":-97.016239,"zip":58051,"librarysystem":"Kindred Public Library","id":"a65x6h8cf6yu","address":"330 Elm Street","lat":46.648439,"libraryname":"Kindred Public Library","state":"ND"},"type":"Feature","geometry":{"type":"Point","coordinates":[-97.016239,46.648439]}},{"properties":{"city":"Devils Lake","lon":-98.859589,"zip":58301,"librarysystem":"Lake Region Public Library","id":"a65x6hg7sn5l","address":"423 7th Street NE","lat":48.114996,"libraryname":"Lake Region Public Library","state":"ND"},"type":"Feature","geometry":{"type":"Point","coordinates":[-98.859589,48.114996]}},{"properties":{"city":"Lakota","lon":-98.344313,"zip":58344,"librarysystem":"Lakota City Library","id":"a65x6h66taue","address":"116 West B Avenue","lat":48.041546,"libraryname":"Lakota City Library","state":"ND"},"type":"Feature","geometry":{"type":"Point","coordinates":[-98.344313,48.041546]}},{"properties":{"city":"Lamoure","lon":-98.292873,"zip":58458,"librarysystem":"Lamoure Public &amp; School Library","id":"a65x6h9blsxk","address":"105 3rd Avenue SE","lat":46.355174,"libraryname":"Lamoure Public &amp; School Library","state":"ND"},"type":"Feature","geometry":{"type":"Point","coordinates":[-98.292873,46.355174]}},{"properties":{"city":"Wahpeton","lon":-96.605854,"zip":58075,"librarysystem":"Leach Public Library","id":"a65x6h6qcttu","address":"417 Second Avenue North","lat":46.264848,"libraryname":"Leach Public Library","state":"ND"},"type":"Feature","geometry":{"type":"Point","coordinates":[-96.605854,46.264848]}},{"properties":{"city":"Leeds","lon":-99.441839,"zip":58346,"librarysystem":"Leeds Public Library","id":"a65x6h7ctifz","address":"Main Street West","lat":48.28995,"libraryname":"Leeds Public Library","state":"ND"},"type":"Feature","geometry":{"type":"Point","coordinates":[-99.441839,48.28995]}},{"properties":{"city":"Lidgerwood","lon":-97.15185,"zip":58053,"librarysystem":"Lidgerwood City Library","id":"a65x6hiqt5kl","address":"15 Wiley Avenue N","lat":46.075675,"libraryname":"Lidgerwood City Library","state":"ND"},"type":"Feature","geometry":{"type":"Point","coordinates":[-97.15185,46.075675]}},{"properties":{"city":"Stanley","lon":-102.390783,"zip":58784,"librarysystem":"Linson Memorial Library","id":"a65x6ha26snk","address":"206 South Main","lat":48.317155,"libraryname":"Linson Memorial Library","state":"ND"},"type":"Feature","geometry":{"type":"Point","coordinates":[-102.390783,48.317155]}},{"properties":{"city":"Lisbon","lon":-97.683956,"zip":58054,"librarysystem":"Lisbon Public Library","id":"a65x6hjdc69n","address":"409 Forest Street","lat":46.442373,"libraryname":"Lisbon Public Library","state":"ND"},"type":"Feature","geometry":{"type":"Point","coordinates":[-97.683956,46.442373]}},{"properties":{"city":"Maddock","lon":-99.528589,"zip":58348,"librarysystem":"Maddock Community Library","id":"a65x6h6fehnl","address":"2nd &amp; Dakota","lat":47.96161,"libraryname":"Maddock Community Library","state":"ND"},"type":"Feature","geometry":{"type":"Point","coordinates":[-99.528589,47.96161]}},{"properties":{"city":"Mandan","lon":-100.890289,"zip":58554,"librarysystem":"Mandan Public Library","id":"a65x6hj1a7kb","address":"108 First Street NW","lat":46.827588,"libraryname":"Mandan Public Library","state":"ND"},"type":"Feature","geometry":{"type":"Point","coordinates":[-100.890289,46.827588]}},{"properties":{"city":"Buffalo","lon":-97.55132,"zip":58011,"librarysystem":"Margaret Fraase Public Library","id":"a65x6hekuu7r","address":"204 Wilcox Ave N","lat":46.920904,"libraryname":"Margaret Fraase Public Library","state":"ND"},"type":"Feature","geometry":{"type":"Point","coordinates":[-97.55132,46.920904]}},{"properties":{"city":"Max","lon":-101.294034,"zip":58759,"librarysystem":"Max Community Library","id":"a65x6hbrrgtu","address":"Main Street","lat":47.82173,"libraryname":"Max Community Library","state":"ND"},"type":"Feature","geometry":{"type":"Point","coordinates":[-101.294034,47.82173]}},{"properties":{"city":"Mayville","lon":-97.326259,"zip":58257,"librarysystem":"Mayville Public Library","id":"a65x6hiicnsc","address":"52 Center Avenue","lat":47.500756,"libraryname":"Mayville Public Library","state":"ND"},"type":"Feature","geometry":{"type":"Point","coordinates":[-97.326259,47.500756]}},{"properties":{"city":"Arnegard","lon":-103.439624,"zip":58835,"librarysystem":"Mckenzie County Public Library","id":"a65x6hjmzd6t","address":"112 Second Avenue NE","lat":47.807755,"libraryname":"Mckenzie County Public Library","state":"ND"},"type":"Feature","geometry":{"type":"Point","coordinates":[-103.439624,47.807755]}},{"properties":{"city":"Riverdale","lon":-101.372459,"zip":58565,"librarysystem":"Mclean-Mercer Regional Library","id":"a65x6hactw2x","address":"Downtown Plaza 2nd Street","lat":47.500669,"libraryname":"Mclean-Mercer Regional Library","state":"ND"},"type":"Feature","geometry":{"type":"Point","coordinates":[-101.372459,47.500669]}},{"properties":{"city":"Minnewaukan","lon":-99.254211,"zip":58351,"librarysystem":"Minnewaukan Public Library","id":"a65x6hhv98jz","address":"130 Main Street","lat":48.070993,"libraryname":"Minnewaukan Public Library","state":"ND"},"type":"Feature","geometry":{"type":"Point","coordinates":[-99.254211,48.070993]}},{"properties":{"city":"Minot","lon":-101.300391,"zip":58701,"librarysystem":"Minot Public Library","id":"a65x6hlokrxu","address":"516 Second Avenue SW","lat":48.234492,"libraryname":"Minot Public Library","state":"ND"},"type":"Feature","geometry":{"type":"Point","coordinates":[-101.300391,48.234492]}},{"properties":{"city":"Mohall","lon":-101.507269,"zip":58761,"librarysystem":"Mohall Public Library","id":"a65x6hav7eu3","address":"112 Main Street E","lat":48.763622,"libraryname":"Mohall Public Library","state":"ND"},"type":"Feature","geometry":{"type":"Point","coordinates":[-101.507269,48.763622]}},{"properties":{"city":"Mandan","lon":-100.893196,"zip":58554,"librarysystem":"Morton County Library","id":"a65x6hdngv9n","address":"300 First Street NW","lat":46.827157,"libraryname":"Morton County Library","state":"ND"},"type":"Feature","geometry":{"type":"Point","coordinates":[-100.893196,46.827157]}},{"properties":{"city":"Mott","lon":-102.323589,"zip":58646,"librarysystem":"Mott Public Library","id":"a65x6hd1h7yn","address":"202 E Third Street","lat":46.373514,"libraryname":"Mott Public Library","state":"ND"},"type":"Feature","geometry":{"type":"Point","coordinates":[-102.323589,46.373514]}},{"properties":{"city":"New England","lon":-102.866697,"zip":58647,"librarysystem":"New England Public Library","id":"a65x6hbnvu01","address":"726 Mckenzie Avenue","lat":46.538489,"libraryname":"New England Public Library","state":"ND"},"type":"Feature","geometry":{"type":"Point","coordinates":[-102.866697,46.538489]}},{"properties":{"city":"New Rockford","lon":-99.13831,"zip":58356,"librarysystem":"New Rockford Public Library","id":"a65x6hbjdhp3","address":"811 First Avenue N","lat":47.681017,"libraryname":"New Rockford Public Library","state":"ND"},"type":"Feature","geometry":{"type":"Point","coordinates":[-99.13831,47.681017]}},{"properties":{"city":"New Town","lon":-102.461042,"zip":58763,"librarysystem":"New Town Public Library","id":"a65x6hk0y8n9","address":"103 Main Sooline Place","lat":47.951529,"libraryname":"New Town Public Library","state":"ND"},"type":"Feature","geometry":{"type":"Point","coordinates":[-102.461042,47.951529]}},{"properties":{"city":"Fargo","lon":-96.787539,"zip":58102,"librarysystem":"Fargo Public Library","id":"a65x6hizhqy1","address":"2714 Broadway","lat":46.911308,"libraryname":"Northport Library","state":"ND"},"type":"Feature","geometry":{"type":"Point","coordinates":[-96.787539,46.911308]}},{"properties":{"city":"Oakes","lon":-98.09166,"zip":58474,"librarysystem":"Oakes School &amp; Public Library","id":"a65x6hjthm9h","address":"804 Main Avenue","lat":46.138733,"libraryname":"Oakes School &amp; Public Library","state":"ND"},"type":"Feature","geometry":{"type":"Point","coordinates":[-98.09166,46.138733]}},{"properties":{"city":"Park River","lon":-97.742134,"zip":58270,"librarysystem":"Park River School &amp; Public Library","id":"a65x6hj3ihel","address":"605 6th Street West","lat":48.392955,"libraryname":"Park River School &amp; Public Library","state":"ND"},"type":"Feature","geometry":{"type":"Point","coordinates":[-97.742134,48.392955]}},{"properties":{"city":"Parshall","lon":-102.131304,"zip":58770,"librarysystem":"Parshall Public Library","id":"a65x6h706kgl","address":"114 4th Ave NE","lat":47.958793,"libraryname":"Parshall Public Library","state":"ND"},"type":"Feature","geometry":{"type":"Point","coordinates":[-102.131304,47.958793]}},{"properties":{"city":"Pembina","lon":-97.247768,"zip":58271,"librarysystem":"Pembina School &amp; Public Library","id":"a65x6hku9278","address":"155 South 3rd Street","lat":48.967132,"libraryname":"Pembina School &amp; Public Library","state":"ND"},"type":"Feature","geometry":{"type":"Point","coordinates":[-97.247768,48.967132]}},{"properties":{"city":"Rolla","lon":-99.615142,"zip":58367,"librarysystem":"Rolla Public Library","id":"a65x6hktbjw8","address":"14 First Street SE","lat":48.858926,"libraryname":"Rolla Public Library","state":"ND"},"type":"Feature","geometry":{"type":"Point","coordinates":[-99.615142,48.858926]}},{"properties":{"city":"Milnor","lon":-97.454687,"zip":58060,"librarysystem":"Satre Memorial Library","id":"a65x6hk6sb71","address":"408 Main Street","lat":46.258464,"libraryname":"Satre Memorial Library","state":"ND"},"type":"Feature","geometry":{"type":"Point","coordinates":[-97.454687,46.258464]}},{"properties":{"city":"Edgeley","lon":-98.761912,"zip":58433,"librarysystem":"South Central Area Library","id":"a65x6hkg3avl","address":"530 Main Street","lat":46.207527,"libraryname":"South Central Area Library","state":"ND"},"type":"Feature","geometry":{"type":"Point","coordinates":[-98.761912,46.207527]}},{"properties":{"city":"Fargo","lon":-96.82015,"zip":58103,"librarysystem":"Fargo Public Library","id":"a65x6hdmnthd","address":"3051 25th St S","lat":46.834232,"libraryname":"Southpointe Library","state":"ND"},"type":"Feature","geometry":{"type":"Point","coordinates":[-96.82015,46.834232]}},{"properties":{"city":"Stanton","lon":-101.381305,"zip":58571,"librarysystem":"Stanton Public Library","id":"a65x6h8m5sld","address":"312 Harmon Avenue","lat":47.320931,"libraryname":"Stanton Public Library","state":"ND"},"type":"Feature","geometry":{"type":"Point","coordinates":[-101.381305,47.320931]}},{"properties":{"city":"Jamestown","lon":-98.695909,"zip":58401,"librarysystem":"Stutsman County Library","id":"a65x6hkxoayb","address":"910 Fifth Street SE","lat":46.904144,"libraryname":"Stutsman County Library","state":"ND"},"type":"Feature","geometry":{"type":"Point","coordinates":[-98.695909,46.904144]}},{"properties":{"city":"Turtle Lake","lon":-100.891318,"zip":58575,"librarysystem":"Turtle Lake Public Library","id":"a65x6hfmsbro","address":"107 Eggert Street","lat":47.521988,"libraryname":"Turtle Lake Public Library","state":"ND"},"type":"Feature","geometry":{"type":"Point","coordinates":[-100.891318,47.521988]}},{"properties":{"city":"Underwood","lon":-101.13712,"zip":58576,"librarysystem":"Underwood Public Library","id":"a65x6hdw4kn8","address":"88 Lincoln Avenue","lat":47.456439,"libraryname":"Underwood Public Library","state":"ND"},"type":"Feature","geometry":{"type":"Point","coordinates":[-101.13712,47.456439]}},{"properties":{"city":"Valley City","lon":-98.002897,"zip":58072,"librarysystem":"Valley City Barnes County Public Library","id":"a65x6hjbmy0f","address":"410 North Central Avenue","lat":46.926595,"libraryname":"Valley City Barnes County Public Library","state":"ND"},"type":"Feature","geometry":{"type":"Point","coordinates":[-98.002897,46.926595]}},{"properties":{"city":"Velva","lon":-100.934701,"zip":58790,"librarysystem":"Velva Public &amp; School Library","id":"a65x6hltgg9k","address":"101 West 4th Street","lat":48.058416,"libraryname":"Velva Public &amp; School Library","state":"ND"},"type":"Feature","geometry":{"type":"Point","coordinates":[-100.934701,48.058416]}},{"properties":{"city":"Walhalla","lon":-97.915209,"zip":58282,"librarysystem":"Walhalla Public Library","id":"a65x6h9kv726","address":"1012 Central Avenue","lat":48.922416,"libraryname":"Walhalla Public Library","state":"ND"},"type":"Feature","geometry":{"type":"Point","coordinates":[-97.915209,48.922416]}},{"properties":{"city":"Kenmare","lon":-102.071569,"zip":58746,"librarysystem":"Ward County Public Library","id":"a65x6hgnecp1","address":"#5 NE 3rd","lat":48.691263,"libraryname":"Ward County Public Library","state":"ND"},"type":"Feature","geometry":{"type":"Point","coordinates":[-102.071569,48.691263]}},{"properties":{"city":"Minot","lon":-101.286785,"zip":58701,"librarysystem":"Ward County Public Library","id":"a65x6hft2twl","address":"405 Third Avenue SE","lat":48.233499,"libraryname":"Ward County Public Library","state":"ND"},"type":"Feature","geometry":{"type":"Point","coordinates":[-101.286785,48.233499]}},{"properties":{"city":"Washburn","lon":-101.028869,"zip":58577,"librarysystem":"Washburn Public Library","id":"a65x6h6r6hpl","address":"705 Main Avenue","lat":47.288837,"libraryname":"Washburn Public Library","state":"ND"},"type":"Feature","geometry":{"type":"Point","coordinates":[-101.028869,47.288837]}},{"properties":{"city":"Leonard","lon":-97.244685,"zip":58052,"librarysystem":"Watts Free Library","id":"a65x6h702e7j","address":"101 Third Street North","lat":46.653029,"libraryname":"Watts Free Library","state":"ND"},"type":"Feature","geometry":{"type":"Point","coordinates":[-97.244685,46.653029]}},{"properties":{"city":"West Fargo","lon":-96.886186,"zip":58078,"librarysystem":"West Fargo Public Library","id":"a65x6hcehey9","address":"401 Seventh Street E","lat":46.872226,"libraryname":"West Fargo Public Library","state":"ND"},"type":"Feature","geometry":{"type":"Point","coordinates":[-96.886186,46.872226]}},{"properties":{"city":"Tioga","lon":-102.938365,"zip":58801,"librarysystem":"Williston Community Library","id":"a65x6h6lua8m","address":"210 N Main St.","lat":48.397398,"libraryname":"Williston Community Library","state":"ND"},"type":"Feature","geometry":{"type":"Point","coordinates":[-102.938365,48.397398]}},{"properties":{"city":"Williston","lon":-103.639354,"zip":58801,"librarysystem":"Williston Community Library","id":"a65x6ha19r6w","address":"1302 Davidson Drive","lat":48.156425,"libraryname":"Williston Community Library","state":"ND"},"type":"Feature","geometry":{"type":"Point","coordinates":[-103.639354,48.156425]}},{"properties":{"city":"Wishek","lon":-99.550684,"zip":58495,"librarysystem":"Wishek School &amp; Public Library","id":"a65x6hioxii0","address":"100 Badger Street S","lat":46.257955,"libraryname":"Wishek School &amp; Public Library","state":"ND"},"type":"Feature","geometry":{"type":"Point","coordinates":[-99.550684,46.257955]}}],"is_temporal":false,"author":{"url":"http://www.publiclibraries.com/northdakota.htm","metadata":"","contact_name":"","contact_address":"","source":"publiclibrairies.com","contact_phone":""},"source":"http://www.publiclibraries.com/northdakota.htm","pagination":{"sort":null,"start":0,"total":90,"limit":1000000},"state":"complete","tags":"books,dakota,education,libraries,library,north,public","published":"2008-05-09T12:00:00Z","id":943}