{"type":"FeatureCollection","data_type":"Dataset","url_type":null,"permissions":[{"permissions":{"download":true,"view":true},"group_id":"everyone"}],"classification":null,"title":"Disturbance of peace","count":31,"stream_id":94448,"contributor":{"url":"http://geocommons.com/users/21900","name":"AlhambraS"},"data_attributes":null,"calculation_params":null,"icon_link":null,"link":"http://geocommons.com/overlays/94448.json","extent":[-118.158,34.0668,-118.115,34.1068],"geometry_types":["point"],"unique_name":null,"name":"Disturbance of peace","feature_count":31,"description":"","next_feature":null,"is_raster":false,"short_classification":"Y","stats":{"date":{"max":"2011/02/12 00:00:00 -0500","mean":"2011/02/05 15:29:01 -0500","variance":81392144516.129,"stdev":285293.085293228,"min":"2011/02/01 00:00:00 -0500","median":"2011/02/05 00:00:00 -0500"}},"features":[{"properties":{"city":"Alhambra, CA","date":{"end_time":"2011/02/02 00:00:00 -0500","original":"1-Feb-11","granularity":"day","time":"2011/02/01 00:00:00 -0500"},"type of crime":"Disturbance of peace","id":"a6dtqwux7h8r","address":"500 block of S. Granada"},"type":"Feature","geometry":{"type":"Point","coordinates":[-118.123582,34.106849]}},{"properties":{"city":"Alhambra, CA","date":{"end_time":"2011/02/02 00:00:00 -0500","original":"1-Feb-11","granularity":"day","time":"2011/02/01 00:00:00 -0500"},"type of crime":"Disturbance of peace","id":"a6dtqwnvoeud","address":"600 block of N. Atlantic"},"type":"Feature","geometry":{"type":"Point","coordinates":[-118.134602,34.089262]}},{"properties":{"city":"Alhambra, CA","date":{"end_time":"2011/02/02 00:00:00 -0500","original":"1-Feb-11","granularity":"day","time":"2011/02/01 00:00:00 -0500"},"type of crime":"Disturbance of peace","id":"a6dtqwmm640q","address":"200 block of E. Commonwealth"},"type":"Feature","geometry":{"type":"Point","coordinates":[-118.124746,34.092132]}},{"properties":{"city":"Alhambra, CA","date":{"end_time":"2011/02/03 00:00:00 -0500","original":"2-Feb-11","granularity":"day","time":"2011/02/02 00:00:00 -0500"},"type of crime":"Disturbance of peace","id":"a6dtqwyyes8i","address":"800 block of S. Olive"},"type":"Feature","geometry":{"type":"Point","coordinates":[-118.135858,34.09156]}},{"properties":{"city":"Alhambra, CA","date":{"end_time":"2011/02/03 00:00:00 -0500","original":"2-Feb-11","granularity":"day","time":"2011/02/02 00:00:00 -0500"},"type of crime":"Disturbance of peace","id":"a6dtqwxa2h7a","address":"Commonwealth and Fremont"},"type":"Feature","geometry":{"type":"Point","coordinates":[-118.124746,34.092132]}},{"properties":{"city":"Alhambra, CA","date":{"end_time":"2011/02/03 00:00:00 -0500","original":"2-Feb-11","granularity":"day","time":"2011/02/02 00:00:00 -0500"},"type of crime":"Disturbance of peace","id":"a6dtqwyvferk","address":"First and Main St"},"type":"Feature","geometry":{"type":"Point","coordinates":[-118.126868,34.09516]}},{"properties":{"city":"Alhambra, CA","date":{"end_time":"2011/02/04 00:00:00 -0500","original":"3-Feb-11","granularity":"day","time":"2011/02/03 00:00:00 -0500"},"type of crime":"Disturbance of peace","id":"a6dtqwq36eey","address":"Main and Almansor"},"type":"Feature","geometry":{"type":"Point","coordinates":[-118.120994,34.097937]}},{"properties":{"city":"Alhambra, CA","date":{"end_time":"2011/02/04 00:00:00 -0500","original":"3-Feb-11","granularity":"day","time":"2011/02/03 00:00:00 -0500"},"type of crime":"Disturbance of peace","id":"a6dtqwpbbfko","address":"Third and Valley"},"type":"Feature","geometry":{"type":"Point","coordinates":[-118.121893,34.078633]}},{"properties":{"city":"Alhambra, CA","date":{"end_time":"2011/02/05 00:00:00 -0500","original":"4-Feb-11","granularity":"day","time":"2011/02/04 00:00:00 -0500"},"type of crime":"Disturbance of peace","id":"a6dtqwpathzp","address":"100 block of S. First"},"type":"Feature","geometry":{"type":"Point","coordinates":[-118.127906,34.094668]}},{"properties":{"city":"Alhambra, CA","date":{"end_time":"2011/02/05 00:00:00 -0500","original":"4-Feb-11","granularity":"day","time":"2011/02/04 00:00:00 -0500"},"type of crime":"Disturbance of peace","id":"a6dtqwowesjf","address":"1700 block of W. Valley"},"type":"Feature","geometry":{"type":"Point","coordinates":[-118.121893,34.078633]}},{"properties":{"city":"Alhambra, CA","date":{"end_time":"2011/02/05 00:00:00 -0500","original":"4-Feb-11","granularity":"day","time":"2011/02/04 00:00:00 -0500"},"type of crime":"Disturbance of peace","id":"a6dtqwzyivlo","address":"Almansor and Shorb"},"type":"Feature","geometry":{"type":"Point","coordinates":[-118.120994,34.097937]}},{"properties":{"city":"Alhambra, CA","date":{"end_time":"2011/02/05 00:00:00 -0500","original":"4-Feb-11","granularity":"day","time":"2011/02/04 00:00:00 -0500"},"type of crime":"Disturbance of peace","id":"a6dtqwwwkay1","address":"300 block of S. Fremont"},"type":"Feature","geometry":{"type":"Point","coordinates":[-118.152076,34.095231]}},{"properties":{"city":"Alhambra, CA","date":{"end_time":"2011/02/05 00:00:00 -0500","original":"4-Feb-11","granularity":"day","time":"2011/02/04 00:00:00 -0500"},"type of crime":"Disturbance of peace","id":"a6dtqwsj1q2o","address":"800 block of N. First"},"type":"Feature","geometry":{"type":"Point","coordinates":[-118.127906,34.094668]}},{"properties":{"city":"Alhambra, CA","date":{"end_time":"2011/02/06 00:00:00 -0500","original":"5-Feb-11","granularity":"day","time":"2011/02/05 00:00:00 -0500"},"type of crime":"Disturbance of peace","id":"a6dtqwp2cguq","address":"100 block of W. Main St."},"type":"Feature","geometry":{"type":"Point","coordinates":[-118.126868,34.09516]}},{"properties":{"city":"Alhambra, CA","date":{"end_time":"2011/02/06 00:00:00 -0500","original":"5-Feb-11","granularity":"day","time":"2011/02/05 00:00:00 -0500"},"type of crime":"Disturbance of peace","id":"a6dtqwn3a1y1","address":"Garfield and Main"},"type":"Feature","geometry":{"type":"Point","coordinates":[-118.126868,34.09516]}},{"properties":{"city":"Alhambra, CA","date":{"end_time":"2011/02/06 00:00:00 -0500","original":"5-Feb-11","granularity":"day","time":"2011/02/05 00:00:00 -0500"},"type of crime":"Disturbance of peace","id":"a6dtqwjqtyar","address":"500 block of S. Marengo"},"type":"Feature","geometry":{"type":"Point","coordinates":[-118.142007,34.090174]}},{"properties":{"city":"Alhambra, CA","date":{"end_time":"2011/02/06 00:00:00 -0500","original":"5-Feb-11","granularity":"day","time":"2011/02/05 00:00:00 -0500"},"type of crime":"Disturbance of peace","id":"a6dtqwlqfekv","address":"800 block of S. Winthrop"},"type":"Feature","geometry":{"type":"Point","coordinates":[-118.158306,34.086368]}},{"properties":{"city":"Alhambra, CA","date":{"end_time":"2011/02/07 00:00:00 -0500","original":"6-Feb-11","granularity":"day","time":"2011/02/06 00:00:00 -0500"},"type of crime":"Disturbance of peace","id":"a6dtqwrqwfo8","address":"347 E. Main St."},"type":"Feature","geometry":{"type":"Point","coordinates":[-118.125826,34.095642]}},{"properties":{"city":"Alhambra, CA","date":{"end_time":"2011/02/07 00:00:00 -0500","original":"6-Feb-11","granularity":"day","time":"2011/02/06 00:00:00 -0500"},"type of crime":"Disturbance of peace","id":"a6dtqwnugk3w","address":"257 S. Hampden"},"type":"Feature","geometry":{"type":"Point","coordinates":[-118.156309,34.095062]}},{"properties":{"city":"Alhambra, CA","date":{"end_time":"2011/02/07 00:00:00 -0500","original":"6-Feb-11","granularity":"day","time":"2011/02/06 00:00:00 -0500"},"type of crime":"Disturbance of peace","id":"a6dtqwr3tm43","address":"Main and Atlantic"},"type":"Feature","geometry":{"type":"Point","coordinates":[-118.134627,34.092096]}},{"properties":{"city":"Alhambra, CA","date":{"end_time":"2011/02/07 00:00:00 -0500","original":"6-Feb-11","granularity":"day","time":"2011/02/06 00:00:00 -0500"},"type of crime":"Disturbance of peace","id":"a6dtqwxxpjo7","address":"1749 W. Valley"},"type":"Feature","geometry":{"type":"Point","coordinates":[-118.1243,34.078499]}},{"properties":{"city":"Alhambra, CA","date":{"end_time":"2011/02/08 00:00:00 -0500","original":"7-Feb-11","granularity":"day","time":"2011/02/07 00:00:00 -0500"},"type of crime":"Disturbance of peace","id":"a6dtqwq0tz8i","address":"227 S. El Molino"},"type":"Feature","geometry":{"type":"Point","coordinates":[-118.115344,34.100017]}},{"properties":{"city":"Alhambra, CA","date":{"end_time":"2011/02/08 00:00:00 -0500","original":"7-Feb-11","granularity":"day","time":"2011/02/07 00:00:00 -0500"},"type of crime":"Disturbance of peace","id":"a6dtqwvcrd2j","address":"100 S. Raymond"},"type":"Feature","geometry":{"type":"Point","coordinates":[-118.145008,34.091496]}},{"properties":{"city":"Alhambra, CA","date":{"end_time":"2011/02/09 00:00:00 -0500","original":"8-Feb-11","granularity":"day","time":"2011/02/08 00:00:00 -0500"},"type of crime":"Disturbance of peace","id":"a6dtqwknbho5","address":"2001 S. Campbell Ave"},"type":"Feature","geometry":{"type":"Point","coordinates":[-118.143149,34.080163]}},{"properties":{"city":"Alhambra, CA","date":{"end_time":"2011/02/10 00:00:00 -0500","original":"9-Feb-11","granularity":"day","time":"2011/02/09 00:00:00 -0500"},"type of crime":"Disturbance of peace","id":"a6dtqwu5iv2y","address":"Second and Commonwealth"},"type":"Feature","geometry":{"type":"Point","coordinates":[-118.124746,34.092132]}},{"properties":{"city":"Alhambra, CA","date":{"end_time":"2011/02/10 00:00:00 -0500","original":"9-Feb-11","granularity":"day","time":"2011/02/09 00:00:00 -0500"},"type of crime":"Disturbance of peace","id":"a6dtqwn60imw","address":"512 N. Marguerita"},"type":"Feature","geometry":{"type":"Point","coordinates":[-118.138322,34.092923]}},{"properties":{"city":"Alhambra, CA","date":{"end_time":"2011/02/10 00:00:00 -0500","original":"9-Feb-11","granularity":"day","time":"2011/02/09 00:00:00 -0500"},"type of crime":"Disturbance of peace","id":"a6dtqwlxk5iy","address":"2616 S. Midwickhill Drive"},"type":"Feature","geometry":{"type":"Point","coordinates":[-118.135862,34.06677]}},{"properties":{"city":"Alhambra, CA","date":{"end_time":"2011/02/12 00:00:00 -0500","original":"11-Feb-11","granularity":"day","time":"2011/02/11 00:00:00 -0500"},"type of crime":"Disturbance of peace","id":"a6dtqwu86bnq","address":"714 W. Washington"},"type":"Feature","geometry":{"type":"Point","coordinates":[-118.132635,34.091274]}},{"properties":{"city":"Alhambra, CA","date":{"end_time":"2011/02/13 00:00:00 -0500","original":"12-Feb-11","granularity":"day","time":"2011/02/12 00:00:00 -0500"},"type of crime":"Disturbance of peace","id":"a6dtqwoszwqi","address":"425 N. Chapel"},"type":"Feature","geometry":{"type":"Point","coordinates":[-118.12407,34.097221]}},{"properties":{"city":"Alhambra, CA","date":{"end_time":"2011/02/13 00:00:00 -0500","original":"12-Feb-11","granularity":"day","time":"2011/02/12 00:00:00 -0500"},"type of crime":"Disturbance of peace","id":"a6dtqwmxjs5s","address":"2720 W. Valley"},"type":"Feature","geometry":{"type":"Point","coordinates":[-118.1243,34.078499]}},{"properties":{"city":"Alhambra, CA","date":{"end_time":"2011/02/13 00:00:00 -0500","original":"12-Feb-11","granularity":"day","time":"2011/02/12 00:00:00 -0500"},"type of crime":"Disturbance of peace","id":"a6dtqwu8iczl","address":"1 E. Main"},"type":"Feature","geometry":{"type":"Point","coordinates":[-118.125826,34.095642]}}],"is_temporal":true,"author":{"url":"","metadata":"","contact_name":"","contact_address":"","source":"","contact_phone":""},"source":"","pagination":{"sort":null,"start":0,"total":31,"limit":1000000},"state":"complete","tags":"","published":"2014-08-10T16:36:36-04:00","id":94448}