{"type":"FeatureCollection","data_type":"Dataset","url_type":null,"permissions":[{"permissions":{"download":true,"view":true},"group_id":"everyone"}],"classification":null,"title":"Theft","count":20,"stream_id":94451,"contributor":{"url":"http://geocommons.com/users/21900","name":"AlhambraS"},"data_attributes":null,"calculation_params":null,"icon_link":null,"link":"http://geocommons.com/overlays/94451.json","extent":[-118.152,34.0665,-118.114,34.1046],"geometry_types":["point"],"unique_name":null,"name":"Theft","feature_count":20,"description":"","next_feature":null,"is_raster":false,"short_classification":"Y","stats":{"date":{"max":"2011/02/11 00:00:00 -0500","mean":"2011/02/05 16:48:00 -0500","variance":98301736421.0526,"stdev":313531.077281109,"min":"2011/02/01 00:00:00 -0500","median":"2011/02/06 00:00:00 -0500"}},"features":[{"properties":{"city":"Alhambra, CA","date":{"end_time":"2011/02/02 00:00:00 -0500","original":"1-Feb-11","granularity":"day","time":"2011/02/01 00:00:00 -0500"},"type of crime":"Theft","id":"a65he3i8k7j3","address":"800 block of S. Ramona"},"type":"Feature","geometry":{"type":"Point","coordinates":[-118.123697,34.071149]}},{"properties":{"city":"Alhambra, CA","date":{"end_time":"2011/02/02 00:00:00 -0500","original":"1-Feb-11","granularity":"day","time":"2011/02/01 00:00:00 -0500"},"type of crime":"Theft","id":"a65he3g89kuv","address":"100 block of S. Raymond"},"type":"Feature","geometry":{"type":"Point","coordinates":[-118.145008,34.091496]}},{"properties":{"city":"Alhambra, CA","date":{"end_time":"2011/02/02 00:00:00 -0500","original":"1-Feb-11","granularity":"day","time":"2011/02/01 00:00:00 -0500"},"type of crime":"Theft","id":"a65he3cy744r","address":"1000 block of E. Clay"},"type":"Feature","geometry":{"type":"Point","coordinates":[-118.114263,34.094415]}},{"properties":{"city":"Alhambra, CA","date":{"end_time":"2011/02/02 00:00:00 -0500","original":"1-Feb-11","granularity":"day","time":"2011/02/01 00:00:00 -0500"},"type of crime":"Theft","id":"a65he3nat8gb","address":"1700 block of S. Olive"},"type":"Feature","geometry":{"type":"Point","coordinates":[-118.135858,34.09156]}},{"properties":{"city":"Alhambra, CA","date":{"end_time":"2011/02/03 00:00:00 -0500","original":"2-Feb-11","granularity":"day","time":"2011/02/02 00:00:00 -0500"},"type of crime":"Theft","id":"a65he3jrp13r","address":"1400 block of W. Pine"},"type":"Feature","geometry":{"type":"Point","coordinates":[-118.133752,34.104562]}},{"properties":{"city":"Alhambra, CA","date":{"end_time":"2011/02/04 00:00:00 -0500","original":"3-Feb-11","granularity":"day","time":"2011/02/03 00:00:00 -0500"},"type of crime":"Theft","id":"a65he3etk3b0","address":"100 block of W. Main St."},"type":"Feature","geometry":{"type":"Point","coordinates":[-118.126868,34.09516]}},{"properties":{"city":"Alhambra, CA","date":{"end_time":"2011/02/04 00:00:00 -0500","original":"3-Feb-11","granularity":"day","time":"2011/02/03 00:00:00 -0500"},"type of crime":"Theft","id":"a65he3jgumo1","address":"1200 block of S. Fremont"},"type":"Feature","geometry":{"type":"Point","coordinates":[-118.152076,34.095231]}},{"properties":{"city":"Alhambra, CA","date":{"end_time":"2011/02/04 00:00:00 -0500","original":"3-Feb-11","granularity":"day","time":"2011/02/03 00:00:00 -0500"},"type of crime":"Theft","id":"a65he3ce0dos","address":"1200 block of S. Second"},"type":"Feature","geometry":{"type":"Point","coordinates":[-118.128941,34.094182]}},{"properties":{"city":"Alhambra, CA","date":{"end_time":"2011/02/06 00:00:00 -0500","original":"5-Feb-11","granularity":"day","time":"2011/02/05 00:00:00 -0500"},"type of crime":"Theft","id":"a65he3ghia0w","address":"200 block of E. Main"},"type":"Feature","geometry":{"type":"Point","coordinates":[-118.126868,34.09516]}},{"properties":{"city":"Alhambra, CA","date":{"end_time":"2011/02/07 00:00:00 -0500","original":"6-Feb-11","granularity":"day","time":"2011/02/06 00:00:00 -0500"},"type of crime":"Theft","id":"a65he3i56m6v","address":"2106 W. San Clemente"},"type":"Feature","geometry":{"type":"Point","coordinates":[-118.146738,34.066533]}},{"properties":{"city":"Alhambra, CA","date":{"end_time":"2011/02/07 00:00:00 -0500","original":"6-Feb-11","granularity":"day","time":"2011/02/06 00:00:00 -0500"},"type of crime":"Theft","id":"a65he3g65hiu","address":"211 S. Almansor"},"type":"Feature","geometry":{"type":"Point","coordinates":[-118.120994,34.097937]}},{"properties":{"city":"Alhambra, CA","date":{"end_time":"2011/02/08 00:00:00 -0500","original":"7-Feb-11","granularity":"day","time":"2011/02/07 00:00:00 -0500"},"type of crime":"Theft","id":"a65he3gjfpye","address":"Valley and Almansor"},"type":"Feature","geometry":{"type":"Point","coordinates":[-118.120994,34.097937]}},{"properties":{"city":"Alhambra, CA","date":{"end_time":"2011/02/08 00:00:00 -0500","original":"7-Feb-11","granularity":"day","time":"2011/02/07 00:00:00 -0500"},"type of crime":"Theft","id":"a65he3jxo6du","address":"401 E. Valley"},"type":"Feature","geometry":{"type":"Point","coordinates":[-118.121893,34.078633]}},{"properties":{"city":"Alhambra, CA","date":{"end_time":"2011/02/09 00:00:00 -0500","original":"8-Feb-11","granularity":"day","time":"2011/02/08 00:00:00 -0500"},"type of crime":"Theft","id":"a65he3pkji82","address":"101 S. First"},"type":"Feature","geometry":{"type":"Point","coordinates":[-118.127906,34.094668]}},{"properties":{"city":"Alhambra, CA","date":{"end_time":"2011/02/10 00:00:00 -0500","original":"9-Feb-11","granularity":"day","time":"2011/02/09 00:00:00 -0500"},"type of crime":"Theft","id":"a65he3fii8ob","address":"2121 W. Main"},"type":"Feature","geometry":{"type":"Point","coordinates":[-118.126868,34.09516]}},{"properties":{"city":"Alhambra, CA","date":{"end_time":"2011/02/10 00:00:00 -0500","original":"9-Feb-11","granularity":"day","time":"2011/02/09 00:00:00 -0500"},"type of crime":"Theft","id":"a65he3mtyl14","address":"333 W. Main"},"type":"Feature","geometry":{"type":"Point","coordinates":[-118.126868,34.09516]}},{"properties":{"city":"Alhambra, CA","date":{"end_time":"2011/02/10 00:00:00 -0500","original":"9-Feb-11","granularity":"day","time":"2011/02/09 00:00:00 -0500"},"type of crime":"Theft","id":"a65he3phrc3i","address":"Fifth and Main"},"type":"Feature","geometry":{"type":"Point","coordinates":[-118.126868,34.09516]}},{"properties":{"city":"Alhambra, CA","date":{"end_time":"2011/02/12 00:00:00 -0500","original":"11-Feb-11","granularity":"day","time":"2011/02/11 00:00:00 -0500"},"type of crime":"Theft","id":"a65he3cn3wby","address":"1723 W. Main"},"type":"Feature","geometry":{"type":"Point","coordinates":[-118.126868,34.09516]}},{"properties":{"city":"Alhambra, CA","date":{"end_time":"2011/02/12 00:00:00 -0500","original":"11-Feb-11","granularity":"day","time":"2011/02/11 00:00:00 -0500"},"type of crime":"Theft","id":"a65he3r28zfy","address":"725 E. Main"},"type":"Feature","geometry":{"type":"Point","coordinates":[-118.125826,34.095642]}},{"properties":{"city":"Alhambra, CA","date":{"end_time":"2011/02/12 00:00:00 -0500","original":"11-Feb-11","granularity":"day","time":"2011/02/11 00:00:00 -0500"},"type of crime":"Theft","id":"a65he3cnqw6f","address":"209 S. Chapel"},"type":"Feature","geometry":{"type":"Point","coordinates":[-118.123291,34.09612]}}],"is_temporal":true,"author":{"url":"","metadata":"","contact_name":"","contact_address":"","source":"","contact_phone":""},"source":"","pagination":{"sort":null,"start":0,"total":20,"limit":1000000},"state":"complete","tags":"","published":"2014-08-10T16:36:39-04:00","id":94451}