{"type":"FeatureCollection","data_type":"Dataset","url_type":null,"permissions":[{"permissions":{"download":true,"view":true},"group_id":"everyone"}],"classification":null,"title":"Oregon FIRST FTC/FRC Teams","count":116,"stream_id":94539,"contributor":{"url":"http://geocommons.com/users/22338","name":"rfgoetz.geo"},"data_attributes":null,"calculation_params":null,"icon_link":null,"link":"http://geocommons.com/overlays/94539.json","extent":[-124.28,42.0579,-117.865,46.1453],"geometry_types":["point"],"unique_name":null,"name":"Oregon FIRST FTC/FRC Teams","feature_count":116,"description":"","next_feature":null,"is_raster":false,"short_classification":"Y","stats":{"latitude":{"max":46.145345,"mean":45.0777827155172,"variance":0.637638875853057,"stdev":0.798522933830367,"min":42.057903,"median":45.396877},"longitude":{"max":-117.865441,"mean":-122.683081284483,"variance":0.903724608183719,"stdev":0.950644312129263,"min":-124.27976,"median":-122.819423}},"features":[{"properties":{"city":"Canby","latitude":45.25328,"zip":"97013","team name":"Team 2087 - Community Team","url":null,"team type":"FRC","longitude":-122.687637,"id":"a6iiaevkmbga","address":"1150 South Ivy Street","state":"OR"},"type":"Feature","geometry":{"type":"Point","coordinates":[-122.687637,45.25328]}},{"properties":{"city":"Union","latitude":45.21222,"zip":"97883","team name":"Team 3712 - Union High School","url":null,"team type":"FRC","longitude":-117.865441,"id":"a6iiaeqzq0st","address":"P.O. Box K","state":"OR"},"type":"Feature","geometry":{"type":"Point","coordinates":[-117.865441,45.21222]}},{"properties":{"city":"Longview","latitude":46.145345,"zip":"98626","team name":"Team 3812 - 4H Kelso Longview","url":null,"team type":"FRC","longitude":-122.909029,"id":"a6iiaev8owmy","address":"207 4th Ave N","state":"WA"},"type":"Feature","geometry":{"type":"Point","coordinates":[-122.909029,46.145345]}},{"properties":{"city":"Portland","latitude":45.54939,"zip":"97229","team name":"Team 3531 -  Westview High School","url":"http://groups.google.com/group/the-short-circuits?hl=en","team type":"FTC","longitude":-122.867334,"id":"a6iiaf6010sf","address":"4200 Northwest 185th Avenue","state":"OR"},"type":"Feature","geometry":{"type":"Point","coordinates":[-122.867334,45.54939]}},{"properties":{"city":"Salem","latitude":44.959797,"zip":"97304","team name":"Team 3237 -  West Salem High School","url":null,"team type":"FTC","longitude":-123.085946,"id":"a6iiaf6boom9","address":"1776 Titan Drive Northwest","state":"OR"},"type":"Feature","geometry":{"type":"Point","coordinates":[-123.085946,44.959797]}},{"properties":{"city":"Salem","latitude":44.959797,"zip":"97304","team name":"Team 3577 -  West Salem High","url":null,"team type":"FTC","longitude":-123.085946,"id":"a6iiaf0248ou","address":"1776 Titan Drive Northwest","state":"OR"},"type":"Feature","geometry":{"type":"Point","coordinates":[-123.085946,44.959797]}},{"properties":{"city":"Salem","latitude":44.959797,"zip":"97304","team name":"Team 3237 -  West Salem Academic Booster Club","url":null,"team type":"FTC","longitude":-123.085946,"id":"a6iiaf0b5cwi","address":"1776 Titan Drive Northwest","state":"OR"},"type":"Feature","geometry":{"type":"Point","coordinates":[-123.085946,44.959797]}},{"properties":{"city":"Union","latitude":45.206083,"zip":"97883","team name":"Team 496 -  Union High School","url":null,"team type":"FTC","longitude":-117.865708,"id":"a6iiaexdg275","address":"540 South Main Street","state":"OR"},"type":"Feature","geometry":{"type":"Point","coordinates":[-117.865708,45.206083]}},{"properties":{"city":"Union","latitude":45.206083,"zip":"97883","team name":"Team 495 -  Union High School","url":null,"team type":"FTC","longitude":-117.865708,"id":"a6iiaf37pdpo","address":"540 South Main Street","state":"OR"},"type":"Feature","geometry":{"type":"Point","coordinates":[-117.865708,45.206083]}},{"properties":{"city":"Tualatin","latitude":45.357814,"zip":"97062","team name":"Team 4640 -  Tualatin High School","url":null,"team type":"FTC","longitude":-122.774532,"id":"a6iiaer9xfcp","address":"22300 Southwest Boones Ferry Road","state":"OR"},"type":"Feature","geometry":{"type":"Point","coordinates":[-122.774532,45.357814]}},{"properties":{"city":"Tualatin","latitude":45.357814,"zip":"97062","team name":"Team 4594 -  Tualatin High School","url":"http://www.frcteam2002.com","team type":"FTC","longitude":-122.774532,"id":"a6iiaf782snc","address":"22300 Southwest Boones Ferry Road","state":"OR"},"type":"Feature","geometry":{"type":"Point","coordinates":[-122.774532,45.357814]}},{"properties":{"city":"Tigard","latitude":45.404098,"zip":"97224","team name":"Team 750 -  Tigard High School Technology Team","url":null,"team type":"FTC","longitude":-122.769929,"id":"a6iiaetx6d1i","address":"9000 Southwest Durham Road","state":"OR"},"type":"Feature","geometry":{"type":"Point","coordinates":[-122.769929,45.404098]}},{"properties":{"city":"Tigard","latitude":45.404098,"zip":"97224","team name":"Team 4097 -  Tigard High School Technology Team","url":null,"team type":"FTC","longitude":-122.769929,"id":"a6iiaf1wxzpe","address":"9000 Southwest Durham Road","state":"OR"},"type":"Feature","geometry":{"type":"Point","coordinates":[-122.769929,45.404098]}},{"properties":{"city":"Tigard","latitude":45.404098,"zip":"97224","team name":"Team 3965 -  Tigard High School","url":null,"team type":"FTC","longitude":-122.769929,"id":"a6iiaev534kh","address":"9000 Southwest Durham Road","state":"OR"},"type":"Feature","geometry":{"type":"Point","coordinates":[-122.769929,45.404098]}},{"properties":{"city":"Tigard","latitude":45.404098,"zip":"97224","team name":"Team 3058 -  Tigard High School","url":null,"team type":"FTC","longitude":-122.769929,"id":"a6iiaf3e5nnz","address":"9000 Southwest Durham Road","state":"OR"},"type":"Feature","geometry":{"type":"Point","coordinates":[-122.769929,45.404098]}},{"properties":{"city":"Springfield","latitude":44.048219,"zip":"97478","team name":"Team 3963 -  Thurston High School","url":null,"team type":"FTC","longitude":-122.926204,"id":"a6iiaf3kdtn0","address":"333 58th Street","state":"OR"},"type":"Feature","geometry":{"type":"Point","coordinates":[-122.926204,44.048219]}},{"properties":{"city":"The Dalles","latitude":45.596275,"zip":"97058","team name":"Team 4543 -  The Dalles Wahtonka HS","url":null,"team type":"FTC","longitude":-121.186829,"id":"a6iiaeytyqqg","address":"220 East 10th Street","state":"OR"},"type":"Feature","geometry":{"type":"Point","coordinates":[-121.186829,45.596275]}},{"properties":{"city":"The Dalles","latitude":45.596275,"zip":"97058","team name":"Team 3633 -  The Dalles Wahtonka HS","url":null,"team type":"FTC","longitude":-121.186829,"id":"a6iiaez517fb","address":"220 East 10th Street","state":"OR"},"type":"Feature","geometry":{"type":"Point","coordinates":[-121.186829,45.596275]}},{"properties":{"city":"Sutherlin","latitude":43.391563,"zip":"97479","team name":"Team 4662 -  Sutherlin School District","url":null,"team type":"FTC","longitude":-123.305633,"id":"a6iiaeuj3h1o","address":"531 East Central Avenue","state":"OR"},"type":"Feature","geometry":{"type":"Point","coordinates":[-123.305633,43.391563]}},{"properties":{"city":"Portland","latitude":45.52883,"zip":"97229","team name":"Team 357 -  Sunset High School","url":null,"team type":"FTC","longitude":-122.819423,"id":"a6iiaf224ik0","address":"13840 Northwest Cornell Road","state":"OR"},"type":"Feature","geometry":{"type":"Point","coordinates":[-122.819423,45.52883]}},{"properties":{"city":"Beaverton","latitude":45.52883,"zip":"97229","team name":"Team 336 -  Sunset High School","url":null,"team type":"FTC","longitude":-122.819423,"id":"a6iiaf4oai9l","address":"13840 Northwest Cornell Road","state":"OR"},"type":"Feature","geometry":{"type":"Point","coordinates":[-122.819423,45.52883]}},{"properties":{"city":"Beaverton","latitude":45.52883,"zip":"97229","team name":"Team 3193 -  Sunset High School","url":null,"team type":"FTC","longitude":-122.819423,"id":"a6iiaf1w0wf3","address":"13840 Northwest Cornell Road","state":"OR"},"type":"Feature","geometry":{"type":"Point","coordinates":[-122.819423,45.52883]}},{"properties":{"city":"Springfield","latitude":44.050008,"zip":"97477","team name":"Team 3093 -  Springfield School District 19","url":null,"team type":"FTC","longitude":-123.025501,"id":"a6iiaeruct2l","address":"525 Mill Street","state":"OR"},"type":"Feature","geometry":{"type":"Point","coordinates":[-123.025501,44.050008]}},{"properties":{"city":"Silverton","latitude":45.011573,"zip":"97381","team name":"Team 4598 -  Silverton High School","url":null,"team type":"FTC","longitude":-122.799666,"id":"a6iiaeyrl1hw","address":"1456 Pine St.","state":"OR"},"type":"Feature","geometry":{"type":"Point","coordinates":[-122.799666,45.011573]}},{"properties":{"city":"Sherwood","latitude":45.35859,"zip":"97140","team name":"Team 4732 -  Sherwood High School","url":null,"team type":"FTC","longitude":-122.851118,"id":"a6iiaf4anj40","address":"16956 Southwest Meinecke Road","state":"OR"},"type":"Feature","geometry":{"type":"Point","coordinates":[-122.851118,45.35859]}},{"properties":{"city":"Sherwood","latitude":45.35859,"zip":"97140","team name":"Team 4276 -  Sherwood High School","url":null,"team type":"FTC","longitude":-122.851118,"id":"a6iiaf3nz5a9","address":"16956 Southwest Meinecke Road","state":"OR"},"type":"Feature","geometry":{"type":"Point","coordinates":[-122.851118,45.35859]}},{"properties":{"city":"Sherwood","latitude":45.35859,"zip":"97140","team name":"Team 4275 -  Sherwood High School","url":null,"team type":"FTC","longitude":-122.851118,"id":"a6iiaerqli86","address":"16956 Southwest Meinecke Road","state":"OR"},"type":"Feature","geometry":{"type":"Point","coordinates":[-122.851118,45.35859]}},{"properties":{"city":"Sherwood","latitude":45.35859,"zip":"97140","team name":"Team 3836 -  Sherwood High School","url":null,"team type":"FTC","longitude":-122.851118,"id":"a6iiaeubdg15","address":"16956 Southwest Meinecke Road","state":"OR"},"type":"Feature","geometry":{"type":"Point","coordinates":[-122.851118,45.35859]}},{"properties":{"city":"Sheridan","latitude":45.095429,"zip":"97378","team name":"Team 4712 -  Sheridan High School","url":null,"team type":"FTC","longitude":-123.395299,"id":"a6iiaf4bkbw3","address":"433 South Bridge Street","state":"OR"},"type":"Feature","geometry":{"type":"Point","coordinates":[-123.395299,45.095429]}},{"properties":{"city":"Salem","latitude":44.958368,"zip":"97305","team name":"Team 3115 -  SalemKeizer Middle School","url":null,"team type":"FTC","longitude":-122.983501,"id":"a6iiaf1g2lk5","address":"2450 Lancaster Dr","state":"OR"},"type":"Feature","geometry":{"type":"Point","coordinates":[-122.983501,44.958368]}},{"properties":{"city":"Saint Helens","latitude":45.849857,"zip":"97051","team name":"Team 4108 -  Saint Helens High School","url":null,"team type":"FTC","longitude":-122.83405,"id":"a6iiaeyvl144","address":"2375 Gable Road","state":"OR"},"type":"Feature","geometry":{"type":"Point","coordinates":[-122.83405,45.849857]}},{"properties":{"city":"Portland","latitude":45.519503,"zip":"97214","team name":"Team 4233 -  Portland Central Catholic H.S.","url":null,"team type":"FTC","longitude":-122.64125,"id":"a6iiaf3w4jz1","address":"2401 Southeast Stark Street","state":"OR"},"type":"Feature","geometry":{"type":"Point","coordinates":[-122.64125,45.519503]}},{"properties":{"city":"Philomath","latitude":44.538729,"zip":"97370","team name":"Team 3999 -  Philomath High School","url":null,"team type":"FTC","longitude":-123.35651,"id":"a6iiaev3ggor","address":"2054 Applegate Street","state":"OR"},"type":"Feature","geometry":{"type":"Point","coordinates":[-123.35651,44.538729]}},{"properties":{"city":"Newberg","latitude":45.3127,"zip":"97132","team name":"Team 4714 -  Newberg High School Industry and Engineering","url":null,"team type":"FTC","longitude":-122.954139,"id":"a6iiaf0detuk","address":"2400 Douglas Avenue","state":"OR"},"type":"Feature","geometry":{"type":"Point","coordinates":[-122.954139,45.3127]}},{"properties":{"city":"Newberg","latitude":45.3127,"zip":"97132","team name":"Team 4586 -  Newberg High School Industry and Engineering","url":null,"team type":"FTC","longitude":-122.954139,"id":"a6iiaeunipv6","address":"2400 Douglas Avenue","state":"OR"},"type":"Feature","geometry":{"type":"Point","coordinates":[-122.954139,45.3127]}},{"properties":{"city":"Newberg","latitude":45.3127,"zip":"97132","team name":"Team 4766 -  Newberg High School","url":null,"team type":"FTC","longitude":-122.954139,"id":"a6iiaf6isrrs","address":"2400 Douglas Avenue","state":"OR"},"type":"Feature","geometry":{"type":"Point","coordinates":[-122.954139,45.3127]}},{"properties":{"city":"Mcminnville","latitude":45.218737,"zip":"97128","team name":"Team 4711 -  McMinnville High School Robotics Team","url":null,"team type":"FTC","longitude":-123.19208,"id":"a6iiaf11tmdp","address":"615 Northeast 15th Street","state":"OR"},"type":"Feature","geometry":{"type":"Point","coordinates":[-123.19208,45.218737]}},{"properties":{"city":"Bend","latitude":44.06276,"zip":"97701","team name":"Team 4596 -  Marshall High School","url":null,"team type":"FTC","longitude":-121.299094,"id":"a6iiaf71ranm","address":"1291 Northeast 5th Street","state":"OR"},"type":"Feature","geometry":{"type":"Point","coordinates":[-121.299094,44.06276]}},{"properties":{"city":"Portland","latitude":45.519589,"zip":"97205","team name":"Team 4092 -  Lincoln High School","url":null,"team type":"FTC","longitude":-122.689367,"id":"a6iiaerxldtq","address":"1600 Southwest Salmon Street","state":"OR"},"type":"Feature","geometry":{"type":"Point","coordinates":[-122.689367,45.519589]}},{"properties":{"city":"Lincoln City","latitude":44.93999,"zip":"97367","team name":"Team 4518 -  Lincoln City Robotics","url":null,"team type":"FTC","longitude":-124.016069,"id":"a6iiaew1a8vi","address":"3780 SE Spyglass Ridge Rd","state":"OR"},"type":"Feature","geometry":{"type":"Point","coordinates":[-124.016069,44.93999]}},{"properties":{"city":"Jasper","latitude":43.978183,"zip":"97438","team name":"Team 3614 -  Laurelwood Academy","url":null,"team type":"FTC","longitude":-122.879519,"id":"a6iiaevaksqv","address":"37466 Jasper Lowell Road","state":"OR"},"type":"Feature","geometry":{"type":"Point","coordinates":[-122.879519,43.978183]}},{"properties":{"city":"Lake Oswego","latitude":45.396983,"zip":"97034","team name":"Team 3515 -  Lakeridge","url":"http://untitled8.org","team type":"FTC","longitude":-122.693846,"id":"a6iiaewiobkw","address":"1235 Southwest Overlook Drive","state":"OR"},"type":"Feature","geometry":{"type":"Point","coordinates":[-122.693846,45.396983]}},{"properties":{"city":"Milwaukie","latitude":45.43602,"zip":"97222","team name":"Team 4511 -  La Salle Catholic College Preparatory","url":null,"team type":"FTC","longitude":-122.585618,"id":"a6iiaf5j0ar0","address":"11999 Southeast Fuller Road","state":"OR"},"type":"Feature","geometry":{"type":"Point","coordinates":[-122.585618,45.43602]}},{"properties":{"city":"Junction City","latitude":44.218826,"zip":"97448","team name":"Team 4480 -  Junction City High School","url":null,"team type":"FTC","longitude":-123.212612,"id":"a6iiaf3wtlr2","address":"1135 West 6th Avenue","state":"OR"},"type":"Feature","geometry":{"type":"Point","coordinates":[-123.212612,44.218826]}},{"properties":{"city":"Grants Pass","latitude":42.442227,"zip":"97526","team name":"Team 4761 -  Josephine County 4-H","url":null,"team type":"FTC","longitude":-123.325319,"id":"a6iiaes5pbjj","address":"500 NW 6th Street","state":"OR"},"type":"Feature","geometry":{"type":"Point","coordinates":[-123.325319,42.442227]}},{"properties":{"city":"Portland","latitude":45.486261,"zip":"97225","team name":"Team 4158 -  Jesuit High School Robotics","url":null,"team type":"FTC","longitude":-122.769585,"id":"a6iiaf24ovqe","address":"9000 SW Beaverton-Hillsdale Hwy","state":"OR"},"type":"Feature","geometry":{"type":"Point","coordinates":[-122.769585,45.486261]}},{"properties":{"city":"Portland","latitude":45.486261,"zip":"97225","team name":"Team 3646 -  Jesuit High School Robotics","url":"http://www.team2374.com","team type":"FTC","longitude":-122.769585,"id":"a6iiaf1hhn2c","address":"9000 SW Beaverton-Hillsdale Hwy","state":"OR"},"type":"Feature","geometry":{"type":"Point","coordinates":[-122.769585,45.486261]}},{"properties":{"city":"Hood River","latitude":45.685946,"zip":"97031","team name":"Team 4412 -  Hood River Valley High School","url":"http://hoodriverftc.webs.com","team type":"FTC","longitude":-121.543235,"id":"a6iiaez11p3b","address":"1220 Indian Creek Road","state":"OR"},"type":"Feature","geometry":{"type":"Point","coordinates":[-121.543235,45.685946]}},{"properties":{"city":"Hood River","latitude":45.685946,"zip":"97031","team name":"Team 4143 -  Hood River Valley High School","url":"http://hoodriverftc.webs.com/","team type":"FTC","longitude":-121.543235,"id":"a6iiaf19sfz4","address":"1220 Indian Creek Road","state":"OR"},"type":"Feature","geometry":{"type":"Point","coordinates":[-121.543235,45.685946]}},{"properties":{"city":"Hillsboro","latitude":45.495185,"zip":"97123","team name":"Team 4375 -  Hillsboro High School","url":null,"team type":"FTC","longitude":-122.953398,"id":"a6iiaezsvefm","address":"3289 SE Rood Bridge Road","state":"OR"},"type":"Feature","geometry":{"type":"Point","coordinates":[-122.953398,45.495185]}},{"properties":{"city":"Hillsboro","latitude":45.495242,"zip":"97123","team name":"Team 4374 -  Hillsboro High School","url":null,"team type":"FTC","longitude":-122.953023,"id":"a6iiaf249fs6","address":"3288 SE Rood Bridge Road","state":"OR"},"type":"Feature","geometry":{"type":"Point","coordinates":[-122.953023,45.495242]}},{"properties":{"city":"Hillsboro","latitude":45.495198,"zip":"97123","team name":"Team 3727 -  Hillsboro High School","url":null,"team type":"FTC","longitude":-122.953402,"id":"a6iiaf5n0e1p","address":"3287 SE Rood Bridge Road","state":"OR"},"type":"Feature","geometry":{"type":"Point","coordinates":[-122.953402,45.495198]}},{"properties":{"city":"Hillsboro","latitude":45.495255,"zip":"97123","team name":"Team 3257 -  Hillsboro High School","url":null,"team type":"FTC","longitude":-122.953027,"id":"a6iiaer9hj4w","address":"3286 SE Rood Bridge Road","state":"OR"},"type":"Feature","geometry":{"type":"Point","coordinates":[-122.953027,45.495255]}},{"properties":{"city":"Hillsboro","latitude":45.49521,"zip":"97123","team name":"Team 3213 -  Hillsboro High School","url":null,"team type":"FTC","longitude":-122.953406,"id":"a6iiaetjuy4r","address":"3285 SE Rood Bridge Road","state":"OR"},"type":"Feature","geometry":{"type":"Point","coordinates":[-122.953406,45.49521]}},{"properties":{"city":"Hillsboro","latitude":45.541699,"zip":"97124","team name":"Team 4381 -  Glencoe High School","url":null,"team type":"FTC","longitude":-122.995541,"id":"a6iiaf08a54g","address":"2700 Northwest Glencoe Road","state":"OR"},"type":"Feature","geometry":{"type":"Point","coordinates":[-122.995541,45.541699]}},{"properties":{"city":"Hillsboro","latitude":45.541699,"zip":"97124","team name":"Team 4380 -  Glencoe High School","url":null,"team type":"FTC","longitude":-122.995541,"id":"a6iiaewa2lel","address":"2700 Northwest Glencoe Road","state":"OR"},"type":"Feature","geometry":{"type":"Point","coordinates":[-122.995541,45.541699]}},{"properties":{"city":"Hillsboro","latitude":45.541699,"zip":"97124","team name":"Team 4379 -  Glencoe High School","url":null,"team type":"FTC","longitude":-122.995541,"id":"a6iiaf6apo8p","address":"2700 Northwest Glencoe Road","state":"OR"},"type":"Feature","geometry":{"type":"Point","coordinates":[-122.995541,45.541699]}},{"properties":{"city":"Portland","latitude":45.501516,"zip":"97206","team name":"Team 4515 -  Franklin High School","url":null,"team type":"FTC","longitude":-122.606913,"id":"a6iiaet6c7qv","address":"5405 Southeast Woodward Street","state":"OR"},"type":"Feature","geometry":{"type":"Point","coordinates":[-122.606913,45.501516]}},{"properties":{"city":"Portland","latitude":45.501516,"zip":"97206","team name":"Team 4514 -  Franklin High School","url":null,"team type":"FTC","longitude":-122.606913,"id":"a6iiaf5xy3vv","address":"5405 Southeast Woodward Street","state":"OR"},"type":"Feature","geometry":{"type":"Point","coordinates":[-122.606913,45.501516]}},{"properties":{"city":"Beaverton","latitude":45.485162,"zip":"97005","team name":"Team 4508 -  E=MCSquirreled","url":null,"team type":"FTC","longitude":-122.796635,"id":"a6iiaevdbpe4","address":"4755 Southwest Griffith Drive","state":"OR"},"type":"Feature","geometry":{"type":"Point","coordinates":[-122.796635,45.485162]}},{"properties":{"city":"Dallas","latitude":44.916856,"zip":"97338","team name":"Team 4110 -  Dallas High School","url":null,"team type":"FTC","longitude":-123.305026,"id":"a6iiaes1m2fr","address":"1250 Southeast Holman Avenue","state":"OR"},"type":"Feature","geometry":{"type":"Point","coordinates":[-123.305026,44.916856]}},{"properties":{"city":"Dallas","latitude":44.916856,"zip":"97338","team name":"Team 3800 -  Dallas High School","url":null,"team type":"FTC","longitude":-123.305026,"id":"a6iiaf31q3ds","address":"1250 Southeast Holman Avenue","state":"OR"},"type":"Feature","geometry":{"type":"Point","coordinates":[-123.305026,44.916856]}},{"properties":{"city":"Cottage Grove","latitude":43.786102,"zip":"97424","team name":"Team 4489 -  Cottage Grove High School","url":"http://cghsrobotics.co.cc/","team type":"FTC","longitude":-123.069009,"id":"a6iiaexa85wc","address":"1375 South River Road","state":"OR"},"type":"Feature","geometry":{"type":"Point","coordinates":[-123.069009,43.786102]}},{"properties":{"city":"Cottage Grove Oregon","latitude":43.786102,"zip":"97424","team name":"Team 3731 -  Cottage Grove High School","url":"http://cghsrobotics.co.cc/","team type":"FTC","longitude":-123.069009,"id":"a6iiaf54gv17","address":"1375 South River Road","state":"OR"},"type":"Feature","geometry":{"type":"Point","coordinates":[-123.069009,43.786102]}},{"properties":{"city":"Hillsboro","latitude":45.504638,"zip":"97123","team name":"Team 3131 -  Century High School","url":null,"team type":"FTC","longitude":-122.916432,"id":"a6iiaes281tw","address":"2000 Southeast Century Boulevard","state":"OR"},"type":"Feature","geometry":{"type":"Point","coordinates":[-122.916432,45.504638]}},{"properties":{"city":"Hillsboro","latitude":45.504638,"zip":"97123","team name":"Team 3070 -  Century High School","url":null,"team type":"FTC","longitude":-122.916432,"id":"a6iiaf6ud169","address":"2000 Southeast Century Boulevard","state":"OR"},"type":"Feature","geometry":{"type":"Point","coordinates":[-122.916432,45.504638]}},{"properties":{"city":"Turner","latitude":44.808228,"zip":"97392","team name":"Team 3818 -  Cascade School District","url":null,"team type":"FTC","longitude":-122.918195,"id":"a6iiaerottvk","address":"10226 Marion Road Southeast","state":"OR"},"type":"Feature","geometry":{"type":"Point","coordinates":[-122.918195,44.808228]}},{"properties":{"city":"Brookings","latitude":42.057903,"zip":"97415","team name":"Team 3011 -  Brookings Harbor High School","url":null,"team type":"FTC","longitude":-124.27976,"id":"a6iiaf4m8ods","address":"625 Pioneer Road","state":"OR"},"type":"Feature","geometry":{"type":"Point","coordinates":[-124.27976,42.057903]}},{"properties":{"city":"Brookings","latitude":42.057903,"zip":"97415","team name":"Team 3010 -  Brookings Harbor High School","url":null,"team type":"FTC","longitude":-124.27976,"id":"a6iiaeqzt4dr","address":"625 Pioneer Road","state":"OR"},"type":"Feature","geometry":{"type":"Point","coordinates":[-124.27976,42.057903]}},{"properties":{"city":"Portland","latitude":45.526898,"zip":"97232","team name":"Team 4560 -  Benson Polytechnic High School","url":"http://bensonrobotics.org","team type":"FTC","longitude":-122.653454,"id":"a6iiaetguudb","address":"546 Northeast 12th Avenue","state":"OR"},"type":"Feature","geometry":{"type":"Point","coordinates":[-122.653454,45.526898]}},{"properties":{"city":"Portland","latitude":45.526898,"zip":"97232","team name":"Team 267 -  Benson Polytechnic High School","url":"http://bensonrobotics.org","team type":"FTC","longitude":-122.653454,"id":"a6iiaf5aw2ee","address":"546 Northeast 12th Avenue","state":"OR"},"type":"Feature","geometry":{"type":"Point","coordinates":[-122.653454,45.526898]}},{"properties":{"city":"Portland","latitude":45.526898,"zip":"97232","team name":"Team 187 -  Benson Polytechnic High School","url":"http://bensonrobotics.org","team type":"FTC","longitude":-122.653454,"id":"a6iiaf6hx1uf","address":"546 Northeast 12th Avenue","state":"OR"},"type":"Feature","geometry":{"type":"Point","coordinates":[-122.653454,45.526898]}},{"properties":{"city":"Rickreal","latitude":45.042794,"zip":"97371","team name":"Team 4660 -  Ballston Community School","url":null,"team type":"FTC","longitude":-123.186212,"id":"a6iiaezd18u0","address":"7575 Bethel Road","state":"OR"},"type":"Feature","geometry":{"type":"Point","coordinates":[-123.186212,45.042794]}},{"properties":{"city":"Amity","latitude":45.113619,"zip":"97101","team name":"Team 4349 -  Amity Miiddle School","url":null,"team type":"FTC","longitude":-123.205965,"id":"a6iiaevh85pa","address":"115 Church Street","state":"OR"},"type":"Feature","geometry":{"type":"Point","coordinates":[-123.205965,45.113619]}},{"properties":{"city":"Amity","latitude":45.115929,"zip":"97101","team name":"Team 3111 -  Amity High School","url":null,"team type":"FTC","longitude":-123.203528,"id":"a6iiaf5r7nuc","address":"503 Oak St","state":"OR"},"type":"Feature","geometry":{"type":"Point","coordinates":[-123.203528,45.115929]}},{"properties":{"city":"Bend","latitude":44.05263,"zip":"97701","team name":"Team 4596 -  4-H Oregon","url":null,"team type":"FTC","longitude":-121.297044,"id":"a6iiaetm7dfx","address":"230 Northeast 6th Street","state":"OR"},"type":"Feature","geometry":{"type":"Point","coordinates":[-121.297044,44.05263]}},{"properties":{"city":"Canby","latitude":45.257888,"zip":"97013","team name":"Team 3970 -  4-H Oregon","url":"http://flametech.weebly.com","team type":"FTC","longitude":-122.696858,"id":"a6iiaf3a2l94","address":"721 Southwest 4th Avenue","state":"OR"},"type":"Feature","geometry":{"type":"Point","coordinates":[-122.696858,45.257888]}},{"properties":{"city":"Turner","latitude":44.809193,"zip":"97392","team name":"Team 2990 - West Salem High","url":"http://hotwirerobotics.com/","team type":"FRC","longitude":-122.916771,"id":"a6iiaetrfm8l","address":"10226 Marion Road SE","state":"OR"},"type":"Feature","geometry":{"type":"Point","coordinates":[-122.916771,44.809193]}},{"properties":{"city":"Tigard","latitude":45.403923,"zip":"97224","team name":"Team 3192 - Tigard High School","url":"http://www.thstechteam.org","team type":"FRC","longitude":-122.767998,"id":"a6iiaes32up1","address":"9000 SW Durham Rd","state":"OR"},"type":"Feature","geometry":{"type":"Point","coordinates":[-122.767998,45.403923]}},{"properties":{"city":"Seaside","latitude":45.993164,"zip":"97138","team name":"Team 3673 - Seaside High School","url":null,"team type":"FRC","longitude":-123.922638,"id":"a6iiaeyy8392","address":"1901 N. Holladay Dr.","state":"OR"},"type":"Feature","geometry":{"type":"Point","coordinates":[-123.922638,45.993164]}},{"properties":{"city":"Portland","latitude":45.498497,"zip":"97202","team name":"Team 2733 - Cleveland","url":"http://www.pigmice.org/","team type":"FRC","longitude":-122.638588,"id":"a6iiaf5tyt93","address":"3400 SE 26th Ave","state":"OR"},"type":"Feature","geometry":{"type":"Point","coordinates":[-122.638588,45.498497]}},{"properties":{"city":"Beaverton","latitude":45.486526,"zip":"97225","team name":"Team 2374 - Jesuit High School","url":"http://www.team2374.com/","team type":"FRC","longitude":-122.780594,"id":"a6iiaetw64r4","address":"SW Beaverton Hillsdale Hwy","state":"OR"},"type":"Feature","geometry":{"type":"Point","coordinates":[-122.780594,45.486526]}},{"properties":{"city":"Portland","latitude":45.503315,"zip":"97206","team name":"Team 1432 - Franklin High School","url":"http://team1432.org/","team type":"FRC","longitude":-122.606895,"id":"a6iiaew48pdl","address":"5405 SE Woodward St","state":"OR"},"type":"Feature","geometry":{"type":"Point","coordinates":[-122.606895,45.503315]}},{"properties":{"city":"Newport","latitude":44.638454,"zip":"97365","team name":"Team 2192 - Newport High School","url":"http://2192.binarytide.com/","team type":"FRC","longitude":-124.046204,"id":"a6iiaf50mak7","address":"322 NE Eads St","state":"OR"},"type":"Feature","geometry":{"type":"Point","coordinates":[-124.046204,44.638454]}},{"properties":{"city":"Newberg","latitude":45.311893,"zip":"97132","team name":"Team 3165 - Newberg High School","url":null,"team type":"FRC","longitude":-122.953873,"id":"a6iiaev9st0j","address":"2400 Douglas Ave","state":"OR"},"type":"Feature","geometry":{"type":"Point","coordinates":[-122.953873,45.311893]}},{"properties":{"city":"Klamath Falls","latitude":42.230415,"zip":"97601","team name":"Team 3311 - Union High School","url":null,"team type":"FRC","longitude":-121.778549,"id":"a6iiaf1vtzem","address":"1300 Monclaire St","state":"OR"},"type":"Feature","geometry":{"type":"Point","coordinates":[-121.778549,42.230415]}},{"properties":{"city":"Gresham","latitude":45.498177,"zip":null,"team name":"Team 3841 - Gresham Salvation Army Team","url":null,"team type":"FRC","longitude":-122.43148,"id":"a6iiaf6fqj71","address":"1409 SE 130th Ave.","state":"OR"},"type":"Feature","geometry":{"type":"Point","coordinates":[-122.43148,45.498177]}},{"properties":{"city":"Gresham","latitude":45.507957,"zip":"97030","team name":"Team 1571 - Center for Advanced Learning","url":"http://team1571.org","team type":"FRC","longitude":-122.439987,"id":"a6iiaf5fezqe","address":"1484 NW Civic Dr","state":"OR"},"type":"Feature","geometry":{"type":"Point","coordinates":[-122.439987,45.507957]}},{"properties":{"city":"Camas","latitude":45.612568,"zip":"98607","team name":"Team 2471 - Camas High School","url":"http://www.teammeanmachine.org/","team type":"FRC","longitude":-122.396599,"id":"a6iiaf3xm8d8","address":"26900 SE 15th St","state":"WA"},"type":"Feature","geometry":{"type":"Point","coordinates":[-122.396599,45.612568]}},{"properties":{"city":"Bend","latitude":44.076752,"zip":"97701","team name":"Team 753 - Mountain View High School","url":"http://www.team753.com/","team type":"FRC","longitude":-121.266174,"id":"a6iiaetnyuwh","address":"2755 NE 27th St","state":"OR"},"type":"Feature","geometry":{"type":"Point","coordinates":[-121.266174,44.076752]}},{"properties":{"city":"Adair Village","latitude":44.671558,"zip":"97330","team name":"Team 956 - Santiam Christian High School","url":"http://santiamchristian.org/home/Activities/Robotics","team type":"FRC","longitude":-123.218292,"id":"a6iiaf5huakc","address":"7220 NE Arnold Ave","state":"OR"},"type":"Feature","geometry":{"type":"Point","coordinates":[-123.218292,44.671558]}},{"properties":{"city":"Wilsonville","latitude":45.307526,"zip":"97070","team name":"Team 1425 - Wilsonville High School","url":"http://www.wilsonvillerobotics.com/","team type":"FRC","longitude":-122.749092,"id":"a6iiaezls5tr","address":"6800 SW Wilsonville Rd","state":"OR"},"type":"Feature","geometry":{"type":"Point","coordinates":[-122.749092,45.307526]}},{"properties":{"city":"Vancouver","latitude":45.638729,"zip":"98685","team name":"Team 2811 - Skyview High School","url":"http://http:/www.stormbots.com","team type":"FRC","longitude":-122.661484,"id":"a6iiaezq5ghx","address":"1300 NW 139th St","state":"WA"},"type":"Feature","geometry":{"type":"Point","coordinates":[-122.661484,45.638729]}},{"properties":{"city":"Vancouver","latitude":45.636745,"zip":"98684","team name":"Team 2517 - Evergreen High School","url":"http://www.team2517.net/","team type":"FRC","longitude":-122.526054,"id":"a6iiaf493ept","address":"14300 NE 18th St","state":"WA"},"type":"Feature","geometry":{"type":"Point","coordinates":[-122.526054,45.636745]}},{"properties":{"city":"Tualatin","latitude":45.358326,"zip":"97062","team name":"Team 2002 - Tualatin High School","url":"http://www.frcteam2002.com/","team type":"FRC","longitude":-122.77533,"id":"a6iiaf13ymfc","address":"22300 SW Boones Ferry Rd","state":"OR"},"type":"Feature","geometry":{"type":"Point","coordinates":[-122.77533,45.358326]}},{"properties":{"city":"Trout Lake","latitude":45.991592,"zip":"98650","team name":"Team 3711 - Trout Lake High School","url":null,"team type":"FRC","longitude":-121.520302,"id":"a6iiaexvvwev","address":"PO Box 488","state":"WA"},"type":"Feature","geometry":{"type":"Point","coordinates":[-121.520302,45.991592]}},{"properties":{"city":"Portland","latitude":45.538731,"zip":"97212","team name":"Team 3636 - Grant High School","url":null,"team type":"FRC","longitude":-122.626488,"id":"a6iiaexm4pbc","address":"2245 NE 36th Ave","state":"OR"},"type":"Feature","geometry":{"type":"Point","coordinates":[-122.626488,45.538731]}},{"properties":{"city":"Portland","latitude":45.523453,"zip":"97219","team name":"Team 2915 - Riverdale High","url":"http://www.riverdalerobotics.com","team type":"FRC","longitude":-122.676208,"id":"a6iiaf5u04xv","address":"9727 SW Terwilliger Blvd","state":"OR"},"type":"Feature","geometry":{"type":"Point","coordinates":[-122.676208,45.523453]}},{"properties":{"city":"Portland","latitude":45.559063,"zip":"97211","team name":"Team 2411 - Joseph L. Meek Professional Technical High School","url":"http://www.pps.k12.or.us/schools-c/pages/meek/robotics/home.html","team type":"FRC","longitude":-122.622398,"id":"a6iiaf0skall","address":"4039 NE Alberta Ct","state":"OR"},"type":"Feature","geometry":{"type":"Point","coordinates":[-122.622398,45.559063]}},{"properties":{"city":"Portland","latitude":45.51873,"zip":"97205","team name":"Team 1823 - Lincoln High School","url":"http://lincoln.pps.k12.or.us/","team type":"FRC","longitude":-122.688431,"id":"a6iiaesvmuke","address":"1600 SW Salmon St","state":"OR"},"type":"Feature","geometry":{"type":"Point","coordinates":[-122.688431,45.51873]}},{"properties":{"city":"Portland","latitude":45.510117,"zip":"97225","team name":"Team 1540 - Catlin Gabel School","url":"http://www.team1540.org/","team type":"FRC","longitude":-122.767319,"id":"a6iiaesegklk","address":"8825 SW Barnes Rd","state":"OR"},"type":"Feature","geometry":{"type":"Point","coordinates":[-122.767319,45.510117]}},{"properties":{"city":"Philomath","latitude":44.537556,"zip":"97370","team name":"Team 847 - Philomath High School","url":"http://www.team847.com/","team type":"FRC","longitude":-123.355125,"id":"a6iiaev5jrc4","address":"2054 Applegate St","state":"OR"},"type":"Feature","geometry":{"type":"Point","coordinates":[-123.355125,44.537556]}},{"properties":{"city":"Oregon City","latitude":45.342216,"zip":"97045","team name":"Team 2550 - Oregon City School District","url":"http://www.oregoncityrobotics.com/","team type":"FRC","longitude":-122.510437,"id":"a6iiaeub4ynl","address":"1015 Jackson St.","state":"OR"},"type":"Feature","geometry":{"type":"Point","coordinates":[-122.510437,45.342216]}},{"properties":{"city":"Lake Oswego","latitude":45.396877,"zip":"97034","team name":"Team 2635 - Lakeridge High School","url":"http://lorobotics.org/","team type":"FRC","longitude":-122.692406,"id":"a6iiaf71dw8x","address":"1235 Overlook Dr","state":"OR"},"type":"Feature","geometry":{"type":"Point","coordinates":[-122.692406,45.396877]}},{"properties":{"city":"Hillsboro","latitude":45.562222,"zip":"97124","team name":"Team 3210 - Liberty High School","url":"http://www.team3210.com/node/2","team type":"FRC","longitude":-122.903336,"id":"a6iiaezk7yvy","address":"21945 NW Wagon Way","state":"OR"},"type":"Feature","geometry":{"type":"Point","coordinates":[-122.903336,45.562222]}},{"properties":{"city":"Gresham","latitude":45.506229,"zip":"97030","team name":"Team 2542 - Gresham High School","url":null,"team type":"FRC","longitude":-122.430367,"id":"a6iiaf4wkvf4","address":"1200 N Main Ave","state":"OR"},"type":"Feature","geometry":{"type":"Point","coordinates":[-122.430367,45.506229]}},{"properties":{"city":"Gladstone","latitude":45.386707,"zip":"97027","team name":"Team 3131 - Gladstone High School","url":null,"team type":"FRC","longitude":-122.597374,"id":"a6iiaeuvm2gu","address":"18800 Portland Ave","state":"OR"},"type":"Feature","geometry":{"type":"Point","coordinates":[-122.597374,45.386707]}},{"properties":{"city":"Eugene","latitude":44.052071,"zip":"97401","team name":"Team 2521 - South Eugene High School","url":"http://southrobotics.org/","team type":"FRC","longitude":-123.086754,"id":"a6iiaeqvqbr2","address":"400 E 19th Ave","state":"OR"},"type":"Feature","geometry":{"type":"Point","coordinates":[-123.086754,44.052071]}},{"properties":{"city":"Corvallis","latitude":44.616508,"zip":"97330","team name":"Team 955 - Crescent Valley High School","url":"http://www.cvhsrobotics.com/","team type":"FRC","longitude":-123.26371,"id":"a6iiaetcmpxn","address":"4444 NW Highland Drive","state":"OR"},"type":"Feature","geometry":{"type":"Point","coordinates":[-123.26371,44.616508]}},{"properties":{"city":"Corvalis","latitude":44.575794,"zip":"97330","team name":"Team 997 - Corvallis High School","url":"http://www.team997.org/","team type":"FRC","longitude":-123.263519,"id":"a6iiaetsbsfc","address":"1400 NW Buchanan Ave","state":"OR"},"type":"Feature","geometry":{"type":"Point","coordinates":[-123.263519,44.575794]}},{"properties":{"city":"Beaverton","latitude":45.487061,"zip":"97006","team name":"Team 2898 - Beaverton School for Science and Technology","url":"http://team2898.bpsrobotics.org","team type":"FRC","longitude":-122.803711,"id":"a6iiaexnel3y","address":"1841 SW Merlo Dr","state":"OR"},"type":"Feature","geometry":{"type":"Point","coordinates":[-122.803711,45.487061]}},{"properties":{"city":"Beaverton","latitude":45.549953,"zip":"97229","team name":"Team 1510 - Westview High School","url":"http://team1510.bpsrobotics.org","team type":"FRC","longitude":-122.864845,"id":"a6iiaf1nqpqd","address":"4200 NW 185th Ave","state":"OR"},"type":"Feature","geometry":{"type":"Point","coordinates":[-122.864845,45.549953]}},{"properties":{"city":"Battle Ground","latitude":45.681957,"zip":"98604","team name":"Team 3674 - Clark County 4H","url":null,"team type":"FRC","longitude":-122.573326,"id":"a6iiaey82rtk","address":"715 NW Onsdorff Blvd","state":"WA"},"type":"Feature","geometry":{"type":"Point","coordinates":[-122.573326,45.681957]}},{"properties":{"city":"Ashland","latitude":42.191231,"zip":"97520","team name":"Team 3024 - Ashland High School","url":null,"team type":"FRC","longitude":-122.700378,"id":"a6iiaex52i19","address":"201 South Mountain Ave.","state":"OR"},"type":"Feature","geometry":{"type":"Point","coordinates":[-122.700378,42.191231]}},{"properties":{"city":"Albany","latitude":44.623608,"zip":"97321","team name":"Team 957 - West Albany High School","url":"http://www.team957.com/","team type":"FRC","longitude":-123.116905,"id":"a6iiaf1xsmlw","address":"1130 Queen Ave SW","state":"OR"},"type":"Feature","geometry":{"type":"Point","coordinates":[-123.116905,44.623608]}},{"properties":{"city":"Albany","latitude":44.63895,"zip":null,"team name":"Team 1359 - Venture Crew 308","url":"http://www.scalawags.org/","team type":"FRC","longitude":-123.092461,"id":"a6iiaf573w5u","address":null,"state":"OR"},"type":"Feature","geometry":{"type":"Point","coordinates":[-123.092461,44.63895]}}],"is_temporal":false,"author":{"url":"","metadata":"","contact_name":"","contact_address":"","source":"","contact_phone":""},"source":"","pagination":{"sort":null,"start":0,"total":116,"limit":1000000},"state":"complete","tags":"","published":"2014-08-10T16:43:03-04:00","id":94539}