{"type":"FeatureCollection","data_type":"Dataset","url_type":null,"permissions":[{"permissions":{"download":true,"view":true},"group_id":"everyone"}],"classification":null,"title":"Book1","count":29,"stream_id":94568,"contributor":{"url":"http://geocommons.com/users/17813","name":"jpriest"},"data_attributes":null,"calculation_params":null,"icon_link":null,"link":"http://geocommons.com/overlays/94568.json","extent":[-95.597,30.0429,-95.1699,30.847],"geometry_types":["point"],"unique_name":null,"name":"Book1","feature_count":29,"description":"","next_feature":null,"is_raster":false,"short_classification":"Y","stats":{"date":{"max":"2011/02/14 00:00:00 -0500","mean":"2011/02/08 00:49:39 -0500","variance":142624863842.365,"stdev":377657.071749444,"min":"2011/02/01 00:00:00 -0500","median":"2011/02/08 00:00:00 -0500"}},"features":[{"properties":{"city":"Huntsville","date":{"end_time":"2011/02/02 00:00:00 -0500","original":"2/1/2011","granularity":"day","time":"2011/02/01 00:00:00 -0500"},"geo_score":0.521,"description":"On Feb. 1, a University Police Department officer met with a complainant who reported that his cell phone was stolen from his dressing room at the University Theater Center.","id":"a6crkjxo15uj","geo_precision":"street","address":"1800 block of Avenue I","state":"TX"},"type":"Feature","geometry":{"type":"Point","coordinates":[-95.547291,30.722966]}},{"properties":{"city":"Huntsville","date":{"end_time":"2011/02/03 00:00:00 -0500","original":"2/2/2011","granularity":"day","time":"2011/02/02 00:00:00 -0500"},"geo_score":0.8,"description":"On Feb. 2, while conducting a traffice stop, a UPD officer determined that the driver, a resident of Sugar Land, Texas, was intoxicated. The driver was arrested and charged with Driving While Intoxicated.","id":"a6crkk53gdnr","geo_precision":"range","address":"2100 block of Sam Houston Avenue","state":"TX"},"type":"Feature","geometry":{"type":"Point","coordinates":[-95.551239,30.712415]}},{"properties":{"city":"Huntsville","date":{"end_time":"2011/02/03 00:00:00 -0500","original":"2/2/2011","granularity":"day","time":"2011/02/02 00:00:00 -0500"},"geo_score":0.712,"description":"On Feb. 2, an officer was dispatched to the student residence, Bearkat Village, in reference to a single vehicle accident. Upon arrival, the officer observed that a car had traveled over a retaining wall and struck several air conditioning units. A motor vehicle crash report was completed.","id":"a6crkk7l91ib","geo_precision":"range","address":"2400 block of Montgomery Road","state":"TX"},"type":"Feature","geometry":{"type":"Point","coordinates":[-95.500426,30.310758]}},{"properties":{"city":"Huntsville","date":{"end_time":"2011/02/03 00:00:00 -0500","original":"2/2/2011","granularity":"day","time":"2011/02/02 00:00:00 -0500"},"geo_score":0.521,"description":"On Feb. 2, an officer responded to the food court in the Lowman Student Center, the Paw Print, to assist with a medical call.","id":"a6crkk5ysiq3","geo_precision":"street","address":"1800 block of Avenue I","state":"TX"},"type":"Feature","geometry":{"type":"Point","coordinates":[-95.547291,30.722966]}},{"properties":{"city":"Huntsville","date":{"end_time":"2011/02/03 00:00:00 -0500","original":"2/2/2011","granularity":"day","time":"2011/02/02 00:00:00 -0500"},"geo_score":0.8,"description":"On Feb. 2, UPD was dispatched to the Jolly Fox night club in reference to a reported assault. Upon arrival, an officer observed an individual who was arguing with Jolly Fox management. Once the suspect observed the officer, he ran back inside the building. The officer located the suspect, a university student, who was highly intoxicated. He was arrested and charged with Public Intoxication.","id":"a6crkjwdqytt","geo_precision":"range","address":"2500 block of Sam Houston Avenue","state":"TX"},"type":"Feature","geometry":{"type":"Point","coordinates":[-95.55128,30.711967]}},{"properties":{"city":"Huntsville","date":{"end_time":"2011/02/04 00:00:00 -0500","original":"2/3/2011","granularity":"day","time":"2011/02/03 00:00:00 -0500"},"geo_score":0.368,"description":"On Feb. 3, an officer was dispatched Health and Kineseology center where the complainant reported that his cell phone was stolen while left in an unsecured cubby hole near the basketball courts.","id":"a6crkk14vorq","geo_precision":"street","address":"800 block of Bowers Boulevard","state":"TX"},"type":"Feature","geometry":{"type":"Point","coordinates":[-95.53844,30.7127]}},{"properties":{"city":"Huntsville","date":{"end_time":"2011/02/05 00:00:00 -0500","original":"2/4/2011","granularity":"day","time":"2011/02/04 00:00:00 -0500"},"geo_score":0.521,"description":"On Feb. 4, an officer was dispatched to the Zeta Tau Alpha House, in reference to a dispute. Upon arrival, the officer met with Residence Life staff and ZTA residents in reference to a complaint about Residence Life policies in regard to males in the residence hall area. Information was obtained and will be forwarded to Residence Life.","id":"a6crkk68aq3g","geo_precision":"street","address":"1600 block of Avenue J","state":"TX"},"type":"Feature","geometry":{"type":"Point","coordinates":[-95.548778,30.723786]}},{"properties":{"city":"Huntsville","date":{"end_time":"2011/02/05 00:00:00 -0500","original":"2/4/2011","granularity":"day","time":"2011/02/04 00:00:00 -0500"},"geo_score":0.663,"description":"On Feb. 4, officers helped the Huntsville Police Department with a combative man. The man was taken into custody by HPD and charged with resisting arrest and public intoxication.","id":"a6crkk8r8hdv","geo_precision":"range","address":"1300 block of 11th Street","state":"TX"},"type":"Feature","geometry":{"type":"Point","coordinates":[-95.552887,30.723792]}},{"properties":{"city":"Huntsville","date":{"end_time":"2011/02/05 00:00:00 -0500","original":"2/4/2011","granularity":"day","time":"2011/02/04 00:00:00 -0500"},"geo_score":0.464,"description":"On Feb. 4, an officer observed a vehicle strike another legally parked vehicle. The officer, while out of the patrol car, shined his flashlight at the driver and instructed him to stay on the scene. The driver, while looking at the officer, rolled up his window and fled the scene. The officer then engaged in a pursuit of the suspect vehicle. The driver was identified as a university student. The driver was arrested and charged with disregarding a stop sign and duty upon striking a parked vehicle.","id":"a6crkjvkvqlb","geo_precision":"street","address":"1200 block of Josey Street","state":"TX"},"type":"Feature","geometry":{"type":"Point","coordinates":[-95.438159,30.042865]}},{"properties":{"city":"Huntsville","date":{"end_time":"2011/02/07 00:00:00 -0500","original":"2/6/2011","granularity":"day","time":"2011/02/06 00:00:00 -0500"},"geo_score":0.521,"description":"On Feb. 6, an officer was dispatched to the Barrett House in reference to a welfare concern report. Upon arrival, officers met with the Residence Life staff and the student in question. The student was then transported by ambulance to Huntsville Memorial Hospital for further treatment.","id":"a6crkk9efnrv","geo_precision":"street","address":"2000 block of Avenue J","state":"TX"},"type":"Feature","geometry":{"type":"Point","coordinates":[-95.548778,30.723786]}},{"properties":{"city":"Huntsville","date":{"end_time":"2011/02/07 00:00:00 -0500","original":"2/6/2011","granularity":"day","time":"2011/02/06 00:00:00 -0500"},"geo_score":0.521,"description":"On Feb. 6, an officer was dispatched to Raven Village in reference to a reported alcohol violation. Upon arrival, officer determined that four minors were in possession of alcohol (one female student, two female non-students and one male non-student.) All four individuals were cited for the offense of Minor in Possession of Alcohol and released.","id":"a6crkk70gnh5","geo_precision":"street","address":"2100 block of Avenue I","state":"TX"},"type":"Feature","geometry":{"type":"Point","coordinates":[-95.547291,30.722966]}},{"properties":{"city":"Huntsville","date":{"end_time":"2011/02/08 00:00:00 -0500","original":"2/7/2011","granularity":"day","time":"2011/02/07 00:00:00 -0500"},"geo_score":0.368,"description":"On Feb. 7, an officer was dispatched to Bowers Boulevard where the complainant stated he backed a university vehicle in a metal light pole.","id":"a6crkk5n1yra","geo_precision":"street","address":"1000 block of Bowers Boulevard","state":"TX"},"type":"Feature","geometry":{"type":"Point","coordinates":[-95.53844,30.7127]}},{"properties":{"city":"Huntsville","date":{"end_time":"2011/02/09 00:00:00 -0500","original":"2/8/2011","granularity":"day","time":"2011/02/08 00:00:00 -0500"},"geo_score":0.521,"description":"On Feb. 8, the Raven Village Residence Life staff reproted a damaged residence to UPD. Upon inspection, an officer noted damage to the door and walls in the room. The occupants of the room were interviewed, and an incident report was completed and fowarded to both Residence Life and the Dean of Students' Office.","id":"a6crkjujv0dl","geo_precision":"street","address":"2100 block of Avenue I","state":"TX"},"type":"Feature","geometry":{"type":"Point","coordinates":[-95.547291,30.722966]}},{"properties":{"city":"Huntsville","date":{"end_time":"2011/02/09 00:00:00 -0500","original":"2/8/2011","granularity":"day","time":"2011/02/08 00:00:00 -0500"},"geo_score":0.484,"description":"On Feb. 8, a complainant at the University Hotel reported to UPD that their vehicle was damaged while legally parked in the parking area. A second vehicle was identified, and the owners exchanged information.","id":"a6crkk0uszb9","geo_precision":"street","address":"1600 block of Marks Drive","state":"TX"},"type":"Feature","geometry":{"type":"Point","coordinates":[-95.438159,30.042865]}},{"properties":{"city":"Huntsville","date":{"end_time":"2011/02/09 00:00:00 -0500","original":"2/8/2011","granularity":"day","time":"2011/02/08 00:00:00 -0500"},"geo_score":0.521,"description":"On Feb. 8, a complainant reported that their vehicle was damaged while legally parked in the university parking area. Upon inspection, a UPD officer found that the vehicle had been \"keyed\" on the passanger side.","id":"a6crkjv5j599","geo_precision":"street","address":"2000 block of Avenue I","state":"TX"},"type":"Feature","geometry":{"type":"Point","coordinates":[-95.547291,30.722966]}},{"properties":{"city":"Huntsville","date":{"end_time":"2011/02/10 00:00:00 -0500","original":"2/9/2011","granularity":"day","time":"2011/02/09 00:00:00 -0500"},"geo_score":0.368,"description":"On Feb. 9, officer met with a complaintant who reported that while driving her vehicle in a university parking lot, she was struck by another vehicle. This vehicle drove off without providing any information. The victim was able to provide a suspect description and a license plate number of the suspect vehicle. An investigation continues.","id":"a6crkjx257rz","geo_precision":"street","address":"1000 block of Bowers Boulevard","state":"TX"},"type":"Feature","geometry":{"type":"Point","coordinates":[-95.53844,30.7127]}},{"properties":{"city":"Huntsville","date":{"end_time":"2011/02/10 00:00:00 -0500","original":"2/9/2011","granularity":"day","time":"2011/02/09 00:00:00 -0500"},"geo_score":0.521,"description":"On Feb. 9, the University Book Store staff reported that a male stole a textbook from the store and fled. During the investigation, the male was identified as a university student. An investigation continues.","id":"a6crkkae0pbn","geo_precision":"street","address":"1800 block of Avenue I","state":"TX"},"type":"Feature","geometry":{"type":"Point","coordinates":[-95.547291,30.722966]}},{"properties":{"city":"Huntsville","date":{"end_time":"2011/02/10 00:00:00 -0500","original":"2/9/2011","granularity":"day","time":"2011/02/09 00:00:00 -0500"},"geo_score":0.857,"description":"On Feb. 9, a student reported to UPD that a former member of his organization was removing approved organizational fliers from different campus locations. An incident report was completed and sent to the Dean of Students' office for review.","id":"a6crkjve0y9h","geo_precision":"city","address":null,"state":"TX"},"type":"Feature","geometry":{"type":"Point","coordinates":[-95.597029,30.846986]}},{"properties":{"city":"Huntsville","date":{"end_time":"2011/02/12 00:00:00 -0500","original":"2/11/2011","granularity":"day","time":"2011/02/11 00:00:00 -0500"},"geo_score":0.857,"description":"On Feb. 11, UPD was dispatched to the Bearkat Village residence hall in reference to a missing student. A complainant reported that the male student was missing and there were suspicious circumstances surrounding the incident. The missing student in question was located a short time later, and information about this incident will be forwarded to the Dean of Students' Office for review.","id":"a6crkk2ysc84","geo_precision":"city","address":null,"state":"TX"},"type":"Feature","geometry":{"type":"Point","coordinates":[-95.597029,30.846986]}},{"properties":{"city":"Huntsville","date":{"end_time":"2011/02/12 00:00:00 -0500","original":"2/11/2011","granularity":"day","time":"2011/02/11 00:00:00 -0500"},"geo_score":0.857,"description":"On Feb. 11, a complaintant reported her iPhone was stolen from a classroom in Academic Building I. An investigation continues.","id":"a6crkk3q45k7","geo_precision":"city","address":null,"state":"TX"},"type":"Feature","geometry":{"type":"Point","coordinates":[-95.597029,30.846986]}},{"properties":{"city":"Huntsville","date":{"end_time":"2011/02/12 00:00:00 -0500","original":"2/11/2011","granularity":"day","time":"2011/02/11 00:00:00 -0500"},"geo_score":0.8,"description":"On Feb. 11, an officer conducted a pedestrian stop and identified a male Huntsville resident who was highly intoxicated. The man was arrested and charged with Public Intoxication. While at walker County Jail, the male was found in possession of contraband. The male was susequently charged with Possession of Child Pornography.","id":"a6crkkavykw5","geo_precision":"range","address":"1800 block of Sam Houston Avenue","state":"TX"},"type":"Feature","geometry":{"type":"Point","coordinates":[-95.551394,30.715307]}},{"properties":{"city":"Huntsville","date":{"end_time":"2011/02/12 00:00:00 -0500","original":"2/11/2011","granularity":"day","time":"2011/02/11 00:00:00 -0500"},"geo_score":0.605,"description":"On Feb. 11, while conducting a traffic stop, an officer determined that a university student driver was in possession of contraband. The driver was arrested and charged with Possession of Marijuana and Possession of Drug Paraphernalia.","id":"a6crkk2lykza","geo_precision":"street","address":"1500 block of University Avenue","state":"TX"},"type":"Feature","geometry":{"type":"Point","coordinates":[-95.550457,30.723796]}},{"properties":{"city":"Huntsville","date":{"end_time":"2011/02/13 00:00:00 -0500","original":"2/12/2011","granularity":"day","time":"2011/02/12 00:00:00 -0500"},"geo_score":0.8,"description":"On Feb. 12, while conducting a traffic stop, an officer found a male resident of Magnolia, Texas, was intoxicated. The driver was arrested and charged with Driving While Intoxicated and Driving While License Suspended. A female passanger was also arrested and charged with Public Intoxication.","id":"a6crkjwati0v","geo_precision":"range","address":"2100 block of Sam Houston Avenue","state":"TX"},"type":"Feature","geometry":{"type":"Point","coordinates":[-95.551239,30.712415]}},{"properties":{"city":"Huntsville","date":{"end_time":"2011/02/14 00:00:00 -0500","original":"2/13/2011","granularity":"day","time":"2011/02/13 00:00:00 -0500"},"geo_score":0.857,"description":"On Feb. 13, a UPD officer stopped a suspicious male in the museum grounds. The officer found the Huntsville male's behaviour to be disruptive, and he was issued a criminal trespass warning for SHSU property.","id":"a6crkk9iiwte","geo_precision":"city","address":null,"state":"TX"},"type":"Feature","geometry":{"type":"Point","coordinates":[-95.597029,30.846986]}},{"properties":{"city":"Huntsville","date":{"end_time":"2011/02/15 00:00:00 -0500","original":"2/14/2011","granularity":"day","time":"2011/02/14 00:00:00 -0500"},"geo_score":0.857,"description":"On Feb. 14, officer met with a student complaintant who reported that she was assualted by a faculty member. An investigation continues.","id":"a6crkk4b9ar9","geo_precision":"city","address":null,"state":"TX"},"type":"Feature","geometry":{"type":"Point","coordinates":[-95.597029,30.846986]}},{"properties":{"city":"Huntsville","date":{"end_time":"2011/02/15 00:00:00 -0500","original":"2/14/2011","granularity":"day","time":"2011/02/14 00:00:00 -0500"},"geo_score":0.477,"description":"On Feb. 14, an officer investigated a traffice accident involving a university owned vehicle.","id":"a6crkjvaxvum","geo_precision":"street","address":"800 block of 17th Street","state":"TX"},"type":"Feature","geometry":{"type":"Point","coordinates":[-95.169856,30.190647]}},{"properties":{"city":"Huntsville","date":{"end_time":"2011/02/15 00:00:00 -0500","original":"2/14/2011","granularity":"day","time":"2011/02/14 00:00:00 -0500"},"geo_score":0.857,"description":"On Feb. 14, a university staff member reported fraudulent transactions on a department credit card used for purchasing.","id":"a6crkka1p6vq","geo_precision":"city","address":null,"state":"TX"},"type":"Feature","geometry":{"type":"Point","coordinates":[-95.597029,30.846986]}},{"properties":{"city":"Huntsville","date":{"end_time":"2011/02/15 00:00:00 -0500","original":"2/14/2011","granularity":"day","time":"2011/02/14 00:00:00 -0500"},"geo_score":0.8,"description":"On Feb. 14, while conducting a traffic stop in the 2100 block of Sam Houston Avenue, an officer determined that the driver, a male resident of Huntsville, Texas, was intoxicated. The driver was arrested and charged with Driving While Intoxicated.","id":"a6crkk3hq5n1","geo_precision":"range","address":"2100 block of Sam Houston Avenue","state":"TX"},"type":"Feature","geometry":{"type":"Point","coordinates":[-95.551239,30.712415]}},{"properties":{"city":"Huntsville","date":{"end_time":"2011/02/15 00:00:00 -0500","original":"2/14/2011","granularity":"day","time":"2011/02/14 00:00:00 -0500"},"geo_score":0.857,"description":"On Feb. 14, an officer was dispatched to the Crawford House in reference to a suspicious odor. Upon arrival, officer determined that the two male students who resided in the residence were in possession of contraband. One of the male students was arrested and charged with Possession of Drug Paraphernalia and Minor in Possession of Alcohol.  The other male student was arrested and charged with Possession of Marijuana and Possession of Drug Paraphernalia.","id":"a6crkk3no8cr","geo_precision":"city","address":null,"state":"TX"},"type":"Feature","geometry":{"type":"Point","coordinates":[-95.597029,30.846986]}}],"is_temporal":true,"author":{"url":"","metadata":"","contact_name":"","contact_address":"","source":"","contact_phone":""},"source":"","pagination":{"sort":null,"start":0,"total":29,"limit":1000000},"state":"complete","tags":"","published":"2014-08-10T16:44:19-04:00","id":94568}