{"type":"FeatureCollection","data_type":"Dataset","url_type":null,"permissions":[{"permissions":{"download":true,"view":true},"group_id":"everyone"}],"classification":null,"title":"publiclibraries.com, Oklahoma Public Libraries, Oklahoma, 1.2008","count":206,"stream_id":946,"contributor":{"url":"http://geocommons.com/users/2","name":"data"},"data_attributes":null,"calculation_params":null,"icon_link":null,"link":"http://geocommons.com/overlays/946.json","extent":[-102.512,33.8953,-94.4352,36.882],"geometry_types":["point"],"unique_name":null,"name":"publiclibraries.com, Oklahoma Public Libraries, Oklahoma, 1.2008","feature_count":206,"description":"This dataset displays the locations of all the public libraries in the state of Oklahoma. The data included is the name of the library, name of the library system, library's address, phone, and lat/lon coordinates. The data came from publiclibraries.com which is a updated directory of all the public libraries throughout the United States.\n","next_feature":null,"is_raster":false,"short_classification":"Y","stats":{"lon":{"max":-94.435199,"mean":-96.9298378592233,"variance":2.07661916286972,"stdev":1.44104793912962,"min":-102.512349,"median":-96.880904},"phone":{"max":9189682567,"mean":6368299292.88835,"variance":5.79789041848255e+18,"stdev":2407880897.90225,"min":4052226075,"median":5803265591},"lat":{"max":36.882005,"mean":35.5889461553398,"variance":0.565751831935722,"stdev":0.752164763822211,"min":33.895266,"median":35.565569}},"features":[{"properties":{"city":"Ada","lon":-96.676882,"zip":"","librarysystem":"Ada Public Library","phone":4054368124,"id":"a6641pbribiw","address":"124 S. Rennie","lat":34.774211,"libraryname":"Ada Public Library","state":"OK"},"type":"Feature","geometry":{"type":"Point","coordinates":[-96.676882,34.774211]}},{"properties":{"city":"Mt View","lon":-98.747801,"zip":"","librarysystem":"Addie Davis Memorial Library","phone":4053472397,"id":"a6641p40nkpp","address":"301 N. 4th","lat":35.101893,"libraryname":"Addie Davis Memorial Library","state":"OK"},"type":"Feature","geometry":{"type":"Point","coordinates":[-98.747801,35.101893]}},{"properties":{"city":"Allen","lon":-96.417459,"zip":"","librarysystem":"Allen Public Library","phone":4058572933,"id":"a6641pbl9bwt","address":"207 S. Commerce St","lat":34.878326,"libraryname":"Allen Public Library","state":"OK"},"type":"Feature","geometry":{"type":"Point","coordinates":[-96.417459,34.878326]}},{"properties":{"city":"Altus","lon":-99.335405,"zip":"","librarysystem":"Southern Prairie Library System","phone":5804772890,"id":"a6641pf8vv5i","address":"421 N. Hudson","lat":34.641414,"libraryname":"Altus Public Library","state":"OK"},"type":"Feature","geometry":{"type":"Point","coordinates":[-99.335405,34.641414]}},{"properties":{"city":"Alva","lon":-98.668354,"zip":"","librarysystem":"Alva Public Library","phone":4053271833,"id":"a6641p7yamvw","address":"504 Seventh Street","lat":36.803619,"libraryname":"Alva Public Library","state":"OK"},"type":"Feature","geometry":{"type":"Point","coordinates":[-98.668354,36.803619]}},{"properties":{"city":"Anadarko","lon":-98.243704,"zip":"","librarysystem":"Anadarko Community Library","phone":4052477351,"id":"a6641p1gfn7x","address":"215 W Bdwy","lat":35.073165,"libraryname":"Anadarko Community Library","state":"OK"},"type":"Feature","geometry":{"type":"Point","coordinates":[-98.243704,35.073165]}},{"properties":{"city":"Antlers","lon":-95.620619,"zip":"","librarysystem":"Antlers Public Library","phone":4052985649,"id":"a6641p7fbb6l","address":"202 S High","lat":34.23072,"libraryname":"Antlers Public Library","state":"OK"},"type":"Feature","geometry":{"type":"Point","coordinates":[-95.620619,34.23072]}},{"properties":{"city":"Apache","lon":-98.362079,"zip":"","librarysystem":"Apache Public Library","phone":5805883661,"id":"a6641pf6o5rj","address":"102 W. Evans","lat":34.89401,"libraryname":"Apache Public Library","state":"OK"},"type":"Feature","geometry":{"type":"Point","coordinates":[-98.362079,34.89401]}},{"properties":{"city":"Ardmore","lon":-97.13322,"zip":"","librarysystem":"Ardmore Public Library","phone":5802238290,"id":"a6641pcm2p72","address":"320 'E' Street NW","lat":34.177473,"libraryname":"Ardmore Public Library","state":"OK"},"type":"Feature","geometry":{"type":"Point","coordinates":[-97.13322,34.177473]}},{"properties":{"city":"Arkoma","lon":-94.435199,"zip":"","librarysystem":"Southeastern Public Library System","phone":9188753971,"id":"a6641pf4yx37","address":"1000 Main","lat":35.35438,"libraryname":"Arkoma Public Library","state":"OK"},"type":"Feature","geometry":{"type":"Point","coordinates":[-94.435199,35.35438]}},{"properties":{"city":"Atoka","lon":-96.126257,"zip":"","librarysystem":"Chickasaw Regional Library System","phone":5808893555,"id":"a6641p6jgfp1","address":"215 East A Street","lat":34.387023,"libraryname":"Atoka County Library","state":"OK"},"type":"Feature","geometry":{"type":"Point","coordinates":[-96.126257,34.387023]}},{"properties":{"city":"Barnsdall","lon":-96.161839,"zip":"","librarysystem":"Barnsdall - Ethel Briggs Memorial Library","phone":9188472118,"id":"a6641p3xz6l0","address":"410 S Fifth","lat":36.557744,"libraryname":"Barnsdall - Ethel Briggs Memorial Library","state":"OK"},"type":"Feature","geometry":{"type":"Point","coordinates":[-96.161839,36.557744]}},{"properties":{"city":"Bartlesville","lon":-95.97803,"zip":"","librarysystem":"Bartlesville Public Library","phone":9183375353,"id":"a6641p4ylpsz","address":"600 S Johnstone","lat":36.74762,"libraryname":"Bartlesville Public Library","state":"OK"},"type":"Feature","geometry":{"type":"Point","coordinates":[-95.97803,36.74762]}},{"properties":{"city":"Beaver","lon":-100.519619,"zip":"","librarysystem":"Beaver County Pioneer Library","phone":4056253076,"id":"a6641paq5viq","address":"2nd &amp; Douglas","lat":36.81619,"libraryname":"Beaver County Pioneer Library","state":"OK"},"type":"Feature","geometry":{"type":"Point","coordinates":[-100.519619,36.81619]}},{"properties":{"city":"Oklahoma City","lon":-97.55661,"zip":"","librarysystem":"Metropolitan Library System","phone":4058439601,"id":"a6641p2iij43","address":"5501 N. Villa","lat":35.525486,"libraryname":"Belle Isle Library","state":"OK"},"type":"Feature","geometry":{"type":"Point","coordinates":[-97.55661,35.525486]}},{"properties":{"city":"Bethany","lon":-97.632049,"zip":"","librarysystem":"Metropolitan Library System","phone":4057898363,"id":"a6641ozzdwnk","address":"3510 N Mueller","lat":35.506417,"libraryname":"Bethany Public Library","state":"OK"},"type":"Feature","geometry":{"type":"Point","coordinates":[-97.632049,35.506417]}},{"properties":{"city":"Bixby","lon":-95.882934,"zip":"","librarysystem":"Tulsa City-County Library System","phone":9183663397,"id":"a6641p2yosvm","address":"20 E Breckenridge","lat":35.941294,"libraryname":"Bixby Public Library","state":"OK"},"type":"Feature","geometry":{"type":"Point","coordinates":[-95.882934,35.941294]}},{"properties":{"city":"Blackwell","lon":-97.283358,"zip":"","librarysystem":"Blackwell Public Library","phone":4053631809,"id":"a6641p2tqyrl","address":"123 West Padon","lat":36.802122,"libraryname":"Blackwell Public Library","state":"OK"},"type":"Feature","geometry":{"type":"Point","coordinates":[-97.283358,36.802122]}},{"properties":{"city":"Blanchard","lon":-97.658197,"zip":"","librarysystem":"Pioneer Library System","phone":4054852275,"id":"a6641pg3mso9","address":"300 N Main","lat":35.139007,"libraryname":"Blanchard Public Library","state":"OK"},"type":"Feature","geometry":{"type":"Point","coordinates":[-97.658197,35.139007]}},{"properties":{"city":"Oklahoma City","lon":-97.487553,"zip":"","librarysystem":"Metropolitan Library System","phone":4052359223,"id":"a6641p1dkgox","address":"1364 N E 3rd","lat":35.470285,"libraryname":"Book Centers","state":"OK"},"type":"Feature","geometry":{"type":"Point","coordinates":[-97.487553,35.470285]}},{"properties":{"city":"Bristow","lon":-96.391198,"zip":"","librarysystem":"Montfort &amp; Allie Jones Memorial Library","phone":9183676562,"id":"a6641p3nrchd","address":"420 N. Main","lat":35.836059,"libraryname":"Bristow Public Library","state":"OK"},"type":"Feature","geometry":{"type":"Point","coordinates":[-96.391198,35.836059]}},{"properties":{"city":"Broken Arrow","lon":-95.793421,"zip":"","librarysystem":"Tulsa City-County Library System","phone":9182515359,"id":"a6641p95f5j1","address":"300 W Broadway","lat":36.052497,"libraryname":"Broken Arrow Library","state":"OK"},"type":"Feature","geometry":{"type":"Point","coordinates":[-95.793421,36.052497]}},{"properties":{"city":"Broken Bow","lon":-94.738172,"zip":"","librarysystem":"Southeastern Public Library System","phone":5805842815,"id":"a6641ozpqg4x","address":"404 N. Broadway","lat":34.030517,"libraryname":"Broken Bow Public Library","state":"OK"},"type":"Feature","geometry":{"type":"Point","coordinates":[-94.738172,34.030517]}},{"properties":{"city":"Tulsa","lon":-95.976832,"zip":"","librarysystem":"Tulsa City-County Library System","phone":9187465012,"id":"a6641p28q84u","address":"1207 E 45th Place","lat":36.098492,"libraryname":"Brookside Public Library","state":"OK"},"type":"Feature","geometry":{"type":"Point","coordinates":[-95.976832,36.098492]}},{"properties":{"city":"Poteau","lon":-94.619919,"zip":"","librarysystem":"Southeastern Public Library System","phone":9186473833,"id":"a6641pfoz0e4","address":"408 Dewey","lat":35.050674,"libraryname":"Buckley Public Library","state":"OK"},"type":"Feature","geometry":{"type":"Point","coordinates":[-94.619919,35.050674]}},{"properties":{"city":"Buffalo","lon":-99.628399,"zip":"","librarysystem":"Buffalo Public Library","phone":4057352995,"id":"a6641p0l6ovg","address":"11 E Turner","lat":36.83539,"libraryname":"Buffalo Public Library","state":"OK"},"type":"Feature","geometry":{"type":"Point","coordinates":[-99.628399,36.83539]}},{"properties":{"city":"Oklahoma City","lon":-97.518788,"zip":"","librarysystem":"Metropolitan Library System","phone":4056346308,"id":"a6641p4iua15","address":"334 S W 26","lat":35.438189,"libraryname":"Capitol Hill Branch Library","state":"OK"},"type":"Feature","geometry":{"type":"Point","coordinates":[-97.518788,35.438189]}},{"properties":{"city":"Carmen","lon":-98.459849,"zip":"","librarysystem":"Carmen Public Library","phone":4059872301,"id":"a6641pcbv97v","address":"5th &amp; Main Street","lat":36.57895,"libraryname":"Carmen Public Library","state":"OK"},"type":"Feature","geometry":{"type":"Point","coordinates":[-98.459849,36.57895]}},{"properties":{"city":"Carnegie","lon":-98.603334,"zip":"","librarysystem":"Carnegie Public Library","phone":4056541980,"id":"a6641p3l28lc","address":"Carnegie Mem Bldg","lat":35.105265,"libraryname":"Carnegie Public Library","state":"OK"},"type":"Feature","geometry":{"type":"Point","coordinates":[-98.603334,35.105265]}},{"properties":{"city":"Catoosa","lon":-95.748138,"zip":"","librarysystem":"Catoosa Public Library","phone":9182661684,"id":"a6641p55q8ki","address":"517 S. Cherokee","lat":36.183491,"libraryname":"Catoosa Public Library","state":"OK"},"type":"Feature","geometry":{"type":"Point","coordinates":[-95.748138,36.183491]}},{"properties":{"city":"Tulsa","lon":-95.994155,"zip":"","librarysystem":"Tulsa City-County Library System","phone":9185967977,"id":"a6641p2on9ic","address":"400 Civic Center","lat":36.149896,"libraryname":"Central Library","state":"OK"},"type":"Feature","geometry":{"type":"Point","coordinates":[-95.994155,36.149896]}},{"properties":{"city":"Chandler","lon":-96.880904,"zip":"","librarysystem":"Chandler Public Library","phone":4052583204,"id":"a6641p3rx97s","address":"1021 S Manvel","lat":35.700281,"libraryname":"Chandler Public Library","state":"OK"},"type":"Feature","geometry":{"type":"Point","coordinates":[-96.880904,35.700281]}},{"properties":{"city":"Sand Springs","lon":-96.100799,"zip":"","librarysystem":"Tulsa City-County Library System","phone":9185914585,"id":"a6641p0qotpc","address":"551 E 4th St","lat":36.14093,"libraryname":"Charles Page Library","state":"OK"},"type":"Feature","geometry":{"type":"Point","coordinates":[-96.100799,36.14093]}},{"properties":{"city":"Checotah","lon":-95.526964,"zip":"","librarysystem":"Eastern Oklahoma District Library System","phone":9184736715,"id":"a6641pdvdnhi","address":"626 W Gentry","lat":35.470894,"libraryname":"Checotah - Jim Lucas Checotah Public Library","state":"OK"},"type":"Feature","geometry":{"type":"Point","coordinates":[-95.526964,35.470894]}},{"properties":{"city":"Chelsea","lon":-95.431685,"zip":"","librarysystem":"Chelsea Public Library","phone":9187893364,"id":"a6641pb4zekj","address":"618 Pine","lat":36.535873,"libraryname":"Chelsea Public Library","state":"OK"},"type":"Feature","geometry":{"type":"Point","coordinates":[-95.431685,36.535873]}},{"properties":{"city":"Cherokee","lon":-98.356876,"zip":"","librarysystem":"Cherokee City- County Library","phone":4055962366,"id":"a6641p68o4br","address":"602 South Grand","lat":36.752539,"libraryname":"Cherokee - City County Library","state":"OK"},"type":"Feature","geometry":{"type":"Point","coordinates":[-98.356876,36.752539]}},{"properties":{"city":"Cheyenne","lon":-99.672489,"zip":"","librarysystem":"Western Plains Library System","phone":5804973777,"id":"a6641pcpbpnh","address":"200 S. Don Cearlock","lat":35.613945,"libraryname":"Cheyenne - Minnie R Slief Memorial Library","state":"OK"},"type":"Feature","geometry":{"type":"Point","coordinates":[-99.672489,35.613945]}},{"properties":{"city":"Ardmore","lon":-97.163719,"zip":"","librarysystem":"Chickasaw Regional Library System","phone":5802233164,"id":"a6641p1sz7um","address":"601 Railway Express","lat":34.170564,"libraryname":"Chickasaw Regional Library System","state":"OK"},"type":"Feature","geometry":{"type":"Point","coordinates":[-97.163719,34.170564]}},{"properties":{"city":"Chickasha","lon":-97.938768,"zip":"","librarysystem":"Chickasha Public Library","phone":4052226075,"id":"a6641p1c5z1v","address":"527 Iowa Avenue","lat":35.047442,"libraryname":"Chickasha Public Library","state":"OK"},"type":"Feature","geometry":{"type":"Point","coordinates":[-97.938768,35.047442]}},{"properties":{"city":"Choctaw","lon":-97.270984,"zip":"","librarysystem":"Metropolitan Library System","phone":4053908418,"id":"a6641pdvklcs","address":"2525 North Muzzy, P.O. Box 549","lat":35.493865,"libraryname":"Choctaw Library","state":"OK"},"type":"Feature","geometry":{"type":"Point","coordinates":[-97.270984,35.493865]}},{"properties":{"city":"Claremore","lon":-95.603844,"zip":"","librarysystem":"Claremore - Will Rogers Library","phone":9183411564,"id":"a6641pa1djd6","address":"1515 No Florence Ave","lat":36.323856,"libraryname":"Claremore - Will Rogers Library","state":"OK"},"type":"Feature","geometry":{"type":"Point","coordinates":[-95.603844,36.323856]}},{"properties":{"city":"Cleveland","lon":-96.464186,"zip":"","librarysystem":"Cleveland - Jay C Byers Memorial Library","phone":9183582676,"id":"a6641p90fwry","address":"111 W Delaware","lat":36.309133,"libraryname":"Cleveland Public Library","state":"OK"},"type":"Feature","geometry":{"type":"Point","coordinates":[-96.464186,36.309133]}},{"properties":{"city":"Clinton","lon":-98.968723,"zip":"","librarysystem":"Western Plains Library System","phone":5803232165,"id":"a6641p7fc23g","address":"721 Frisco","lat":35.514565,"libraryname":"Clinton Public Library","state":"OK"},"type":"Feature","geometry":{"type":"Point","coordinates":[-98.968723,35.514565]}},{"properties":{"city":"Coalgate","lon":-96.219038,"zip":"","librarysystem":"Southeastern Public Library System","phone":5809273103,"id":"a6641p8ndb8l","address":"115 W. Ohio","lat":34.539469,"libraryname":"Coal County Public Library","state":"OK"},"type":"Feature","geometry":{"type":"Point","coordinates":[-96.219038,34.539469]}},{"properties":{"city":"Collinsville","lon":-95.839507,"zip":"","librarysystem":"Tulsa City-County Library System","phone":9185962840,"id":"a6641p6u60br","address":"1223 Main","lat":36.364388,"libraryname":"Collinsville Library","state":"OK"},"type":"Feature","geometry":{"type":"Point","coordinates":[-95.839507,36.364388]}},{"properties":{"city":"Cordell","lon":-98.990354,"zip":"","librarysystem":"Western Plains Library System","phone":5808323530,"id":"a6641p1ur7ye","address":"208 S College","lat":35.290019,"libraryname":"Cordell Public Library","state":"OK"},"type":"Feature","geometry":{"type":"Point","coordinates":[-98.990354,35.290019]}},{"properties":{"city":"Coweta","lon":-95.650398,"zip":"","librarysystem":"Coweta Public Library","phone":9184866532,"id":"a6641p6dz3c1","address":"101 East Sycamore","lat":35.95104,"libraryname":"Coweta Public Library","state":"OK"},"type":"Feature","geometry":{"type":"Point","coordinates":[-95.650398,35.95104]}},{"properties":{"city":"Crescent","lon":-97.595622,"zip":"","librarysystem":"Crescent Community Library","phone":4059693779,"id":"a6641peb879l","address":"205 N. Grand","lat":35.953712,"libraryname":"Crescent Community Library","state":"OK"},"type":"Feature","geometry":{"type":"Point","coordinates":[-97.595622,35.953712]}},{"properties":{"city":"Cushing","lon":-96.768994,"zip":"","librarysystem":"Cushing Public Library","phone":9182254188,"id":"a6641p1zjxh2","address":"215 North Steele","lat":35.981294,"libraryname":"Cushing Public Library","state":"OK"},"type":"Feature","geometry":{"type":"Point","coordinates":[-96.768994,35.981294]}},{"properties":{"city":"Davis","lon":-97.121082,"zip":"","librarysystem":"Chickasaw Regional Library System","phone":5803692468,"id":"a6641pept1ec","address":"209 E Benton","lat":34.505304,"libraryname":"Davis Public Library","state":"OK"},"type":"Feature","geometry":{"type":"Point","coordinates":[-97.121082,34.505304]}},{"properties":{"city":"Del City","lon":-97.436854,"zip":"","librarysystem":"Metropolitan Library System","phone":4056721377,"id":"a6641p9habcr","address":"4509 S E 15","lat":35.449823,"libraryname":"Del City Branch Library","state":"OK"},"type":"Feature","geometry":{"type":"Point","coordinates":[-97.436854,35.449823]}},{"properties":{"city":"Dewey","lon":-95.937034,"zip":"","librarysystem":"Dewey - Tyler Memorial Library","phone":9185342106,"id":"a6641p3rmewc","address":"821 N Shawnee","lat":36.799447,"libraryname":"Dewey - Tyler Memorial Library","state":"OK"},"type":"Feature","geometry":{"type":"Point","coordinates":[-95.937034,36.799447]}},{"properties":{"city":"Oklahoma City","lon":-97.515091,"zip":"","librarysystem":"Metropolitan Library System","phone":4052318650,"id":"a6641pdra085","address":"131 Dean A Mcgee","lat":35.470985,"libraryname":"Downtown Branch Library","state":"OK"},"type":"Feature","geometry":{"type":"Point","coordinates":[-97.515091,35.470985]}},{"properties":{"city":"Drumright","lon":-96.601438,"zip":"","librarysystem":"Drumright Public Library","phone":9183522228,"id":"a6641p341dwg","address":"104 East Broadway","lat":35.988375,"libraryname":"Drumright Public Library","state":"OK"},"type":"Feature","geometry":{"type":"Point","coordinates":[-96.601438,35.988375]}},{"properties":{"city":"Duncan","lon":-97.937492,"zip":"","librarysystem":"Duncan Public Library","phone":4052550636,"id":"a6641pb4ks8l","address":"815 Ash","lat":34.503568,"libraryname":"Duncan Public Library","state":"OK"},"type":"Feature","geometry":{"type":"Point","coordinates":[-97.937492,34.503568]}},{"properties":{"city":"Durant","lon":-96.378256,"zip":"","librarysystem":"Durant - Robert L Williams Public Library","phone":4059243486,"id":"a6641p3w7rft","address":"323 West Beech","lat":33.993411,"libraryname":"Durant - Robert L Williams Public Library","state":"OK"},"type":"Feature","geometry":{"type":"Point","coordinates":[-96.378256,33.993411]}},{"properties":{"city":"Edmond","lon":-97.477962,"zip":"","librarysystem":"Metropolitan Library System","phone":4053419282,"id":"a6641p1j04vv","address":"10 S Boulevard","lat":35.65483,"libraryname":"Edmond Branch Library","state":"OK"},"type":"Feature","geometry":{"type":"Point","coordinates":[-97.477962,35.65483]}},{"properties":{"city":"El Reno","lon":-97.952407,"zip":"","librarysystem":"El Reno Carnegie Library","phone":4052622409,"id":"a6641pcbmw6r","address":"215 E Wade","lat":35.531519,"libraryname":"El Reno Carnegie Library","state":"OK"},"type":"Feature","geometry":{"type":"Point","coordinates":[-97.952407,35.531519]}},{"properties":{"city":"Elk City","lon":-99.406532,"zip":"","librarysystem":"Elk City Carnegie Library","phone":4052250136,"id":"a6641p2049wg","address":"221 West Broadway","lat":35.410845,"libraryname":"Elk City Carnegie Library","state":"OK"},"type":"Feature","geometry":{"type":"Point","coordinates":[-99.406532,35.410845]}},{"properties":{"city":"Eufaula","lon":-95.583873,"zip":"","librarysystem":"Eastern Oklahoma District Library System","phone":9186892291,"id":"a6641p6ae6cy","address":"301 S First St","lat":35.284329,"libraryname":"Eufaula Memorial Library","state":"OK"},"type":"Feature","geometry":{"type":"Point","coordinates":[-95.583873,35.284329]}},{"properties":{"city":"Fairfax","lon":-96.7035,"zip":"","librarysystem":"Fairfax Public Library","phone":9186425535,"id":"a6641ozux98j","address":"158 East Elm","lat":36.573202,"libraryname":"Fairfax Public Library","state":"OK"},"type":"Feature","geometry":{"type":"Point","coordinates":[-96.7035,36.573202]}},{"properties":{"city":"Fairview","lon":-98.47841,"zip":"","librarysystem":"Fairview City Library","phone":4052272190,"id":"a6641pejvab0","address":"115 S.6","lat":36.268813,"libraryname":"Fairview City Library","state":"OK"},"type":"Feature","geometry":{"type":"Point","coordinates":[-98.47841,36.268813]}},{"properties":{"city":"Frederick","lon":-99.015593,"zip":"","librarysystem":"Frederick Public Library","phone":4053353601,"id":"a6641p6qblq2","address":"200 East Grand","lat":34.389534,"libraryname":"Frederick Public Library","state":"OK"},"type":"Feature","geometry":{"type":"Point","coordinates":[-99.015593,34.389534]}},{"properties":{"city":"Ft. Gibson","lon":-95.247796,"zip":"","librarysystem":"Eastern Oklahoma District Library System","phone":9184783587,"id":"a6641p9iraye","address":"200 Hickory","lat":35.801337,"libraryname":"Ft. Gibson - Q.B. Boydstun Library","state":"OK"},"type":"Feature","geometry":{"type":"Point","coordinates":[-95.247796,35.801337]}},{"properties":{"city":"Geary","lon":-98.317249,"zip":"","librarysystem":"Geary Public Library","phone":4058842372,"id":"a6641pfg068d","address":"127 N. Bdwy.","lat":35.63053,"libraryname":"Geary Public Library","state":"OK"},"type":"Feature","geometry":{"type":"Point","coordinates":[-98.317249,35.63053]}},{"properties":{"city":"Tulsa","lon":-95.940202,"zip":"","librarysystem":"Tulsa City-County Library System","phone":9187465222,"id":"a6641pdzc2tw","address":"2901 S Harvard","lat":36.121414,"libraryname":"Genealogy Center","state":"OK"},"type":"Feature","geometry":{"type":"Point","coordinates":[-95.940202,36.121414]}},{"properties":{"city":"Glenpool","lon":-95.99844,"zip":"","librarysystem":"Tulsa City-County Library System","phone":9187465190,"id":"a6641p1eyteg","address":"730 E 141 St","lat":35.958964,"libraryname":"Glenpool Library","state":"OK"},"type":"Feature","geometry":{"type":"Point","coordinates":[-95.99844,35.958964]}},{"properties":{"city":"Grandfield","lon":-98.688435,"zip":"","librarysystem":"Grandfield Public Library","phone":4054795533,"id":"a6641ozs4gtw","address":"101 W 2nd","lat":34.230709,"libraryname":"Grandfield Public Library","state":"OK"},"type":"Feature","geometry":{"type":"Point","coordinates":[-98.688435,34.230709]}},{"properties":{"city":"Grove","lon":-94.77501,"zip":"","librarysystem":"Eastern Oklahoma District Library System","phone":9187862945,"id":"a6641p45qlyi","address":"206 S Elk","lat":36.594294,"libraryname":"Grove Public Library","state":"OK"},"type":"Feature","geometry":{"type":"Point","coordinates":[-94.77501,36.594294]}},{"properties":{"city":"Guthrie","lon":-97.425431,"zip":"","librarysystem":"Guthrie Public Library","phone":4052820050,"id":"a6641ozph19s","address":"201 N Division","lat":35.879165,"libraryname":"Guthrie Public Library","state":"OK"},"type":"Feature","geometry":{"type":"Point","coordinates":[-97.425431,35.879165]}},{"properties":{"city":"Guymon","lon":-101.483069,"zip":"","librarysystem":"Guymon Public Library","phone":4053387330,"id":"a6641p2ce2r0","address":"206 Nw 5th Street","lat":36.68305,"libraryname":"Guymon Public Library","state":"OK"},"type":"Feature","geometry":{"type":"Point","coordinates":[-101.483069,36.68305]}},{"properties":{"city":"Tulsa","lon":-95.884025,"zip":"","librarysystem":"Tulsa City-County Library System","phone":9182507307,"id":"a6641p6hvhou","address":"8316 E 93rd St","lat":36.027649,"libraryname":"Hardesty Regional Library","state":"OK"},"type":"Feature","geometry":{"type":"Point","coordinates":[-95.884025,36.027649]}},{"properties":{"city":"Harrah","lon":-97.162552,"zip":"","librarysystem":"Metropolitan Library System","phone":4054542001,"id":"a6641p8atyug","address":"1971 N Church Ave","lat":35.488376,"libraryname":"Harrah Public Library","state":"OK"},"type":"Feature","geometry":{"type":"Point","coordinates":[-97.162552,35.488376]}},{"properties":{"city":"Hartshorne","lon":-95.56126,"zip":"","librarysystem":"Southeastern Public Library System","phone":9182973471,"id":"a6641pchl3cv","address":"720 Penn Avenue","lat":34.846364,"libraryname":"Hartshorne Public Library","state":"OK"},"type":"Feature","geometry":{"type":"Point","coordinates":[-95.56126,34.846364]}},{"properties":{"city":"Haskell","lon":-95.674919,"zip":"","librarysystem":"Eastern Oklahoma District Library System","phone":9184823614,"id":"a6641pevwmda","address":"116 N Broadway","lat":35.81632,"libraryname":"Haskell - Rieger Memorial Library","state":"OK"},"type":"Feature","geometry":{"type":"Point","coordinates":[-95.674919,35.81632]}},{"properties":{"city":"Healdton","lon":-97.487644,"zip":"","librarysystem":"Chickasaw Regional Library System","phone":5802290590,"id":"a6641p0qci7l","address":"18 South 4th","lat":34.232772,"libraryname":"Healdton Community Library","state":"OK"},"type":"Feature","geometry":{"type":"Point","coordinates":[-97.487644,34.232772]}},{"properties":{"city":"Heavener","lon":-94.600508,"zip":"","librarysystem":"Southeastern Public Library System","phone":9186532870,"id":"a6641p989m70","address":"203 East Ave C","lat":34.889683,"libraryname":"Heavener Public Library","state":"OK"},"type":"Feature","geometry":{"type":"Point","coordinates":[-94.600508,34.889683]}},{"properties":{"city":"Tulsa","lon":-95.919182,"zip":"","librarysystem":"Tulsa City-County Library System","phone":9185962466,"id":"a6641p8y6c6h","address":"5131 E 91st St","lat":36.031988,"libraryname":"Helmerich Library","state":"OK"},"type":"Feature","geometry":{"type":"Point","coordinates":[-95.919182,36.031988]}},{"properties":{"city":"Hennessey","lon":-97.898834,"zip":"","librarysystem":"Hennessey Public Library","phone":4058532073,"id":"a6641p4m3msv","address":"525 S. Main","lat":36.105013,"libraryname":"Hennessey Public Library","state":"OK"},"type":"Feature","geometry":{"type":"Point","coordinates":[-97.898834,36.105013]}},{"properties":{"city":"Henryetta","lon":-95.987356,"zip":"","librarysystem":"Henryetta Public Library","phone":9186527377,"id":"a6641pclverd","address":"518 W. Main","lat":35.439942,"libraryname":"Henryetta Public Library","state":"OK"},"type":"Feature","geometry":{"type":"Point","coordinates":[-95.987356,35.439942]}},{"properties":{"city":"Hinton","lon":-98.358029,"zip":"","librarysystem":"Hinton - Norman Smith Memorial Library","phone":4055426167,"id":"a6641p5r5o2d","address":"115 E Main","lat":35.47144,"libraryname":"Hinton - Norman Smith Memorial Library","state":"OK"},"type":"Feature","geometry":{"type":"Point","coordinates":[-98.358029,35.47144]}},{"properties":{"city":"Hobart","lon":-99.093081,"zip":"","librarysystem":"Hobart Public Library","phone":4057262535,"id":"a6641p9vkmeg","address":"200 S Main","lat":35.026992,"libraryname":"Hobart Public Library","state":"OK"},"type":"Feature","geometry":{"type":"Point","coordinates":[-99.093081,35.026992]}},{"properties":{"city":"Holdenville","lon":-96.397658,"zip":"","librarysystem":"Holdenville - Grace Pickens Public Library","phone":4053793245,"id":"a6641pccm3mi","address":"209 E Ninth","lat":35.083605,"libraryname":"Holdenville Grace Pickens Public Library","state":"OK"},"type":"Feature","geometry":{"type":"Point","coordinates":[-96.397658,35.083605]}},{"properties":{"city":"Hollis","lon":-99.919962,"zip":"","librarysystem":"Southern Prairie Library System","phone":5806882744,"id":"a6641p7a3bjr","address":"201 W. Broadway","lat":34.681674,"libraryname":"Hollis Public Library","state":"OK"},"type":"Feature","geometry":{"type":"Point","coordinates":[-99.919962,34.681674]}},{"properties":{"city":"Hominy","lon":-96.394449,"zip":"","librarysystem":"Hominy Public Library","phone":9188854486,"id":"a6641p5ot105","address":"121 West Main","lat":36.41572,"libraryname":"Hominy Public Library","state":"OK"},"type":"Feature","geometry":{"type":"Point","coordinates":[-96.394449,36.41572]}},{"properties":{"city":"Hooker","lon":-101.214049,"zip":"","librarysystem":"Hooker - Olive Warner Memorial Library","phone":4056522835,"id":"a6641p4cdw4h","address":"111 S Broadway","lat":36.86087,"libraryname":"Hooker Olive Warner Memorial Library","state":"OK"},"type":"Feature","geometry":{"type":"Point","coordinates":[-101.214049,36.86087]}},{"properties":{"city":"Hugo","lon":-95.511413,"zip":"","librarysystem":"Southeastern Public Library System","phone":5803265591,"id":"a6641p2o54mv","address":"208 E Jefferson","lat":34.008637,"libraryname":"Hugo - Choctaw County Public Library","state":"OK"},"type":"Feature","geometry":{"type":"Point","coordinates":[-95.511413,34.008637]}},{"properties":{"city":"Hulbert","lon":-95.143605,"zip":"","librarysystem":"Eastern Oklahoma District Library System","phone":9187723383,"id":"a6641pflp6vr","address":"118 E Main St","lat":35.932584,"libraryname":"Hulbert Community Library","state":"OK"},"type":"Feature","geometry":{"type":"Point","coordinates":[-95.143605,35.932584]}},{"properties":{"city":"Idabel","lon":-94.824056,"zip":"","librarysystem":"Southeastern Public Library System","phone":5802866406,"id":"a6641p5xy2lz","address":"2 S E Ave D","lat":33.895266,"libraryname":"Idabel Public Library","state":"OK"},"type":"Feature","geometry":{"type":"Point","coordinates":[-94.824056,33.895266]}},{"properties":{"city":"Inola","lon":-95.510339,"zip":"","librarysystem":"Inola Public Library","phone":9185438862,"id":"a6641p2bh9b7","address":"1st &amp; Broadway","lat":36.15241,"libraryname":"Inola Public Library","state":"OK"},"type":"Feature","geometry":{"type":"Point","coordinates":[-95.510339,36.15241]}},{"properties":{"city":"Jay","lon":-94.803011,"zip":"","librarysystem":"Eastern Oklahoma District Library System","phone":9182538521,"id":"a6641pe6sx9i","address":"429 So. 9th","lat":36.419301,"libraryname":"Jay - Delaware County Library","state":"OK"},"type":"Feature","geometry":{"type":"Point","coordinates":[-94.803011,36.419301]}},{"properties":{"city":"Jenks","lon":-95.974858,"zip":"","librarysystem":"Tulsa City-County Library System","phone":9187465180,"id":"a6641pd9dk9r","address":"523 West B St","lat":36.024737,"libraryname":"Jenks Library","state":"OK"},"type":"Feature","geometry":{"type":"Point","coordinates":[-95.974858,36.024737]}},{"properties":{"city":"Jones","lon":-97.287852,"zip":"","librarysystem":"Metropolitan Library System","phone":4053995471,"id":"a6641p342rtp","address":"210 W Main","lat":35.565569,"libraryname":"Jones Library","state":"OK"},"type":"Feature","geometry":{"type":"Point","coordinates":[-97.287852,35.565569]}},{"properties":{"city":"Kansas","lon":-94.799049,"zip":"","librarysystem":"Kansas Public Library","phone":9188685257,"id":"a6641pdjfqnb","address":"Hwy 412 &amp; Oak St","lat":36.20516,"libraryname":"Kansas Public Library","state":"OK"},"type":"Feature","geometry":{"type":"Point","coordinates":[-94.799049,36.20516]}},{"properties":{"city":"Kaw City","lon":-96.859885,"zip":"","librarysystem":"Kaw City Public Library","phone":5802691317,"id":"a6641pcdf11z","address":"900 Morgan Square","lat":36.765124,"libraryname":"Kaw City Public Library","state":"OK"},"type":"Feature","geometry":{"type":"Point","coordinates":[-96.859885,36.765124]}},{"properties":{"city":"Kellyville","lon":-96.211812,"zip":"","librarysystem":"Kellyville Public Library","phone":9182473740,"id":"a6641p8nxlef","address":"410 E Buffalo","lat":35.943504,"libraryname":"Kellyville Public Library","state":"OK"},"type":"Feature","geometry":{"type":"Point","coordinates":[-96.211812,35.943504]}},{"properties":{"city":"Tulsa","lon":-95.958054,"zip":"","librarysystem":"Tulsa City-County Library System","phone":9185967303,"id":"a6641pdd4ymy","address":"21 S. Lewis","lat":36.159505,"libraryname":"Kendall-Whittier Library","state":"OK"},"type":"Feature","geometry":{"type":"Point","coordinates":[-95.958054,36.159505]}},{"properties":{"city":"Konawa","lon":-96.760359,"zip":"","librarysystem":"Konawa - Kennedy Library Of Konawa","phone":4059253662,"id":"a6641pa005ea","address":"700 W. South","lat":34.95607,"libraryname":"Kennedy Library Of Konawa","state":"OK"},"type":"Feature","geometry":{"type":"Point","coordinates":[-96.760359,34.95607]}},{"properties":{"city":"Kingfisher","lon":-97.937196,"zip":"","librarysystem":"Kingfisher Memorial Library","phone":4053753384,"id":"a6641p1vwl2g","address":"505 West Will Rogers","lat":35.842131,"libraryname":"Kingfisher Memorial Library","state":"OK"},"type":"Feature","geometry":{"type":"Point","coordinates":[-97.937196,35.842131]}},{"properties":{"city":"Langley","lon":-95.04928,"zip":"","librarysystem":"Langley Public Library","phone":9187824461,"id":"a6641pebeqej","address":"3rd Osage","lat":36.466692,"libraryname":"Langley Public Library","state":"OK"},"type":"Feature","geometry":{"type":"Point","coordinates":[-95.04928,36.466692]}},{"properties":{"city":"Wilburton","lon":-95.313646,"zip":"","librarysystem":"Southeastern Public Library System","phone":9184653751,"id":"a6641pc95y45","address":"301 W. Ada Ave","lat":34.91995,"libraryname":"Latimer County Public Library","state":"OK"},"type":"Feature","geometry":{"type":"Point","coordinates":[-95.313646,34.91995]}},{"properties":{"city":"Lawton","lon":-98.486977,"zip":"","librarysystem":"Lawton Public Library","phone":5808133457,"id":"a6641pbs3dst","address":"1304 NW Kingswood","lat":34.622364,"libraryname":"Lawton - Kathleen Wyatt Nicholson Library","state":"OK"},"type":"Feature","geometry":{"type":"Point","coordinates":[-98.486977,34.622364]}},{"properties":{"city":"Lawton","lon":-98.393474,"zip":"","librarysystem":"Lawton Public Library","phone":4055813450,"id":"a6641p2flbv7","address":"110 S W 4th St","lat":34.607307,"libraryname":"Lawton Public Library","state":"OK"},"type":"Feature","geometry":{"type":"Point","coordinates":[-98.393474,34.607307]}},{"properties":{"city":"Tulsa","lon":-95.888181,"zip":"","librarysystem":"Tulsa City-County Library System","phone":9186696770,"id":"a6641p8ys83p","address":"7970 E 51st Street","lat":36.08976,"libraryname":"Library @ 51st","state":"OK"},"type":"Feature","geometry":{"type":"Point","coordinates":[-95.888181,36.08976]}},{"properties":{"city":"Lindsay","lon":-97.603014,"zip":"","librarysystem":"Lindsay Community Library","phone":4057563449,"id":"a6641p6ficdo","address":"112 W. Choctaw","lat":34.83593,"libraryname":"Lindsay Community Library","state":"OK"},"type":"Feature","geometry":{"type":"Point","coordinates":[-97.603014,34.83593]}},{"properties":{"city":"Locust Grove","lon":-95.163192,"zip":"","librarysystem":"Locust Grove Public Library","phone":9184796585,"id":"a6641p52fco4","address":"715 Harold Andrews B","lat":36.200129,"libraryname":"Locust Grove Public Library","state":"OK"},"type":"Feature","geometry":{"type":"Point","coordinates":[-95.163192,36.200129]}},{"properties":{"city":"Luther","lon":-97.196059,"zip":"","librarysystem":"Metropolitan Library System","phone":4052779967,"id":"a6641pg3e2qe","address":"115 S Main","lat":35.661964,"libraryname":"Luther Library","state":"OK"},"type":"Feature","geometry":{"type":"Point","coordinates":[-97.196059,35.661964]}},{"properties":{"city":"Yukon","lon":-97.750713,"zip":"","librarysystem":"Mabel C. Fry Public Library","phone":4053548232,"id":"a6641p7cvm8n","address":"500 W. Main","lat":35.507751,"libraryname":"Mabel C. Fry Public Library","state":"OK"},"type":"Feature","geometry":{"type":"Point","coordinates":[-97.750713,35.507751]}},{"properties":{"city":"Madill","lon":-96.770937,"zip":"","librarysystem":"Madill City-County Library","phone":4057952749,"id":"a6641paebk16","address":"205 East Overton St","lat":34.091976,"libraryname":"Madill City Library","state":"OK"},"type":"Feature","geometry":{"type":"Point","coordinates":[-96.770937,34.091976]}},{"properties":{"city":"Mangum","lon":-99.507609,"zip":"","librarysystem":"Margaret Carder Library","phone":4057823185,"id":"a6641pb9fjj4","address":"201 W. Lincoln","lat":34.872332,"libraryname":"Mangum Public Library","state":"OK"},"type":"Feature","geometry":{"type":"Point","coordinates":[-99.507609,34.872332]}},{"properties":{"city":"Mannford","lon":-96.360266,"zip":"","librarysystem":"Mannford Public Library","phone":9188652665,"id":"a6641p82p5l7","address":"Green Valley Park Rd","lat":36.126955,"libraryname":"Mannford Public Library","state":"OK"},"type":"Feature","geometry":{"type":"Point","coordinates":[-96.360266,36.126955]}},{"properties":{"city":"Marietta","lon":-97.126095,"zip":"","librarysystem":"Chickasaw Regional Library System","phone":5802763783,"id":"a6641pbreaz3","address":"500 South Hwy 77","lat":33.932855,"libraryname":"Marietta - Love County Library","state":"OK"},"type":"Feature","geometry":{"type":"Point","coordinates":[-97.126095,33.932855]}},{"properties":{"city":"Marlow","lon":-97.959523,"zip":"","librarysystem":"Garland Smith Public Library","phone":4056585354,"id":"a6641p7mjt3p","address":"407 W Seminole","lat":34.646583,"libraryname":"Marlow Public Library","state":"OK"},"type":"Feature","geometry":{"type":"Point","coordinates":[-97.959523,34.646583]}},{"properties":{"city":"Tulsa","lon":-95.850979,"zip":"","librarysystem":"Tulsa City-County Library System","phone":9186696340,"id":"a6641pfacpe3","address":"2601 S Garnett","lat":36.126507,"libraryname":"Martin Regional Library","state":"OK"},"type":"Feature","geometry":{"type":"Point","coordinates":[-95.850979,36.126507]}},{"properties":{"city":"Tulsa","lon":-95.918974,"zip":"","librarysystem":"Tulsa City-County Library System","phone":9186696055,"id":"a6641p5kc9cf","address":"1313 N Canton","lat":36.173837,"libraryname":"Maxwell Park Library","state":"OK"},"type":"Feature","geometry":{"type":"Point","coordinates":[-95.918974,36.173837]}},{"properties":{"city":"Maysville","lon":-97.408389,"zip":"","librarysystem":"Maysville Public Library","phone":4058674748,"id":"a6641p3tuj5p","address":"508 Williams","lat":34.81792,"libraryname":"Maysville Public Library","state":"OK"},"type":"Feature","geometry":{"type":"Point","coordinates":[-97.408389,34.81792]}},{"properties":{"city":"McAlester","lon":-95.76618,"zip":"","librarysystem":"Southeastern Public Library System","phone":9184260930,"id":"a6641ozpjsjm","address":"401 North Second","lat":34.935075,"libraryname":"McAlester Public Library","state":"OK"},"type":"Feature","geometry":{"type":"Point","coordinates":[-95.76618,34.935075]}},{"properties":{"city":"McLoud","lon":-97.092084,"zip":"","librarysystem":"Pioneer Library System","phone":4059642960,"id":"a6641p4ku4n2","address":"133 N. Main","lat":35.436479,"libraryname":"McLoud Public Library","state":"OK"},"type":"Feature","geometry":{"type":"Point","coordinates":[-97.092084,35.436479]}},{"properties":{"city":"Medford","lon":-97.735114,"zip":"","librarysystem":"Medford Public Library","phone":4053952342,"id":"a6641p3qqv81","address":"123 S Main","lat":36.806682,"libraryname":"Medford Public Library","state":"OK"},"type":"Feature","geometry":{"type":"Point","coordinates":[-97.735114,36.806682]}},{"properties":{"city":"Meeker","lon":-96.898919,"zip":"","librarysystem":"Meeker Public Library","phone":4052791139,"id":"a6641pcm45tn","address":"616 W. Main Street","lat":35.50322,"libraryname":"Meeker Public Library","state":"OK"},"type":"Feature","geometry":{"type":"Point","coordinates":[-96.898919,35.50322]}},{"properties":{"city":"Miami","lon":-94.877414,"zip":"","librarysystem":"Miami Public Library","phone":9185423064,"id":"a6641p49j1bx","address":"200 N Main","lat":36.877889,"libraryname":"Miami Public Library","state":"OK"},"type":"Feature","geometry":{"type":"Point","coordinates":[-94.877414,36.877889]}},{"properties":{"city":"Midwest City","lon":-97.386259,"zip":"","librarysystem":"Metropolitan Library System","phone":4057324828,"id":"a6641p3iw6c8","address":"8143 E Reno","lat":35.464215,"libraryname":"Midwest City Library","state":"OK"},"type":"Feature","geometry":{"type":"Point","coordinates":[-97.386259,35.464215]}},{"properties":{"city":"Moore","lon":-97.488197,"zip":"","librarysystem":"Pioneer Library System","phone":4057935100,"id":"a6641pd5xups","address":"225 S Howard","lat":35.336822,"libraryname":"Moore Public Library","state":"OK"},"type":"Feature","geometry":{"type":"Point","coordinates":[-97.488197,35.336822]}},{"properties":{"city":"Mounds","lon":-96.061364,"zip":"","librarysystem":"Mounds Public Library","phone":9188273949,"id":"a6641p1ft0uf","address":"13th Commercial","lat":35.876575,"libraryname":"Mounds Public Library","state":"OK"},"type":"Feature","geometry":{"type":"Point","coordinates":[-96.061364,35.876575]}},{"properties":{"city":"Muldrow","lon":-94.599154,"zip":"","librarysystem":"Eastern Oklahoma District Library System","phone":9184276703,"id":"a6641p7tzzln","address":"711 W. Shawntell Blv","lat":35.408875,"libraryname":"Muldrow Public Library","state":"OK"},"type":"Feature","geometry":{"type":"Point","coordinates":[-94.599154,35.408875]}},{"properties":{"city":"Muskogee","lon":-95.378984,"zip":"","librarysystem":"Eastern Oklahoma District Library System","phone":9186826657,"id":"a6641p7smlxx","address":"801 W Okmulgee","lat":35.751075,"libraryname":"Muskogee Public Library","state":"OK"},"type":"Feature","geometry":{"type":"Point","coordinates":[-95.378984,35.751075]}},{"properties":{"city":"Mustang","lon":-97.726838,"zip":"","librarysystem":"Mustang Public Library","phone":4053762226,"id":"a6641p2l1bfj","address":"190 W. Strasburg","lat":35.394024,"libraryname":"Mustang Public Library","state":"OK"},"type":"Feature","geometry":{"type":"Point","coordinates":[-97.726838,35.394024]}},{"properties":{"city":"Tulsa","lon":-95.905968,"zip":"","librarysystem":"Tulsa City-County Library System","phone":9186696060,"id":"a6641p1w3hu0","address":"6038 E 23rd","lat":36.129748,"libraryname":"Nathan Hale Library","state":"OK"},"type":"Feature","geometry":{"type":"Point","coordinates":[-95.905968,36.129748]}},{"properties":{"city":"Newcastle","lon":-97.601425,"zip":"","librarysystem":"Pioneer Library System","phone":4053875076,"id":"a6641p4bdn9y","address":"900 North Carr","lat":35.255334,"libraryname":"Newcastle Public Library","state":"OK"},"type":"Feature","geometry":{"type":"Point","coordinates":[-97.601425,35.255334]}},{"properties":{"city":"Newkirk","lon":-97.061664,"zip":"","librarysystem":"Newkirk Public Library","phone":4053623934,"id":"a6641pecivot","address":"W 7th Street","lat":36.882005,"libraryname":"Newkirk Public Library","state":"OK"},"type":"Feature","geometry":{"type":"Point","coordinates":[-97.061664,36.882005]}},{"properties":{"city":"Nicoma Park","lon":-97.325247,"zip":"","librarysystem":"Metropolitan Library System","phone":4057699452,"id":"a6641pcbuenm","address":"2240 Overholser","lat":35.491575,"libraryname":"Nicoma Park Library","state":"OK"},"type":"Feature","geometry":{"type":"Point","coordinates":[-97.325247,35.491575]}},{"properties":{"city":"Noble","lon":-97.392111,"zip":"","librarysystem":"Pioneer Library System","phone":4058725713,"id":"a6641p651bkk","address":"204 North 5th","lat":35.140874,"libraryname":"Noble Public Library","state":"OK"},"type":"Feature","geometry":{"type":"Point","coordinates":[-97.392111,35.140874]}},{"properties":{"city":"Norman","lon":-97.447326,"zip":"","librarysystem":"Pioneer Library System","phone":4057012600,"id":"a6641pb8vntg","address":"225 N Webster","lat":35.220785,"libraryname":"Norman Public Library","state":"OK"},"type":"Feature","geometry":{"type":"Point","coordinates":[-97.447326,35.220785]}},{"properties":{"city":"Nowata","lon":-95.639576,"zip":"","librarysystem":"Nowata City-County Library","phone":9182733363,"id":"a6641p9ionuq","address":"224 South Pine","lat":36.697793,"libraryname":"Nowata City-County Library","state":"OK"},"type":"Feature","geometry":{"type":"Point","coordinates":[-95.639576,36.697793]}},{"properties":{"city":"Okeene","lon":-98.316897,"zip":"","librarysystem":"Okeene Public Library","phone":4058223306,"id":"a6641p9puppn","address":"215 N Main","lat":36.109326,"libraryname":"Okeene Public Library","state":"OK"},"type":"Feature","geometry":{"type":"Point","coordinates":[-98.316897,36.109326]}},{"properties":{"city":"Okemah","lon":-96.302275,"zip":"","librarysystem":"Okemah Public Library","phone":9186231915,"id":"a6641p2u528t","address":"301 South 2nd","lat":35.42894,"libraryname":"Okemah Public Library","state":"OK"},"type":"Feature","geometry":{"type":"Point","coordinates":[-96.302275,35.42894]}},{"properties":{"city":"Okmulgee","lon":-95.97539,"zip":"","librarysystem":"Okmulgee Public Library","phone":9187561448,"id":"a6641p2ifkwf","address":"218 S Okmulgee","lat":35.622265,"libraryname":"Okmulgee Public Library","state":"OK"},"type":"Feature","geometry":{"type":"Point","coordinates":[-95.97539,35.622265]}},{"properties":{"city":"Owasso","lon":-95.855166,"zip":"","librarysystem":"Tulsa City-County Library System","phone":9185914566,"id":"a6641p9jtrqf","address":"103 W Broadway","lat":36.266226,"libraryname":"Owasso Library","state":"OK"},"type":"Feature","geometry":{"type":"Point","coordinates":[-95.855166,36.266226]}},{"properties":{"city":"Pauls Valley","lon":-97.221357,"zip":"","librarysystem":"Pauls Valley-Nora Sparks Warren Mem Library","phone":4052385188,"id":"a6641pcvcicx","address":"210 N Willow","lat":34.740744,"libraryname":"Pauls Valley Nora Sparks Warren Library","state":"OK"},"type":"Feature","geometry":{"type":"Point","coordinates":[-97.221357,34.740744]}},{"properties":{"city":"Pawhuska","lon":-96.335593,"zip":"","librarysystem":"Pawhuska Public Library","phone":9182873989,"id":"a6641p17a2fz","address":"301 E 6th","lat":36.664075,"libraryname":"Pawhuska Public Library","state":"OK"},"type":"Feature","geometry":{"type":"Point","coordinates":[-96.335593,36.664075]}},{"properties":{"city":"Pawnee","lon":-96.802694,"zip":"","librarysystem":"Pawnee Public Library","phone":9187622138,"id":"a6641p7aqwe7","address":"510 Illinois","lat":36.339307,"libraryname":"Pawnee Public Library","state":"OK"},"type":"Feature","geometry":{"type":"Point","coordinates":[-96.802694,36.339307]}},{"properties":{"city":"Perkins","lon":-97.034165,"zip":"","librarysystem":"Perkins - Thomas-Wilhite Memorial Library","phone":4055475185,"id":"a6641p3a88lg","address":"129 South Main","lat":35.973661,"libraryname":"Perkins - Thomas-Wilhite Memorial Library","state":"OK"},"type":"Feature","geometry":{"type":"Point","coordinates":[-97.034165,35.973661]}},{"properties":{"city":"Perry","lon":-97.288085,"zip":"","librarysystem":"Perry Carnegie Library","phone":4053364721,"id":"a6641pfn77oe","address":"302 N 7th Street","lat":36.286227,"libraryname":"Perry Carnegie Library","state":"OK"},"type":"Feature","geometry":{"type":"Point","coordinates":[-97.288085,36.286227]}},{"properties":{"city":"Norman","lon":-97.447326,"zip":"","librarysystem":"Pioneer Library System","phone":4057012600,"id":"a6641pfbb7ac","address":"225 N Webster","lat":35.220785,"libraryname":"Pioneer Library System","state":"OK"},"type":"Feature","geometry":{"type":"Point","coordinates":[-97.447326,35.220785]}},{"properties":{"city":"Ponca City","lon":-97.078321,"zip":"","librarysystem":"Ponca City Library","phone":4057670345,"id":"a6641p0im3e4","address":"515 East Grand","lat":36.703706,"libraryname":"Ponca City Library","state":"OK"},"type":"Feature","geometry":{"type":"Point","coordinates":[-97.078321,36.703706]}},{"properties":{"city":"Prague","lon":-96.685789,"zip":"","librarysystem":"Prague Public Library","phone":4055674013,"id":"a6641p65n1dr","address":"1115 Broadway","lat":35.49377,"libraryname":"Prague Public Library","state":"OK"},"type":"Feature","geometry":{"type":"Point","coordinates":[-96.685789,35.49377]}},{"properties":{"city":"Sand Springs","lon":-96.11888,"zip":"","librarysystem":"Tulsa City-County Library System","phone":9185914595,"id":"a6641pf5eeta","address":"3219 S 113th W Ave","lat":36.117395,"libraryname":"Pratt Library","state":"OK"},"type":"Feature","geometry":{"type":"Point","coordinates":[-96.11888,36.117395]}},{"properties":{"city":"Pryor","lon":-95.31295,"zip":"","librarysystem":"Pryor Public Library","phone":9188250777,"id":"a6641pdicjll","address":"505 East Graham","lat":36.306914,"libraryname":"Pryor Public Library","state":"OK"},"type":"Feature","geometry":{"type":"Point","coordinates":[-95.31295,36.306914]}},{"properties":{"city":"Enid","lon":-97.878744,"zip":"","librarysystem":"Public Library of Enid and Garfield County","phone":4052346313,"id":"a6641p7mdmun","address":"120 West Maine","lat":36.395506,"libraryname":"Public Library of Enid and Garfield County","state":"OK"},"type":"Feature","geometry":{"type":"Point","coordinates":[-97.878744,36.395506]}},{"properties":{"city":"Purcell","lon":-97.371049,"zip":"","librarysystem":"Pioneer Library System","phone":4055275546,"id":"a6641p75zv4i","address":"919 N 9th","lat":35.023586,"libraryname":"Purcell Public Library","state":"OK"},"type":"Feature","geometry":{"type":"Point","coordinates":[-97.371049,35.023586]}},{"properties":{"city":"Oklahoma City","lon":-97.476432,"zip":"","librarysystem":"Metropolitan Library System","phone":4054241437,"id":"a6641p0muyb9","address":"2000 N E 23","lat":35.492987,"libraryname":"Ralph Ellison Branch Library","state":"OK"},"type":"Feature","geometry":{"type":"Point","coordinates":[-97.476432,35.492987]}},{"properties":{"city":"Ringling","lon":-97.592627,"zip":"","librarysystem":"Ringling - Gleason Memorial Library","phone":4056622925,"id":"a6641p8ejrpy","address":"5th And Main St.","lat":34.178433,"libraryname":"Ringling Gleason Memorial Library","state":"OK"},"type":"Feature","geometry":{"type":"Point","coordinates":[-97.592627,34.178433]}},{"properties":{"city":"Tulsa","lon":-95.984683,"zip":"","librarysystem":"Tulsa City-County Library System","phone":9185967280,"id":"a6641p05mdw5","address":"1520 N Hartford","lat":36.178013,"libraryname":"Rudisill Regional Library","state":"OK"},"type":"Feature","geometry":{"type":"Point","coordinates":[-95.984683,36.178013]}},{"properties":{"city":"Rush Springs","lon":-97.960569,"zip":"","librarysystem":"Rush Springs-Glover Spencer Memorial Library","phone":4054762108,"id":"a6641p4bqhun","address":"6th &amp; Blakely","lat":34.78274,"libraryname":"Rush Springs Glover Spencer Memorial Library","state":"OK"},"type":"Feature","geometry":{"type":"Point","coordinates":[-97.960569,34.78274]}},{"properties":{"city":"Sallisaw","lon":-94.790154,"zip":"","librarysystem":"Eastern Oklahoma District Library System","phone":9187754481,"id":"a6641p27xz9a","address":"101 E Cherokee","lat":35.460615,"libraryname":"Sallisaw - Stanley Tubbs Memorial Library","state":"OK"},"type":"Feature","geometry":{"type":"Point","coordinates":[-94.790154,35.460615]}},{"properties":{"city":"Sapulpa","lon":-96.114688,"zip":"","librarysystem":"Sapulpa - Barlett Carnegie Public Library","phone":9182245624,"id":"a6641p1thl3q","address":"27 W Dewey","lat":35.998692,"libraryname":"Sapulpa Public Library","state":"OK"},"type":"Feature","geometry":{"type":"Point","coordinates":[-96.114688,35.998692]}},{"properties":{"city":"Sayre","lon":-99.639618,"zip":"","librarysystem":"Sayre Public Library","phone":4059282641,"id":"a6641p5k0ht4","address":"113 E Poplar","lat":35.293675,"libraryname":"Sayre Public Library","state":"OK"},"type":"Feature","geometry":{"type":"Point","coordinates":[-99.639618,35.293675]}},{"properties":{"city":"Tulsa","lon":-95.939742,"zip":"","librarysystem":"Tulsa City-County Library System","phone":9187465024,"id":"a6641petpdt1","address":"3333 E 32nd Place","lat":36.116247,"libraryname":"Schusterman-Benson Library","state":"OK"},"type":"Feature","geometry":{"type":"Point","coordinates":[-95.939742,36.116247]}},{"properties":{"city":"Seiling","lon":-98.924688,"zip":"","librarysystem":"Western Plains Library System","phone":5809224259,"id":"a6641p3i8das","address":"211 Main","lat":36.147292,"libraryname":"Seiling Public Library","state":"OK"},"type":"Feature","geometry":{"type":"Point","coordinates":[-98.924688,36.147292]}},{"properties":{"city":"Seminole","lon":-96.668384,"zip":"","librarysystem":"Seminole Public Library","phone":4053824221,"id":"a6641p8eijbi","address":"424 N Main","lat":35.226702,"libraryname":"Seminole Public Library","state":"OK"},"type":"Feature","geometry":{"type":"Point","coordinates":[-96.668384,35.226702]}},{"properties":{"city":"Sentinel","lon":-99.176846,"zip":"","librarysystem":"Western Plains Library System","phone":5803932244,"id":"a6641ozuc2cz","address":"210 E. Main","lat":35.158224,"libraryname":"Sentinel Public Library","state":"OK"},"type":"Feature","geometry":{"type":"Point","coordinates":[-99.176846,35.158224]}},{"properties":{"city":"Shattuck","lon":-99.881652,"zip":"","librarysystem":"Shattuck Public Library","phone":4059385104,"id":"a6641p6c9fnk","address":"101 South Main","lat":36.275956,"libraryname":"Shattuck Public Library","state":"OK"},"type":"Feature","geometry":{"type":"Point","coordinates":[-99.881652,36.275956]}},{"properties":{"city":"Shawnee","lon":-96.919495,"zip":"","librarysystem":"Pioneer Library System","phone":4052756353,"id":"a6641pd72t18","address":"101 N. Philadelphia","lat":35.327589,"libraryname":"Shawnee Public Library","state":"OK"},"type":"Feature","geometry":{"type":"Point","coordinates":[-96.919495,35.327589]}},{"properties":{"city":"Skiatook","lon":-95.998537,"zip":"","librarysystem":"Tulsa City-County Library System","phone":9185962830,"id":"a6641pbukbt4","address":"316 E Rogers","lat":36.368371,"libraryname":"Skiatook Library","state":"OK"},"type":"Feature","geometry":{"type":"Point","coordinates":[-95.998537,36.368371]}},{"properties":{"city":"Boise City","lon":-102.512349,"zip":"","librarysystem":"Soutar Memorial Library","phone":4055442715,"id":"a6641p025w3w","address":"102 S Ellison","lat":36.72969,"libraryname":"Soutar Memorial Library","state":"OK"},"type":"Feature","geometry":{"type":"Point","coordinates":[-102.512349,36.72969]}},{"properties":{"city":"Broken Arrow","lon":-95.818204,"zip":"","librarysystem":"Tulsa City-County Library System","phone":9184510002,"id":"a6641p3azu9t","address":"3600 S Chestnut","lat":36.017133,"libraryname":"South Broken Arrow Library","state":"OK"},"type":"Feature","geometry":{"type":"Point","coordinates":[-95.818204,36.017133]}},{"properties":{"city":"McAlester","lon":-95.76618,"zip":"","librarysystem":"Southeastern Public Library System","phone":9184260456,"id":"a6641p8m9cvb","address":"401 N 2nd","lat":34.935075,"libraryname":"Southeastern Public Library System","state":"OK"},"type":"Feature","geometry":{"type":"Point","coordinates":[-95.76618,34.935075]}},{"properties":{"city":"Oklahoma City","lon":-97.521206,"zip":"","librarysystem":"Metropolitan Library System","phone":4056314468,"id":"a6641p8q6hol","address":"6900 S Walker","lat":35.397428,"libraryname":"Southern Oaks Library","state":"OK"},"type":"Feature","geometry":{"type":"Point","coordinates":[-97.521206,35.397428]}},{"properties":{"city":"Sperry","lon":-95.990954,"zip":"","librarysystem":"Tulsa City-County Library System","phone":9185914690,"id":"a6641p3bbffz","address":"15 E Main","lat":36.296847,"libraryname":"Sperry Library","state":"OK"},"type":"Feature","geometry":{"type":"Point","coordinates":[-95.990954,36.296847]}},{"properties":{"city":"Spiro","lon":-94.621034,"zip":"","librarysystem":"Southeastern Public Library System","phone":9189623461,"id":"a6641p0hydw0","address":"208 South Main","lat":35.239829,"libraryname":"Spiro Public Library","state":"OK"},"type":"Feature","geometry":{"type":"Point","coordinates":[-94.621034,35.239829]}},{"properties":{"city":"Stigler","lon":-95.118483,"zip":"","librarysystem":"Southeastern Public Library System","phone":9189674801,"id":"a6641p3lu9cw","address":"402 Ne 6th","lat":35.255657,"libraryname":"Stigler Public Library","state":"OK"},"type":"Feature","geometry":{"type":"Point","coordinates":[-95.118483,35.255657]}},{"properties":{"city":"Stillwater","lon":-97.062519,"zip":"","librarysystem":"Stillwater Public Library","phone":4053723633,"id":"a6641p8rxmcj","address":"1107 S. Duck","lat":36.109914,"libraryname":"Stillwater Public Library","state":"OK"},"type":"Feature","geometry":{"type":"Point","coordinates":[-97.062519,36.109914]}},{"properties":{"city":"Stilwell","lon":-94.633347,"zip":"","librarysystem":"Eastern Oklahoma District Library System","phone":9186967512,"id":"a6641paff3q9","address":"5 N 6th St","lat":35.815297,"libraryname":"Stilwell Public Library","state":"OK"},"type":"Feature","geometry":{"type":"Point","coordinates":[-94.633347,35.815297]}},{"properties":{"city":"Stratford","lon":-96.959279,"zip":"","librarysystem":"Stratford - Chandler-Watts Library","phone":4057592684,"id":"a6641p63jf2y","address":"340 N Oak","lat":34.79443,"libraryname":"Stratford - Chandler-Watts Library","state":"OK"},"type":"Feature","geometry":{"type":"Point","coordinates":[-96.959279,34.79443]}},{"properties":{"city":"Stroud","lon":-96.656467,"zip":"","librarysystem":"Stroud Public Library","phone":9189682567,"id":"a6641p6yswm8","address":"301 West 7th","lat":35.753338,"libraryname":"Stroud Public Library","state":"OK"},"type":"Feature","geometry":{"type":"Point","coordinates":[-96.656467,35.753338]}},{"properties":{"city":"Tulsa","lon":-95.986917,"zip":"","librarysystem":"Tulsa City-County Library System","phone":9185914004,"id":"a6641pe0bwju","address":"4606 N Garrison","lat":36.220766,"libraryname":"Suburban Acres Library","state":"OK"},"type":"Feature","geometry":{"type":"Point","coordinates":[-95.986917,36.220766]}},{"properties":{"city":"Sulphur","lon":-96.972797,"zip":"","librarysystem":"Chickasaw Regional Library System","phone":5806225807,"id":"a6641paia6wp","address":"500 West Broadway","lat":34.506438,"libraryname":"Sulphur - Mary E Parker Memorial Library","state":"OK"},"type":"Feature","geometry":{"type":"Point","coordinates":[-96.972797,34.506438]}},{"properties":{"city":"Tahlequah","lon":-94.972576,"zip":"","librarysystem":"Eastern Oklahoma District Library System","phone":9184562581,"id":"a6641p9almgz","address":"120 S. College","lat":35.913541,"libraryname":"Tahlequah Public Library","state":"OK"},"type":"Feature","geometry":{"type":"Point","coordinates":[-94.972576,35.913541]}},{"properties":{"city":"Talihina","lon":-95.042334,"zip":"","librarysystem":"Southeastern Public Library System","phone":9185672002,"id":"a6641p67sx00","address":"Hwy 271 North","lat":34.743835,"libraryname":"Talihina Public Library","state":"OK"},"type":"Feature","geometry":{"type":"Point","coordinates":[-95.042334,34.743835]}},{"properties":{"city":"Tecumseh","lon":-96.936642,"zip":"","librarysystem":"Pioneer Library System","phone":4055985955,"id":"a6641pc1e7xf","address":"114 N Broadway","lat":35.2579,"libraryname":"Tecumseh Public Library","state":"OK"},"type":"Feature","geometry":{"type":"Point","coordinates":[-96.936642,35.2579]}},{"properties":{"city":"Thomas","lon":-98.752559,"zip":"","librarysystem":"Western Plains Library System","phone":5806613532,"id":"a6641p388w5i","address":"115 W Broadway","lat":35.74392,"libraryname":"Thomas - Hazel Cross Library","state":"OK"},"type":"Feature","geometry":{"type":"Point","coordinates":[-98.752559,35.74392]}},{"properties":{"city":"Tishomingo","lon":-96.677415,"zip":"","librarysystem":"Chickasaw Regional Library System","phone":5803713006,"id":"a6641p947ncv","address":"116 West Main","lat":34.234936,"libraryname":"Tishomingo - Johnston County Library","state":"OK"},"type":"Feature","geometry":{"type":"Point","coordinates":[-96.677415,34.234936]}},{"properties":{"city":"Tonkawa","lon":-97.308436,"zip":"","librarysystem":"Tonkawa Public Library","phone":4056283366,"id":"a6641pg33yfj","address":"216 N. Seventh","lat":36.680047,"libraryname":"Tonkawa Public Library","state":"OK"},"type":"Feature","geometry":{"type":"Point","coordinates":[-97.308436,36.680047]}},{"properties":{"city":"Tryon","lon":-96.963874,"zip":"","librarysystem":"Tryon Public Library","phone":9183742227,"id":"a6641p3ky21j","address":"25 Main St.","lat":35.87026,"libraryname":"Tryon Public Library","state":"OK"},"type":"Feature","geometry":{"type":"Point","coordinates":[-96.963874,35.87026]}},{"properties":{"city":"Valliant","lon":-95.089934,"zip":"","librarysystem":"Southeastern Public Library System","phone":5809334883,"id":"a6641p62aw53","address":"311 N Johnson","lat":34.00294,"libraryname":"Valliant - Mattie Terry Library","state":"OK"},"type":"Feature","geometry":{"type":"Point","coordinates":[-95.089934,34.00294]}},{"properties":{"city":"Village","lon":-97.551789,"zip":"","librarysystem":"Metropolitan Library System","phone":4057550710,"id":"a6641p7frzr1","address":"10307 N Penn","lat":35.59168,"libraryname":"Village Public Library","state":"OK"},"type":"Feature","geometry":{"type":"Point","coordinates":[-97.551789,35.59168]}},{"properties":{"city":"Vinita","lon":-95.156011,"zip":"","librarysystem":"Vinita Public Library","phone":9182562115,"id":"a6641pclaan3","address":"215 W Illinois","lat":36.639252,"libraryname":"Vinita Public Library","state":"OK"},"type":"Feature","geometry":{"type":"Point","coordinates":[-95.156011,36.639252]}},{"properties":{"city":"Wagoner","lon":-95.372276,"zip":"","librarysystem":"Wagoner City Public Library","phone":9184852126,"id":"a6641p21we19","address":"102 South State","lat":35.959442,"libraryname":"Wagoner Carnegie Library","state":"OK"},"type":"Feature","geometry":{"type":"Point","coordinates":[-95.372276,35.959442]}},{"properties":{"city":"Walters","lon":-98.309754,"zip":"","librarysystem":"Walters Public Library","phone":4058752006,"id":"a6641pcvn7ea","address":"131 W California","lat":34.357061,"libraryname":"Walters Public Library","state":"OK"},"type":"Feature","geometry":{"type":"Point","coordinates":[-98.309754,34.357061]}},{"properties":{"city":"Warner","lon":-95.296048,"zip":"","librarysystem":"Eastern Oklahoma District Library System","phone":9184632363,"id":"a6641p3iwm4t","address":"207 8th St","lat":35.493285,"libraryname":"Warner Public Library","state":"OK"},"type":"Feature","geometry":{"type":"Point","coordinates":[-95.296048,35.493285]}},{"properties":{"city":"Warr Acres","lon":-97.619247,"zip":"","librarysystem":"Metropolitan Library System","phone":4057212616,"id":"a6641p21wh8i","address":"5901 N W 63","lat":35.536946,"libraryname":"Warr Acres Library","state":"OK"},"type":"Feature","geometry":{"type":"Point","coordinates":[-97.619247,35.536946]}},{"properties":{"city":"Watonga","lon":-98.41445,"zip":"","librarysystem":"Watonga Public Library","phone":4056237748,"id":"a6641p7mulmm","address":"301 N Prouty","lat":35.846673,"libraryname":"Watonga Public Library","state":"OK"},"type":"Feature","geometry":{"type":"Point","coordinates":[-98.41445,35.846673]}},{"properties":{"city":"Waurika","lon":-97.999689,"zip":"","librarysystem":"Waurika Public Library","phone":4052283274,"id":"a6641p8c8o95","address":"98th Meridian","lat":34.158075,"libraryname":"Waurika Public Library","state":"OK"},"type":"Feature","geometry":{"type":"Point","coordinates":[-97.999689,34.158075]}},{"properties":{"city":"Waynoka","lon":-98.888019,"zip":"","librarysystem":"Waynoka Public Library","phone":4058246181,"id":"a6641pb5evc7","address":"113 E","lat":36.579705,"libraryname":"Waynoka Public Library","state":"OK"},"type":"Feature","geometry":{"type":"Point","coordinates":[-98.888019,36.579705]}},{"properties":{"city":"Weatherford","lon":-98.705971,"zip":"","librarysystem":"Western Plains Library System","phone":5807723591,"id":"a6641peaqn2y","address":"219 E Franklin","lat":35.527285,"libraryname":"Weatherford Public Library","state":"OK"},"type":"Feature","geometry":{"type":"Point","coordinates":[-98.705971,35.527285]}},{"properties":{"city":"Tulsa","lon":-96.017661,"zip":"","librarysystem":"Tulsa City-County Library System","phone":9185914366,"id":"a6641p2b4ghn","address":"2224 W 51st","lat":36.089672,"libraryname":"West Regional Library","state":"OK"},"type":"Feature","geometry":{"type":"Point","coordinates":[-96.017661,36.089672]}},{"properties":{"city":"Clinton","lon":-98.967357,"zip":"","librarysystem":"Western Plains Library System","phone":4053230974,"id":"a6641pfsv90f","address":"605 Avant","lat":35.513502,"libraryname":"Western Plains Library System","state":"OK"},"type":"Feature","geometry":{"type":"Point","coordinates":[-98.967357,35.513502]}},{"properties":{"city":"Westville","lon":-94.565799,"zip":"","librarysystem":"Eastern Oklahoma District Library System","phone":9187235002,"id":"a6641p5lyqxg","address":"116 N. Williams","lat":35.98784,"libraryname":"Westville - John F Henderson Public Library","state":"OK"},"type":"Feature","geometry":{"type":"Point","coordinates":[-94.565799,35.98784]}},{"properties":{"city":"Wetumka","lon":-96.241724,"zip":"","librarysystem":"Wetumka Public Library","phone":4054525825,"id":"a6641paod75k","address":"202 N Main","lat":35.238501,"libraryname":"Wetumka Public Library","state":"OK"},"type":"Feature","geometry":{"type":"Point","coordinates":[-96.241724,35.238501]}},{"properties":{"city":"Wewoka","lon":-96.491945,"zip":"","librarysystem":"Wewoka Public Library","phone":4052573225,"id":"a6641p9hbecf","address":"118 W 5th","lat":35.154415,"libraryname":"Wewoka Public Library","state":"OK"},"type":"Feature","geometry":{"type":"Point","coordinates":[-96.491945,35.154415]}},{"properties":{"city":"Wilson","lon":-97.425169,"zip":"","librarysystem":"Chickasaw Regional Library System","phone":5806682486,"id":"a6641pf8gu9p","address":"114 East Main","lat":34.161986,"libraryname":"Wilson Public Library","state":"OK"},"type":"Feature","geometry":{"type":"Point","coordinates":[-97.425169,34.161986]}},{"properties":{"city":"Wister","lon":-94.716863,"zip":"","librarysystem":"Southeastern Public Library System","phone":9186557654,"id":"a6641p1zu5j9","address":"100 Highland Ave","lat":34.965731,"libraryname":"Wister Public Library","state":"OK"},"type":"Feature","geometry":{"type":"Point","coordinates":[-94.716863,34.965731]}},{"properties":{"city":"Woodward","lon":-99.398502,"zip":"","librarysystem":"Woodward Public Library","phone":4052548544,"id":"a6641p2x3kz1","address":"1500 Main","lat":36.436124,"libraryname":"Woodward Public Library","state":"OK"},"type":"Feature","geometry":{"type":"Point","coordinates":[-99.398502,36.436124]}},{"properties":{"city":"Oklahoma City","lon":-97.551729,"zip":"","librarysystem":"Metropolitan Library System","phone":4052355035,"id":"a6641pawsnfu","address":"2101 Exchange Ave","lat":35.45295,"libraryname":"Wright Library","state":"OK"},"type":"Feature","geometry":{"type":"Point","coordinates":[-97.551729,35.45295]}},{"properties":{"city":"Wynnewood","lon":-97.170524,"zip":"","librarysystem":"Wynnewood Public Library","phone":4056652512,"id":"a6641p5v80ep","address":"108 N. Dean A Mcgee","lat":34.642863,"libraryname":"Wynnewood Public Library","state":"OK"},"type":"Feature","geometry":{"type":"Point","coordinates":[-97.170524,34.642863]}},{"properties":{"city":"Yale","lon":-96.699258,"zip":"","librarysystem":"Yale Public Library","phone":9183872135,"id":"a6641p9uk691","address":"213 N Main","lat":36.115391,"libraryname":"Yale Public Library","state":"OK"},"type":"Feature","geometry":{"type":"Point","coordinates":[-96.699258,36.115391]}}],"is_temporal":false,"author":{"url":"http://www.publiclibraries.com/oklahoma.htm","metadata":"","contact_name":"","contact_address":"","source":"publiclibrairies.com","contact_phone":""},"source":"http://www.publiclibraries.com/oklahoma.htm","pagination":{"sort":null,"start":0,"total":206,"limit":1000000},"state":"complete","tags":"books,education,libraries,library,oklahoma,public","published":"2008-05-09T12:00:00Z","id":946}