{"type":"FeatureCollection","data_type":"Dataset","url_type":null,"permissions":[{"permissions":{"download":true,"view":true},"group_id":"everyone"}],"classification":null,"title":"publiclibraries.com, Oregon Public Libraries, Oregon, 1.2008","count":210,"stream_id":948,"contributor":{"url":"http://geocommons.com/users/2","name":"data"},"data_attributes":null,"calculation_params":null,"icon_link":null,"link":"http://geocommons.com/overlays/948.json","extent":[-124.498,42.0141,-116.837,46.188],"geometry_types":["point"],"unique_name":null,"name":"publiclibraries.com, Oregon Public Libraries, Oregon, 1.2008","feature_count":210,"description":"This dataset displays the locations of all the public libraries in the state of Oregon. The data included is the name of the library, name of the library system, library's address, phone, and lat/lon coordinates. The data came from publiclibraries.com which is a updated directory of all the public libraries throughout the United States.\n","next_feature":null,"is_raster":false,"short_classification":"Y","stats":{"lon":{"max":-116.837199,"mean":-122.055311009524,"variance":3.81351482703951,"stdev":1.95282227226123,"min":-124.498146,"median":-122.76305},"phone":{"max":5426825766,"mean":5280868801.26667,"variance":3.31752556776112e+16,"stdev":182140757.870421,"min":5032459932,"median":5414339667},"lat":{"max":46.18801,"mean":44.4654418904762,"variance":1.50160377000203,"stdev":1.22539943283895,"min":42.014146,"median":44.904059}},"features":[{"properties":{"city":"Adams","lon":-118.563222,"zip":"","librarysystem":"Adams Public Library","phone":5415662298,"id":"a625tdfuaoo7","address":"190 North Main","lat":45.767421,"libraryname":"Adams Public Library","state":"OR"},"type":"Feature","geometry":{"type":"Point","coordinates":[-118.563222,45.767421]}},{"properties":{"city":"Agness","lon":-124.072334,"zip":"","librarysystem":"Agness Community Library District","phone":5412476323,"id":"a625tdb7b1rx","address":"Po Box 33","lat":42.685569,"libraryname":"Agness Library District","state":"OR"},"type":"Feature","geometry":{"type":"Point","coordinates":[-124.072334,42.685569]}},{"properties":{"city":"Albany","lon":-123.073347,"zip":"","librarysystem":"Albany Public Library","phone":5419177580,"id":"a625tdgd45n4","address":"1390 Waverly Dr Se","lat":44.629032,"libraryname":"Albany Public Library","state":"OR"},"type":"Feature","geometry":{"type":"Point","coordinates":[-123.073347,44.629032]}},{"properties":{"city":"Portland","lon":-122.650586,"zip":"","librarysystem":"Multnomah County Library","phone":5039885362,"id":"a625tdegbicp","address":"3605 NE 15th Ave","lat":45.54888,"libraryname":"Albina Branch Library","state":"OR"},"type":"Feature","geometry":{"type":"Point","coordinates":[-122.650586,45.54888]}},{"properties":{"city":"Alsea","lon":-123.597245,"zip":"","librarysystem":"Corvallis-Benton County Public Library","phone":5414875061,"id":"a625tdjryq0z","address":"120 N 2nd Street","lat":44.382097,"libraryname":"Alsea Branch Library","state":"OR"},"type":"Feature","geometry":{"type":"Point","coordinates":[-123.597245,44.382097]}},{"properties":{"city":"Amity","lon":-123.206034,"zip":"","librarysystem":"Amity Public Library","phone":5038358181,"id":"a625tdnxx78k","address":"307 S. Trade St.","lat":45.117374,"libraryname":"Amity Public Library","state":"OR"},"type":"Feature","geometry":{"type":"Point","coordinates":[-123.206034,45.117374]}},{"properties":{"city":"Applegate","lon":-123.168241,"zip":"","librarysystem":"Jackson County Library Services","phone":5418467346,"id":"a625tdngzks1","address":"15095 Hwy 238","lat":42.25595,"libraryname":"Applegate Branch Library","state":"OR"},"type":"Feature","geometry":{"type":"Point","coordinates":[-123.168241,42.25595]}},{"properties":{"city":"Arlington","lon":-120.203824,"zip":"","librarysystem":"Arlington Public Library","phone":5414542444,"id":"a625tdpyw1wi","address":"500 W. First St.","lat":45.717701,"libraryname":"Arlington Public Library","state":"OR"},"type":"Feature","geometry":{"type":"Point","coordinates":[-120.203824,45.717701]}},{"properties":{"city":"Ashland","lon":-122.709499,"zip":"","librarysystem":"Jackson County Library Services","phone":5417746996,"id":"a625tdh8lvba","address":"410 Siskiyou Blvd","lat":42.194061,"libraryname":"Ashland Branch Library","state":"OR"},"type":"Feature","geometry":{"type":"Point","coordinates":[-122.709499,42.194061]}},{"properties":{"city":"Astoria","lon":-123.832594,"zip":"","librarysystem":"Astoria Public Library","phone":5033257323,"id":"a625tdnfqsvq","address":"450 Tenth St","lat":46.18801,"libraryname":"Astoria Public Library","state":"OR"},"type":"Feature","geometry":{"type":"Point","coordinates":[-123.832594,46.18801]}},{"properties":{"city":"Athena","lon":-118.489724,"zip":"","librarysystem":"Athena Public Library","phone":5415662470,"id":"a625tdgx1jpq","address":"Po Box 450","lat":45.8117,"libraryname":"Athena Public Library","state":"OR"},"type":"Feature","geometry":{"type":"Point","coordinates":[-118.489724,45.8117]}},{"properties":{"city":"Baker City","lon":-117.828917,"zip":"","librarysystem":"Baker County Library","phone":5415236419,"id":"a625tdpi62q7","address":"2400 Resort St","lat":44.780823,"libraryname":"Baker County Public Library","state":"OR"},"type":"Feature","geometry":{"type":"Point","coordinates":[-117.828917,44.780823]}},{"properties":{"city":"Bandon","lon":-124.415268,"zip":"","librarysystem":"Bandon Public Library","phone":5413473221,"id":"a625tdpvb339","address":"Library, City Hall, Hwy 101","lat":43.101131,"libraryname":"Bandon Public Library","state":"OR"},"type":"Feature","geometry":{"type":"Point","coordinates":[-124.415268,43.101131]}},{"properties":{"city":"Banks","lon":-123.114125,"zip":"","librarysystem":"Banks Public Library","phone":5033241382,"id":"a625tdglveao","address":"111 Market St","lat":45.619773,"libraryname":"Banks Public Library","state":"OR"},"type":"Feature","geometry":{"type":"Point","coordinates":[-123.114125,45.619773]}},{"properties":{"city":"Bay City","lon":-123.89086,"zip":"","librarysystem":"Tillamook County Library","phone":5033772288,"id":"a625tdgofikh","address":"5525 B St","lat":45.524398,"libraryname":"Bay City Branch Library","state":"OR"},"type":"Feature","geometry":{"type":"Point","coordinates":[-123.89086,45.524398]}},{"properties":{"city":"Beaverton","lon":-122.804387,"zip":"","librarysystem":"Beaverton City Library","phone":5036442197,"id":"a625tdh5zlg5","address":"12375 SW 5th Street","lat":45.483488,"libraryname":"Beaverton City Library","state":"OR"},"type":"Feature","geometry":{"type":"Point","coordinates":[-122.804387,45.483488]}},{"properties":{"city":"Portland","lon":-122.622739,"zip":"","librarysystem":"Multnomah County Library","phone":5039885382,"id":"a625tdmdu7hi","address":"1038 SE 39th Ave","lat":45.515426,"libraryname":"Belmont Branch Library","state":"OR"},"type":"Feature","geometry":{"type":"Point","coordinates":[-122.622739,45.515426]}},{"properties":{"city":"Bend","lon":-121.316732,"zip":"","librarysystem":"Deschutes Public Library System","phone":5413886677,"id":"a625tdnlzwk1","address":"601 NW Wall St","lat":44.056724,"libraryname":"Bend Public Library","state":"OR"},"type":"Feature","geometry":{"type":"Point","coordinates":[-121.316732,44.056724]}},{"properties":{"city":"Eugene","lon":-123.168184,"zip":"","librarysystem":"Eugene Public Library","phone":5426825766,"id":"a625tdlhnu6q","address":"1990 Echo Hollow Rd.","lat":44.084244,"libraryname":"Bethel Branch Library","state":"OR"},"type":"Feature","geometry":{"type":"Point","coordinates":[-123.168184,44.084244]}},{"properties":{"city":"Bly","lon":-121.043609,"zip":"","librarysystem":"Klamath County Library Service District","phone":5413532299,"id":"a625tdm7n5in","address":"366 Elder","lat":42.39843,"libraryname":"Bly Branch Library","state":"OR"},"type":"Feature","geometry":{"type":"Point","coordinates":[-121.043609,42.39843]}},{"properties":{"city":"Boardman","lon":-119.700266,"zip":"","librarysystem":"Oregon Trail Library District","phone":5414812665,"id":"a625tdf6j17i","address":"200 South Main St","lat":45.822419,"libraryname":"Boardman City Library","state":"OR"},"type":"Feature","geometry":{"type":"Point","coordinates":[-119.700266,45.822419]}},{"properties":{"city":"Bonanza","lon":-121.405128,"zip":"","librarysystem":"Klamath County Library Service District","phone":5415456944,"id":"a625tdaeymq9","address":"31703 Hwy 70","lat":42.198798,"libraryname":"Bonanza Branch Library","state":"OR"},"type":"Feature","geometry":{"type":"Point","coordinates":[-121.405128,42.198798]}},{"properties":{"city":"Hillsboro","lon":-122.985514,"zip":"","librarysystem":"Hillsboro Public Library","phone":5036156500,"id":"a625tde7l2oy","address":"333 Se Washington Street","lat":45.521477,"libraryname":"Books By Rail Branch","state":"OR"},"type":"Feature","geometry":{"type":"Point","coordinates":[-122.985514,45.521477]}},{"properties":{"city":"Brownsville","lon":-122.983775,"zip":"","librarysystem":"Brownsville Community Library","phone":5414665454,"id":"a625tdionr71","address":"146 Spaulding","lat":44.39407,"libraryname":"Brownsville Community Library","state":"OR"},"type":"Feature","geometry":{"type":"Point","coordinates":[-122.983775,44.39407]}},{"properties":{"city":"Butte Falls","lon":-122.567494,"zip":"","librarysystem":"Jackson County Library Services","phone":5418653511,"id":"a625tdpigmiv","address":"626 Fir Street","lat":42.542208,"libraryname":"Butte Falls Branch Library","state":"OR"},"type":"Feature","geometry":{"type":"Point","coordinates":[-122.567494,42.542208]}},{"properties":{"city":"Sutherlin","lon":-123.311298,"zip":"","librarysystem":"Douglas County Library System","phone":5414599161,"id":"a625tdkjstbq","address":"210 E. Central St","lat":43.390335,"libraryname":"C. Giles Hunt Memorial Library, Sutherlin Bra","state":"OR"},"type":"Feature","geometry":{"type":"Point","coordinates":[-123.311298,43.390335]}},{"properties":{"city":"Canby","lon":-122.694736,"zip":"","librarysystem":"Canby Public Library","phone":5032663394,"id":"a625tdna3rl0","address":"292 N Holly St","lat":45.263894,"libraryname":"Canby Public Library","state":"OR"},"type":"Feature","geometry":{"type":"Point","coordinates":[-122.694736,45.263894]}},{"properties":{"city":"Canyonville","lon":-123.280535,"zip":"","librarysystem":"Douglas County Library System","phone":5418394727,"id":"a625tdb6qfnp","address":"250 N. Main","lat":42.9292,"libraryname":"Canyonville Branch Library","state":"OR"},"type":"Feature","geometry":{"type":"Point","coordinates":[-123.280535,42.9292]}},{"properties":{"city":"Portland","lon":-122.725032,"zip":"","librarysystem":"Multnomah County Library","phone":5039885385,"id":"a625tdeqiv9b","address":"10723 SW Capitol Hwy","lat":45.447966,"libraryname":"Capitol Hill Branch Library","state":"OR"},"type":"Feature","geometry":{"type":"Point","coordinates":[-122.725032,45.447966]}},{"properties":{"city":"Albany","lon":-123.108427,"zip":"","librarysystem":"Albany Public Library","phone":5419177585,"id":"a625tdpv9pn9","address":"302 Ferry Street SW","lat":44.635299,"libraryname":"Carnegie Library","state":"OR"},"type":"Feature","geometry":{"type":"Point","coordinates":[-123.108427,44.635299]}},{"properties":{"city":"Union","lon":-117.865634,"zip":"","librarysystem":"Union Carnegie Public Library","phone":5415625811,"id":"a625tdhl2mpb","address":"182 N. Main St","lat":45.209798,"libraryname":"Carnegie Public Library","state":"OR"},"type":"Feature","geometry":{"type":"Point","coordinates":[-117.865634,45.209798]}},{"properties":{"city":"Cascade Locks","lon":-121.88947,"zip":"","librarysystem":"Hood River County Library","phone":5413749317,"id":"a625tdiaqf6k","address":"140 Se Wa-Na-Pa Street","lat":45.670109,"libraryname":"Cascade Locks Branch Library","state":"OR"},"type":"Feature","geometry":{"type":"Point","coordinates":[-121.88947,45.670109]}},{"properties":{"city":"Portland","lon":-122.805834,"zip":"","librarysystem":"Cedar Mill Community Library","phone":5036440043,"id":"a625tdpgevyg","address":"12505 NW Cornell","lat":45.525733,"libraryname":"Cedar Mill Community Library","state":"OR"},"type":"Feature","geometry":{"type":"Point","coordinates":[-122.805834,45.525733]}},{"properties":{"city":"Central Point","lon":-122.915821,"zip":"","librarysystem":"Jackson County Library Services","phone":5416643228,"id":"a625tdlj02z4","address":"226 E Pine St","lat":42.37478,"libraryname":"Central Point Branch Library","state":"OR"},"type":"Feature","geometry":{"type":"Point","coordinates":[-122.915821,42.37478]}},{"properties":{"city":"Chemult","lon":-121.825664,"zip":"","librarysystem":"Klamath County Library Service District","phone":5413652412,"id":"a625tdheyyzc","address":"Hwy 97 N","lat":43.037775,"libraryname":"Chemult Branch Library","state":"OR"},"type":"Feature","geometry":{"type":"Point","coordinates":[-121.825664,43.037775]}},{"properties":{"city":"Brookings","lon":-124.276271,"zip":"","librarysystem":"Chetco Community Public Library","phone":5414697738,"id":"a625tdc2o5hk","address":"405 Alder St","lat":42.052832,"libraryname":"Chetco Community Public Library","state":"OR"},"type":"Feature","geometry":{"type":"Point","coordinates":[-124.276271,42.052832]}},{"properties":{"city":"Chiloquin","lon":-121.864024,"zip":"","librarysystem":"Klamath County Library Service District","phone":5417833315,"id":"a625tdpqam16","address":"216 S.1st St","lat":42.575064,"libraryname":"Chiloquin Branch Library","state":"OR"},"type":"Feature","geometry":{"type":"Point","coordinates":[-121.864024,42.575064]}},{"properties":{"city":"Christmas Valley","lon":-120.680969,"zip":"","librarysystem":"Lake County Library","phone":5415762336,"id":"a625tdfbaa64","address":"Christmas Tree Lane","lat":43.23837,"libraryname":"Christmas Valley Branch Library","state":"OR"},"type":"Feature","geometry":{"type":"Point","coordinates":[-120.680969,43.23837]}},{"properties":{"city":"Portland","lon":-122.579079,"zip":"","librarysystem":"Clackamas County Library","phone":5037226222,"id":"a625tdmt7xsu","address":"11750 Se 82nd Ave, Suite D","lat":45.46116,"libraryname":"Clackamas Corner Branch Library","state":"OR"},"type":"Feature","geometry":{"type":"Point","coordinates":[-122.579079,45.46116]}},{"properties":{"city":"Oak Grove","lon":-122.624558,"zip":"","librarysystem":"Clackamas County Library","phone":5036503112,"id":"a625tdbcs8fm","address":"16201 SE Mcloughlin Blvd","lat":45.406178,"libraryname":"Clackamas County Library","state":"OR"},"type":"Feature","geometry":{"type":"Point","coordinates":[-122.624558,45.406178]}},{"properties":{"city":"Clatskanie","lon":-123.202118,"zip":"","librarysystem":"Clatskanie Library District","phone":5037283732,"id":"a625tdc6pdsd","address":"11 Lillich St","lat":46.105389,"libraryname":"Clatskanie Library District","state":"OR"},"type":"Feature","geometry":{"type":"Point","coordinates":[-123.202118,46.105389]}},{"properties":{"city":"Coos Bay","lon":-124.217337,"zip":"","librarysystem":"Coos Bay Public Library","phone":5412691101,"id":"a625tdn55gzt","address":"525 Anderson","lat":43.367074,"libraryname":"Coos Bay Public Library","state":"OR"},"type":"Feature","geometry":{"type":"Point","coordinates":[-124.217337,43.367074]}},{"properties":{"city":"Coquille","lon":-124.190764,"zip":"","librarysystem":"Coquille Public Library","phone":5413962166,"id":"a625tdfhajys","address":"105 N Birch","lat":43.175541,"libraryname":"Coquille Public Library","state":"OR"},"type":"Feature","geometry":{"type":"Point","coordinates":[-124.190764,43.175541]}},{"properties":{"city":"Cornelius","lon":-123.055138,"zip":"","librarysystem":"Cornelius Public Library","phone":5033574093,"id":"a625tdnfs8cq","address":"1355 N Barlow St","lat":45.52163,"libraryname":"Cornelius Public Library","state":"OR"},"type":"Feature","geometry":{"type":"Point","coordinates":[-123.055138,45.52163]}},{"properties":{"city":"Corvallis","lon":-123.264528,"zip":"","librarysystem":"Corvallis-Benton County Public Library","phone":5417576928,"id":"a625tdc99rm9","address":"645 NW Monroe","lat":44.565441,"libraryname":"Corvallis-Benton County Public Library","state":"OR"},"type":"Feature","geometry":{"type":"Point","coordinates":[-123.264528,44.565441]}},{"properties":{"city":"Cottage Grove","lon":-123.060849,"zip":"","librarysystem":"Cottage Grove Public Library","phone":5419423828,"id":"a625tdis1tux","address":"700 E Gibbs Ave","lat":43.7988,"libraryname":"Cottage Grove Public Library","state":"OR"},"type":"Feature","geometry":{"type":"Point","coordinates":[-123.060849,43.7988]}},{"properties":{"city":"Prineville","lon":-120.856969,"zip":"","librarysystem":"Crook County Library","phone":5414477978,"id":"a625tdcl9nuc","address":"175 N.W. Meadow Lakes Drive","lat":44.30201,"libraryname":"Crook County Library","state":"OR"},"type":"Feature","geometry":{"type":"Point","coordinates":[-120.856969,44.30201]}},{"properties":{"city":"Gold Beach","lon":-124.41947,"zip":"","librarysystem":"Curry Public Library District","phone":5412477246,"id":"a625tdil5bh5","address":"29775 Colvin Street","lat":42.414974,"libraryname":"Curry Public Library","state":"OR"},"type":"Feature","geometry":{"type":"Point","coordinates":[-124.41947,42.414974]}},{"properties":{"city":"Dallas","lon":-123.316574,"zip":"","librarysystem":"Dallas Public Library","phone":5036232633,"id":"a625tdokjnko","address":"950 Main St","lat":44.919942,"libraryname":"Dallas Public Library","state":"OR"},"type":"Feature","geometry":{"type":"Point","coordinates":[-123.316574,44.919942]}},{"properties":{"city":"Myrtle Point","lon":-123.955722,"zip":"","librarysystem":"Dora Public Library","phone":5415726009,"id":"a625tdoc88dv","address":"56125 Goldbrick Road","lat":43.152586,"libraryname":"Dora Public Library","state":"OR"},"type":"Feature","geometry":{"type":"Point","coordinates":[-123.955722,43.152586]}},{"properties":{"city":"Roseburg","lon":-123.340537,"zip":"","librarysystem":"Douglas County Library System","phone":5414404311,"id":"a625tdpq7ape","address":"1409 NE Diamond Lake Blvd","lat":43.213484,"libraryname":"Douglas County Library System","state":"OR"},"type":"Feature","geometry":{"type":"Point","coordinates":[-123.340537,43.213484]}},{"properties":{"city":"Drain","lon":-123.315168,"zip":"","librarysystem":"Douglas County Library System","phone":5418362648,"id":"a625tdk9nigq","address":"205 West","lat":43.66327,"libraryname":"Drain Branch Library","state":"OR"},"type":"Feature","geometry":{"type":"Point","coordinates":[-123.315168,43.66327]}},{"properties":{"city":"Lincoln City","lon":-124.015179,"zip":"","librarysystem":"Driftwood Public Library","phone":5419961251,"id":"a625tdffxrez","address":"801 SW Highway 101, Ste 201","lat":44.961195,"libraryname":"Driftwood Public Library","state":"OR"},"type":"Feature","geometry":{"type":"Point","coordinates":[-124.015179,44.961195]}},{"properties":{"city":"Dufur","lon":-121.125027,"zip":"","librarysystem":"Dufur School/Community Library","phone":5414672588,"id":"a625tdkmiay4","address":"802 NE Fifth St","lat":45.454958,"libraryname":"Dufur School Community Library","state":"OR"},"type":"Feature","geometry":{"type":"Point","coordinates":[-121.125027,45.454958]}},{"properties":{"city":"Eagle Point","lon":-122.802456,"zip":"","librarysystem":"Jackson County Library Services","phone":5418263313,"id":"a625tdnhuls8","address":"158 W Main St","lat":42.472921,"libraryname":"Eagle Point Branch Library","state":"OR"},"type":"Feature","geometry":{"type":"Point","coordinates":[-122.802456,42.472921]}},{"properties":{"city":"Echo","lon":-119.195214,"zip":"","librarysystem":"Echo Public Library","phone":5413768411,"id":"a625tdhorzg5","address":"20 S. Bonanza","lat":45.742171,"libraryname":"Echo Public Library","state":"OR"},"type":"Feature","geometry":{"type":"Point","coordinates":[-119.195214,45.742171]}},{"properties":{"city":"Elgin","lon":-117.917339,"zip":"","librarysystem":"Elgin Public Library","phone":5414372860,"id":"a625tdhqvti8","address":"260 N 10th Street","lat":45.56519,"libraryname":"Elgin Public Library","state":"OR"},"type":"Feature","geometry":{"type":"Point","coordinates":[-117.917339,45.56519]}},{"properties":{"city":"Vale","lon":-117.239583,"zip":"","librarysystem":"Emma Humphrey Library","phone":5414733902,"id":"a625tdk5davf","address":"150 A St E","lat":43.982019,"libraryname":"Emma Humphrey Library","state":"OR"},"type":"Feature","geometry":{"type":"Point","coordinates":[-117.239583,43.982019]}},{"properties":{"city":"Enterprise","lon":-117.276211,"zip":"","librarysystem":"Enterprise Public","phone":5414263906,"id":"a625tdoukilg","address":"101 NE First","lat":45.425607,"libraryname":"Enterprise City Library","state":"OR"},"type":"Feature","geometry":{"type":"Point","coordinates":[-117.276211,45.425607]}},{"properties":{"city":"Estacada","lon":-122.334189,"zip":"","librarysystem":"Estacada Public Library","phone":5036308273,"id":"a625tdfomefl","address":"745 Se Main","lat":45.28552,"libraryname":"Estacada Public Library","state":"OR"},"type":"Feature","geometry":{"type":"Point","coordinates":[-122.334189,45.28552]}},{"properties":{"city":"Eugene","lon":-123.094389,"zip":"","librarysystem":"Eugene Public Library","phone":5416825454,"id":"a625tdncx5h3","address":"100 West 10th Ave","lat":44.04868,"libraryname":"Eugene Public Library","state":"OR"},"type":"Feature","geometry":{"type":"Point","coordinates":[-123.094389,44.04868]}},{"properties":{"city":"Fairview","lon":-122.439634,"zip":"","librarysystem":"Multnomah County Library","phone":5039885655,"id":"a625tdg2hzky","address":"1520 NE Village St.","lat":45.533544,"libraryname":"Fairview-Columbia Branch Library","state":"OR"},"type":"Feature","geometry":{"type":"Point","coordinates":[-122.439634,45.533544]}},{"properties":{"city":"Veneta","lon":-123.351782,"zip":"","librarysystem":"Fern Ridge Library","phone":5419357512,"id":"a625tdh5zkhx","address":"88026 Territorial Road","lat":44.046716,"libraryname":"Fern Ridge Library","state":"OR"},"type":"Feature","geometry":{"type":"Point","coordinates":[-123.351782,44.046716]}},{"properties":{"city":"Myrtle Point","lon":-124.141894,"zip":"","librarysystem":"Flora M. Laird Memorial Library","phone":5415722591,"id":"a625tdgb9lim","address":"435 5th Street","lat":43.064073,"libraryname":"Flora M Laird Memorial Library","state":"OR"},"type":"Feature","geometry":{"type":"Point","coordinates":[-124.141894,43.064073]}},{"properties":{"city":"Forest Grove","lon":-123.109841,"zip":"","librarysystem":"Forest Grove City Library","phone":5033593247,"id":"a625tdo4d6p4","address":"2114 Pacific Avenue","lat":45.519448,"libraryname":"Forest Grove City Library","state":"OR"},"type":"Feature","geometry":{"type":"Point","coordinates":[-123.109841,45.519448]}},{"properties":{"city":"Fossil","lon":-120.213781,"zip":"","librarysystem":"Fossil Public Library","phone":5417632046,"id":"a625tdi5o96t","address":"401 Main Street","lat":44.999819,"libraryname":"Fossil Public Library","state":"OR"},"type":"Feature","geometry":{"type":"Point","coordinates":[-120.213781,44.999819]}},{"properties":{"city":"Portland","lon":-122.753273,"zip":"","librarysystem":"Garden Home Community Library","phone":5032459932,"id":"a625tdl6nfun","address":"7475 SW Oleson Rd","lat":45.466192,"libraryname":"Garden Home Community Library","state":"OR"},"type":"Feature","geometry":{"type":"Point","coordinates":[-122.753273,45.466192]}},{"properties":{"city":"Garibaldi","lon":-123.914119,"zip":"","librarysystem":"Tillamook County Library","phone":5033222100,"id":"a625tdbdxiu6","address":"107 Sixth St","lat":45.559356,"libraryname":"Garibaldi Branch Library","state":"OR"},"type":"Feature","geometry":{"type":"Point","coordinates":[-123.914119,45.559356]}},{"properties":{"city":"Gilchrist","lon":-121.588099,"zip":"","librarysystem":"Klamath County Library Service District","phone":5414339667,"id":"a625tdj4p9mm","address":"201 Mountain View Dr.","lat":43.567325,"libraryname":"Gilchrist Branch Library","state":"OR"},"type":"Feature","geometry":{"type":"Point","coordinates":[-121.588099,43.567325]}},{"properties":{"city":"Condon","lon":-120.184589,"zip":"","librarysystem":"Gilliam County Library","phone":5413846052,"id":"a625tdnanp3d","address":"310 S Main","lat":45.234972,"libraryname":"Gilliam County Library","state":"OR"},"type":"Feature","geometry":{"type":"Point","coordinates":[-120.184589,45.234972]}},{"properties":{"city":"Gladstone","lon":-122.593865,"zip":"","librarysystem":"Gladstone Public Library","phone":5036562411,"id":"a625tde0l5g7","address":"135 E Dartmouth","lat":45.380352,"libraryname":"Gladstone Public Library","state":"OR"},"type":"Feature","geometry":{"type":"Point","coordinates":[-122.593865,45.380352]}},{"properties":{"city":"Glendale","lon":-123.426039,"zip":"","librarysystem":"Douglas County Library System","phone":5418322360,"id":"a625tdeph8nl","address":"190 Third St","lat":42.73933,"libraryname":"Glendale Branch Library","state":"OR"},"type":"Feature","geometry":{"type":"Point","coordinates":[-123.426039,42.73933]}},{"properties":{"city":"Gold Hill","lon":-123.0485,"zip":"","librarysystem":"Jackson County Library Services","phone":5418551994,"id":"a625tdl56pne","address":"420 6th Ave","lat":42.433648,"libraryname":"Gold Hill Branch Library","state":"OR"},"type":"Feature","geometry":{"type":"Point","coordinates":[-123.0485,42.433648]}},{"properties":{"city":"John Day","lon":-118.952439,"zip":"","librarysystem":"Grant County Library","phone":5415751992,"id":"a625tdpz1qru","address":"507 S Canyon Blvd","lat":44.409905,"libraryname":"Grant County Library","state":"OR"},"type":"Feature","geometry":{"type":"Point","coordinates":[-118.952439,44.409905]}},{"properties":{"city":"Portland","lon":-122.581571,"zip":"","librarysystem":"Multnomah County Library","phone":5039885386,"id":"a625tder0w4q","address":"7921 NE Sandy Blvd","lat":45.551412,"libraryname":"Gregory Heights Branch Library","state":"OR"},"type":"Feature","geometry":{"type":"Point","coordinates":[-122.581571,45.551412]}},{"properties":{"city":"Gresham","lon":-122.432684,"zip":"","librarysystem":"Multnomah County Library","phone":5039885387,"id":"a625tdn9i8p9","address":"385 NW Miller Ave","lat":45.500288,"libraryname":"Gresham Regional Branch Library","state":"OR"},"type":"Feature","geometry":{"type":"Point","coordinates":[-122.432684,45.500288]}},{"properties":{"city":"Haines","lon":-118.023519,"zip":"","librarysystem":"Baker County Library","phone":5418563309,"id":"a625tdbhynds","address":"45794 Quail Lane","lat":44.904059,"libraryname":"Haines Branch Library","state":"OR"},"type":"Feature","geometry":{"type":"Point","coordinates":[-118.023519,44.904059]}},{"properties":{"city":"Halfway","lon":-117.109051,"zip":"","librarysystem":"Baker County Library","phone":5417425279,"id":"a625tdqf7g4z","address":"260 Gover Lane","lat":44.872755,"libraryname":"Halfway Branch Library","state":"OR"},"type":"Feature","geometry":{"type":"Point","coordinates":[-117.109051,44.872755]}},{"properties":{"city":"Burns","lon":-119.055211,"zip":"","librarysystem":"Harney County Public Library","phone":5415736670,"id":"a625tde8ikrb","address":"80 West D Street","lat":43.592336,"libraryname":"Harney County Public Library","state":"OR"},"type":"Feature","geometry":{"type":"Point","coordinates":[-119.055211,43.592336]}},{"properties":{"city":"Harrisburg","lon":-123.170191,"zip":"","librarysystem":"Harrisburg Public Library","phone":5419956949,"id":"a625tdluy79w","address":"354 Smith St","lat":44.272132,"libraryname":"Harrisburg Public Library","state":"OR"},"type":"Feature","geometry":{"type":"Point","coordinates":[-123.170191,44.272132]}},{"properties":{"city":"Powers","lon":-124.070443,"zip":"","librarysystem":"Hazel M. Lewis Library","phone":5414395311,"id":"a625tdhdayrd","address":"511 3rd Ave.","lat":42.881704,"libraryname":"Hazel M Lewis Library","state":"OR"},"type":"Feature","geometry":{"type":"Point","coordinates":[-124.070443,42.881704]}},{"properties":{"city":"Helix","lon":-118.656039,"zip":"","librarysystem":"Helix Public Library","phone":5414576130,"id":"a625tdd4g4q3","address":"Po Box 324","lat":45.849675,"libraryname":"Helix Public Library","state":"OR"},"type":"Feature","geometry":{"type":"Point","coordinates":[-118.656039,45.849675]}},{"properties":{"city":"Heppner","lon":-119.55322,"zip":"","librarysystem":"Oregon Trail Library District","phone":5416769964,"id":"a625tdjbsmdk","address":"444 Main St","lat":45.356926,"libraryname":"Heppner Branch Library","state":"OR"},"type":"Feature","geometry":{"type":"Point","coordinates":[-119.55322,45.356926]}},{"properties":{"city":"Hermiston","lon":-119.288014,"zip":"","librarysystem":"Hermiston Public Library","phone":5415672882,"id":"a625tdfuwa25","address":"235 E Gladys Ave","lat":45.841547,"libraryname":"Hermiston Public Library","state":"OR"},"type":"Feature","geometry":{"type":"Point","coordinates":[-119.288014,45.841547]}},{"properties":{"city":"Portland","lon":-122.695215,"zip":"","librarysystem":"Multnomah County Library","phone":5039885388,"id":"a625tdmtwbo1","address":"6345 SW Capitol Hwy","lat":45.47852,"libraryname":"Hillsdale","state":"OR"},"type":"Feature","geometry":{"type":"Point","coordinates":[-122.695215,45.47852]}},{"properties":{"city":"Portland","lon":-122.582355,"zip":"","librarysystem":"Multnomah County Library","phone":5039885389,"id":"a625tdmyfdpx","address":"7905 SE Holgate Blvd","lat":45.490434,"libraryname":"Holgate Branch Library","state":"OR"},"type":"Feature","geometry":{"type":"Point","coordinates":[-122.582355,45.490434]}},{"properties":{"city":"Portland","lon":-122.621517,"zip":"","librarysystem":"Multnomah County Library","phone":5039885391,"id":"a625tdnzfkn4","address":"4040 NE Tillamook St","lat":45.537588,"libraryname":"Hollywood Branch Library","state":"OR"},"type":"Feature","geometry":{"type":"Point","coordinates":[-122.621517,45.537588]}},{"properties":{"city":"Hood River","lon":-121.515344,"zip":"","librarysystem":"Hood River County Library","phone":5413862535,"id":"a625tdarm5g0","address":"502 State","lat":45.708343,"libraryname":"Hood River County Library","state":"OR"},"type":"Feature","geometry":{"type":"Point","coordinates":[-121.515344,45.708343]}},{"properties":{"city":"Welches","lon":-121.964356,"zip":"","librarysystem":"Clackamas County Library","phone":5036223460,"id":"a625tdc3s2ic","address":"68236 E Highway 26","lat":45.348317,"libraryname":"Hoodland Branch Library","state":"OR"},"type":"Feature","geometry":{"type":"Point","coordinates":[-121.964356,45.348317]}},{"properties":{"city":"Huntington","lon":-117.267144,"zip":"","librarysystem":"Baker County Library","phone":5418692202,"id":"a625tdgixfe8","address":"50 E. Adams","lat":44.350406,"libraryname":"Huntington Branch Library","state":"OR"},"type":"Feature","geometry":{"type":"Point","coordinates":[-117.267144,44.350406]}},{"properties":{"city":"Cave Junction","lon":-123.647522,"zip":"","librarysystem":"Josephine County Library System","phone":5415923581,"id":"a625tddg7rve","address":"209 W Palmer St","lat":42.168158,"libraryname":"Illinois Valley Branch Library","state":"OR"},"type":"Feature","geometry":{"type":"Point","coordinates":[-123.647522,42.168158]}},{"properties":{"city":"Imnaha","lon":-116.837199,"zip":"","librarysystem":"Wallowa County Library","phone":5415772308,"id":"a625tdl4dzeo","address":"Imnaha Hwy","lat":45.557505,"libraryname":"Imnaha Station Library","state":"OR"},"type":"Feature","geometry":{"type":"Point","coordinates":[-116.837199,45.557505]}},{"properties":{"city":"Independence","lon":-123.187695,"zip":"","librarysystem":"Independence Public Library","phone":5038381811,"id":"a625tdnmglmq","address":"311 S Monmouth St","lat":44.851053,"libraryname":"Independence Public Library","state":"OR"},"type":"Feature","geometry":{"type":"Point","coordinates":[-123.187695,44.851053]}},{"properties":{"city":"Medford","lon":-122.870417,"zip":"","librarysystem":"Jackson County Library Services","phone":5417748689,"id":"a625tdhxsetx","address":"205 South Central","lat":42.324847,"libraryname":"Jackson County Library","state":"OR"},"type":"Feature","geometry":{"type":"Point","coordinates":[-122.870417,42.324847]}},{"properties":{"city":"Jacksonville","lon":-122.968934,"zip":"","librarysystem":"Jackson County Library Services","phone":5418991665,"id":"a625tdjzpiex","address":"170 S Oregon St","lat":42.314255,"libraryname":"Jacksonville Branch Library","state":"OR"},"type":"Feature","geometry":{"type":"Point","coordinates":[-122.968934,42.314255]}},{"properties":{"city":"Madras","lon":-121.127364,"zip":"","librarysystem":"Jefferson County Library District","phone":5414753351,"id":"a625tdngknmm","address":"241 SE 7th St","lat":44.632595,"libraryname":"Jefferson County Library","state":"OR"},"type":"Feature","geometry":{"type":"Point","coordinates":[-121.127364,44.632595]}},{"properties":{"city":"Jefferson","lon":-123.011774,"zip":"","librarysystem":"Jefferson Public Library","phone":5413273826,"id":"a625tdb35vpm","address":"128 N Main St","lat":44.717668,"libraryname":"Jefferson Public Library","state":"OR"},"type":"Feature","geometry":{"type":"Point","coordinates":[-123.011774,44.717668]}},{"properties":{"city":"Joseph","lon":-117.230028,"zip":"","librarysystem":"Joseph City Library","phone":5414320141,"id":"a625tdchqr5q","address":"201 N. Main St","lat":45.353501,"libraryname":"Joseph City Library","state":"OR"},"type":"Feature","geometry":{"type":"Point","coordinates":[-117.230028,45.353501]}},{"properties":{"city":"Grants Pass","lon":-123.325357,"zip":"","librarysystem":"Josephine County Library System","phone":5414745221,"id":"a625tdjy0kfy","address":"500 NW 6th Street","lat":42.442163,"libraryname":"Josephine County Library System","state":"OR"},"type":"Feature","geometry":{"type":"Point","coordinates":[-123.325357,42.442163]}},{"properties":{"city":"Junction City","lon":-123.202394,"zip":"","librarysystem":"Junction City Public Library","phone":5419988942,"id":"a625tdmswyq9","address":"726 Greenwood Street","lat":44.220363,"libraryname":"Junction City Public Library","state":"OR"},"type":"Feature","geometry":{"type":"Point","coordinates":[-123.202394,44.220363]}},{"properties":{"city":"Keno","lon":-121.932134,"zip":"","librarysystem":"Klamath County Library Service District","phone":5412730750,"id":"a625tdktv54d","address":"15555 Hwy. 66, Space 8","lat":42.125731,"libraryname":"Keno Branch Library","state":"OR"},"type":"Feature","geometry":{"type":"Point","coordinates":[-121.932134,42.125731]}},{"properties":{"city":"Klamath Falls","lon":-121.78464,"zip":"","librarysystem":"Klamath County Library Service District","phone":5418828895,"id":"a625tdo3oj7n","address":"126 South Third Street","lat":42.222402,"libraryname":"Klamath County Library Service District","state":"OR"},"type":"Feature","geometry":{"type":"Point","coordinates":[-121.78464,42.222402]}},{"properties":{"city":"La Grande","lon":-118.096325,"zip":"","librarysystem":"La Grande Public Library","phone":5419621339,"id":"a625tdfwhsyr","address":"1006 Penn Ave","lat":45.325472,"libraryname":"La Grande Public Library","state":"OR"},"type":"Feature","geometry":{"type":"Point","coordinates":[-118.096325,45.325472]}},{"properties":{"city":"La Pine","lon":-121.507924,"zip":"","librarysystem":"Deschutes Public Library System","phone":5415360515,"id":"a625tdgufkgf","address":"16425 1st St","lat":43.674595,"libraryname":"La Pine Branch Library","state":"OR"},"type":"Feature","geometry":{"type":"Point","coordinates":[-121.507924,43.674595]}},{"properties":{"city":"Lakeview","lon":-120.345109,"zip":"","librarysystem":"Lake County Library","phone":5419476019,"id":"a625tdbsxl7w","address":"513 Center St","lat":42.189356,"libraryname":"Lake County Library","state":"OR"},"type":"Feature","geometry":{"type":"Point","coordinates":[-120.345109,42.189356]}},{"properties":{"city":"Lake Oswego","lon":-122.667246,"zip":"","librarysystem":"Lake Oswego Public Library","phone":5036350392,"id":"a625tdan3fi3","address":"706 4th St","lat":45.423794,"libraryname":"Lake Oswego Public Library","state":"OR"},"type":"Feature","geometry":{"type":"Point","coordinates":[-122.667246,45.423794]}},{"properties":{"city":"Lakeside","lon":-124.114009,"zip":"","librarysystem":"Lakeside Public Library","phone":5417594432,"id":"a625tdg6kjes","address":"915 N Lake Rd","lat":43.59447,"libraryname":"Lakeside Public Library","state":"OR"},"type":"Feature","geometry":{"type":"Point","coordinates":[-124.114009,43.59447]}},{"properties":{"city":"Langlois","lon":-124.450404,"zip":"","librarysystem":"Langlois Public Library","phone":5413482278,"id":"a625tdirdl29","address":"48234 Hwy 101","lat":42.922115,"libraryname":"Langlois District Library","state":"OR"},"type":"Feature","geometry":{"type":"Point","coordinates":[-124.450404,42.922115]}},{"properties":{"city":"Lebanon","lon":-122.908765,"zip":"","librarysystem":"Lebanon Public Library","phone":5414517461,"id":"a625tdjgz1hh","address":"626 2nd Street","lat":44.539731,"libraryname":"Lebanon Public Library","state":"OR"},"type":"Feature","geometry":{"type":"Point","coordinates":[-122.908765,44.539731]}},{"properties":{"city":"Milwaukie","lon":-122.640407,"zip":"","librarysystem":"Ledding Library","phone":5037867580,"id":"a625tdfidt0t","address":"10660 SE 21st Ave","lat":45.445855,"libraryname":"Ledding Library","state":"OR"},"type":"Feature","geometry":{"type":"Point","coordinates":[-122.640407,45.445855]}},{"properties":{"city":"Lyons","lon":-122.617279,"zip":"","librarysystem":"Lyons Public Library","phone":5038592366,"id":"a625tdjlfqwg","address":"448 Cedar Street","lat":44.777392,"libraryname":"Lyons Public Library","state":"OR"},"type":"Feature","geometry":{"type":"Point","coordinates":[-122.617279,44.777392]}},{"properties":{"city":"Ontario","lon":-116.967856,"zip":"","librarysystem":"Malheur County Library","phone":5418896371,"id":"a625tdimjc9h","address":"388 SW 2nd Ave","lat":44.025425,"libraryname":"Malheur County Library","state":"OR"},"type":"Feature","geometry":{"type":"Point","coordinates":[-116.967856,44.025425]}},{"properties":{"city":"Malin","lon":-121.409463,"zip":"","librarysystem":"Klamath County Library Service District","phone":5417235930,"id":"a625tdnvy4x1","address":"2307 Front St","lat":42.014146,"libraryname":"Malin Branch Library","state":"OR"},"type":"Feature","geometry":{"type":"Point","coordinates":[-121.409463,42.014146]}},{"properties":{"city":"Manzanita","lon":-123.931691,"zip":"","librarysystem":"Tillamook County Library","phone":5033686665,"id":"a625tdoen8b4","address":"571 Laneda","lat":45.719353,"libraryname":"Manzanita Branch Library","state":"OR"},"type":"Feature","geometry":{"type":"Point","coordinates":[-123.931691,45.719353]}},{"properties":{"city":"Mapleton","lon":-123.860338,"zip":"","librarysystem":"Siuslaw Public Library District","phone":5412684033,"id":"a625tdnczefq","address":"88148 Riverview Ave","lat":44.034301,"libraryname":"Mapleton Branch Library","state":"OR"},"type":"Feature","geometry":{"type":"Point","coordinates":[-123.860338,44.034301]}},{"properties":{"city":"Dayton","lon":-123.076808,"zip":"","librarysystem":"Mary Gilkey City Library","phone":5038642221,"id":"a625tdpzxt3h","address":"416 Ferry St","lat":45.219958,"libraryname":"Mary Gilkey Library","state":"OR"},"type":"Feature","geometry":{"type":"Point","coordinates":[-123.076808,45.219958]}},{"properties":{"city":"McMinnville","lon":-123.199264,"zip":"","librarysystem":"McMinnville Public Library","phone":5034347308,"id":"a625tdpvxb75","address":"225 N Adams","lat":45.209475,"libraryname":"McMinnville Public Library","state":"OR"},"type":"Feature","geometry":{"type":"Point","coordinates":[-123.199264,45.209475]}},{"properties":{"city":"Merrill","lon":-121.603382,"zip":"","librarysystem":"Klamath County Library Service District","phone":5417985393,"id":"a625tdm0s4ph","address":"365 W Front St","lat":42.023829,"libraryname":"Merrill Branch Library","state":"OR"},"type":"Feature","geometry":{"type":"Point","coordinates":[-121.603382,42.023829]}},{"properties":{"city":"Portland","lon":-122.537902,"zip":"","librarysystem":"Multnomah County Library","phone":5039885392,"id":"a625tdmhb9zi","address":"805 SE 122nd Ave","lat":45.516803,"libraryname":"Midland Regional Branch Library","state":"OR"},"type":"Feature","geometry":{"type":"Point","coordinates":[-122.537902,45.516803]}},{"properties":{"city":"Milton-Freewater","lon":-118.384386,"zip":"","librarysystem":"Milton-Freewater Public Library","phone":5419385531,"id":"a625tdiq12ok","address":"815 S Main","lat":45.927718,"libraryname":"Milton-Freewater Public Library","state":"OR"},"type":"Feature","geometry":{"type":"Point","coordinates":[-118.384386,45.927718]}},{"properties":{"city":"Molalla","lon":-122.577605,"zip":"","librarysystem":"Molalla Public Library","phone":5038292593,"id":"a625tdotdf46","address":"201 E Fifth St","lat":45.143876,"libraryname":"Molalla Public Library","state":"OR"},"type":"Feature","geometry":{"type":"Point","coordinates":[-122.577605,45.143876]}},{"properties":{"city":"Monmouth","lon":-123.231992,"zip":"","librarysystem":"Monmouth Public Library","phone":5038381932,"id":"a625tdggw9ny","address":"168 S Ecols St","lat":44.847805,"libraryname":"Monmouth Public Library","state":"OR"},"type":"Feature","geometry":{"type":"Point","coordinates":[-123.231992,44.847805]}},{"properties":{"city":"Monroe","lon":-123.299792,"zip":"","librarysystem":"Corvallis-Benton County Public Library","phone":5418475174,"id":"a625tdb4baty","address":"668 Commercial St","lat":44.314655,"libraryname":"Monroe Community Library","state":"OR"},"type":"Feature","geometry":{"type":"Point","coordinates":[-123.299792,44.314655]}},{"properties":{"city":"Mt Angel","lon":-122.798098,"zip":"","librarysystem":"Mt. Angel Public Library","phone":5038456401,"id":"a625tdiesd14","address":"245 E Church St","lat":45.067339,"libraryname":"Mt Angel Public Library","state":"OR"},"type":"Feature","geometry":{"type":"Point","coordinates":[-122.798098,45.067339]}},{"properties":{"city":"Portland","lon":-122.682617,"zip":"","librarysystem":"Multnomah County Library","phone":5039885123,"id":"a625tdf4aa1t","address":"801 SW 10th Ave","lat":45.519291,"libraryname":"Multnomah County Central Library","state":"OR"},"type":"Feature","geometry":{"type":"Point","coordinates":[-122.682617,45.519291]}},{"properties":{"city":"Myrtle Creek","lon":-123.287359,"zip":"","librarysystem":"Douglas County Library System","phone":5418635945,"id":"a625tdfiffio","address":"231 Division St","lat":43.02749,"libraryname":"Myrtle Creek Branch Library","state":"OR"},"type":"Feature","geometry":{"type":"Point","coordinates":[-123.287359,43.02749]}},{"properties":{"city":"Newberg","lon":-122.974961,"zip":"","librarysystem":"Newberg Public Library","phone":5035388376,"id":"a625tdkomxih","address":"503 E Hancock St","lat":45.301222,"libraryname":"Newberg Public Library","state":"OR"},"type":"Feature","geometry":{"type":"Point","coordinates":[-122.974961,45.301222]}},{"properties":{"city":"Newport","lon":-124.055834,"zip":"","librarysystem":"Newport Public Library","phone":5412652153,"id":"a625tdee1o5t","address":"35 NW Nye St","lat":44.636766,"libraryname":"Newport Public Library","state":"OR"},"type":"Feature","geometry":{"type":"Point","coordinates":[-124.055834,44.636766]}},{"properties":{"city":"North Bend","lon":-124.22413,"zip":"","librarysystem":"North Bend Public Library","phone":5417560400,"id":"a625tddazs40","address":"1800 Sherman Ave","lat":43.409081,"libraryname":"North Bend Public Library","state":"OR"},"type":"Feature","geometry":{"type":"Point","coordinates":[-124.22413,43.409081]}},{"properties":{"city":"Portland","lon":-122.671588,"zip":"","librarysystem":"Multnomah County Library","phone":5039885394,"id":"a625tdk5cv8c","address":"512 N Killingsworth St","lat":45.562563,"libraryname":"North Portland Branch Library","state":"OR"},"type":"Feature","geometry":{"type":"Point","coordinates":[-122.671588,45.562563]}},{"properties":{"city":"North Powder","lon":-117.920476,"zip":"","librarysystem":"North Powder City Library","phone":5418982175,"id":"a625tdf3q381","address":"290 E St","lat":45.029165,"libraryname":"North Powder City Library","state":"OR"},"type":"Feature","geometry":{"type":"Point","coordinates":[-117.920476,45.029165]}},{"properties":{"city":"Portland","lon":-122.698946,"zip":"","librarysystem":"Multnomah County Library","phone":5039885560,"id":"a625tdnhr6v1","address":"2300 NW Thurman St.","lat":45.535433,"libraryname":"Northwest Branch Library","state":"OR"},"type":"Feature","geometry":{"type":"Point","coordinates":[-122.698946,45.535433]}},{"properties":{"city":"Nyssa","lon":-116.996662,"zip":"","librarysystem":"Nyssa Public Library","phone":5413722978,"id":"a625tdhd7r87","address":"319 Main St","lat":43.876613,"libraryname":"Nyssa Public Library","state":"OR"},"type":"Feature","geometry":{"type":"Point","coordinates":[-116.996662,43.876613]}},{"properties":{"city":"Oakland","lon":-123.293308,"zip":"","librarysystem":"Douglas County Library System","phone":5414599784,"id":"a625tdpmubfs","address":"637 NE Locust St","lat":43.423691,"libraryname":"Oakland Branch Library","state":"OR"},"type":"Feature","geometry":{"type":"Point","coordinates":[-123.293308,43.423691]}},{"properties":{"city":"Oakridge","lon":-122.456769,"zip":"","librarysystem":"Oakridge Public Library","phone":5417822258,"id":"a625tdcrw584","address":"48318 E. 1st","lat":43.747529,"libraryname":"Oakridge Public Library","state":"OR"},"type":"Feature","geometry":{"type":"Point","coordinates":[-122.456769,43.747529]}},{"properties":{"city":"Oregon City","lon":-122.59225,"zip":"","librarysystem":"Oregon City Public Library","phone":5036578269,"id":"a625tdkffnk7","address":"362 Warner Milne Road","lat":45.336409,"libraryname":"Oregon City Public Library","state":"OR"},"type":"Feature","geometry":{"type":"Point","coordinates":[-122.59225,45.336409]}},{"properties":{"city":"Pacific City","lon":-123.962619,"zip":"","librarysystem":"Tillamook County Library","phone":5039656163,"id":"a625tdhaxlpc","address":"6200 Camp St.","lat":45.201935,"libraryname":"Pacific City Branch Library","state":"OR"},"type":"Feature","geometry":{"type":"Point","coordinates":[-123.962619,45.201935]}},{"properties":{"city":"Paisley","lon":-120.543582,"zip":"","librarysystem":"Lake County Library","phone":5419433911,"id":"a625tdkzujc5","address":"513 Mill St","lat":42.693772,"libraryname":"Paisley Branch Library","state":"OR"},"type":"Feature","geometry":{"type":"Point","coordinates":[-120.543582,42.693772]}},{"properties":{"city":"Parkdale","lon":-121.596574,"zip":"","librarysystem":"Hood River County Library","phone":5413526502,"id":"a625tdkz2acr","address":"7300 Clear Creek Road","lat":45.5196,"libraryname":"Parkdale Branch Library","state":"OR"},"type":"Feature","geometry":{"type":"Point","coordinates":[-121.596574,45.5196]}},{"properties":{"city":"Pendleton","lon":-118.791643,"zip":"","librarysystem":"Pendleton Public Library","phone":5419660380,"id":"a625tdj7shp2","address":"502 SW Dorion Ave","lat":45.67012,"libraryname":"Pendleton Public Library","state":"OR"},"type":"Feature","geometry":{"type":"Point","coordinates":[-118.791643,45.67012]}},{"properties":{"city":"Philomath","lon":-123.371527,"zip":"","librarysystem":"Corvallis-Benton County Public Library","phone":5419293016,"id":"a625tdcwmv5t","address":"1050 Applegate","lat":44.539004,"libraryname":"Philomath Community Library","state":"OR"},"type":"Feature","geometry":{"type":"Point","coordinates":[-123.371527,44.539004]}},{"properties":{"city":"Phoenix","lon":-122.816372,"zip":"","librarysystem":"Jackson County Library Services","phone":5415357090,"id":"a625tdqe0r0x","address":"110 W 2nd St","lat":42.274495,"libraryname":"Phoenix Branch Library","state":"OR"},"type":"Feature","geometry":{"type":"Point","coordinates":[-122.816372,42.274495]}},{"properties":{"city":"Pilot Rock","lon":-118.833864,"zip":"","librarysystem":"Pilot Rock Public Library","phone":5414433285,"id":"a625tdcg03tc","address":"144 N. Alder Pl","lat":45.483141,"libraryname":"Pilot Rock Public Library","state":"OR"},"type":"Feature","geometry":{"type":"Point","coordinates":[-118.833864,45.483141]}},{"properties":{"city":"Port Orford","lon":-124.498146,"zip":"","librarysystem":"Port Orford Public Library","phone":5413325622,"id":"a625tdaas2jv","address":"555 W. 20th Street","lat":42.75409,"libraryname":"Port Orford Public Library","state":"OR"},"type":"Feature","geometry":{"type":"Point","coordinates":[-124.498146,42.75409]}},{"properties":{"city":"Prospect","lon":-122.488847,"zip":"","librarysystem":"Jackson County Library Services","phone":5415603668,"id":"a625tdpannaj","address":"300 Mill Creek Dr","lat":42.752873,"libraryname":"Prospect Branch Library","state":"OR"},"type":"Feature","geometry":{"type":"Point","coordinates":[-122.488847,42.752873]}},{"properties":{"city":"Rainier","lon":-122.935799,"zip":"","librarysystem":"Rainier City Library","phone":5035567301,"id":"a625tdbx6nn8","address":"106 B St","lat":46.089012,"libraryname":"Rainier City Library","state":"OR"},"type":"Feature","geometry":{"type":"Point","coordinates":[-122.935799,46.089012]}},{"properties":{"city":"Redmond","lon":-121.176721,"zip":"","librarysystem":"Deschutes Public Library System","phone":5415483141,"id":"a625tdezpqgv","address":"827 SW Deschutes Ave.","lat":44.273758,"libraryname":"Redmond Branch Library","state":"OR"},"type":"Feature","geometry":{"type":"Point","coordinates":[-121.176721,44.273758]}},{"properties":{"city":"Reedsport","lon":-124.096426,"zip":"","librarysystem":"Douglas County Library System","phone":5412713500,"id":"a625tdakitn8","address":"395 Winchester Ave","lat":43.70185,"libraryname":"Reedsport Branch Library","state":"OR"},"type":"Feature","geometry":{"type":"Point","coordinates":[-124.096426,43.70185]}},{"properties":{"city":"Richland","lon":-117.228463,"zip":"","librarysystem":"Baker County Library","phone":5418936088,"id":"a625tdfkl6ra","address":"37986 Hwy 86","lat":44.783341,"libraryname":"Richland","state":"OR"},"type":"Feature","geometry":{"type":"Point","coordinates":[-117.228463,44.783341]}},{"properties":{"city":"Riddle","lon":-123.284767,"zip":"","librarysystem":"Douglas County Library System","phone":5418742070,"id":"a625tdcg4x7c","address":"637 First St","lat":42.926082,"libraryname":"Riddle Branch Library","state":"OR"},"type":"Feature","geometry":{"type":"Point","coordinates":[-123.284767,42.926082]}},{"properties":{"city":"Rockaway","lon":-123.941633,"zip":"","librarysystem":"Tillamook County Library","phone":5033552665,"id":"a625tdgq8ei9","address":"120 N. Coral","lat":45.613545,"libraryname":"Rockaway Branch Library","state":"OR"},"type":"Feature","geometry":{"type":"Point","coordinates":[-123.941633,45.613545]}},{"properties":{"city":"Portland","lon":-122.479037,"zip":"","librarysystem":"Multnomah County Library","phone":5039885396,"id":"a625tdddtfih","address":"17917 SE Stark St","lat":45.519313,"libraryname":"Rockwood Branch Library","state":"OR"},"type":"Feature","geometry":{"type":"Point","coordinates":[-122.479037,45.519313]}},{"properties":{"city":"Rogue River","lon":-123.166857,"zip":"","librarysystem":"Jackson County Library Services","phone":5418648850,"id":"a625tdhd096b","address":"412 E Main St","lat":42.433086,"libraryname":"Rogue River Branch Library","state":"OR"},"type":"Feature","geometry":{"type":"Point","coordinates":[-123.166857,42.433086]}},{"properties":{"city":"Ruch","lon":-123.042682,"zip":"","librarysystem":"Jackson County Library Services","phone":5418997438,"id":"a625tdmozhpp","address":"7388 Highway 238","lat":42.237529,"libraryname":"Ruch Branch Library","state":"OR"},"type":"Feature","geometry":{"type":"Point","coordinates":[-123.042682,42.237529]}},{"properties":{"city":"Salem","lon":-123.041371,"zip":"","librarysystem":"Salem Public Library","phone":5035886071,"id":"a625tdoi8jjv","address":"585 Liberty St. Se","lat":44.935353,"libraryname":"Salem Public Library","state":"OR"},"type":"Feature","geometry":{"type":"Point","coordinates":[-123.041371,44.935353]}},{"properties":{"city":"Sandy","lon":-122.262094,"zip":"","librarysystem":"Sandy Public Library","phone":5036685537,"id":"a625tdp1jcda","address":"38980 Proctor Blvd.","lat":45.397138,"libraryname":"Sandy Public Library","state":"OR"},"type":"Feature","geometry":{"type":"Point","coordinates":[-122.262094,45.397138]}},{"properties":{"city":"Scappoose","lon":-122.929999,"zip":"","librarysystem":"Scappoose Public Library","phone":5035437123,"id":"a625tdhrsvfl","address":"Po Box 400","lat":45.80008,"libraryname":"Scappoose Public Library","state":"OR"},"type":"Feature","geometry":{"type":"Point","coordinates":[-122.929999,45.80008]}},{"properties":{"city":"Scio","lon":-122.849677,"zip":"","librarysystem":"Scio Public Library","phone":5033943342,"id":"a625tdae7i6h","address":"38957 NW 1st","lat":44.704848,"libraryname":"Scio Public Library","state":"OR"},"type":"Feature","geometry":{"type":"Point","coordinates":[-122.849677,44.704848]}},{"properties":{"city":"Seaside","lon":-123.920232,"zip":"","librarysystem":"Seaside Public Library","phone":5037386742,"id":"a625tddbjlcm","address":"60 N Roosevelt Blvd","lat":45.994048,"libraryname":"Seaside Public Library","state":"OR"},"type":"Feature","geometry":{"type":"Point","coordinates":[-123.920232,45.994048]}},{"properties":{"city":"Portland","lon":-122.652864,"zip":"","librarysystem":"Multnomah County Library","phone":5039885398,"id":"a625tdo7fnz5","address":"7860 SE 13th Ave","lat":45.467691,"libraryname":"Sellwood-Moreland Branch Library","state":"OR"},"type":"Feature","geometry":{"type":"Point","coordinates":[-122.652864,45.467691]}},{"properties":{"city":"Shady Cove","lon":-122.808254,"zip":"","librarysystem":"Jackson County Library Services","phone":5418782270,"id":"a625tdpgb5sn","address":"22477 Hwy 62","lat":42.623664,"libraryname":"Shady Cove Branch Library","state":"OR"},"type":"Feature","geometry":{"type":"Point","coordinates":[-122.808254,42.623664]}},{"properties":{"city":"Eugene","lon":-123.068545,"zip":"","librarysystem":"Eugene Public Library","phone":5416825778,"id":"a625tdobu4vx","address":"1566 Coburg Rd","lat":44.079228,"libraryname":"Sheldon Branch Library","state":"OR"},"type":"Feature","geometry":{"type":"Point","coordinates":[-123.068545,44.079228]}},{"properties":{"city":"Sheridan","lon":-123.395789,"zip":"","librarysystem":"Sheridan Public Library","phone":5038433420,"id":"a625tdp7lhc3","address":"142 NW Yamhill","lat":45.100155,"libraryname":"Sheridan Public Library","state":"OR"},"type":"Feature","geometry":{"type":"Point","coordinates":[-123.395789,45.100155]}},{"properties":{"city":"Moro","lon":-120.73798,"zip":"","librarysystem":"Sherman County Public/School Library","phone":5415653279,"id":"a625tdm9f8qm","address":"65912 High School Loop","lat":45.479161,"libraryname":"Sherman County Public/School Library","state":"OR"},"type":"Feature","geometry":{"type":"Point","coordinates":[-120.73798,45.479161]}},{"properties":{"city":"Sherwood","lon":-122.840484,"zip":"","librarysystem":"Sherwood Public Library","phone":5036256688,"id":"a625tdotvtx5","address":"955 N Sherwood Blvd","lat":45.356495,"libraryname":"Sherwood Public Library","state":"OR"},"type":"Feature","geometry":{"type":"Point","coordinates":[-122.840484,45.356495]}},{"properties":{"city":"Hillsboro","lon":-122.974223,"zip":"","librarysystem":"Hillsboro Public Library","phone":5036156500,"id":"a625tdhqvo4q","address":"775 Se Tenth Ave","lat":45.513662,"libraryname":"Shute Park Branch","state":"OR"},"type":"Feature","geometry":{"type":"Point","coordinates":[-122.974223,45.513662]}},{"properties":{"city":"Siletz","lon":-123.918866,"zip":"","librarysystem":"Siletz Public Library","phone":5414442855,"id":"a625tdh14sxd","address":"243 W. Buford Ave","lat":44.721936,"libraryname":"Siletz Public Library","state":"OR"},"type":"Feature","geometry":{"type":"Point","coordinates":[-123.918866,44.721936]}},{"properties":{"city":"Silverton","lon":-122.781492,"zip":"","librarysystem":"Silver Falls Library District","phone":5039735173,"id":"a625tdmkl1id","address":"410 S Water St","lat":45.003015,"libraryname":"Silver Falls Library","state":"OR"},"type":"Feature","geometry":{"type":"Point","coordinates":[-122.781492,45.003015]}},{"properties":{"city":"Silver Lake","lon":-119.999803,"zip":"","librarysystem":"Lake County Library","phone":5415762146,"id":"a625tdlq6k83","address":"Highway 395","lat":42.954695,"libraryname":"Silver Lake Branch Library","state":"OR"},"type":"Feature","geometry":{"type":"Point","coordinates":[-119.999803,42.954695]}},{"properties":{"city":"Sisters","lon":-121.547679,"zip":"","librarysystem":"Deschutes Public Library System","phone":5415492921,"id":"a625tdfzpodj","address":"291 E. Main St.","lat":44.291992,"libraryname":"Sisters Branch Library","state":"OR"},"type":"Feature","geometry":{"type":"Point","coordinates":[-121.547679,44.291992]}},{"properties":{"city":"Florence","lon":-124.105444,"zip":"","librarysystem":"Siuslaw Public Library District","phone":5419973132,"id":"a625tdogxnq1","address":"1460 9th St","lat":43.974521,"libraryname":"Siuslaw Public Library District","state":"OR"},"type":"Feature","geometry":{"type":"Point","coordinates":[-124.105444,43.974521]}},{"properties":{"city":"Klamath Falls","lon":-121.742391,"zip":"","librarysystem":"Klamath County Library Service District","phone":5412733679,"id":"a625tdgve2rw","address":"3706 S 6th St","lat":42.206228,"libraryname":"South Suburban Branch Library","state":"OR"},"type":"Feature","geometry":{"type":"Point","coordinates":[-121.742391,42.206228]}},{"properties":{"city":"Maupin","lon":-121.079792,"zip":"","librarysystem":"Southern Wasco County Library","phone":5413952208,"id":"a625tdb82o5r","address":"410 Deschutes Ave.","lat":45.175825,"libraryname":"Southern Wasco County Library","state":"OR"},"type":"Feature","geometry":{"type":"Point","coordinates":[-121.079792,45.175825]}},{"properties":{"city":"Sprague River","lon":-121.356448,"zip":"","librarysystem":"Klamath County Library Service District","phone":5415332769,"id":"a625tdabsxcb","address":"Sprague River Hwy","lat":42.41162,"libraryname":"Sprague River Branch Library","state":"OR"},"type":"Feature","geometry":{"type":"Point","coordinates":[-121.356448,42.41162]}},{"properties":{"city":"Springfield","lon":-123.019369,"zip":"","librarysystem":"Springfield Public Library","phone":5417263766,"id":"a625tdbn1nod","address":"225 N 5th St","lat":44.047299,"libraryname":"Springfield Public Library","state":"OR"},"type":"Feature","geometry":{"type":"Point","coordinates":[-123.019369,44.047299]}},{"properties":{"city":"St. Helens","lon":-122.814218,"zip":"","librarysystem":"St. Helens Public Library","phone":5033974544,"id":"a625tdqabyb5","address":"375 S 18th St, Suite A","lat":45.854887,"libraryname":"St. Helens Public Library","state":"OR"},"type":"Feature","geometry":{"type":"Point","coordinates":[-122.814218,45.854887]}},{"properties":{"city":"Portland","lon":-122.751352,"zip":"","librarysystem":"Multnomah County Library","phone":5039885397,"id":"a625tdmdw13x","address":"7510 N Charleston Ave","lat":45.589957,"libraryname":"St. Johns Branch Library","state":"OR"},"type":"Feature","geometry":{"type":"Point","coordinates":[-122.751352,45.589957]}},{"properties":{"city":"Stanfield","lon":-119.218517,"zip":"","librarysystem":"Stanfield Public Library","phone":5414491254,"id":"a625tdeuhhhy","address":"180 West Coe Ave","lat":45.780657,"libraryname":"Stanfield Public Library","state":"OR"},"type":"Feature","geometry":{"type":"Point","coordinates":[-119.218517,45.780657]}},{"properties":{"city":"Stayton","lon":-122.794467,"zip":"","librarysystem":"Stayton Public Library","phone":5037693313,"id":"a625tdo71hvb","address":"515 N First Ave","lat":44.798771,"libraryname":"Stayton Public Library","state":"OR"},"type":"Feature","geometry":{"type":"Point","coordinates":[-122.794467,44.798771]}},{"properties":{"city":"Sunriver","lon":-121.434878,"zip":"","librarysystem":"Deschutes Public Library System","phone":5415939285,"id":"a625tdgrwr0m","address":"56855 Venture Lane","lat":43.86516,"libraryname":"Sunriver Branch Library","state":"OR"},"type":"Feature","geometry":{"type":"Point","coordinates":[-121.434878,43.86516]}},{"properties":{"city":"Sweet Home","lon":-122.728641,"zip":"","librarysystem":"Sweet Home Public Library","phone":5413675007,"id":"a625tdghc9y6","address":"1101 13th Ave","lat":44.396091,"libraryname":"Sweet Home Public Library","state":"OR"},"type":"Feature","geometry":{"type":"Point","coordinates":[-122.728641,44.396091]}},{"properties":{"city":"Talent","lon":-122.788161,"zip":"","librarysystem":"Jackson County Library Services","phone":5415354163,"id":"a625tdn8nn4w","address":"105 North \"I\" Street","lat":42.244774,"libraryname":"Talent Branch Library","state":"OR"},"type":"Feature","geometry":{"type":"Point","coordinates":[-122.788161,42.244774]}},{"properties":{"city":"Hillsboro","lon":-122.867624,"zip":"","librarysystem":"Hillsboro Public Library","phone":5036156500,"id":"a625tdpg06bj","address":"2453 NW 185th Ave","lat":45.537697,"libraryname":"Tanasbourne Branch Library","state":"OR"},"type":"Feature","geometry":{"type":"Point","coordinates":[-122.867624,45.537697]}},{"properties":{"city":"The Dalles","lon":-121.185475,"zip":"","librarysystem":"The Dalles-Wasco County Library","phone":5412962815,"id":"a625tdf6du32","address":"722 Court St","lat":45.599146,"libraryname":"The Dalles-Wasco County Library","state":"OR"},"type":"Feature","geometry":{"type":"Point","coordinates":[-121.185475,45.599146]}},{"properties":{"city":"Tigard","lon":-122.765934,"zip":"","librarysystem":"Tigard Public Library","phone":5036846537,"id":"a625tdofg6fp","address":"13125 SW Hall Blvd","lat":45.425238,"libraryname":"Tigard Public Library","state":"OR"},"type":"Feature","geometry":{"type":"Point","coordinates":[-122.765934,45.425238]}},{"properties":{"city":"Tillamook","lon":-123.846849,"zip":"","librarysystem":"Tillamook County Library","phone":5038424792,"id":"a625tdmwhx43","address":"1716 3rd Street","lat":45.456512,"libraryname":"Tillamook County Library","state":"OR"},"type":"Feature","geometry":{"type":"Point","coordinates":[-123.846849,45.456512]}},{"properties":{"city":"Toledo","lon":-123.939021,"zip":"","librarysystem":"Toledo Public Library","phone":5413363132,"id":"a625tdnfe8s0","address":"173 NW 7th St","lat":44.625321,"libraryname":"Toledo Public Library","state":"OR"},"type":"Feature","geometry":{"type":"Point","coordinates":[-123.939021,44.625321]}},{"properties":{"city":"Enterprise","lon":-117.392402,"zip":"","librarysystem":"Wallowa County Library","phone":5418287788,"id":"a625tdnjrnq4","address":"66247 Redmond Grade, Troy","lat":45.938675,"libraryname":"Troy Station Library","state":"OR"},"type":"Feature","geometry":{"type":"Point","coordinates":[-117.392402,45.938675]}},{"properties":{"city":"Tualatin","lon":-122.762818,"zip":"","librarysystem":"Tualatin Public Library","phone":5036913071,"id":"a625tdhc5vkq","address":"8380 SW Nyberg Rd","lat":45.382549,"libraryname":"Tualatin Public Library","state":"OR"},"type":"Feature","geometry":{"type":"Point","coordinates":[-122.762818,45.382549]}},{"properties":{"city":"Ukiah","lon":-118.936225,"zip":"","librarysystem":"Ukiah Public/School Library","phone":5414273431,"id":"a625tdjpm6xp","address":"201 Hill St","lat":45.135667,"libraryname":"Ukiah School/Public Library","state":"OR"},"type":"Feature","geometry":{"type":"Point","coordinates":[-118.936225,45.135667]}},{"properties":{"city":"Umatilla","lon":-119.342127,"zip":"","librarysystem":"Umatilla County Special Library District","phone":5419225704,"id":"a625tdg2k7mc","address":"911 7th St.","lat":45.916992,"libraryname":"Umatilla County Special Library District","state":"OR"},"type":"Feature","geometry":{"type":"Point","coordinates":[-119.342127,45.916992]}},{"properties":{"city":"Vernonia","lon":-123.196667,"zip":"","librarysystem":"Vernonia Public Library","phone":5034291818,"id":"a625tdgy1xmd","address":"701 Weed Avenue","lat":45.857887,"libraryname":"Vernonia Public Library","state":"OR"},"type":"Feature","geometry":{"type":"Point","coordinates":[-123.196667,45.857887]}},{"properties":{"city":"Falls City","lon":-123.428532,"zip":"","librarysystem":"Wagner Community Library","phone":5037873521,"id":"a625tdjfd3oo","address":"111 N. Main Street","lat":44.865705,"libraryname":"Wagner Community Library","state":"OR"},"type":"Feature","geometry":{"type":"Point","coordinates":[-123.428532,44.865705]}},{"properties":{"city":"Waldport","lon":-124.065813,"zip":"","librarysystem":"Waldport Public Library","phone":5415635880,"id":"a625tdq8nwru","address":"460 Hemlock","lat":44.42708,"libraryname":"Waldport Public Library","state":"OR"},"type":"Feature","geometry":{"type":"Point","coordinates":[-124.065813,44.42708]}},{"properties":{"city":"Enterprise","lon":-117.279066,"zip":"","librarysystem":"Wallowa County Library","phone":5414263969,"id":"a625tdew494r","address":"207 NW Logan","lat":45.427477,"libraryname":"Wallowa County Library","state":"OR"},"type":"Feature","geometry":{"type":"Point","coordinates":[-117.279066,45.427477]}},{"properties":{"city":"Wallowa","lon":-117.528619,"zip":"","librarysystem":"Wallowa Public Library","phone":5418864265,"id":"a625tdp97sie","address":"201 N Main","lat":45.570195,"libraryname":"Wallowa Public Library","state":"OR"},"type":"Feature","geometry":{"type":"Point","coordinates":[-117.528619,45.570195]}},{"properties":{"city":"Warrenton","lon":-123.925611,"zip":"","librarysystem":"Warrenton Community Library","phone":5038613919,"id":"a625tdlga7hg","address":"225 S Main Ave.","lat":46.163483,"libraryname":"Warrenton Community Library","state":"OR"},"type":"Feature","geometry":{"type":"Point","coordinates":[-123.925611,46.163483]}},{"properties":{"city":"West Linn","lon":-122.614317,"zip":"","librarysystem":"West Linn Public Library","phone":5036567853,"id":"a625tdkqxmcv","address":"1595 Burns St","lat":45.367032,"libraryname":"West Linn Public Library","state":"OR"},"type":"Feature","geometry":{"type":"Point","coordinates":[-122.614317,45.367032]}},{"properties":{"city":"Salem","lon":-123.048564,"zip":"","librarysystem":"Salem Public Library","phone":5035886301,"id":"a625tdcpu63v","address":"395 Glen Creek Road Nw","lat":44.950258,"libraryname":"West Salem Branch Library","state":"OR"},"type":"Feature","geometry":{"type":"Point","coordinates":[-123.048564,44.950258]}},{"properties":{"city":"Portland","lon":-122.757605,"zip":"","librarysystem":"Washington County Cooperative Library Services","phone":5032926416,"id":"a625tdgcwme7","address":"3678 SW 78th Ave.","lat":45.49343,"libraryname":"West Slope Community Library","state":"OR"},"type":"Feature","geometry":{"type":"Point","coordinates":[-122.757605,45.49343]}},{"properties":{"city":"Weston","lon":-118.424969,"zip":"","librarysystem":"Weston Public Library","phone":5415662378,"id":"a625tdgbscd1","address":"108 E Main St","lat":45.813464,"libraryname":"Weston Public Library","state":"OR"},"type":"Feature","geometry":{"type":"Point","coordinates":[-118.424969,45.813464]}},{"properties":{"city":"White City","lon":-122.834731,"zip":"","librarysystem":"Jackson County Library Services","phone":5418648880,"id":"a625tdbaohym","address":"3143 Ave C","lat":42.42947,"libraryname":"White City Branch Library","state":"OR"},"type":"Feature","geometry":{"type":"Point","coordinates":[-122.834731,42.42947]}},{"properties":{"city":"Willamina","lon":-123.484969,"zip":"","librarysystem":"Willamina Public Library","phone":5038766182,"id":"a625tdl13wzd","address":"385 NE C St","lat":45.079611,"libraryname":"Willamina Public Library","state":"OR"},"type":"Feature","geometry":{"type":"Point","coordinates":[-123.484969,45.079611]}},{"properties":{"city":"Williams","lon":-123.273542,"zip":"","librarysystem":"Josephine County Library System","phone":5418467020,"id":"a625tdedk2pt","address":"20695 Williams Highway","lat":42.218964,"libraryname":"Williams Branch Library","state":"OR"},"type":"Feature","geometry":{"type":"Point","coordinates":[-123.273542,42.218964]}},{"properties":{"city":"Wilsonville","lon":-122.76305,"zip":"","librarysystem":"Wilsonville Public Library","phone":5036822744,"id":"a625tdm8vhpa","address":"8200 SW Wilsonville Rd","lat":45.30281,"libraryname":"Wilsonville Public Library","state":"OR"},"type":"Feature","geometry":{"type":"Point","coordinates":[-122.76305,45.30281]}},{"properties":{"city":"Winston","lon":-123.413858,"zip":"","librarysystem":"Douglas County Library System","phone":5416795501,"id":"a625tdeej56e","address":"131 NW Rose St","lat":43.123401,"libraryname":"Winston Branch Library","state":"OR"},"type":"Feature","geometry":{"type":"Point","coordinates":[-123.413858,43.123401]}},{"properties":{"city":"Wolf Creek","lon":-123.397487,"zip":"","librarysystem":"Josephine County Library System","phone":5418662606,"id":"a625tdjyl021","address":"102 Ruth Avenue","lat":42.695082,"libraryname":"Wolf Creek Branch Library","state":"OR"},"type":"Feature","geometry":{"type":"Point","coordinates":[-123.397487,42.695082]}},{"properties":{"city":"Woodburn","lon":-122.858262,"zip":"","librarysystem":"Woodburn Public Library","phone":5039825252,"id":"a625tdfub1um","address":"280 Garfield St.","lat":45.142992,"libraryname":"Woodburn Public Library","state":"OR"},"type":"Feature","geometry":{"type":"Point","coordinates":[-122.858262,45.142992]}},{"properties":{"city":"Portland","lon":-122.61225,"zip":"","librarysystem":"Multnomah County Library","phone":5039885399,"id":"a625tdlkz8k4","address":"6008 SE 49th Ave","lat":45.479052,"libraryname":"Woodstock Branch Library","state":"OR"},"type":"Feature","geometry":{"type":"Point","coordinates":[-122.61225,45.479052]}},{"properties":{"city":"Yoncalla","lon":-123.284443,"zip":"","librarysystem":"Douglas County Library System","phone":5418492128,"id":"a625tdmat1hb","address":"194 Birch","lat":43.599932,"libraryname":"Yoncalla Branch Library","state":"OR"},"type":"Feature","geometry":{"type":"Point","coordinates":[-123.284443,43.599932]}}],"is_temporal":false,"author":{"url":"http://www.publiclibraries.com/oregon.htm","metadata":"","contact_name":"","contact_address":"","source":"publiclibrairies.com","contact_phone":""},"source":"http://www.publiclibraries.com/oregon.htm","pagination":{"sort":null,"start":0,"total":210,"limit":1000000},"state":"complete","tags":"books,education,libraries,library,oregon,public","published":"2008-05-09T12:00:00Z","id":948}