{"type":"FeatureCollection","url":"http://maps.co.mecklenburg.nc.us/rest/v1/ws_geo_attributequery.php?geotable=parks&parameters=&fields=prkname,prkaddr,streetno,streetdir,streetnm,streettype,streetsuff,city,state,zip,prktype,prkstatus,prkdist,prksize,st_askml(the_geom)+as+kml&format=kml","data_type":"Data Feed","url_type":"kml","permissions":[{"permissions":{"download":true,"view":true},"group_id":"everyone"}],"classification":null,"title":"Mecklenburg County Parks","count":190,"stream_id":94937,"contributor":{"url":"http://geocommons.com/users/6819","name":"jasonsanford"},"data_attributes":null,"calculation_params":null,"icon_link":null,"link":"http://geocommons.com/overlays/94937.json","extent":[-81.025,35.0227,-80.6845,35.4872],"geometry_types":["point"],"unique_name":null,"name":"Mecklenburg County Parks","feature_count":190,"description":"All of the parks in Mecklenburg County, NC","next_feature":null,"is_raster":false,"short_classification":"Y","stats":{"streetno":{"max":19000.0,"mean":3183.53157894737,"variance":13858500.9487329,"stdev":3722.70076003067,"min":0.0,"median":2100.0},"prksize":{"max":1336.344,"mean":61.9396894736843,"variance":25265.9221226914,"stdev":158.952578219705,"min":0.0,"median":10.946}},"features":[{"properties":{"city":"CHARLOTTE","name":"ABBOTT NEIGHBORHOOD PARK","zip":"28203","prktype":"NEIGHBORHOOD PARK","streetdir":null,"prkdist":"WEST","prkstatus":"DEVELOPED","streetsuff":null,"streetnm":"SPRUCE","streettype":"ST","streetno":1300.0,"prkaddr":"1300  SPRUCE ST","id":"a677e6vgpzy8","prkname":"ABBOTT NEIGHBORHOOD PARK","prksize":5.76,"state":"NC"},"type":"Feature","geometry":{"type":"Point","coordinates":[-80.8708850765638,35.2151516250058]}},{"properties":{"city":"CHARLOTTE","name":"ALBEMARLE ROAD CENTER","zip":"28227","prktype":"RECREATION CENTER","streetdir":"N","prkdist":"EAST","prkstatus":"DEVELOPED","streetsuff":null,"streetnm":"IDLEWILD","streettype":"RD","streetno":5027.0,"prkaddr":"5027 N IDLEWILD RD","id":"a677e71td8sa","prkname":"ALBEMARLE ROAD CENTER","prksize":0.0,"state":"NC"},"type":"Feature","geometry":{"type":"Point","coordinates":[-80.7240486392315,35.1958102816883]}},{"properties":{"city":"CHARLOTTE","name":"ALBEMARLE ROAD COMMUNITY PARK","zip":"28227","prktype":"COMMUNITY PARK","streetdir":"E","prkdist":"EAST","prkstatus":"DEVELOPED","streetsuff":null,"streetnm":"W T HARRIS","streettype":"BV","streetno":9120.0,"prkaddr":"9120 E W T HARRIS BV","id":"a677e6zsvcu4","prkname":"ALBEMARLE ROAD COMMUNITY PARK","prksize":21.13,"state":"NC"},"type":"Feature","geometry":{"type":"Point","coordinates":[-80.7265617406034,35.1963981549817]}},{"properties":{"city":"CHARLOTTE","name":"ADMINISTRATIVE OFFICE BUILDING","zip":"28216","prktype":"NEIGHBORHOOD PARK","streetdir":null,"prkdist":"WEST","prkstatus":"DEVELOPED","streetsuff":null,"streetnm":"BROOKSHIRE","streettype":"BV","streetno":5841.0,"prkaddr":"5841  BROOKSHIRE BV","id":"a677e6tei6y0","prkname":"ADMINISTRATIVE OFFICE BUILDING","prksize":7.917,"state":"NC"},"type":"Feature","geometry":{"type":"Point","coordinates":[-80.9020735156238,35.2827441204577]}},{"properties":{"city":"CHARLOTTE","name":"ALEXANDER NEIGHBORHOOD PARK","zip":"28206","prktype":"NEIGHBORHOOD PARK","streetdir":"E","prkdist":"CENTRAL","prkstatus":"DEVELOPED","streetsuff":null,"streetnm":"12TH","streettype":"ST","streetno":739.0,"prkaddr":"739 E 12TH ST","id":"a677e6y3s4xl","prkname":"ALEXANDER NEIGHBORHOOD PARK","prksize":3.748,"state":"NC"},"type":"Feature","geometry":{"type":"Point","coordinates":[-80.82770607421,35.227213436477]}},{"properties":{"city":"CHARLOTTE","name":"ALLEN HILLS NEIGHBORHOOD PARK","zip":"28269","prktype":"NEIGHBORHOOD PARK","streetdir":null,"prkdist":"NORTH","prkstatus":"DEVELOPED","streetsuff":null,"streetnm":"CHEVIOT","streettype":"RD","streetno":4701.0,"prkaddr":"4701 CHEVIOT RD","id":"a677e6sn6w62","prkname":"ALLEN HILLS NEIGHBORHOOD PARK","prksize":11.568,"state":"NC"},"type":"Feature","geometry":{"type":"Point","coordinates":[-80.8187958432463,35.2851132991944]}},{"properties":{"city":"CHARLOTTE","name":"ALEXANDRIANA HISTORIC SITE","zip":"28269","prktype":"NEIGHBORHOOD PARK","streetdir":null,"prkdist":"NORTH","prkstatus":"DEVELOPED","streetsuff":null,"streetnm":"OLD STATESVILLE","streettype":"RD","streetno":9921.0,"prkaddr":"9921 OLD STATESVILLE RD","id":"a677e6ymk7tf","prkname":"ALEXANDRIANA HISTORIC SITE","prksize":0.902,"state":"NC"},"type":"Feature","geometry":{"type":"Point","coordinates":[-80.8225415233468,35.3577137272139]}},{"properties":{"city":"CHARLOTTE","name":"AMAY JAMES CENTER","zip":"28208","prktype":"RECREATION CENTER","streetdir":null,"prkdist":"WEST","prkstatus":"DEVELOPED","streetsuff":null,"streetnm":"LESTER","streettype":"ST","streetno":2425.0,"prkaddr":"2425 LESTER ST","id":"a677e6v1dgdy","prkname":"AMAY JAMES CENTER","prksize":0.0,"state":"NC"},"type":"Feature","geometry":{"type":"Point","coordinates":[-80.9013221212049,35.2037328134514]}},{"properties":{"city":"CHARLOTTE","name":"AMAY JAMES COMMUNITY PARK","zip":"28208","prktype":"COMMUNITY PARK","streetdir":null,"prkdist":"WEST","prkstatus":"DEVELOPED","streetsuff":null,"streetnm":"LESTER","streettype":"ST","streetno":2414.0,"prkaddr":"2415 LESTER ST","id":"a677e6of793z","prkname":"AMAY JAMES COMMUNITY PARK","prksize":41.57,"state":"NC"},"type":"Feature","geometry":{"type":"Point","coordinates":[-80.9013193703839,35.2037009774206]}},{"properties":{"city":"CHARLOTTE","name":"ANITA STROUD NEIGHBORHOOD PARK","zip":"28206","prktype":"NEIGHBORHOOD PARK","streetdir":null,"prkdist":"CENTRAL","prkstatus":"DEVELOPED","streetsuff":null,"streetnm":"DOUBLE OAKS","streettype":"RD","streetno":2215.0,"prkaddr":"2215 DOUBLE OAKS RD","id":"a677e6q6ztpf","prkname":"ANITA STROUD NEIGHBORHOOD PARK","prksize":5.3,"state":"NC"},"type":"Feature","geometry":{"type":"Point","coordinates":[-80.841160378407,35.2524425323067]}},{"properties":{"city":"CHARLOTTE","name":"AQUATIC CENTER","zip":"28202","prktype":"RECREATION CENTER","streetdir":"E","prkdist":"CENTRAL","prkstatus":"DEVELOPED","streetsuff":null,"streetnm":"2ND","streettype":"ST","streetno":800.0,"prkaddr":"800 E 2ND ST","id":"a677e6rjn2ry","prkname":"AQUATIC CENTER","prksize":4.134,"state":"NC"},"type":"Feature","geometry":{"type":"Point","coordinates":[-80.8397078719875,35.2179638343945]}},{"properties":{"city":"CHARLOTTE","name":"ARCHDALE NEIGHBORHOOD PARK","zip":"28217","prktype":"NEIGHBORHOOD PARK","streetdir":null,"prkdist":"SOUTH","prkstatus":"DEVELOPED","streetsuff":null,"streetnm":"CHERRYCREST","streettype":"LN","streetno":5400.0,"prkaddr":"5400  CHERRYCREST LN","id":"a677e6tfuau1","prkname":"ARCHDALE NEIGHBORHOOD PARK","prksize":16.61,"state":"NC"},"type":"Feature","geometry":{"type":"Point","coordinates":[-80.8864025016316,35.1521241758078]}},{"properties":{"city":"CHARLOTTE","name":"ARBOR GLEN OUTREACH CENTER","zip":"28217","prktype":"RECREATION CENTER","streetdir":null,"prkdist":"WEST","prkstatus":"DEVELOPED","streetsuff":null,"streetnm":"CLANTON","streettype":"RD","streetno":1520.0,"prkaddr":"1520 CLANTON RD","id":"a677e6s5tvrq","prkname":"ARBOR GLEN OUTREACH CENTER","prksize":0.0,"state":"NC"},"type":"Feature","geometry":{"type":"Point","coordinates":[-80.8934646563366,35.2077270369196]}},{"properties":{"city":"HUNTERSVILLE","name":"AUTEN NATURE PRESERVE","zip":"28078","prktype":"NATURE PRESERVE","streetdir":null,"prkdist":"NORTH","prkstatus":"DEVELOPED","streetsuff":null,"streetnm":"NO ADDRESS","streettype":null,"streetno":0.0,"prkaddr":"NECK RD","id":"a677e6pzsimk","prkname":"AUTEN NATURE PRESERVE","prksize":269.791,"state":"NC"},"type":"Feature","geometry":{"type":"Point","coordinates":[-80.933351077358,35.3775682288638]}},{"properties":{"city":"CHARLOTTE","name":"BAXTER STREET NEIGHBORHOOD PARK","zip":"28204","prktype":"NEIGHBORHOOD PARK","streetdir":null,"prkdist":"CENTRAL","prkstatus":"DEVELOPED","streetsuff":null,"streetnm":"BAXTER","streettype":"ST","streetno":1000.0,"prkaddr":"1000 BAXTER ST","id":"a677e6nc48qo","prkname":"BAXTER STREET NEIGHBORHOOD PARK","prksize":3.632,"state":"NC"},"type":"Feature","geometry":{"type":"Point","coordinates":[-80.8411562384089,35.213385333966]}},{"properties":{"city":"CHARLOTTE","name":"BIDDLEVILLE NEIGHBORHOOD PARK","zip":"28216","prktype":"NEIGHBORHOOD PARK","streetdir":null,"prkdist":"CENTRAL","prkstatus":"DEVELOPED","streetsuff":null,"streetnm":"ANDRILL","streettype":"TR","streetno":500.0,"prkaddr":"500  ANDRILL TR","id":"a677e6sw3bi2","prkname":"BIDDLEVILLE NEIGHBORHOOD PARK","prksize":3.22,"state":"NC"},"type":"Feature","geometry":{"type":"Point","coordinates":[-80.8502721696975,35.2434194038395]}},{"properties":{"city":"HUNTERSVILLE","name":"BLYTHE LANDING COMMUNITY PARK","zip":"28078","prktype":"COMMUNITY PARK","streetdir":null,"prkdist":"NORTH","prkstatus":"DEVELOPED","streetsuff":null,"streetnm":"NC 73","streettype":"HY","streetno":15901.0,"prkaddr":"15901  NC 73 HY","id":"a677e6urip5b","prkname":"BLYTHE LANDING COMMUNITY PARK","prksize":23.744,"state":"NC"},"type":"Feature","geometry":{"type":"Point","coordinates":[-80.9039183921778,35.4362784299503]}},{"properties":{"city":"CHARLOTTE","name":"HICKORY GROVE RECREATION CENTER","zip":"28215","prktype":"RECREATION CENTER","streetdir":null,"prkdist":"EAST","prkstatus":"DEVELOPED","streetsuff":null,"streetnm":"PENCE","streettype":"RD","streetno":6709.0,"prkaddr":"6709 PENCE RD","id":"a677e6tj7a49","prkname":"HICKORY GROVE RECREATION CENTER","prksize":0.0,"state":"NC"},"type":"Feature","geometry":{"type":"Point","coordinates":[-80.7175733986438,35.2257231234615]}},{"properties":{"city":"CHARLOTTE","name":"IVORY BAKER RECREATION CENTER","zip":"28206","prktype":"RECREATION CENTER","streetdir":null,"prkdist":"CENTRAL","prkstatus":"DEVELOPED","streetsuff":null,"streetnm":"EUREKA","streettype":"ST","streetno":1295.0,"prkaddr":"1295  EUREKA ST","id":"a677e6lvcjve","prkname":"IVORY BAKER RECREATION CENTER","prksize":0.0,"state":"NC"},"type":"Feature","geometry":{"type":"Point","coordinates":[-80.8405157400909,35.2501079821477]}},{"properties":{"city":"DAVIDSON","name":"BRACKETT BLUFF NATURE PRESERVE","zip":"28036","prktype":"NATURE PRESERVE","streetdir":null,"prkdist":"NORTH","prkstatus":"DEVELOPED","streetsuff":null,"streetnm":"NO ADDRESS","streettype":null,"streetno":0.0,"prkaddr":"20520 SHEARER RD","id":"a677e6zi3oaw","prkname":"BRACKETT BLUFF NATURE PRESERVE","prksize":61.074,"state":"NC"},"type":"Feature","geometry":{"type":"Point","coordinates":[-80.7905322718578,35.4872258524742]}},{"properties":{"city":"CHARLOTTE","name":"BRIARWOOD COMMUNITY PARK","zip":"28215","prktype":"COMMUNITY PARK","streetdir":null,"prkdist":"EAST","prkstatus":"DEVELOPED","streetsuff":null,"streetnm":"WATERWOOD","streettype":"ST","streetno":5349.0,"prkaddr":"5349 WATERWOOD ST","id":"a677e6v1jiuf","prkname":"BRIARWOOD COMMUNITY PARK","prksize":33.284,"state":"NC"},"type":"Feature","geometry":{"type":"Point","coordinates":[-80.766079020942,35.2549244270743]}},{"properties":{"city":"CHARLOTTE","name":"BRYANT NEIGHBORHOOD PARK","zip":"28208","prktype":"NEIGHBORHOOD PARK","streetdir":"W","prkdist":"CENTRAL","prkstatus":"DEVELOPED","streetsuff":null,"streetnm":"MOREHEAD","streettype":"ST","streetno":1701.0,"prkaddr":"1701 W MOREHEAD ST","id":"a677e70mw18o","prkname":"BRYANT NEIGHBORHOOD PARK","prksize":10.757,"state":"NC"},"type":"Feature","geometry":{"type":"Point","coordinates":[-80.8695655844593,35.2279859009902]}},{"properties":{"city":"HUNTERSVILLE","name":"RICHARD BARRY MEMORIAL PARK","zip":"28078","prktype":"COMMUNITY PARK","streetdir":null,"prkdist":"NORTH","prkstatus":"DEVELOPED","streetsuff":null,"streetnm":"NO ADDRESS","streettype":null,"streetno":0.0,"prkaddr":"BEATTIES FORD RD","id":"a677e6n1tn89","prkname":"RICHARD BARRY MEMORIAL PARK","prksize":41.495,"state":"NC"},"type":"Feature","geometry":{"type":"Point","coordinates":[-80.9242284059528,35.4012085821434]}},{"properties":{"city":"CHARLOTTE","name":"CARMEL ROAD NEIGHBORHOOD PARK","zip":"28226","prktype":"NEIGHBORHOOD PARK","streetdir":null,"prkdist":"SOUTH","prkstatus":"DEVELOPED","streetsuff":null,"streetnm":"CARMEL","streettype":"RD","streetno":2365.0,"prkaddr":"2365 CARMEL RD","id":"a677e6w1waaj","prkname":"CARMEL ROAD NEIGHBORHOOD PARK","prksize":9.701,"state":"NC"},"type":"Feature","geometry":{"type":"Point","coordinates":[-80.8066799312083,35.1342774537527]}},{"properties":{"city":"CHARLOTTE","name":"HISTORIC TUCKESEGEE FORD REGIONAL PARK","zip":"28214","prktype":"REGIONAL PARK","streetdir":null,"prkdist":"WEST","prkstatus":"DEVELOPED","streetsuff":null,"streetnm":"HAWFIELD","streettype":"RD","streetno":820.0,"prkaddr":"820  HAWFIELD RD","id":"a677e6zocfcs","prkname":"HISTORIC TUCKESEGEE FORD REGIONAL PARK","prksize":288.585,"state":"NC"},"type":"Feature","geometry":{"type":"Point","coordinates":[-81.0022626338696,35.2720536852546]}},{"properties":{"city":"CHARLOTTE","name":"CEDARWOOD NEIGHBORHOOD PARK","zip":"28212","prktype":"NEIGHBORHOOD PARK","streetdir":null,"prkdist":"EAST","prkstatus":"DEVELOPED","streetsuff":null,"streetnm":"REDDMAN","streettype":"RD","streetno":6624.0,"prkaddr":"6624 REDDMAN RD","id":"a677e6t50gp7","prkname":"CEDARWOOD NEIGHBORHOOD PARK","prksize":8.601,"state":"NC"},"type":"Feature","geometry":{"type":"Point","coordinates":[-80.7500448744306,35.1911534499129]}},{"properties":{"city":"CHARLOTTE","name":"CHARLES AVENUE NEIGHBORHOOD PARK","zip":"28205","prktype":"NEIGHBORHOOD PARK","streetdir":null,"prkdist":"CENTRAL","prkstatus":"DEVELOPED","streetsuff":null,"streetnm":"CHARLES","streettype":"AV","streetno":800.0,"prkaddr":"800 CHARLES AVE","id":"a677e6ok3r55","prkname":"CHARLES AVENUE NEIGHBORHOOD PARK","prksize":0.629,"state":"NC"},"type":"Feature","geometry":{"type":"Point","coordinates":[-80.8077549627546,35.2428140532336]}},{"properties":{"city":"CHARLOTTE","name":"CHANTILLY NEIGHBORHOOD PARK","zip":"28205","prktype":"NEIGHBORHOOD PARK","streetdir":null,"prkdist":"CENTRAL","prkstatus":"DEVELOPED","streetsuff":null,"streetnm":"WYANOKE","streettype":"AV","streetno":222.0,"prkaddr":"222  WYANOKE AVE","id":"a677e6xvyi0p","prkname":"CHANTILLY NEIGHBORHOOD PARK","prksize":6.975,"state":"NC"},"type":"Feature","geometry":{"type":"Point","coordinates":[-80.8089600341921,35.2075971852259]}},{"properties":{"city":"CHARLOTTE","name":"CLANTON COMMUNITY PARK","zip":"28217","prktype":"COMMUNITY PARK","streetdir":null,"prkdist":"WEST","prkstatus":"DEVELOPED","streetsuff":null,"streetnm":"CLANTON","streettype":"AV","streetno":1520.0,"prkaddr":"1520 CLANTON RD","id":"a677e6upbfke","prkname":"CLANTON COMMUNITY PARK","prksize":54.575,"state":"NC"},"type":"Feature","geometry":{"type":"Point","coordinates":[-80.8934334331095,35.2082106388305]}},{"properties":{"city":"CHARLOTTE","name":"CLEMSON AVENUE NEIGHBORHOOD PARK","zip":"28205","prktype":"NEIGHBORHOOD PARK","streetdir":null,"prkdist":"CENTRAL","prkstatus":"DEVELOPED","streetsuff":null,"streetnm":"CLEMSON","streettype":"AV","streetno":3028.0,"prkaddr":"3028 CLEMSON AVE","id":"a677e6nqv02x","prkname":"CLEMSON AVENUE NEIGHBORHOOD PARK","prksize":0.909,"state":"NC"},"type":"Feature","geometry":{"type":"Point","coordinates":[-80.8031748854366,35.2415295639706]}},{"properties":{"city":"CHARLOTTE","name":"CAMPBELL CREEK COMMUNITY PARK","zip":"28212","prktype":"COMMUNITY PARK","streetdir":null,"prkdist":"EAST","prkstatus":"DEVELOPED","streetsuff":null,"streetnm":"BARCLIFFE","streettype":"DR","streetno":6601.0,"prkaddr":"6601 BARCLIFFE DR","id":"a677e6nljih4","prkname":"CAMPBELL CREEK COMMUNITY PARK","prksize":20.716,"state":"NC"},"type":"Feature","geometry":{"type":"Point","coordinates":[-80.7351434046146,35.2155775009364]}},{"properties":{"city":"CHARLOTTE","name":"CAMP GREENE COMMUNITY PARK","zip":"28208","prktype":"COMMUNITY PARK","streetdir":null,"prkdist":"WEST","prkstatus":"DEVELOPED","streetsuff":null,"streetnm":"ALLEGHANY","streettype":"ST","streetno":1221.0,"prkaddr":"1221 ALLEGHANY ST","id":"a677e6ud7o9p","prkname":"CAMP GREENE COMMUNITY PARK","prksize":27.353,"state":"NC"},"type":"Feature","geometry":{"type":"Point","coordinates":[-80.8905098438688,35.2373695686887]}},{"properties":{"city":"CHARLOTTE","name":"COLONEL FRANCIS J. BEATTY REGIONAL PARK","zip":"28105","prktype":"REGIONAL PARK","streetdir":null,"prkdist":"SOUTH","prkstatus":"DEVELOPED","streetsuff":null,"streetnm":"WEDDINGTON","streettype":"RD","streetno":4330.0,"prkaddr":"4330 WEDDINGTON RD","id":"a677e6rdpdgm","prkname":"COLONEL FRANCIS J. BEATTY REGIONAL PARK","prksize":264.593,"state":"NC"},"type":"Feature","geometry":{"type":"Point","coordinates":[-80.7285922938474,35.0672461197116]}},{"properties":{"city":"CHARLOTTE","name":"COLLINS NEIGHBORHOOD PARK","zip":"28209","prktype":"NEIGHBORHOOD PARK","streetdir":null,"prkdist":"CENTRAL","prkstatus":"DEVELOPED","streetsuff":null,"streetnm":"APPLEGATE","streettype":"RD","streetno":4500.0,"prkaddr":"4500 APPLEGATE RD","id":"a677e6sb8oa6","prkname":"COLLINS NEIGHBORHOOD PARK","prksize":3.674,"state":"NC"},"type":"Feature","geometry":{"type":"Point","coordinates":[-80.8712873189789,35.1815770067984]}},{"properties":{"city":"CHARLOTTE","name":"COLONIAL NEIGHBORHOOD PARK","zip":"28207","prktype":"NEIGHBORHOOD PARK","streetdir":null,"prkdist":"CENTRAL","prkstatus":"DEVELOPED","streetsuff":null,"streetnm":"PROVIDENCE","streettype":"RD","streetno":219.0,"prkaddr":"219 PROVIDENCE RD","id":"a677e6u3giio","prkname":"COLONIAL NEIGHBORHOOD PARK","prksize":2.492,"state":"NC"},"type":"Feature","geometry":{"type":"Point","coordinates":[-80.8240221705409,35.2064650276596]}},{"properties":{"city":"CHARLOTTE","name":"COPPERHEAD ISLAND","zip":"28278","prktype":"NATURE PRESERVE","streetdir":null,"prkdist":"WEST","prkstatus":"DEVELOPED","streetsuff":null,"streetnm":"SOLDIER","streettype":"RD","streetno":15200.0,"prkaddr":"15200 SOLDIER RD","id":"a677e6wadsja","prkname":"COPPERHEAD ISLAND","prksize":11.212,"state":"NC"},"type":"Feature","geometry":{"type":"Point","coordinates":[-81.0249915149937,35.1096923940025]}},{"properties":{"city":"CHARLOTTE","name":"CORDELIA COMMUNITY PARK","zip":"28205","prktype":"COMMUNITY PARK","streetdir":"N","prkdist":"CENTRAL","prkstatus":"DEVELOPED","streetsuff":null,"streetnm":"DAVIDSON","streettype":"ST","streetno":2100.0,"prkaddr":"2100 N DAVIDSON ST","id":"a677e6s76xr4","prkname":"CORDELIA COMMUNITY PARK","prksize":20.894,"state":"NC"},"type":"Feature","geometry":{"type":"Point","coordinates":[-80.8152964394208,35.2373966621021]}},{"properties":{"city":"CHARLOTTE","name":"COULWOOD COMMUNITY PARK","zip":"28214","prktype":"COMMUNITY PARK","streetdir":null,"prkdist":"WEST","prkstatus":"DEVELOPED","streetsuff":null,"streetnm":"COULWOOD PARK","streettype":"DR","streetno":100.0,"prkaddr":"100 COULWOOD PARK DR","id":"a677e6sm7opz","prkname":"COULWOOD COMMUNITY PARK","prksize":24.573,"state":"NC"},"type":"Feature","geometry":{"type":"Point","coordinates":[-80.9398365433687,35.3057738390435]}},{"properties":{"city":"HUNTERSVILLE","name":"COWANS FORD WILDLIFE REFUGE","zip":"28078","prktype":"NATURE PRESERVE","streetdir":null,"prkdist":"NORTH","prkstatus":"DEVELOPED","streetsuff":null,"streetnm":"NO ADDRESS","streettype":null,"streetno":0.0,"prkaddr":"NECK RD","id":"a677e6rf9g0s","prkname":"COWANS FORD WILDLIFE REFUGE","prksize":660.1,"state":"NC"},"type":"Feature","geometry":{"type":"Point","coordinates":[-80.973399088129,35.3721901484872]}},{"properties":{"city":"HUNTERSVILLE","name":"CAROLINA RAPTOR CENTER","zip":"28216","prktype":"SPECIAL FACILITY","streetdir":null,"prkdist":"NORTH","prkstatus":"DEVELOPED","streetsuff":null,"streetnm":"SAMPLE","streettype":"RD","streetno":6000.0,"prkaddr":"6000 SAMPLE RD","id":"a677e6qgsava","prkname":"CAROLINA RAPTOR CENTER","prksize":0.0,"state":"NC"},"type":"Feature","geometry":{"type":"Point","coordinates":[-80.9170621847025,35.3513131368074]}},{"properties":{"city":"CHARLOTTE","name":"C.T. MYERS GOLF COURSE","zip":"28215","prktype":"GOLF COURSE","streetdir":null,"prkdist":"EAST","prkstatus":"DEVELOPED","streetsuff":null,"streetnm":"HARRISBURG","streettype":"RD","streetno":7817.0,"prkaddr":"7817 HARRISBURG RD","id":"a677e6t6m4bz","prkname":"C.T. MYERS GOLF COURSE","prksize":304.449,"state":"NC"},"type":"Feature","geometry":{"type":"Point","coordinates":[-80.685906184802,35.2216821615978]}},{"properties":{"city":"CHARLOTTE","name":"DOUBLE OAKS CENTER","zip":"28206","prktype":"RECREATION CENTER","streetdir":null,"prkdist":"CENTRAL","prkstatus":"DEVELOPED","streetsuff":null,"streetnm":"WOODWARD","streettype":"AV","streetno":1326.0,"prkaddr":"1326 WOODWARD AV","id":"a677e6lu2b4t","prkname":"DOUBLE OAKS CENTER","prksize":0.0,"state":"NC"},"type":"Feature","geometry":{"type":"Point","coordinates":[-80.8377538658222,35.2498019025217]}},{"properties":{"city":"CHARLOTTE","name":"DOUBLE OAKS NEIGHBORHOOD PARK","zip":"28206","prktype":"NEIGHBORHOOD PARK","streetdir":null,"prkdist":"CENTRAL","prkstatus":"DEVELOPED","streetsuff":null,"streetnm":"DOUBLE OAKS","streettype":"RD","streetno":2605.0,"prkaddr":"2605  DOUBLE OAKS RD","id":"a677e6w35yxi","prkname":"DOUBLE OAKS NEIGHBORHOOD PARK","prksize":15.116,"state":"NC"},"type":"Feature","geometry":{"type":"Point","coordinates":[-80.8382700045953,35.2567470922466]}},{"properties":{"city":"CHARLOTTE","name":"DOUBLE OAKS POOL","zip":"28206","prktype":"POOL","streetdir":null,"prkdist":"CENTRAL","prkstatus":"DEVELOPED","streetsuff":null,"streetnm":"NEWLAND","streettype":"RD","streetno":1200.0,"prkaddr":"1200 NEWLAND RD","id":"a677e71m079o","prkname":"DOUBLE OAKS POOL","prksize":2.28,"state":"NC"},"type":"Feature","geometry":{"type":"Point","coordinates":[-80.8369775917273,35.2575173466923]}},{"properties":{"city":"HUNTERSVILLE","name":"DAVID B. WAYMER FLYING REGIONAL PARK","zip":"28078","prktype":"REGIONAL PARK","streetdir":null,"prkdist":"NORTH","prkstatus":"DEVELOPED","streetsuff":null,"streetnm":"HOLBROOKS","streettype":"RD","streetno":15401.0,"prkaddr":"15401 HOLBROOKS RD","id":"a677e6zi69d1","prkname":"DAVID B. WAYMER FLYING REGIONAL PARK","prksize":102.68,"state":"NC"},"type":"Feature","geometry":{"type":"Point","coordinates":[-80.8164765215474,35.4014870849142]}},{"properties":{"city":"HUNTERSVILLE","name":"DAVID B. WAYMER COMMUNITY PARK","zip":"28078","prktype":"COMMUNITY PARK","streetdir":null,"prkdist":"NORTH","prkstatus":"DEVELOPED","streetsuff":null,"streetnm":"HOLBROOKS","streettype":"RD","streetno":302.0,"prkaddr":"302 HOLBROOKS RD","id":"a677e6zuwp16","prkname":"DAVID B. WAYMER COMMUNITY PARK","prksize":20.365,"state":"NC"},"type":"Feature","geometry":{"type":"Point","coordinates":[-80.835564594439,35.39917224761]}},{"properties":{"city":"CHARLOTTE","name":"DEVONSHIRE NEIGHBORHOOD PARK","zip":"28215","prktype":"NEIGHBORHOOD PARK","streetdir":null,"prkdist":"EAST","prkstatus":"DEVELOPED","streetsuff":null,"streetnm":"BARRINGTON","streettype":"DR","streetno":6330.0,"prkaddr":"6330 BARRINGTON DR","id":"a677e6mp5015","prkname":"DEVONSHIRE NEIGHBORHOOD PARK","prksize":1.484,"state":"NC"},"type":"Feature","geometry":{"type":"Point","coordinates":[-80.7456120112258,35.2472900725654]}},{"properties":{"city":"CHARLOTTE","name":"DOWD HOUSE HISTORIC SITE","zip":"28208","prktype":"NEIGHBORHOOD PARK","streetdir":null,"prkdist":"WEST","prkstatus":"DEVELOPED","streetsuff":null,"streetnm":"MONUMENT","streettype":"ST","streetno":2216.0,"prkaddr":"2216 MONUMENT ST","id":"a677e70sfnti","prkname":"DOWD HOUSE HISTORIC SITE","prksize":1.252,"state":"NC"},"type":"Feature","geometry":{"type":"Point","coordinates":[-80.8820985261732,35.2253884807216]}},{"properties":{"city":"CHARLOTTE","name":"DERITA COMMUNITY PARK","zip":"28206","prktype":"COMMUNITY PARK","streetdir":null,"prkdist":"NORTH","prkstatus":"DEVELOPED","streetsuff":null,"streetnm":"FREW","streettype":"RD","streetno":3509.0,"prkaddr":"3509 FREW RD","id":"a677e6mi0as9","prkname":"DERITA COMMUNITY PARK","prksize":23.387,"state":"NC"},"type":"Feature","geometry":{"type":"Point","coordinates":[-80.8060713993794,35.2588110750366]}},{"properties":{"city":"CHARLOTTE","name":"DRUID HILLS CENTER","zip":"28206","prktype":"RECREATION CENTER","streetdir":null,"prkdist":"CENTRAL","prkstatus":"DEVELOPED","streetsuff":null,"streetnm":"LUCENA","streettype":"ST","streetno":2801.0,"prkaddr":"2801 LUCENA ST","id":"a677e6xmp22i","prkname":"DRUID HILLS CENTER","prksize":0.0,"state":"NC"},"type":"Feature","geometry":{"type":"Point","coordinates":[-80.8247190939194,35.2568282101618]}},{"properties":{"city":"CHARLOTTE","name":"DRUID HILLS NEIGHBORHOOD PARK","zip":"28206","prktype":"NEIGHBORHOOD PARK","streetdir":null,"prkdist":"CENTRAL","prkstatus":"DEVELOPED","streetsuff":null,"streetnm":"POINSETT","streettype":"ST","streetno":2801.0,"prkaddr":"2801 POINSETT ST","id":"a677e6oou8nj","prkname":"DRUID HILLS NEIGHBORHOOD PARK","prksize":6.922,"state":"NC"},"type":"Feature","geometry":{"type":"Point","coordinates":[-80.8317968412552,35.258481426225]}},{"properties":{"city":"CHARLOTTE","name":"EASTOVER NEIGHBORHOOD PARK","zip":"28207","prktype":"NEIGHBORHOOD PARK","streetdir":null,"prkdist":"CENTRAL","prkstatus":"DEVELOPED","streetsuff":null,"streetnm":"RANDOLPH","streettype":"RD","streetno":2730.0,"prkaddr":"2730 RANDOLPH RD","id":"a677e6nkmim4","prkname":"EASTOVER NEIGHBORHOOD PARK","prksize":19.419,"state":"NC"},"type":"Feature","geometry":{"type":"Point","coordinates":[-80.8131020808021,35.1997834862918]}},{"properties":{"city":"CHARLOTTE","name":"EB MOORE NEIGHBORHOOD PARK","zip":"28209","prktype":"NEIGHBORHOOD PARK","streetdir":null,"prkdist":"CENTRAL","prkstatus":"DEVELOPED","streetsuff":null,"streetnm":"MARSH","streettype":"RD","streetno":901.0,"prkaddr":"901 MARSH RD","id":"a677e6pmhv5l","prkname":"EB MOORE NEIGHBORHOOD PARK","prksize":4.017,"state":"NC"},"type":"Feature","geometry":{"type":"Point","coordinates":[-80.8585006043661,35.1877331207161]}},{"properties":{"city":"CHARLOTTE","name":"EDGEHILL NEIGHBORHOOD PARK","zip":"28207","prktype":"NEIGHBORHOOD PARK","streetdir":"S","prkdist":"CENTRAL","prkstatus":"DEVELOPED","streetsuff":null,"streetnm":"EDGEHILL","streettype":"RD","streetno":812.0,"prkaddr":"812 S EDGEHILL RD","id":"a677e6uphzdq","prkname":"EDGEHILL NEIGHBORHOOD PARK","prksize":5.375,"state":"NC"},"type":"Feature","geometry":{"type":"Point","coordinates":[-80.8324258708856,35.2027303340433]}},{"properties":{"city":"CHARLOTTE","name":"521 CENTER","zip":"28277","prktype":"RECREATION CENTER","streetdir":null,"prkdist":"SOUTH","prkstatus":"DEVELOPED","streetsuff":null,"streetnm":"ARDREY KELL","streettype":"RD","streetno":11401.0,"prkaddr":"11401 ARDREY KELL RD","id":"a677e6v95zud","prkname":"521 CENTER","prksize":10.0,"state":"NC"},"type":"Feature","geometry":{"type":"Point","coordinates":[-80.8450993133783,35.0227097732922]}},{"properties":{"city":"CHARLOTTE","name":"BETTE RAE THOMAS CENTER","zip":"28208","prktype":"RECREATION CENTER","streetdir":null,"prkdist":"WEST","prkstatus":"DEVELOPED","streetsuff":null,"streetnm":"CLAY","streettype":"AV","streetno":1220.0,"prkaddr":"2921 TUCKASEEGEE RD","id":"a677e6xrg72i","prkname":"BETTE RAE THOMAS CENTER","prksize":6.092,"state":"NC"},"type":"Feature","geometry":{"type":"Point","coordinates":[-80.8784563552403,35.2414553940719]}},{"properties":{"city":"CHARLOTTE","name":"ENDERLY NEIGHBORHOOD PARK","zip":"28208","prktype":"NEIGHBORHOOD PARK","streetdir":null,"prkdist":"WEST","prkstatus":"DEVELOPED","streetsuff":null,"streetnm":"ENDERLY","streettype":"RD","streetno":1501.0,"prkaddr":"1501 ENDERLY RD","id":"a677e6nzpstu","prkname":"ENDERLY NEIGHBORHOOD PARK","prksize":8.476,"state":"NC"},"type":"Feature","geometry":{"type":"Point","coordinates":[-80.8840966381662,35.2404714849795]}},{"properties":{"city":"CHARLOTTE","name":"EAST DISTRICT PARK OFFICE","zip":"28212","prktype":"SPECIAL FACILITY","streetdir":null,"prkdist":"EAST","prkstatus":"DEVELOPED","streetsuff":null,"streetnm":"MONROE","streettype":"RD","streetno":5715.0,"prkaddr":"5715 MONROE RD","id":"a677e6xja0dh","prkname":"EAST DISTRICT PARK OFFICE","prksize":0.0,"state":"NC"},"type":"Feature","geometry":{"type":"Point","coordinates":[-80.766515126752,35.1870218612253]}},{"properties":{"city":"CHARLOTTE","name":"EVERGREEN NATURE PRESERVE","zip":"28205","prktype":"NATURE PRESERVE","streetdir":null,"prkdist":"EAST","prkstatus":"DEVELOPED","streetsuff":null,"streetnm":"NO ADDRESS","streettype":null,"streetno":0.0,"prkaddr":"NORLAND RD","id":"a677e70t7u4u","prkname":"EVERGREEN NATURE PRESERVE","prksize":77.414,"state":"NC"},"type":"Feature","geometry":{"type":"Point","coordinates":[-80.7668905288311,35.2060784297018]}},{"properties":{"city":"CHARLOTTE","name":"FIREMANS HALL","zip":"28204","prktype":"SPECIAL FACILITY","streetdir":"E","prkdist":"CENTRAL","prkstatus":"DEVELOPED","streetsuff":null,"streetnm":"7TH","streettype":"ST","streetno":2601.0,"prkaddr":"2601 E 7TH ST","id":"a677e6ni8a8e","prkname":"FIREMANS HALL","prksize":0.0,"state":"NC"},"type":"Feature","geometry":{"type":"Point","coordinates":[-80.8096525811782,35.2060267921242]}},{"properties":{"city":"CHARLOTTE","name":"FIVE POINTS NEIGHBORHOOD PARK","zip":"28216","prktype":"NEIGHBORHOOD PARK","streetdir":null,"prkdist":"WEST","prkstatus":"DEVELOPED","streetsuff":null,"streetnm":"FRENCH","streettype":"ST","streetno":200.0,"prkaddr":"200 FRENCH ST","id":"a677e6wux8im","prkname":"FIVE POINTS NEIGHBORHOOD PARK","prksize":9.246,"state":"NC"},"type":"Feature","geometry":{"type":"Point","coordinates":[-80.8598390200011,35.2483572021067]}},{"properties":{"city":"CHARLOTTE","name":"FLAT BRANCH COMMUNITY PARK","zip":"28277","prktype":"COMMUNITY PARK","streetdir":null,"prkdist":"SOUTH","prkstatus":"DEVELOPED","streetsuff":null,"streetnm":"NO ADDRESS","streettype":null,"streetno":0.0,"prkaddr":"11830 TOM SHORT RD","id":"a677e6w6nwsw","prkname":"FLAT BRANCH COMMUNITY PARK","prksize":54.225,"state":"NC"},"type":"Feature","geometry":{"type":"Point","coordinates":[-80.7938758658509,35.0461545276414]}},{"properties":{"city":"CHARLOTTE","name":"FOURTH WARD NEIGHBORHOOD PARK","zip":"28202","prktype":"NEIGHBORHOOD PARK","streetdir":"N","prkdist":"CENTRAL","prkstatus":"DEVELOPED","streetsuff":null,"streetnm":"POPLAR","streettype":"ST","streetno":301.0,"prkaddr":"301 N POPLAR ST","id":"a677e6tb0rbx","prkname":"FOURTH WARD NEIGHBORHOOD PARK","prksize":2.917,"state":"NC"},"type":"Feature","geometry":{"type":"Point","coordinates":[-80.8423173421915,35.2316767995692]}},{"properties":{"city":"CHARLOTTE","name":"FRAZIER NEIGHBORHOOD PARK","zip":"28202","prktype":"NEIGHBORHOOD PARK","streetdir":"W","prkdist":"CENTRAL","prkstatus":"DEVELOPED","streetsuff":"EX","streetnm":"4TH","streettype":"ST","streetno":1201.0,"prkaddr":"1200 W 4TH ST EXT","id":"a677e6mrxthn","prkname":"FRAZIER NEIGHBORHOOD PARK","prksize":16.479,"state":"NC"},"type":"Feature","geometry":{"type":"Point","coordinates":[-80.8569819252551,35.2332317395974]}},{"properties":{"city":"CHARLOTTE","name":"FRED ALEXANDER NEIGHBORHOOD PARK","zip":"28216","prktype":"NEIGHBORHOOD PARK","streetdir":"E","prkdist":"NORTH","prkstatus":"DEVELOPED","streetsuff":null,"streetnm":"12TH","streettype":"ST","streetno":739.0,"prkaddr":"739 E 12TH ST","id":"a677e6r0j8up","prkname":"FRED ALEXANDER NEIGHBORHOOD PARK","prksize":6.044,"state":"NC"},"type":"Feature","geometry":{"type":"Point","coordinates":[-80.8592735745443,35.2810051578286]}},{"properties":{"city":"CHARLOTTE","name":"FREEDOM REGIONAL PARK","zip":"28203","prktype":"REGIONAL PARK","streetdir":null,"prkdist":"CENTRAL","prkstatus":"DEVELOPED","streetsuff":null,"streetnm":"CUMBERLAND","streettype":"AV","streetno":2435.0,"prkaddr":"2435 CUMBERLAND AV","id":"a677e6yaiopf","prkname":"FREEDOM REGIONAL PARK","prksize":104.89,"state":"NC"},"type":"Feature","geometry":{"type":"Point","coordinates":[-80.8447590767965,35.1917138616264]}},{"properties":{"city":"CHARLOTTE","name":"FIRESTONE COMMUNITY PARK","zip":"28216","prktype":"COMMUNITY PARK","streetdir":null,"prkdist":"NORTH","prkstatus":"DEVELOPED","streetsuff":null,"streetnm":"FIRESTONE","streettype":"DR","streetno":3501.0,"prkaddr":"3501 FIRESTONE DR","id":"a677e6su98g4","prkname":"FIRESTONE COMMUNITY PARK","prksize":54.612,"state":"NC"},"type":"Feature","geometry":{"type":"Point","coordinates":[-80.8724618103184,35.2878247449383]}},{"properties":{"city":"CHARLOTTE","name":"FIRST WARD CENTER","zip":"28202","prktype":"RECREATION CENTER","streetdir":"E","prkdist":"CENTRAL","prkstatus":"DEVELOPED","streetsuff":null,"streetnm":"7TH","streettype":"ST","streetno":610.0,"prkaddr":"610 E 7TH ST","id":"a677e6wvt504","prkname":"FIRST WARD CENTER","prksize":0.0,"state":"NC"},"type":"Feature","geometry":{"type":"Point","coordinates":[-80.8349466741793,35.2249492856995]}},{"properties":{"city":"HUNTERSVILLE","name":"GAR CREEK NATURE PRESERVE","zip":"28078","prktype":"NATURE PRESERVE","streetdir":null,"prkdist":"NORTH","prkstatus":"DEVELOPED","streetsuff":null,"streetnm":"NO ADDRESS","streettype":null,"streetno":0.0,"prkaddr":"MCCOY RD","id":"a677e6mqbwtt","prkname":"GAR CREEK NATURE PRESERVE","prksize":353.157,"state":"NC"},"type":"Feature","geometry":{"type":"Point","coordinates":[-80.8851948874882,35.3620113033156]}},{"properties":{"city":"CHARLOTTE","name":"GRAYSON NEIGHBORHOOD PARK","zip":"28211","prktype":"NEIGHBORHOOD PARK","streetdir":null,"prkdist":"EAST","prkstatus":"DEVELOPED","streetsuff":null,"streetnm":"BEAL","streettype":"ST","streetno":750.0,"prkaddr":"750 BEAL ST","id":"a677e6n8coz7","prkname":"GRAYSON NEIGHBORHOOD PARK","prksize":12.278,"state":"NC"},"type":"Feature","geometry":{"type":"Point","coordinates":[-80.7954523557721,35.1906579008403]}},{"properties":{"city":"CHARLOTTE","name":"GRADY COLE CENTER","zip":"28204","prktype":"SPECIAL FACILITY","streetdir":"N","prkdist":"CENTRAL","prkstatus":"DEVELOPED","streetsuff":null,"streetnm":"KINGS","streettype":"DR","streetno":310.0,"prkaddr":"310 N KINGS DR","id":"a677e6y34kn4","prkname":"GRADY COLE CENTER","prksize":0.0,"state":"NC"},"type":"Feature","geometry":{"type":"Point","coordinates":[-80.8296314172411,35.2196010303184]}},{"properties":{"city":"CHARLOTTE","name":"GRIER HEIGHTS NEIGHBORHOOD PARK","zip":"28205","prktype":"NEIGHBORHOOD PARK","streetdir":null,"prkdist":"CENTRAL","prkstatus":"DEVELOPED","streetsuff":null,"streetnm":"LEROY","streettype":"ST","streetno":3110.0,"prkaddr":"3110  LEROY ST","id":"a677e6s5jjnr","prkname":"GRIER HEIGHTS NEIGHBORHOOD PARK","prksize":5.468,"state":"NC"},"type":"Feature","geometry":{"type":"Point","coordinates":[-80.8106031137473,35.1951610013198]}},{"properties":{"city":"CHARLOTTE","name":"GREENVILLE CENTER","zip":"28206","prktype":"RECREATION CENTER","streetdir":null,"prkdist":"CENTRAL","prkstatus":"DEVELOPED","streetsuff":null,"streetnm":"SPRING","streettype":"ST","streetno":1330.0,"prkaddr":"1330 SPRING ST","id":"a677e6y5dske","prkname":"GREENVILLE CENTER","prksize":0.0,"state":"NC"},"type":"Feature","geometry":{"type":"Point","coordinates":[-80.8421296231719,35.2453395868882]}},{"properties":{"city":"CHARLOTTE","name":"GREENVILLE NEIGHBORHOOD PARK","zip":"28206","prktype":"NEIGHBORHOOD PARK","streetdir":null,"prkdist":"CENTRAL","prkstatus":"DEVELOPED","streetsuff":null,"streetnm":"POLK","streettype":"ST","streetno":1401.0,"prkaddr":"1401 POLK ST","id":"a677e70m5h5r","prkname":"GREENVILLE NEIGHBORHOOD PARK","prksize":16.506,"state":"NC"},"type":"Feature","geometry":{"type":"Point","coordinates":[-80.8422030843956,35.2434180183629]}},{"properties":{"city":"CHARLOTTE","name":"HARRISBURG ROAD REGIONAL PARK","zip":"28215","prktype":"REGIONAL PARK","streetdir":null,"prkdist":"EAST","prkstatus":"DEVELOPED","streetsuff":null,"streetnm":"NO ADDRESS","streettype":null,"streetno":0.0,"prkaddr":"8045 HARRISBURG RD","id":"a677e6vjkby1","prkname":"HARRISBURG ROAD REGIONAL PARK","prksize":106.622,"state":"NC"},"type":"Feature","geometry":{"type":"Point","coordinates":[-80.684512974421,35.2240899282266]}},{"properties":{"city":"CHARLOTTE","name":"HARRISBURG ROAD NEIGHBORHOOD PARK","zip":"28215","prktype":"NEIGHBORHOOD PARK","streetdir":null,"prkdist":"EAST","prkstatus":"DEVELOPED","streetsuff":null,"streetnm":"HARRISBURG","streettype":"RD","streetno":7701.0,"prkaddr":"7701 HARRISBURG RD","id":"a677e6v7gjj4","prkname":"HARRISBURG ROAD NEIGHBORHOOD PARK","prksize":6.107,"state":"NC"},"type":"Feature","geometry":{"type":"Point","coordinates":[-80.6859667427749,35.2215458565427]}},{"properties":{"city":"CHARLOTTE","name":"HAWTHORNE CENTER","zip":"28204","prktype":"RECREATION CENTER","streetdir":null,"prkdist":"CENTRAL","prkstatus":"DEVELOPED","streetsuff":null,"streetnm":"HAWTHORNE","streettype":"LN","streetno":345.0,"prkaddr":"345 HAWTHORNE LN","id":"a677e6zis1yb","prkname":"HAWTHORNE CENTER","prksize":0.0,"state":"NC"},"type":"Feature","geometry":{"type":"Point","coordinates":[-80.8228369360451,35.2152811289098]}},{"properties":{"city":"CHARLOTTE","name":"HORNETS NEST REGIONAL PARK","zip":"28216","prktype":"REGIONAL PARK","streetdir":null,"prkdist":"NORTH","prkstatus":"DEVELOPED","streetsuff":null,"streetnm":"BEATTIES FORD","streettype":"RD","streetno":6331.0,"prkaddr":"6331 BEATTIES FORD RD","id":"a677e6syv7q9","prkname":"HORNETS NEST REGIONAL PARK","prksize":140.358,"state":"NC"},"type":"Feature","geometry":{"type":"Point","coordinates":[-80.8651270590228,35.3200642101945]}},{"properties":{"city":"CHARLOTTE","name":"HORTICULTURAL MAINTENANCE FACILITY","zip":"28269","prktype":"SPECIAL FACILITY","streetdir":null,"prkdist":"NORTH","prkstatus":"DEVELOPED","streetsuff":null,"streetnm":"MALLARD CREEK","streettype":"RD","streetno":11826.0,"prkaddr":"11826 MALLARD CREEK RD","id":"a677e6nk9kqd","prkname":"HORTICULTURAL MAINTENANCE FACILITY","prksize":0.0,"state":"NC"},"type":"Feature","geometry":{"type":"Point","coordinates":[-80.7561925730865,35.3565334566012]}},{"properties":{"city":"CHARLOTTE","name":"HOSKINS NEIGHBORHOOD PARK","zip":"28208","prktype":"NEIGHBORHOOD PARK","streetdir":null,"prkdist":"WEST","prkstatus":"DEVELOPED","streetsuff":null,"streetnm":"GOSSETT","streettype":"AV","streetno":3801.0,"prkaddr":"3801 GOSSETT AV","id":"a677e71wae1n","prkname":"HOSKINS NEIGHBORHOOD PARK","prksize":15.763,"state":"NC"},"type":"Feature","geometry":{"type":"Point","coordinates":[-80.8845685743842,35.2596967517801]}},{"properties":{"city":"CHARLOTTE","name":"HOWIE ACRES NEIGHBORHOOD PARK","zip":"28205","prktype":"NEIGHBORHOOD PARK","streetdir":null,"prkdist":"EAST","prkstatus":"DEVELOPED","streetsuff":null,"streetnm":"TREMBETH","streettype":"DR","streetno":1001.0,"prkaddr":"1001 TREMBETH DR","id":"a677e6v2kpv6","prkname":"HOWIE ACRES NEIGHBORHOOD PARK","prksize":7.759,"state":"NC"},"type":"Feature","geometry":{"type":"Point","coordinates":[-80.784399166053,35.2495678516153]}},{"properties":{"city":"CHARLOTTE","name":"HUNTINGTOWNE FARMS COMMUNITY PARK","zip":"28210","prktype":"COMMUNITY PARK","streetdir":null,"prkdist":"SOUTH","prkstatus":"DEVELOPED","streetsuff":null,"streetnm":"RAMBLEWOOD","streettype":"LN","streetno":2400.0,"prkaddr":"2400 RAMBLEWOOD LN","id":"a677e6zmbmsw","prkname":"HUNTINGTOWNE FARMS COMMUNITY PARK","prksize":22.741,"state":"NC"},"type":"Feature","geometry":{"type":"Point","coordinates":[-80.8624907319631,35.1281280378529]}},{"properties":{"city":"MINT HILL","name":"IDLEWILD ROAD REGIONAL PARK","zip":"28105","prktype":"REGIONAL PARK","streetdir":null,"prkdist":"EAST","prkstatus":"DEVELOPED","streetsuff":null,"streetnm":"IDLEWILD","streettype":"RD","streetno":10512.0,"prkaddr":"10512 IDLEWILD RD","id":"a677e6vu1min","prkname":"IDLEWILD ROAD REGIONAL PARK","prksize":125.257,"state":"NC"},"type":"Feature","geometry":{"type":"Point","coordinates":[-80.7001091688834,35.1644498870093]}},{"properties":{"city":"CHARLOTTE","name":"INDEPENDENCE NEIGHBORHOOD PARK","zip":"28204","prktype":"NEIGHBORHOOD PARK","streetdir":null,"prkdist":"CENTRAL","prkstatus":"DEVELOPED","streetsuff":null,"streetnm":"HAWTHORNE","streettype":"LN","streetno":300.0,"prkaddr":"300 HAWTHORNE LN","id":"a677e6nu3rdy","prkname":"INDEPENDENCE NEIGHBORHOOD PARK","prksize":19.821,"state":"NC"},"type":"Feature","geometry":{"type":"Point","coordinates":[-80.822566162213,35.2155000358748]}},{"properties":{"city":"CHARLOTTE","name":"RAYS SPLASH PLANET","zip":"28202","prktype":"RECREATION CENTER","streetdir":"N","prkdist":"CENTRAL","prkstatus":"DEVELOPED","streetsuff":null,"streetnm":"SYCAMORE","streettype":"ST","streetno":215.0,"prkaddr":"215 N SYCAMORE ST","id":"a677e6pw4ac0","prkname":"RAYS SPLASH PLANET","prksize":0.0,"state":"NC"},"type":"Feature","geometry":{"type":"Point","coordinates":[-80.852149539342,35.2370484881308]}},{"properties":{"city":"CHARLOTTE","name":"JEFF ADAMS TENNIS CENTER","zip":"28217","prktype":"SPECIAL FACILITY","streetdir":"W","prkdist":"WEST","prkstatus":"DEVELOPED","streetsuff":null,"streetnm":"TYVOLA","streettype":"RD","streetno":1200.0,"prkaddr":"1200 W TYVOLA RD","id":"a677e6sgqbc5","prkname":"JEFF ADAMS TENNIS CENTER","prksize":0.0,"state":"NC"},"type":"Feature","geometry":{"type":"Point","coordinates":[-80.9064299719482,35.1718123509233]}},{"properties":{"city":"CHARLOTTE","name":"JAMES BOYCE COMMUNITY PARK","zip":"28211","prktype":"COMMUNITY PARK","streetdir":null,"prkdist":"EAST","prkstatus":"DEVELOPED","streetsuff":null,"streetnm":"BOYCE","streettype":"RD","streetno":300.0,"prkaddr":"300 BOYCE RD","id":"a677e6uysph2","prkname":"JAMES BOYCE COMMUNITY PARK","prksize":72.964,"state":"NC"},"type":"Feature","geometry":{"type":"Point","coordinates":[-80.7690492552141,35.1474250076077]}},{"properties":{"city":"CORNELIUS","name":"JETTON REGIONAL PARK","zip":"28078","prktype":"REGIONAL PARK","streetdir":null,"prkdist":"NORTH","prkstatus":"DEVELOPED","streetsuff":null,"streetnm":"JETTON","streettype":"RD","streetno":19000.0,"prkaddr":"19000 JETTON RD","id":"a677e6rye39b","prkname":"JETTON REGIONAL PARK","prksize":103.788,"state":"NC"},"type":"Feature","geometry":{"type":"Point","coordinates":[-80.8993291686028,35.4762030572553]}},{"properties":{"city":"CHARLOTTE","name":"JULIAN UNDERWOOD NEIGHBORHOOD PARK","zip":"28215","prktype":"NEIGHBORHOOD PARK","streetdir":null,"prkdist":"EAST","prkstatus":"DEVELOPED","streetsuff":null,"streetnm":"GALWAY","streettype":"DR","streetno":5400.0,"prkaddr":"5400 GALWAY DR","id":"a677e6qgh8e7","prkname":"JULIAN UNDERWOOD NEIGHBORHOOD PARK","prksize":13.163,"state":"NC"},"type":"Feature","geometry":{"type":"Point","coordinates":[-80.7546114823931,35.2433639887055]}},{"properties":{"city":"CHARLOTTE","name":"KILBORNE COMMUNITY PARK","zip":"28205","prktype":"COMMUNITY PARK","streetdir":null,"prkdist":"EAST","prkstatus":"DEVELOPED","streetsuff":null,"streetnm":"KILBORNE","streettype":"DR","streetno":2600.0,"prkaddr":"2600 KILBORNE DR","id":"a677e6xrh9id","prkname":"KILBORNE COMMUNITY PARK","prksize":48.121,"state":"NC"},"type":"Feature","geometry":{"type":"Point","coordinates":[-80.770977472357,35.2204693227242]}},{"properties":{"city":"CHARLOTTE","name":"LATTA CENTER","zip":"28203","prktype":"RECREATION CENTER","streetdir":null,"prkdist":"CENTRAL","prkstatus":"DEVELOPED","streetsuff":null,"streetnm":"EAST PARK","streettype":"AV","streetno":510.0,"prkaddr":"510 EAST PARK AV","id":"a677e6ol2hff","prkname":"LATTA CENTER","prksize":0.0,"state":"NC"},"type":"Feature","geometry":{"type":"Point","coordinates":[-80.851556130612,35.2101898804978]}},{"properties":{"city":"HUNTERSVILLE","name":"LATTA PLANTATION NATURE PRESERVE","zip":"28216","prktype":"NATURE PRESERVE","streetdir":null,"prkdist":"NORTH","prkstatus":"DEVELOPED","streetsuff":null,"streetnm":"SAMPLE","streettype":"RD","streetno":5226.0,"prkaddr":"5226 SAMPLE RD","id":"a677e6mcmrys","prkname":"LATTA PLANTATION NATURE PRESERVE","prksize":1336.344,"state":"NC"},"type":"Feature","geometry":{"type":"Point","coordinates":[-80.9080377488716,35.3560857964946]}},{"properties":{"city":"CHARLOTTE","name":"LATTA COMMUNITY PARK","zip":"28203","prktype":"COMMUNITY PARK","streetdir":null,"prkdist":"CENTRAL","prkstatus":"DEVELOPED","streetsuff":null,"streetnm":"EAST PARK","streettype":"AV","streetno":601.0,"prkaddr":"601 EAST PARK AV","id":"a677e6tciceu","prkname":"LATTA COMMUNITY PARK","prksize":31.605,"state":"NC"},"type":"Feature","geometry":{"type":"Point","coordinates":[-80.8509402916001,35.2095294407252]}},{"properties":{"city":"HUNTERSVILLE","name":"LATTA PLACE HISTORIC SITE","zip":"28216","prktype":"SPECIAL FACILITY","streetdir":null,"prkdist":"NORTH","prkstatus":"DEVELOPED","streetsuff":null,"streetnm":"SAMPLE","streettype":"RD","streetno":5225.0,"prkaddr":"5225 SAMPLE RD","id":"a677e6vc1i9a","prkname":"LATTA PLACE HISTORIC SITE","prksize":2.988,"state":"NC"},"type":"Feature","geometry":{"type":"Point","coordinates":[-80.9290452169583,35.3530733104565]}},{"properties":{"city":"CHARLOTTE","name":"L.C. COLEMAN NEIGHBORHOOD PARK","zip":"28216","prktype":"NEIGHBORHOOD PARK","streetdir":null,"prkdist":"NORTH","prkstatus":"DEVELOPED","streetsuff":null,"streetnm":"MCDONALD","streettype":"ST","streetno":1501.0,"prkaddr":"1501 MCDONALD ST","id":"a677e6lz7krr","prkname":"L.C. COLEMAN NEIGHBORHOOD PARK","prksize":19.922,"state":"NC"},"type":"Feature","geometry":{"type":"Point","coordinates":[-80.8615441965956,35.2584158678302]}},{"properties":{"city":"CHARLOTTE","name":"MERRY OAKS ELEM. NEIGHBORHOOD PARK","zip":"28205","prktype":"NEIGHBORHOOD PARK","streetdir":null,"prkdist":"EAST","prkstatus":"DEVELOPED","streetsuff":null,"streetnm":null,"streettype":null,"streetno":0.0,"prkaddr":"3508 DRAPER AVE","id":"a677e6nazz1l","prkname":"MERRY OAKS ELEM. NEIGHBORHOOD PARK","prksize":1.436,"state":"NC"},"type":"Feature","geometry":{"type":"Point","coordinates":[-80.7856270700714,35.2196384033944]}},{"properties":{"city":"CHARLOTTE","name":"LAKEWOOD NEIGHBORHOOD PARK","zip":"28208","prktype":"NEIGHBORHOOD PARK","streetdir":null,"prkdist":"WEST","prkstatus":"DEVELOPED","streetsuff":null,"streetnm":"KAYLNNE","streettype":"ST","streetno":3131.0,"prkaddr":"3131 KALYNNE ST","id":"a677e6lxkf5x","prkname":"LAKEWOOD NEIGHBORHOOD PARK","prksize":10.946,"state":"NC"},"type":"Feature","geometry":{"type":"Point","coordinates":[-80.8775537670665,35.2524183813763]}},{"properties":{"city":"HUNTERSVILLE","name":"LATTA PLANTATION EQUESTRIAN CENTER","zip":"28216","prktype":"SPECIAL FACILITY","streetdir":null,"prkdist":"NORTH","prkstatus":"DEVELOPED","streetsuff":null,"streetnm":"SAMPLE","streettype":"RD","streetno":6201.0,"prkaddr":"6201 SAMPLE RD","id":"a677e6okknat","prkname":"LATTA PLANTATION EQUESTRIAN CENTER","prksize":0.0,"state":"NC"},"type":"Feature","geometry":{"type":"Point","coordinates":[-80.9143983791626,35.3526392122755]}},{"properties":{"city":"CHARLOTTE","name":"LITTLE PEOPLES NEIGHBORHOOD PARK","zip":"28205","prktype":"NEIGHBORHOOD PARK","streetdir":null,"prkdist":"CENTRAL","prkstatus":"DEVELOPED","streetsuff":null,"streetnm":"HARRILL","streettype":"ST","streetno":1200.0,"prkaddr":"1120 HARRILL ST","id":"a677e6y1gkxg","prkname":"LITTLE PEOPLES NEIGHBORHOOD PARK","prksize":0.194,"state":"NC"},"type":"Feature","geometry":{"type":"Point","coordinates":[-80.820407010353,35.2284140018087]}},{"properties":{"city":"MATTHEWS","name":"MECK. CO. REGIONAL SPORTS COMPLEX","zip":"28105","prktype":"REGIONAL PARK","streetdir":null,"prkdist":"EAST","prkstatus":"DEVELOPED","streetsuff":null,"streetnm":"NO ADDRESS","streettype":null,"streetno":0.0,"prkaddr":"1601 TANK TOWN RD","id":"a677e6wzrf7z","prkname":"MECK. CO. REGIONAL SPORTS COMPLEX","prksize":196.394,"state":"NC"},"type":"Feature","geometry":{"type":"Point","coordinates":[-80.7018690066181,35.1075708275842]}},{"properties":{"city":"CHARLOTTE","name":"MCALPINE CREEK REGIONAL PARK","zip":"28212","prktype":"REGIONAL PARK","streetdir":null,"prkdist":"EAST","prkstatus":"DEVELOPED","streetsuff":null,"streetnm":"MONROE","streettype":"RD","streetno":8711.0,"prkaddr":"8711  MONROE RD","id":"a677e6xfldkh","prkname":"MCALPINE CREEK REGIONAL PARK","prksize":117.01,"state":"NC"},"type":"Feature","geometry":{"type":"Point","coordinates":[-80.7456778884323,35.1509005170135]}},{"properties":{"city":"CHARLOTTE","name":"MCDOWELL NATURE PRESERVE","zip":"28278","prktype":"NATURE PRESERVE","streetdir":null,"prkdist":"WEST","prkstatus":"DEVELOPED","streetsuff":null,"streetnm":"YORK","streettype":"RD","streetno":15222.0,"prkaddr":"15222 YORK RD","id":"a677e6ndvc9p","prkname":"MCDOWELL NATURE PRESERVE","prksize":1096.389,"state":"NC"},"type":"Feature","geometry":{"type":"Point","coordinates":[-81.0238795809668,35.0942724471048]}},{"properties":{"city":"CHARLOTTE","name":"MCINTYRE HISTORIC SITE","zip":"28216","prktype":"SPECIAL FACILITY","streetdir":null,"prkdist":"NORTH","prkstatus":"DEVELOPED","streetsuff":null,"streetnm":"MCINTYRE","streettype":"AV","streetno":5801.0,"prkaddr":"5801 MCINTYRE AV","id":"a677e6tsbrpb","prkname":"MCINTYRE HISTORIC SITE","prksize":1.746,"state":"NC"},"type":"Feature","geometry":{"type":"Point","coordinates":[-80.8636338116073,35.3122468306619]}},{"properties":{"city":"CHARLOTTE","name":"MCKEE ROAD COMMUNITY PARK","zip":"28270","prktype":"COMMUNITY PARK","streetdir":null,"prkdist":"SOUTH","prkstatus":"DEVELOPED","streetsuff":null,"streetnm":"MCKEE","streettype":"RD","streetno":4201.0,"prkaddr":"4201 MCKEE RD","id":"a677e6lp4so2","prkname":"MCKEE ROAD COMMUNITY PARK","prksize":20.574,"state":"NC"},"type":"Feature","geometry":{"type":"Point","coordinates":[-80.756918315489,35.0683311419481]}},{"properties":{"city":"CHARLOTTE","name":"MARION DIEHL CENTER","zip":"28210","prktype":"RECREATION CENTER","streetdir":null,"prkdist":"SOUTH","prkstatus":"DEVELOPED","streetsuff":null,"streetnm":"TYVOLA","streettype":"RD","streetno":2219.0,"prkaddr":"2219 TYVOLA RD","id":"a677e6v56jo8","prkname":"MARION DIEHL CENTER","prksize":0.0,"state":"NC"},"type":"Feature","geometry":{"type":"Point","coordinates":[-80.8602461908722,35.1599701023581]}},{"properties":{"city":"CHARLOTTE","name":"MARION DIEHL COMMUNITY PARK","zip":"28210","prktype":"COMMUNITY PARK","streetdir":null,"prkdist":"SOUTH","prkstatus":"DEVELOPED","streetsuff":null,"streetnm":"TYVOLA","streettype":"RD","streetno":2219.0,"prkaddr":"2219 TYVOLA RD","id":"a677e6unkctq","prkname":"MARION DIEHL COMMUNITY PARK","prksize":78.715,"state":"NC"},"type":"Feature","geometry":{"type":"Point","coordinates":[-80.8574974686266,35.1588638206373]}},{"properties":{"city":"CHARLOTTE","name":"MEMORIAL STADIUM COMPLEX","zip":"28204","prktype":"NEIGHBORHOOD PARK","streetdir":"N","prkdist":"CENTRAL","prkstatus":"DEVELOPED","streetsuff":null,"streetnm":"KINGS","streettype":"DR","streetno":310.0,"prkaddr":"310 N KINGS DR","id":"a677e6z025ui","prkname":"MEMORIAL STADIUM COMPLEX","prksize":12.258,"state":"NC"},"type":"Feature","geometry":{"type":"Point","coordinates":[-80.8282091909924,35.2190603025967]}},{"properties":{"city":"CHARLOTTE","name":"MIDWOOD NEIGHBORHOOD PARK","zip":"28205","prktype":"NEIGHBORHOOD PARK","streetdir":null,"prkdist":"EAST","prkstatus":"DEVELOPED","streetsuff":null,"streetnm":"WILHELMINA","streettype":"AV","streetno":2100.0,"prkaddr":"2100 WILHELMINA AV","id":"a677e6phnx0r","prkname":"MIDWOOD NEIGHBORHOOD PARK","prksize":6.203,"state":"NC"},"type":"Feature","geometry":{"type":"Point","coordinates":[-80.8026503386553,35.2301811875865]}},{"properties":{"city":"CHARLOTTE","name":"MALLARD CREEK REGIONAL PARK","zip":"28269","prktype":"REGIONAL PARK","streetdir":null,"prkdist":"NORTH","prkstatus":"DEVELOPED","streetsuff":null,"streetnm":"JOHNSTON OEHLER","streettype":"RD","streetno":3001.0,"prkaddr":"3001 JOHNSTON OEHLER RD","id":"a677e6waoalu","prkname":"MALLARD CREEK REGIONAL PARK","prksize":310.049,"state":"NC"},"type":"Feature","geometry":{"type":"Point","coordinates":[-80.7605667559293,35.3622847254649]}},{"properties":{"city":"CHARLOTTE","name":"MALLARD CREEK CENTER","zip":"28269","prktype":"RECREATION CENTER","streetdir":null,"prkdist":"NORTH","prkstatus":"DEVELOPED","streetsuff":null,"streetnm":"JOHNSTON OEHLER","streettype":"RD","streetno":2530.0,"prkaddr":"2530 JOHNSTON OEHLER RD","id":"a677e6qj1hsz","prkname":"MALLARD CREEK CENTER","prksize":0.0,"state":"NC"},"type":"Feature","geometry":{"type":"Point","coordinates":[-80.7573021771561,35.3572595576469]}},{"properties":{"city":"CHARLOTTE","name":"MARTIN LUTHER KING COMMUNITY PARK","zip":"28208","prktype":"COMMUNITY PARK","streetdir":null,"prkdist":"WEST","prkstatus":"DEVELOPED","streetsuff":null,"streetnm":"RAVENCROFT","streettype":"DR","streetno":2600.0,"prkaddr":"2600 RAVENCROFT DR","id":"a677e6xn4y2s","prkname":"MARTIN LUTHER KING COMMUNITY PARK","prksize":29.131,"state":"NC"},"type":"Feature","geometry":{"type":"Point","coordinates":[-80.8715163588095,35.2457151388776]}},{"properties":{"city":"CHARLOTTE","name":"CHERRY NEIGHBORHOOD PARK","zip":"28204","prktype":"NEIGHBORHOOD PARK","streetdir":null,"prkdist":"CENTRAL","prkstatus":"DEVELOPED","streetsuff":null,"streetnm":"BAXTER","streettype":"ST","streetno":1506.0,"prkaddr":"1509 BAXTER ST","id":"a677e704xoh8","prkname":"CHERRY NEIGHBORHOOD PARK","prksize":1.891,"state":"NC"},"type":"Feature","geometry":{"type":"Point","coordinates":[-80.8327841426726,35.2103282102607]}},{"properties":{"city":"CHARLOTTE","name":"MASON WALLACE COMMUNITY PARK","zip":"28212","prktype":"COMMUNITY PARK","streetdir":null,"prkdist":"EAST","prkstatus":"DEVELOPED","streetsuff":null,"streetnm":"MONROE","streettype":"RD","streetno":7301.0,"prkaddr":"7301 MONROE RD","id":"a677e6ymhihv","prkname":"MASON WALLACE COMMUNITY PARK","prksize":30.397,"state":"NC"},"type":"Feature","geometry":{"type":"Point","coordinates":[-80.7555233021881,35.1676439598122]}},{"properties":{"city":"CHARLOTTE","name":"METHODIST HOME CENTER","zip":"28205","prktype":"RECREATION CENTER","streetdir":null,"prkdist":"EAST","prkstatus":"DEVELOPED","streetsuff":null,"streetnm":"SHAMROCK","streettype":"DR","streetno":3200.0,"prkaddr":"3200 SHAMROCK DR","id":"a677e6mnz5d0","prkname":"METHODIST HOME CENTER","prksize":0.0,"state":"NC"},"type":"Feature","geometry":{"type":"Point","coordinates":[-80.7731308895847,35.2355012770188]}},{"properties":{"city":"CHARLOTTE","name":"METHODIST HOME NEIGHBORHOOD PARK","zip":"28205","prktype":"NEIGHBORHOOD PARK","streetdir":null,"prkdist":"EAST","prkstatus":"DEVELOPED","streetsuff":null,"streetnm":"SHAMROCK","streettype":"DR","streetno":3200.0,"prkaddr":"3200 SHAMROCK DR","id":"a677e6s59ycj","prkname":"METHODIST HOME NEIGHBORHOOD PARK","prksize":10.453,"state":"NC"},"type":"Feature","geometry":{"type":"Point","coordinates":[-80.7743353025901,35.2339875943892]}},{"properties":{"city":"CHARLOTTE","name":"NAOMI DRENAN CENTER","zip":"28211","prktype":"RECREATION CENTER","streetdir":null,"prkdist":"EAST","prkstatus":"DEVELOPED","streetsuff":null,"streetnm":"BEAL","streettype":"ST","streetno":750.0,"prkaddr":"750 BEAL ST","id":"a677e6mx21kn","prkname":"NAOMI DRENAN CENTER","prksize":0.0,"state":"NC"},"type":"Feature","geometry":{"type":"Point","coordinates":[-80.7963519298606,35.1904293229471]}},{"properties":{"city":"CHARLOTTE","name":"FREEDOM PARK NATURE MUSEUM","zip":"28209","prktype":"SPECIAL FACILITY","streetdir":null,"prkdist":"CENTRAL","prkstatus":"DEVELOPED","streetsuff":null,"streetnm":"STERLING","streettype":"RD","streetno":1658.0,"prkaddr":"1658 STERLING RD","id":"a677e6wmfhu4","prkname":"FREEDOM PARK NATURE MUSEUM","prksize":0.0,"state":"NC"},"type":"Feature","geometry":{"type":"Point","coordinates":[-80.8426539788662,35.1880916804293]}},{"properties":{"city":"CHARLOTTE","name":"NORTH CHARLOTTE NEIGHBORHOOD PARK","zip":"28205","prktype":"NEIGHBORHOOD PARK","streetdir":null,"prkdist":"EAST","prkstatus":"DEVELOPED","streetsuff":null,"streetnm":"HERRIN","streettype":"AV","streetno":901.0,"prkaddr":"901 HERRIN AV","id":"a677e6s2tre9","prkname":"NORTH CHARLOTTE NEIGHBORHOOD PARK","prksize":3.056,"state":"NC"},"type":"Feature","geometry":{"type":"Point","coordinates":[-80.7978826875429,35.2460298744477]}},{"properties":{"city":"CHARLOTTE","name":"NEVIN REGIONAL PARK","zip":"28269","prktype":"REGIONAL PARK","streetdir":null,"prkdist":"NORTH","prkstatus":"DEVELOPED","streetsuff":null,"streetnm":"STATESVILLE","streettype":"RD","streetno":6000.0,"prkaddr":"6000 STATESVILLE RD","id":"a677e6nh4h4y","prkname":"NEVIN REGIONAL PARK","prksize":188.888,"state":"NC"},"type":"Feature","geometry":{"type":"Point","coordinates":[-80.8399602765762,35.301946537885]}},{"properties":{"city":"CHARLOTTE","name":"NEWELL COMMUNITY PARK","zip":"28213","prktype":"COMMUNITY PARK","streetdir":null,"prkdist":"EAST","prkstatus":"DEVELOPED","streetsuff":null,"streetnm":"NEWELL BAPTIST CHURCH","streettype":"RD","streetno":9130.0,"prkaddr":"9130 NEWELL BAPTIST CHURCH RD","id":"a677e6wnw7zy","prkname":"NEWELL COMMUNITY PARK","prksize":29.767,"state":"NC"},"type":"Feature","geometry":{"type":"Point","coordinates":[-80.7362495732994,35.2841743909057]}},{"properties":{"city":"CHARLOTTE","name":"NINTH STREET NEIGHBORHOOD PARK","zip":"28202","prktype":"NEIGHBORHOOD PARK","streetdir":"W","prkdist":"CENTRAL","prkstatus":"DEVELOPED","streetsuff":null,"streetnm":"9TH","streettype":"ST","streetno":417.0,"prkaddr":"417 W 9TH ST","id":"a677e6ovur9s","prkname":"NINTH STREET NEIGHBORHOOD PARK","prksize":0.255,"state":"NC"},"type":"Feature","geometry":{"type":"Point","coordinates":[-80.8412354014853,35.2340794707786]}},{"properties":{"city":"HUNTERSVILLE","name":"NORTH MECKLENBURG COMMUNITY PARK","zip":"28078","prktype":"COMMUNITY PARK","streetdir":null,"prkdist":"NORTH","prkstatus":"DEVELOPED","streetsuff":null,"streetnm":"OLD STATESVILLE","streettype":"RD","streetno":16131.0,"prkaddr":"16131 OLD STATESVILLE RD","id":"a677e6zo6nkm","prkname":"NORTH MECKLENBURG COMMUNITY PARK","prksize":96.228,"state":"NC"},"type":"Feature","geometry":{"type":"Point","coordinates":[-80.8435389974416,35.4332528363149]}},{"properties":{"city":"CHARLOTTE","name":"OAKHURST NEIGHBORHOOD PARK","zip":"28211","prktype":"NEIGHBORHOOD PARK","streetdir":null,"prkdist":"EAST","prkstatus":"DEVELOPED","streetsuff":null,"streetnm":"CRAIG","streettype":"AV","streetno":3500.0,"prkaddr":"3500 CRAIG AV","id":"a677e6s7nypy","prkname":"OAKHURST NEIGHBORHOOD PARK","prksize":6.381,"state":"NC"},"type":"Feature","geometry":{"type":"Point","coordinates":[-80.7899918530967,35.191427558284]}},{"properties":{"city":"CHARLOTTE","name":"OLDE PROVIDENCE COMMUNITY PARK","zip":"28226","prktype":"COMMUNITY PARK","streetdir":null,"prkdist":"SOUTH","prkstatus":"DEVELOPED","streetsuff":null,"streetnm":"REA","streettype":"RD","streetno":3800.0,"prkaddr":"3800 REA RD","id":"a677e6p5qdkn","prkname":"OLDE PROVIDENCE COMMUNITY PARK","prksize":39.326,"state":"NC"},"type":"Feature","geometry":{"type":"Point","coordinates":[-80.7975987895061,35.1100994908155]}},{"properties":{"city":"CHARLOTTE","name":"POLICE ATHLETIC LEAGUE CENTER","zip":"28206","prktype":"RECREATION CENTER","streetdir":null,"prkdist":"CENTRAL","prkstatus":"DEVELOPED","streetsuff":null,"streetnm":"OAKLAWN","streettype":"AV","streetno":800.0,"prkaddr":"800 OAKLAWN AV","id":"a677e6qh6gmn","prkname":"POLICE ATHLETIC LEAGUE CENTER","prksize":0.0,"state":"NC"},"type":"Feature","geometry":{"type":"Point","coordinates":[-80.837038186466,35.2457552890207]}},{"properties":{"city":"CHARLOTTE","name":"HICKORY GROVE NEIGHBORHOOD PARK","zip":"28227","prktype":"NEIGHBORHOOD PARK","streetdir":null,"prkdist":"EAST","prkstatus":"DEVELOPED","streetsuff":null,"streetnm":"PENCE","streettype":"RD","streetno":6709.0,"prkaddr":"6709 PENCE RD","id":"a677e6v6svv2","prkname":"HICKORY GROVE NEIGHBORHOOD PARK","prksize":11.433,"state":"NC"},"type":"Feature","geometry":{"type":"Point","coordinates":[-80.7174803450161,35.2257254735063]}},{"properties":{"city":"CHARLOTTE","name":"PEARLE STREET NEIGHBORHOOD PARK","zip":"28204","prktype":"NEIGHBORHOOD PARK","streetdir":null,"prkdist":"CENTRAL","prkstatus":"DEVELOPED","streetsuff":null,"streetnm":"BAXTER","streettype":"ST","streetno":1108.0,"prkaddr":"1108 BAXTER ST","id":"a677e6u85td8","prkname":"PEARLE STREET NEIGHBORHOOD PARK","prksize":8.386,"state":"NC"},"type":"Feature","geometry":{"type":"Point","coordinates":[-80.8372139961315,35.2124860092511]}},{"properties":{"city":"CHARLOTTE","name":"PARK ROAD COMMUNITY PARK","zip":"28210","prktype":"COMMUNITY PARK","streetdir":null,"prkdist":"SOUTH","prkstatus":"DEVELOPED","streetsuff":null,"streetnm":"PARK","streettype":"RD","streetno":6220.0,"prkaddr":"6220 PARK RD","id":"a677e6n70njo","prkname":"PARK ROAD COMMUNITY PARK","prksize":71.473,"state":"NC"},"type":"Feature","geometry":{"type":"Point","coordinates":[-80.8499916551908,35.146323310403]}},{"properties":{"city":"CHARLOTTE","name":"PARK ROAD TENNIS FACILITY","zip":"28210","prktype":"NEIGHBORHOOD PARK","streetdir":null,"prkdist":"SOUTH","prkstatus":"DEVELOPED","streetsuff":null,"streetnm":"PARK","streettype":"RD","streetno":6215.0,"prkaddr":"6215 PARK RD","id":"a677e6znyg1k","prkname":"PARK ROAD TENNIS FACILITY","prksize":17.989,"state":"NC"},"type":"Feature","geometry":{"type":"Point","coordinates":[-80.8497190781924,35.1463314856076]}},{"properties":{"city":"CHARLOTTE","name":"POLICE ATHLETIC NEIGHBORHOOD PARK","zip":"28216","prktype":"NEIGHBORHOOD PARK","streetdir":null,"prkdist":"CENTRAL","prkstatus":"DEVELOPED","streetsuff":null,"streetnm":"NO ADDRESS","streettype":null,"streetno":0.0,"prkaddr":"812 OAKLAWN AV","id":"a677e6nsbw0o","prkname":"POLICE ATHLETIC NEIGHBORHOOD PARK","prksize":0.298,"state":"NC"},"type":"Feature","geometry":{"type":"Point","coordinates":[-80.8371562302242,35.245619095272]}},{"properties":{"city":"CHARLOTTE","name":"PHILLIP O. BERRY CENTER","zip":"28208","prktype":"RECREATION CENTER","streetdir":null,"prkdist":"CENTRAL","prkstatus":"DEVELOPED","streetsuff":null,"streetnm":"TUCKASEEGEE","streettype":"RD","streetno":440.0,"prkaddr":"440 TUCKASEEGEE RD","id":"a677e6u0jb7b","prkname":"PHILLIP O. BERRY CENTER","prksize":0.0,"state":"NC"},"type":"Feature","geometry":{"type":"Point","coordinates":[-80.8650819888097,35.2394746189032]}},{"properties":{"city":"CHARLOTTE","name":"PRESSLEY ROAD NEIGHBORHOOD PARK","zip":"28217","prktype":"NEIGHBORHOOD PARK","streetdir":null,"prkdist":"WEST","prkstatus":"DEVELOPED","streetsuff":null,"streetnm":"PRESSLEY","streettype":"RD","streetno":1500.0,"prkaddr":"1500 PRESSLEY RD","id":"a677e6rtgq1g","prkname":"PRESSLEY ROAD NEIGHBORHOOD PARK","prksize":5.954,"state":"NC"},"type":"Feature","geometry":{"type":"Point","coordinates":[-80.8919692604926,35.1967836716438]}},{"properties":{"city":"CHARLOTTE","name":"PROGRESS NEIGHBORHOOD PARK","zip":"28205","prktype":"NEIGHBORHOOD PARK","streetdir":null,"prkdist":"CENTRAL","prkstatus":"DEVELOPED","streetsuff":null,"streetnm":"PARKWOOD","streettype":"AV","streetno":1301.0,"prkaddr":"1301 PARKWOOD AV","id":"a677e6ssjfcn","prkname":"PROGRESS NEIGHBORHOOD PARK","prksize":0.658,"state":"NC"},"type":"Feature","geometry":{"type":"Point","coordinates":[-80.8123599274674,35.2331375440587]}},{"properties":{"city":"CHARLOTTE","name":"RAMA ROAD NEIGHBORHOOD PARK","zip":"28211","prktype":"NEIGHBORHOOD PARK","streetdir":null,"prkdist":"EAST","prkstatus":"DEVELOPED","streetsuff":null,"streetnm":"RAMA","streettype":"RD","streetno":1035.0,"prkaddr":"1035 RAMA RD","id":"a677e6uq6md6","prkname":"RAMA ROAD NEIGHBORHOOD PARK","prksize":14.437,"state":"NC"},"type":"Feature","geometry":{"type":"Point","coordinates":[-80.7717398291403,35.1686070658423]}},{"properties":{"city":"CORNELIUS","name":"RAMSEY CREEK COMMUNITY PARK","zip":"28078","prktype":"COMMUNITY PARK","streetdir":null,"prkdist":"NORTH","prkstatus":"DEVELOPED","streetsuff":null,"streetnm":"NANTZ","streettype":"RD","streetno":18441.0,"prkaddr":"18441  NANTZ RD","id":"a677e6mbzqh4","prkname":"RAMSEY CREEK COMMUNITY PARK","prksize":43.783,"state":"NC"},"type":"Feature","geometry":{"type":"Point","coordinates":[-80.89579954384,35.4653862143265]}},{"properties":{"city":"CHARLOTTE","name":"RANDOLPH ROAD COMMUNITY PARK","zip":"28205","prktype":"COMMUNITY PARK","streetdir":null,"prkdist":"CENTRAL","prkstatus":"DEVELOPED","streetsuff":null,"streetnm":"BILLINGSLEY","streettype":"RD","streetno":201.0,"prkaddr":"201 BILLINGSLEY RD","id":"a677e7231kgc","prkname":"RANDOLPH ROAD COMMUNITY PARK","prksize":78.382,"state":"NC"},"type":"Feature","geometry":{"type":"Point","coordinates":[-80.8093368905643,35.1906300921677]}},{"properties":{"city":"CHARLOTTE","name":"REEDY CREEK REGIONAL PARK","zip":"28215","prktype":"REGIONAL PARK","streetdir":null,"prkdist":"EAST","prkstatus":"DEVELOPED","streetsuff":null,"streetnm":"ROCKY RIVER","streettype":"RD","streetno":2900.0,"prkaddr":"2900  ROCKY RIVER RD","id":"a677e6y702jb","prkname":"REEDY CREEK REGIONAL PARK","prksize":145.664,"state":"NC"},"type":"Feature","geometry":{"type":"Point","coordinates":[-80.716907704409,35.2766500646688]}},{"properties":{"city":"CHARLOTTE","name":"REEDY CREEK NATURE PRESERVE","zip":"28215","prktype":"NATURE PRESERVE","streetdir":null,"prkdist":"EAST","prkstatus":"DEVELOPED","streetsuff":null,"streetnm":"ROCKY RIVER","streettype":"RD","streetno":2900.0,"prkaddr":"2900 ROCKY RIVER RD","id":"a677e6v2y46x","prkname":"REEDY CREEK NATURE PRESERVE","prksize":735.611,"state":"NC"},"type":"Feature","geometry":{"type":"Point","coordinates":[-80.7168888119389,35.2766591586313]}},{"properties":{"city":"CHARLOTTE","name":"REVOLUTION GOLF COURSE","zip":"28208","prktype":"GOLF COURSE","streetdir":null,"prkdist":"WEST","prkstatus":"DEVELOPED","streetsuff":null,"streetnm":"BARRINGER","streettype":"DR","streetno":2661.0,"prkaddr":"2661 BARRINGER DR","id":"a677e6zzxyvs","prkname":"REVOLUTION GOLF COURSE","prksize":114.423,"state":"NC"},"type":"Feature","geometry":{"type":"Point","coordinates":[-80.8800919852378,35.2124264675513]}},{"properties":{"city":"CHARLOTTE","name":"REVOLUTION COMMUNITY PARK","zip":"28208","prktype":"COMMUNITY PARK","streetdir":null,"prkdist":"WEST","prkstatus":"DEVELOPED","streetsuff":null,"streetnm":"BARRINGER","streettype":"DR","streetno":2425.0,"prkaddr":"2425 BARRINGER DR","id":"a677e6m7dqqk","prkname":"REVOLUTION COMMUNITY PARK","prksize":30.459,"state":"NC"},"type":"Feature","geometry":{"type":"Point","coordinates":[-80.8763336982802,35.2155385074769]}},{"properties":{"city":"CHARLOTTE","name":"RENAISSANCE GOLF COURSE","zip":"28217","prktype":"GOLF COURSE","streetdir":"W","prkdist":"WEST","prkstatus":"DEVELOPED","streetsuff":null,"streetnm":"TYVOLA","streettype":"RD","streetno":1525.0,"prkaddr":"1525 W TYVOLA RD","id":"a677e6yj4lr6","prkname":"RENAISSANCE GOLF COURSE","prksize":338.441,"state":"NC"},"type":"Feature","geometry":{"type":"Point","coordinates":[-80.9101491800998,35.1757516317056]}},{"properties":{"city":"CHARLOTTE","name":"RIBBONWALK NATURE PRESERVE","zip":"28269","prktype":"NATURE PRESERVE","streetdir":null,"prkdist":"NORTH","prkstatus":"DEVELOPED","streetsuff":null,"streetnm":"NEVIN","streettype":"RD","streetno":4601.0,"prkaddr":"4601 NEVIN RD","id":"a677e6w4581n","prkname":"RIBBONWALK NATURE PRESERVE","prksize":186.879,"state":"NC"},"type":"Feature","geometry":{"type":"Point","coordinates":[-80.8182603029602,35.2913655544329]}},{"properties":{"city":"CHARLOTTE","name":"RAMBLEWOOD COMMUNITY PARK","zip":"28273","prktype":"COMMUNITY PARK","streetdir":null,"prkdist":"SOUTH","prkstatus":"DEVELOPED","streetsuff":null,"streetnm":"NATIONS FORD","streettype":"RD","streetno":10200.0,"prkaddr":"10200 NATIONS FORD RD","id":"a677e6pujhl3","prkname":"RAMBLEWOOD COMMUNITY PARK","prksize":93.196,"state":"NC"},"type":"Feature","geometry":{"type":"Point","coordinates":[-80.9023768881396,35.1225823606683]}},{"properties":{"city":"CHARLOTTE","name":"THEREASEA C. ELDERS NEIGHBORHOOD PARK","zip":"28269","prktype":"NEIGHBORHOOD PARK","streetdir":null,"prkdist":"NORTH","prkstatus":"DEVELOPED","streetsuff":null,"streetnm":"ROCKWELL CHURCH","streettype":"RD","streetno":6325.0,"prkaddr":"6325 ROCKWELL CHURCH RD","id":"a677e6pmpmqn","prkname":"THEREASEA C. ELDERS NEIGHBORHOOD PARK","prksize":16.102,"state":"NC"},"type":"Feature","geometry":{"type":"Point","coordinates":[-80.8009823684222,35.3052093901677]}},{"properties":{"city":"CHARLOTTE","name":"RENAISSANCE REGIONAL PARK","zip":"28217","prktype":"REGIONAL PARK","streetdir":"W","prkdist":"WEST","prkstatus":"DEVELOPED","streetsuff":null,"streetnm":"TYVOLA","streettype":"RD","streetno":1200.0,"prkaddr":"1200 W TYVOLA RD","id":"a677e6nktetm","prkname":"RENAISSANCE REGIONAL PARK","prksize":144.685,"state":"NC"},"type":"Feature","geometry":{"type":"Point","coordinates":[-80.9098200026486,35.1758383502895]}},{"properties":{"city":"HUNTERSVILLE","name":"RURAL HILL NATURE PRESERVE","zip":"28078","prktype":"NATURE PRESERVE","streetdir":null,"prkdist":"NORTH","prkstatus":"DEVELOPED","streetsuff":null,"streetnm":"NECK","streettype":"RD","streetno":4431.0,"prkaddr":"4431 NECK RD","id":"a677e6yd1r4v","prkname":"RURAL HILL NATURE PRESERVE","prksize":488.769,"state":"NC"},"type":"Feature","geometry":{"type":"Point","coordinates":[-80.9452822102453,35.3838212557407]}},{"properties":{"city":"CHARLOTTE","name":"STEELE CREEK ELEMENTARY PARK","zip":"28273","prktype":"NEIGHBORHOOD PARK","streetdir":null,"prkdist":"WEST","prkstatus":"DEVELOPED","streetsuff":null,"streetnm":"GALLANT","streettype":"LN","streetno":4100.0,"prkaddr":"4100 GALLANT LN","id":"a677e71fksoc","prkname":"STEELE CREEK ELEMENTARY PARK","prksize":0.0,"state":"NC"},"type":"Feature","geometry":{"type":"Point","coordinates":[-80.9578289791851,35.1537692112219]}},{"properties":{"city":"CHARLOTTE","name":"SEDGEFIELD NEIGHBORHOOD PARK","zip":"28209","prktype":"NEIGHBORHOOD PARK","streetdir":null,"prkdist":"CENTRAL","prkstatus":"DEVELOPED","streetsuff":null,"streetnm":"ELMHURST","streettype":"RD","streetno":621.0,"prkaddr":"621 ELMHURST RD","id":"a677e6y0zxcc","prkname":"SEDGEFIELD NEIGHBORHOOD PARK","prksize":5.058,"state":"NC"},"type":"Feature","geometry":{"type":"Point","coordinates":[-80.8580728156138,35.198269157352]}},{"properties":{"city":"CHARLOTTE","name":"SEVERSVILLE NEIGHBORHOOD PARK","zip":"28217","prktype":"NEIGHBORHOOD PARK","streetdir":"S","prkdist":"CENTRAL","prkstatus":"DEVELOPED","streetsuff":null,"streetnm":"BRUNS","streettype":"AV","streetno":540.0,"prkaddr":"540 S BRUNS AVE","id":"a677e6ma383m","prkname":"SEVERSVILLE NEIGHBORHOOD PARK","prksize":11.155,"state":"NC"},"type":"Feature","geometry":{"type":"Point","coordinates":[-80.8665280214079,35.2390787367703]}},{"properties":{"city":"CHARLOTTE","name":"SHAMROCK NEIGHBORHOOD PARK","zip":"28205","prktype":"NEIGHBORHOOD PARK","streetdir":null,"prkdist":"EAST","prkstatus":"DEVELOPED","streetsuff":null,"streetnm":"AIRLIE","streettype":"ST","streetno":3325.0,"prkaddr":"3325 AIRLIE ST","id":"a677e6vruex6","prkname":"SHAMROCK NEIGHBORHOOD PARK","prksize":2.216,"state":"NC"},"type":"Feature","geometry":{"type":"Point","coordinates":[-80.7839039933314,35.2353328559305]}},{"properties":{"city":"CHARLOTTE","name":"SHUFFLETOWN PRAIRIE NATURE PRESERVE","zip":"28214","prktype":"NATURE PRESERVE","streetdir":null,"prkdist":"WEST","prkstatus":"DEVELOPED","streetsuff":null,"streetnm":"NO ADDRESS","streettype":null,"streetno":0.0,"prkaddr":"WINDING RIVER RD","id":"a677e6nwzn46","prkname":"SHUFFLETOWN PRAIRIE NATURE PRESERVE","prksize":18.061,"state":"NC"},"type":"Feature","geometry":{"type":"Point","coordinates":[-80.9575636297583,35.3247057813564]}},{"properties":{"city":"CHARLOTTE","name":"SHEFFIELD NEIGHBORHOOD PARK","zip":"28205","prktype":"NEIGHBORHOOD PARK","streetdir":null,"prkdist":"EAST","prkstatus":"DEVELOPED","streetsuff":null,"streetnm":"TARRINGTON","streettype":"AV","streetno":1300.0,"prkaddr":"1300 TARRINGTON AV","id":"a677e6ubqjnp","prkname":"SHEFFIELD NEIGHBORHOOD PARK","prksize":7.94,"state":"NC"},"type":"Feature","geometry":{"type":"Point","coordinates":[-80.7669030451694,35.2061319639107]}},{"properties":{"city":"CHARLOTTE","name":"TOM SYKES CENTER","zip":"28203","prktype":"RECREATION CENTER","streetdir":null,"prkdist":"CENTRAL","prkstatus":"DEVELOPED","streetsuff":null,"streetnm":"EUCLID","streettype":"AV","streetno":1501.0,"prkaddr":"1501 EUCLID AV","id":"a677e6rjf9r5","prkname":"TOM SYKES CENTER","prksize":0.0,"state":"NC"},"type":"Feature","geometry":{"type":"Point","coordinates":[-80.8523095706876,35.2124495457862]}},{"properties":{"city":"CHARLOTTE","name":"SOLOMANS NEIGHBORHOOD PARK","zip":"28216","prktype":"NEIGHBORHOOD PARK","streetdir":null,"prkdist":"NORTH","prkstatus":"DEVELOPED","streetsuff":null,"streetnm":"VENICE","streettype":"ST","streetno":3299.0,"prkaddr":"3299 VENICE ST","id":"a677e6y4zekq","prkname":"SOLOMANS NEIGHBORHOOD PARK","prksize":0.662,"state":"NC"},"type":"Feature","geometry":{"type":"Point","coordinates":[-80.8701352642761,35.2607279066691]}},{"properties":{"city":"CHARLOTTE","name":"SPRINGFIELD NEIGHBORHOOD PARK","zip":"28217","prktype":"NEIGHBORHOOD PARK","streetdir":null,"prkdist":"WEST","prkstatus":"DEVELOPED","streetsuff":null,"streetnm":"DEANWOOD","streettype":"PL","streetno":200.0,"prkaddr":"200 DEANWOOD PL","id":"a677e6nhtqyz","prkname":"SPRINGFIELD NEIGHBORHOOD PARK","prksize":11.519,"state":"NC"},"type":"Feature","geometry":{"type":"Point","coordinates":[-80.9034371236362,35.1597666100566]}},{"properties":{"city":"CHARLOTTE","name":"SOUTHSIDE COMMUNITY PARK","zip":"28203","prktype":"COMMUNITY PARK","streetdir":null,"prkdist":"WEST","prkstatus":"DEVELOPED","streetsuff":null,"streetnm":"REMOUNT","streettype":"RD","streetno":600.0,"prkaddr":"600 REMOUNT RD","id":"a677e6mtfx44","prkname":"SOUTHSIDE COMMUNITY PARK","prksize":20.517,"state":"NC"},"type":"Feature","geometry":{"type":"Point","coordinates":[-80.8748714334221,35.2080719278862]}},{"properties":{"city":"CHARLOTTE","name":"ST MARYS CHAPEL","zip":"28204","prktype":"SPECIAL FACILITY","streetdir":"E","prkdist":"CENTRAL","prkstatus":"DEVELOPED","streetsuff":null,"streetnm":"3RD","streettype":"ST","streetno":1129.0,"prkaddr":"1129 E 3RD ST","id":"a677e6upu518","prkname":"ST MARYS CHAPEL","prksize":0.0,"state":"NC"},"type":"Feature","geometry":{"type":"Point","coordinates":[-80.83352015989,35.2158000613384]}},{"properties":{"city":"CHARLOTTE","name":"ST PAULS RAY OF HOPE CENTER","zip":"28202","prktype":"RECREATION CENTER","streetdir":null,"prkdist":"CENTRAL","prkstatus":"DEVELOPED","streetsuff":null,"streetnm":"ALLEN","streettype":"ST","streetno":1401.0,"prkaddr":"1401 ALLEN ST","id":"a677e6o3w4n6","prkname":"ST PAULS RAY OF HOPE CENTER","prksize":0.0,"state":"NC"},"type":"Feature","geometry":{"type":"Point","coordinates":[-80.8181340442768,35.2304061897482]}},{"properties":{"city":"HUNTERSVILLE","name":"STEPHENS ROAD NATURE PRESERVE","zip":"28078","prktype":"NATURE PRESERVE","streetdir":null,"prkdist":"NORTH","prkstatus":"DEVELOPED","streetsuff":null,"streetnm":"NO ADDRESS","streettype":null,"streetno":0.0,"prkaddr":"STEPHENS GROVE LN","id":"a677e6tt202a","prkname":"STEPHENS ROAD NATURE PRESERVE","prksize":343.285,"state":"NC"},"type":"Feature","geometry":{"type":"Point","coordinates":[-80.9375680931373,35.4012983290901]}},{"properties":{"city":"CHARLOTTE","name":"SUGAW CREEK CENTER","zip":"28213","prktype":"RECREATION CENTER","streetdir":"W","prkdist":"NORTH","prkstatus":"DEVELOPED","streetsuff":null,"streetnm":"SUGAR CREEK","streettype":"RD","streetno":943.0,"prkaddr":"943 W SUGAR CREEK RD","id":"a677e6ubpotz","prkname":"SUGAW CREEK CENTER","prksize":0.0,"state":"NC"},"type":"Feature","geometry":{"type":"Point","coordinates":[-80.7937897120125,35.2724104387281]}},{"properties":{"city":"CHARLOTTE","name":"SUGAW CREEK COMMUNITY PARK","zip":"28213","prktype":"COMMUNITY PARK","streetdir":"W","prkdist":"NORTH","prkstatus":"DEVELOPED","streetsuff":null,"streetnm":"SUGAR CREEK","streettype":"RD","streetno":943.0,"prkaddr":"939 W SUGAR CREEK RD","id":"a677e711sj3q","prkname":"SUGAW CREEK COMMUNITY PARK","prksize":61.672,"state":"NC"},"type":"Feature","geometry":{"type":"Point","coordinates":[-80.7937800069579,35.272439123933]}},{"properties":{"city":"CHARLOTTE","name":"SUNSET HILLS GOLF COURSE","zip":"28216","prktype":"GOLF COURSE","streetdir":null,"prkdist":"NORTH","prkstatus":"DEVELOPED","streetsuff":null,"streetnm":"RADIO","streettype":"RD","streetno":800.0,"prkaddr":"800 RADIO RD","id":"a677e6rc7l84","prkname":"SUNSET HILLS GOLF COURSE","prksize":264.122,"state":"NC"},"type":"Feature","geometry":{"type":"Point","coordinates":[-80.8867006301256,35.305016444557]}},{"properties":{"city":"CHARLOTTE","name":"SOUTHVIEW CENTER","zip":"28208","prktype":"RECREATION CENTER","streetdir":null,"prkdist":"WEST","prkstatus":"DEVELOPED","streetsuff":null,"streetnm":"VILMA","streettype":"ST","streetno":1720.0,"prkaddr":"1720 VILMA ST","id":"a677e6mdibtv","prkname":"SOUTHVIEW CENTER","prksize":0.0,"state":"NC"},"type":"Feature","geometry":{"type":"Point","coordinates":[-80.9171999509516,35.2105587211588]}},{"properties":{"city":"CHARLOTTE","name":"THOMPSON NEIGHBORHOOD PARK","zip":"28204","prktype":"NEIGHBORHOOD PARK","streetdir":"E","prkdist":"CENTRAL","prkstatus":"DEVELOPED","streetsuff":null,"streetnm":"3RD","streettype":"ST","streetno":1129.0,"prkaddr":"1129 E 3RD ST","id":"a677e6pz0mvv","prkname":"THOMPSON NEIGHBORHOOD PARK","prksize":3.331,"state":"NC"},"type":"Feature","geometry":{"type":"Point","coordinates":[-80.8342821551517,35.2162501029792]}},{"properties":{"city":"CHARLOTTE","name":"THIRD WARD NEIGHBORHOOD PARK","zip":"28202","prktype":"NEIGHBORHOOD PARK","streetdir":"W","prkdist":"CENTRAL","prkstatus":"DEVELOPED","streetsuff":null,"streetnm":"4TH","streettype":"ST","streetno":1001.0,"prkaddr":"1001 W 4TH ST","id":"a677e6mv0jdh","prkname":"THIRD WARD NEIGHBORHOOD PARK","prksize":0.56,"state":"NC"},"type":"Feature","geometry":{"type":"Point","coordinates":[-80.8549340936665,35.2329596070958]}},{"properties":{"city":"CHARLOTTE","name":"T. M. WINGET REGIONAL PARK","zip":"28278","prktype":"REGIONAL PARK","streetdir":null,"prkdist":"WEST","prkstatus":"DEVELOPED","streetsuff":null,"streetnm":"WINGET","streettype":"RD","streetno":12025.0,"prkaddr":"12025 WINGET RD","id":"a677e6sqle9f","prkname":"T. M. WINGET REGIONAL PARK","prksize":106.5,"state":"NC"},"type":"Feature","geometry":{"type":"Point","coordinates":[-81.0036646425778,35.132066863449]}},{"properties":{"city":"CHARLOTTE","name":"TOM HUNTER NEIGHBORHOOD PARK","zip":"28213","prktype":"NEIGHBORHOOD PARK","streetdir":null,"prkdist":"EAST","prkstatus":"DEVELOPED","streetsuff":null,"streetnm":"TOM HUNTER","streettype":"RD","streetno":919.0,"prkaddr":"919 TOM HUNTER RD","id":"a677e6vbjsnl","prkname":"TOM HUNTER NEIGHBORHOOD PARK","prksize":8.386,"state":"NC"},"type":"Feature","geometry":{"type":"Point","coordinates":[-80.7815765963764,35.278222042615]}},{"properties":{"city":"CHARLOTTE","name":"TRADITION GOLF COURSE","zip":"28269","prktype":"GOLF COURSE","streetdir":null,"prkdist":"NORTH","prkstatus":"DEVELOPED","streetsuff":null,"streetnm":"PROSPERITY CHURCH","streettype":"RD","streetno":3800.0,"prkaddr":"3800 PROSPERITY CHURCH RD","id":"a677e6tmsx14","prkname":"TRADITION GOLF COURSE","prksize":193.975,"state":"NC"},"type":"Feature","geometry":{"type":"Point","coordinates":[-80.7749388122469,35.3493637781018]}},{"properties":{"city":"CHARLOTTE","name":"TRYON HILLS NEIGHBORHOOD PARK","zip":"28206","prktype":"NEIGHBORHOOD PARK","streetdir":"W","prkdist":"CENTRAL","prkstatus":"DEVELOPED","streetsuff":null,"streetnm":"30TH","streettype":"ST","streetno":220.0,"prkaddr":"220 W 30TH ST","id":"a677e6objwpc","prkname":"TRYON HILLS NEIGHBORHOOD PARK","prksize":1.91,"state":"NC"},"type":"Feature","geometry":{"type":"Point","coordinates":[-80.8167110279359,35.2510594424592]}},{"properties":{"city":"CHARLOTTE","name":"TUCKASEEGEE CENTER","zip":"28208","prktype":"RECREATION CENTER","streetdir":null,"prkdist":"WEST","prkstatus":"DEVELOPED","streetsuff":null,"streetnm":"TUCKASEEGEE","streettype":"RD","streetno":4820.0,"prkaddr":"4820 TUCKASEEGEE RD","id":"a677e6vzn9pn","prkname":"TUCKASEEGEE CENTER","prksize":0.0,"state":"NC"},"type":"Feature","geometry":{"type":"Point","coordinates":[-80.9072287471383,35.2482092411133]}},{"properties":{"city":"CHARLOTTE","name":"TUCKASEEGEE NEIGHBORHOOD PARK","zip":"28208","prktype":"NEIGHBORHOOD PARK","streetdir":null,"prkdist":"WEST","prkstatus":"DEVELOPED","streetsuff":null,"streetnm":"TUCKASEEGEE","streettype":"RD","streetno":4820.0,"prkaddr":"4820 TUCKASEEGEE RD","id":"a677e6neqs5c","prkname":"TUCKASEEGEE NEIGHBORHOOD PARK","prksize":19.735,"state":"NC"},"type":"Feature","geometry":{"type":"Point","coordinates":[-80.9078138486691,35.2483543280523]}},{"properties":{"city":"CHARLOTTE","name":"KIRK FARM FIELDS COMMUNITY PARK","zip":"28262","prktype":"COMMUNITY PARK","streetdir":"E","prkdist":"EAST","prkstatus":"DEVELOPED","streetsuff":null,"streetnm":"MALLARD CREEK CHURCH","streettype":"RD","streetno":210.0,"prkaddr":"210 E MALLARD CREEK CHURCH RD","id":"a677e6ugrslj","prkname":"KIRK FARM FIELDS COMMUNITY PARK","prksize":35.518,"state":"NC"},"type":"Feature","geometry":{"type":"Point","coordinates":[-80.7326970420269,35.3206751725659]}},{"properties":{"city":"CHARLOTTE","name":"UNITY NEIGHBORHOOD PARK","zip":"28215","prktype":"NEIGHBORHOOD PARK","streetdir":null,"prkdist":"EAST","prkstatus":"DEVELOPED","streetsuff":null,"streetnm":"KELSEY","streettype":"RD","streetno":6401.0,"prkaddr":"6401 KELSEY DR","id":"a677e7087u89","prkname":"UNITY NEIGHBORHOOD PARK","prksize":5.331,"state":"NC"},"type":"Feature","geometry":{"type":"Point","coordinates":[-80.7525806329885,35.2555980308389]}},{"properties":{"city":"CHARLOTTE","name":"BEREWICK REGIONAL PARK","zip":"28208","prktype":"REGIONAL PARK","streetdir":null,"prkdist":"WEST","prkstatus":"DEVELOPED","streetsuff":null,"streetnm":"NO ADDRESS","streettype":null,"streetno":0.0,"prkaddr":"DIXIE RIVER RD","id":"a677e6p8blz7","prkname":"BEREWICK REGIONAL PARK","prksize":203.278,"state":"NC"},"type":"Feature","geometry":{"type":"Point","coordinates":[-80.9801272997147,35.1733398676209]}},{"properties":{"city":"CHARLOTTE","name":"VETERANS NEIGHBORHOOD PARK","zip":"28205","prktype":"NEIGHBORHOOD PARK","streetdir":null,"prkdist":"CENTRAL","prkstatus":"DEVELOPED","streetsuff":null,"streetnm":"CENTRAL","streettype":"AV","streetno":2136.0,"prkaddr":"2136 CENTRAL AV","id":"a677e6rvusb1","prkname":"VETERANS NEIGHBORHOOD PARK","prksize":18.803,"state":"NC"},"type":"Feature","geometry":{"type":"Point","coordinates":[-80.8041711538845,35.2196769278811]}},{"properties":{"city":"CHARLOTTE","name":"VIEWMONT NEIGHBORHOOD PARK","zip":"28215","prktype":"NEIGHBORHOOD PARK","streetdir":null,"prkdist":"EAST","prkstatus":"DEVELOPED","streetsuff":null,"streetnm":"VIEWMONT","streettype":"DR","streetno":5400.0,"prkaddr":"5400 VIEWMONT DR","id":"a677e6orhvul","prkname":"VIEWMONT NEIGHBORHOOD PARK","prksize":11.026,"state":"NC"},"type":"Feature","geometry":{"type":"Point","coordinates":[-80.750457138193,35.260183101467]}},{"properties":{"city":"CHARLOTTE","name":"WADDELL STREET NEIGHBORHOOD PARK","zip":"28216","prktype":"NEIGHBORHOOD PARK","streetdir":null,"prkdist":"NORTH","prkstatus":"DEVELOPED","streetsuff":null,"streetnm":"WADDELL","streettype":"ST","streetno":1505.0,"prkaddr":"1505 WADDELL ST","id":"a677e6q1p438","prkname":"WADDELL STREET NEIGHBORHOOD PARK","prksize":4.882,"state":"NC"},"type":"Feature","geometry":{"type":"Point","coordinates":[-80.8463479182155,35.2550768848722]}},{"properties":{"city":"CHARLOTTE","name":"WEST CHARLOTTE CENTER","zip":"28216","prktype":"RECREATION CENTER","streetdir":null,"prkdist":"NORTH","prkstatus":"DEVELOPED","streetsuff":null,"streetnm":"KENDALL","streettype":"DR","streetno":2401.0,"prkaddr":"2401 KENDALL DR","id":"a677e6tdxmft","prkname":"WEST CHARLOTTE CENTER","prksize":0.0,"state":"NC"},"type":"Feature","geometry":{"type":"Point","coordinates":[-80.8568082131413,35.2686522460411]}},{"properties":{"city":"CHARLOTTE","name":"WEST CHARLOTTE NEIGHBORHOOD PARK","zip":"28216","prktype":"NEIGHBORHOOD PARK","streetdir":null,"prkdist":"NORTH","prkstatus":"DEVELOPED","streetsuff":null,"streetnm":"KENDALL","streettype":"DR","streetno":2401.0,"prkaddr":"2401 KENDALL DR","id":"a677e6yms82h","prkname":"WEST CHARLOTTE NEIGHBORHOOD PARK","prksize":3.216,"state":"NC"},"type":"Feature","geometry":{"type":"Point","coordinates":[-80.8566218653669,35.2675307449769]}},{"properties":{"city":"CHARLOTTE","name":"ROMARE BEARDEN NEIGHBORHOOD PARK","zip":"28202","prktype":"NEIGHBORHOOD PARK","streetdir":null,"prkdist":"CENTRAL","prkstatus":"DEVELOPED","streetsuff":null,"streetnm":"NO ADDRESS","streettype":null,"streetno":0.0,"prkaddr":"416 W 3RD ST","id":"a677e6pl02mj","prkname":"ROMARE BEARDEN NEIGHBORHOOD PARK","prksize":8.993,"state":"NC"},"type":"Feature","geometry":{"type":"Point","coordinates":[-80.8485646356543,35.2286113872103]}},{"properties":{"city":"CHARLOTTE","name":"WESTERLY HILLS NEIGHBORHOOD PARK","zip":"28208","prktype":"NEIGHBORHOOD PARK","streetdir":null,"prkdist":"WEST","prkstatus":"DEVELOPED","streetsuff":null,"streetnm":"AMERIGO","streettype":"ST","streetno":3900.0,"prkaddr":"3900 AMERIGO ST","id":"a677e6wspbas","prkname":"WESTERLY HILLS NEIGHBORHOOD PARK","prksize":12.514,"state":"NC"},"type":"Feature","geometry":{"type":"Point","coordinates":[-80.9050253693846,35.2306870000599]}},{"properties":{"city":"CHARLOTTE","name":"WILMORE NEIGHBORHOOD PARK","zip":"28203","prktype":"NEIGHBORHOOD PARK","streetdir":null,"prkdist":"WEST","prkstatus":"DEVELOPED","streetsuff":null,"streetnm":"SPRUCE","streettype":"ST","streetno":900.0,"prkaddr":"900 SPRUCE ST","id":"a677e6ss4xcl","prkname":"WILMORE NEIGHBORHOOD PARK","prksize":1.271,"state":"NC"},"type":"Feature","geometry":{"type":"Point","coordinates":[-80.8680500215047,35.2210813911881]}},{"properties":{"city":"CHARLOTTE","name":"WINGATE NEIGHBORHOOD PARK","zip":"28208","prktype":"NEIGHBORHOOD PARK","streetdir":null,"prkdist":"WEST","prkstatus":"DEVELOPED","streetsuff":null,"streetnm":"MAYFAIR","streettype":"AV","streetno":2731.0,"prkaddr":"2731 MAYFAIR AV","id":"a677e6wcdy7o","prkname":"WINGATE NEIGHBORHOOD PARK","prksize":3.118,"state":"NC"},"type":"Feature","geometry":{"type":"Point","coordinates":[-80.9082004859804,35.2144400181781]}},{"properties":{"city":"CHARLOTTE","name":"WILLIAM R. DAVIE REGIONAL PARK","zip":"28226","prktype":"REGIONAL PARK","streetdir":null,"prkdist":"SOUTH","prkstatus":"DEVELOPED","streetsuff":null,"streetnm":"PINEVILLE-MATTHEWS","streettype":"RD","streetno":4635.0,"prkaddr":"4635  PINEVILLE-MATTHEWS RD","id":"a677e6tf6s7j","prkname":"WILLIAM R. DAVIE REGIONAL PARK","prksize":105.713,"state":"NC"},"type":"Feature","geometry":{"type":"Point","coordinates":[-80.8042168198701,35.0910870784988]}},{"properties":{"city":"CHARLOTTE","name":"YORKMONT NEIGHBORHOOD PARK","zip":"28217","prktype":"NEIGHBORHOOD PARK","streetdir":null,"prkdist":"WEST","prkstatus":"DEVELOPED","streetsuff":null,"streetnm":"VICKERS","streettype":"RD","streetno":6417.0,"prkaddr":"6417 VICKERS RD","id":"a677e6ucvpt4","prkname":"YORKMONT NEIGHBORHOOD PARK","prksize":2.665,"state":"NC"},"type":"Feature","geometry":{"type":"Point","coordinates":[-80.9020068445852,35.1643609706877]}},{"properties":{"city":"CHARLOTTE","name":"FLAT BRANCH NATURE PRESERVE","zip":"28277","prktype":"NATURE PRESERVE","streetdir":null,"prkdist":"CENTRAL","prkstatus":"DEVELOPED","streetsuff":null,"streetnm":"NO ADDRESS","streettype":null,"streetno":0.0,"prkaddr":"TOM SHORT RD","id":"a677e6qwd6j4","prkname":"FLAT BRANCH NATURE PRESERVE","prksize":42.218,"state":"NC"},"type":"Feature","geometry":{"type":"Point","coordinates":[-80.7942770500669,35.0448901916243]}},{"properties":{"city":"CHARLOTTE","name":"WINTERFIELD NEIGHBORHOOD PARK","zip":"28205","prktype":"NEIGHBORHOOD PARK","streetdir":null,"prkdist":"EAST","prkstatus":"DEVELOPED","streetsuff":null,"streetnm":null,"streettype":null,"streetno":0.0,"prkaddr":"3010 WINTERFIELD PL","id":"a677e6qr3g8p","prkname":"WINTERFIELD NEIGHBORHOOD PARK","prksize":13.77,"state":"NC"},"type":"Feature","geometry":{"type":"Point","coordinates":[-80.7656748025031,35.2087582107797]}},{"properties":{"city":"HUNTERSVILLE","name":"HUNTERSVILLE FAMILY FITNESS CENTER","zip":null,"prktype":"RECREATION CENTER","streetdir":null,"prkdist":"NORTH","prkstatus":"DEVELOPED","streetsuff":null,"streetnm":null,"streettype":null,"streetno":0.0,"prkaddr":null,"id":"a677e6nqo75i","prkname":"HUNTERSVILLE FAMILY FITNESS CENTER","prksize":12.064,"state":"NC"},"type":"Feature","geometry":{"type":"Point","coordinates":[-80.8446534373626,35.3915067067738]}},{"properties":{"city":"HUNTERSVILLE","name":"HUNTERSVILLE ATHLETIC COMMUNITY PARK","zip":null,"prktype":"COMMUNITY PARK","streetdir":null,"prkdist":"NORTH","prkstatus":"DEVELOPED","streetsuff":null,"streetnm":null,"streettype":null,"streetno":0.0,"prkaddr":null,"id":"a677e6wkdtk6","prkname":"HUNTERSVILLE ATHLETIC COMMUNITY PARK","prksize":74.257,"state":"NC"},"type":"Feature","geometry":{"type":"Point","coordinates":[-80.8451558406974,35.3911925120446]}},{"properties":{"city":"CHARLOTTE","name":"MARSHALL NEIGHBORHOOD PARK","zip":"28202","prktype":"NEIGHBORHOOD PARK","streetdir":null,"prkdist":"CENTRAL","prkstatus":"DEVELOPED","streetsuff":null,"streetnm":null,"streettype":null,"streetno":0.0,"prkaddr":"800 EAST 3RD ST","id":"a677e6obi9c2","prkname":"MARSHALL NEIGHBORHOOD PARK","prksize":5.5,"state":"NC"},"type":"Feature","geometry":{"type":"Point","coordinates":[-80.8389233080286,35.2201291877376]}}],"is_temporal":false,"author":{"url":"http://maps.co.mecklenburg.nc.us/dataportal/parks/","metadata":"","contact_name":"","contact_address":"","source":"Mecklenburg County GIS","contact_phone":""},"source":"http://maps.co.mecklenburg.nc.us/dataportal/parks/","pagination":{"sort":null,"start":0,"total":190,"limit":1000000},"state":"complete","tags":"county,mecklenburg,parks","published":"2011-02-22T02:27:13Z","id":94937}