{"type":"FeatureCollection","data_type":"Dataset","url_type":null,"permissions":[{"permissions":{"download":true,"view":true},"group_id":"everyone"}],"classification":null,"title":"Encore Bank Locations","count":13,"stream_id":95295,"contributor":{"url":"http://geocommons.com/users/2856","name":"kertug"},"data_attributes":null,"calculation_params":null,"icon_link":null,"link":"http://geocommons.com/overlays/95295.json","extent":[-95.6309,29.5833,-95.3611,30.1545],"geometry_types":["point"],"unique_name":null,"name":"Encore Bank Locations","feature_count":13,"description":"","next_feature":null,"is_raster":false,"short_classification":"Y","stats":{"deposits":{"max":230774,"mean":79470.4615384615,"variance":3937305946.9359,"stdev":62747.9557191778,"min":0,"median":66352}},"features":[{"properties":{"city":"Houston","zip":"77005","geo_score":0.82,"id":"a6936et5gmg6","geo_precision":"range","address":"5815 Kirby Drive","deposits":66352},"type":"Feature","geometry":{"type":"Point","coordinates":[-95.418502,29.720142]}},{"properties":{"city":"Houston","zip":"77010","geo_score":0.607,"id":"a6936ezj40iv","geo_precision":"street","address":"909 Fannin, Ste 1350","deposits":138858},"type":"Feature","geometry":{"type":"Point","coordinates":[-95.361055,29.760225]}},{"properties":{"city":"Houston","zip":"77019","geo_score":0.902,"id":"a6936esgf0rh","geo_precision":"range","address":"2049 West Gray Street","deposits":86266},"type":"Feature","geometry":{"type":"Point","coordinates":[-95.409486,29.753031]}},{"properties":{"city":"Houston","zip":"77024","geo_score":0.805,"id":"a6936eyv4v1b","geo_precision":"range","address":"12520 Memorial Drive","deposits":153191},"type":"Feature","geometry":{"type":"Point","coordinates":[-95.550799,29.766261]}},{"properties":{"city":"Houston","zip":"77027","geo_score":0.902,"id":"a6936epgk78a","geo_precision":"range","address":"3754 Westheimer Road","deposits":49713},"type":"Feature","geometry":{"type":"Point","coordinates":[-95.440348,29.741694]}},{"properties":{"city":"Houston","zip":"77030","geo_score":0.724,"id":"a6936enqlkzo","geo_precision":"street","address":"6400 Fannin Street","deposits":20211},"type":"Feature","geometry":{"type":"Point","coordinates":[-95.397802,29.713601]}},{"properties":{"city":"Houston","zip":"77046","geo_score":0.902,"id":"a6936ewlaogd","geo_precision":"range","address":"9 E Greenway Plaza","deposits":53671},"type":"Feature","geometry":{"type":"Point","coordinates":[-95.431465,29.732458]}},{"properties":{"city":"Houston","zip":"77046","geo_score":0.824,"id":"a6936f0vehgb","geo_precision":"street","address":"Nine East Greenway Plaza","deposits":230774},"type":"Feature","geometry":{"type":"Point","coordinates":[-95.43145,29.73237]}},{"properties":{"city":"Houston","zip":"77056","geo_score":0.78,"id":"a6936ez0sqqm","geo_precision":"range","address":"5433 Westheimer Road","deposits":0},"type":"Feature","geometry":{"type":"Point","coordinates":[-95.472535,29.738468]}},{"properties":{"city":"Houston","zip":"77057","geo_score":0.902,"id":"a6936evlmuq3","geo_precision":"range","address":"6330 San Felipe Street","deposits":79764},"type":"Feature","geometry":{"type":"Point","coordinates":[-95.495801,29.749886]}},{"properties":{"city":"Houston","zip":"77069","geo_score":0.837,"id":"a6936ey369or","geo_precision":"range","address":"5544 Fm 1960 Road West","deposits":78664},"type":"Feature","geometry":{"type":"Point","coordinates":[-95.509222,29.981867]}},{"properties":{"city":"Sugar Land","zip":"77479","geo_score":0.827,"id":"a6936esda9yh","geo_precision":"range","address":"4647 Sweetwater Blvd.","deposits":25031},"type":"Feature","geometry":{"type":"Point","coordinates":[-95.630901,29.58326]}},{"properties":{"city":"Spring","zip":"77380","geo_score":0.53,"id":"a6936eu3kici","geo_precision":"street","address":"9595 Six Pines Drive","deposits":50621},"type":"Feature","geometry":{"type":"Point","coordinates":[-95.461738,30.154491]}}],"is_temporal":false,"author":{"url":"","metadata":"","contact_name":"","contact_address":"","source":"","contact_phone":""},"source":"","pagination":{"sort":null,"start":0,"total":13,"limit":1000000},"state":"complete","tags":"bank,branch,deposits,green,locations","published":"2014-08-10T18:01:30-04:00","id":95295}