{"type":"FeatureCollection","data_type":"Dataset","url_type":null,"permissions":[{"permissions":{"download":true,"view":true},"group_id":"everyone"}],"classification":null,"title":"publiclibraries.com, South Dakota Public Libraries, South Dakota, 1.2008","count":145,"stream_id":954,"contributor":{"url":"http://geocommons.com/users/2","name":"data"},"data_attributes":null,"calculation_params":null,"icon_link":null,"link":"http://geocommons.com/overlays/954.json","extent":[-103.86,42.5251,-96.4541,45.9349],"geometry_types":["point"],"unique_name":null,"name":"publiclibraries.com, South Dakota Public Libraries, South Dakota, 1.2008","feature_count":145,"description":"This dataset displays the locations of all the public libraries in the state of South Dakota. The data included is the name of the library, name of the library system, library's address, phone, and lat/lon coordinates. The data came from publiclibraries.com which is a updated directory of all the public libraries throughout the United States.\n","next_feature":null,"is_raster":false,"short_classification":"Y","stats":{"lon":{"max":-96.454085,"mean":-98.7762216827586,"variance":4.92923936476633,"stdev":2.22018903807003,"min":-103.859799,"median":-98.028424},"lat":{"max":45.93493,"mean":44.161885,"variance":0.761928488298459,"stdev":0.872885151837548,"min":42.52511,"median":43.979155}},"features":[{"properties":{"city":"Mobridge","lon":-100.434038,"zip":"","librarysystem":"A H Brown Public Library","id":"a65x6hkk093p","address":"521 N Main Street","lat":45.537714,"libraryname":"A.H. Brown Public Library","state":"SD"},"type":"Feature","geometry":{"type":"Point","coordinates":[-100.434038,45.537714]}},{"properties":{"city":"Alcester","lon":-96.631694,"zip":"","librarysystem":"Alcester Public Library","id":"a65x6hl8jmg3","address":"500 Dakota / PO Box 68","lat":43.021595,"libraryname":"Alcester Public Library","state":"SD"},"type":"Feature","geometry":{"type":"Point","coordinates":[-96.631694,43.021595]}},{"properties":{"city":"Aberdeen","lon":-98.481922,"zip":"","librarysystem":"Alexander Mitchell Library","id":"a65x6h61jevc","address":"519 S. Kline Street","lat":45.459847,"libraryname":"Alexander Mitchell Public Library","state":"SD"},"type":"Feature","geometry":{"type":"Point","coordinates":[-98.481922,45.459847]}},{"properties":{"city":"Alexandria","lon":-97.784914,"zip":"","librarysystem":"Alexandria Public Library","id":"a65x6h5x0e8o","address":"421 Main St / PO Box 355","lat":43.653195,"libraryname":"Alexandria Public Library","state":"SD"},"type":"Feature","geometry":{"type":"Point","coordinates":[-97.784914,43.653195]}},{"properties":{"city":"Arlington","lon":-97.136946,"zip":"","librarysystem":"Arlington Community Library","id":"a65x6hcsmr8k","address":"PO Box 345","lat":44.369322,"libraryname":"Arlington Community Library","state":"SD"},"type":"Feature","geometry":{"type":"Point","coordinates":[-97.136946,44.369322]}},{"properties":{"city":"Armour","lon":-98.344824,"zip":"","librarysystem":"Armour-Carnegie Public Library","id":"a65x6hjdwy3e","address":"915 Main St / PO Box 396","lat":43.318355,"libraryname":"Armour Public Library","state":"SD"},"type":"Feature","geometry":{"type":"Point","coordinates":[-98.344824,43.318355]}},{"properties":{"city":"Lennox","lon":-96.891733,"zip":"","librarysystem":"Ashley Memorial City Library","id":"a65x6h7uxa73","address":"100 N Main","lat":43.35537,"libraryname":"Ashley Memorial City Library","state":"SD"},"type":"Feature","geometry":{"type":"Point","coordinates":[-96.891733,43.35537]}},{"properties":{"city":"Avon","lon":-98.029204,"zip":"","librarysystem":"Avon Public Library","id":"a65x6h8fy5rc","address":"29538 408 Av","lat":43.105197,"libraryname":"Avon Public Library","state":"SD"},"type":"Feature","geometry":{"type":"Point","coordinates":[-98.029204,43.105197]}},{"properties":{"city":"Baltic","lon":-96.733409,"zip":"","librarysystem":"Siouxland Libraries","id":"a65x6hii9r49","address":"PO Box 326","lat":43.76119,"libraryname":"Baltic Branch Library","state":"SD"},"type":"Feature","geometry":{"type":"Point","coordinates":[-96.733409,43.76119]}},{"properties":{"city":"Belle Fourche","lon":-103.853434,"zip":"","librarysystem":"Belle Fourche Public Library","id":"a65x6haqk58l","address":"905 5th Ave","lat":44.667756,"libraryname":"Belle Fourche Public Library","state":"SD"},"type":"Feature","geometry":{"type":"Point","coordinates":[-103.853434,44.667756]}},{"properties":{"city":"Martin","lon":-101.731814,"zip":"","librarysystem":"Bennett County Library","id":"a65x6hdgmhp6","address":"101 Main St / PO Box 190","lat":43.17474,"libraryname":"Bennett County Public Library","state":"SD"},"type":"Feature","geometry":{"type":"Point","coordinates":[-101.731814,43.17474]}},{"properties":{"city":"Beresford","lon":-96.774195,"zip":"","librarysystem":"Beresford Public Library","id":"a65x6hd7t0h6","address":"115 S 3rd","lat":43.080312,"libraryname":"Beresford Public Library","state":"SD"},"type":"Feature","geometry":{"type":"Point","coordinates":[-96.774195,43.080312]}},{"properties":{"city":"Bison","lon":-102.465594,"zip":"","librarysystem":"Bison Public Library","id":"a65x6hbv0o67","address":"300 W Carr St PO Box 130","lat":45.53074,"libraryname":"Bison Public Library","state":"SD"},"type":"Feature","geometry":{"type":"Point","coordinates":[-102.465594,45.53074]}},{"properties":{"city":"Bonesteel","lon":-98.948044,"zip":"","librarysystem":"Bonesteel Public Library","id":"a65x6hi6cxpj","address":"502 Central Ave","lat":43.076325,"libraryname":"Bonesteel Public Library","state":"SD"},"type":"Feature","geometry":{"type":"Point","coordinates":[-98.948044,43.076325]}},{"properties":{"city":"Brandon","lon":-96.572498,"zip":"","librarysystem":"Siouxland Libraries","id":"a65x6hle4rwb","address":"305 S Splitrock Blvd","lat":43.592205,"libraryname":"Brandon Branch Library","state":"SD"},"type":"Feature","geometry":{"type":"Point","coordinates":[-96.572498,43.592205]}},{"properties":{"city":"Bristol","lon":-97.748692,"zip":"","librarysystem":"Bristol School/Community Library","id":"a65x6h7oxsfg","address":"500 South Third Street","lat":45.342249,"libraryname":"Bristol Community/School Library","state":"SD"},"type":"Feature","geometry":{"type":"Point","coordinates":[-97.748692,45.342249]}},{"properties":{"city":"Britton","lon":-97.750484,"zip":"","librarysystem":"Britton Public Library","id":"a65x6hfowttp","address":"759 7th St / PO Box 299","lat":45.79282,"libraryname":"Britton Public Library","state":"SD"},"type":"Feature","geometry":{"type":"Point","coordinates":[-97.750484,45.79282]}},{"properties":{"city":"Brookings","lon":-96.796504,"zip":"","librarysystem":"Brookings Public Library","id":"a65x6hglkklw","address":"515 Third Street","lat":44.308098,"libraryname":"Brookings Public Library","state":"SD"},"type":"Feature","geometry":{"type":"Point","coordinates":[-96.796504,44.308098]}},{"properties":{"city":"Burke","lon":-99.296859,"zip":"","librarysystem":"Burke Public Library","id":"a65x6hj8yjwe","address":"704 Main St / PO Box 314","lat":43.18055,"libraryname":"Burke Public Library","state":"SD"},"type":"Feature","geometry":{"type":"Point","coordinates":[-99.296859,43.18055]}},{"properties":{"city":"Sioux Falls","lon":-96.764962,"zip":"","librarysystem":"Siouxland Libraries","id":"a65x6hjoskhs","address":"4100 Carnegie Cir","lat":43.507962,"libraryname":"Caille Branch Library","state":"SD"},"type":"Feature","geometry":{"type":"Point","coordinates":[-96.764962,43.507962]}},{"properties":{"city":"Canova","lon":-97.502489,"zip":"","librarysystem":"Canova Public Library","id":"a65x6hclybfk","address":"PO Box 181","lat":43.87762,"libraryname":"Canova Public Library","state":"SD"},"type":"Feature","geometry":{"type":"Point","coordinates":[-97.502489,43.87762]}},{"properties":{"city":"Canton","lon":-96.591701,"zip":"","librarysystem":"Canton Public Library","id":"a65x6hii1t7x","address":"225 N Broadway","lat":43.302018,"libraryname":"Canton Public Library","state":"SD"},"type":"Feature","geometry":{"type":"Point","coordinates":[-96.591701,43.302018]}},{"properties":{"city":"Carthage","lon":-97.715834,"zip":"","librarysystem":"Carthage Public Library","id":"a65x6hcgokcy","address":"PO Box 134","lat":44.16863,"libraryname":"Carthage Public Library","state":"SD"},"type":"Feature","geometry":{"type":"Point","coordinates":[-97.715834,44.16863]}},{"properties":{"city":"Castlewood","lon":-97.031461,"zip":"","librarysystem":"Castlewood Public Library","id":"a65x6hf0u6zi","address":"East Main PO Box 137","lat":44.722551,"libraryname":"Castlewood Public Library","state":"SD"},"type":"Feature","geometry":{"type":"Point","coordinates":[-97.031461,44.722551]}},{"properties":{"city":"Centerville","lon":-96.961254,"zip":"","librarysystem":"Centerville Community Library","id":"a65x6hdyj36j","address":"421 Florida / PO Box C","lat":43.11773,"libraryname":"Centerville Public Library","state":"SD"},"type":"Feature","geometry":{"type":"Point","coordinates":[-96.961254,43.11773]}},{"properties":{"city":"Clear Lake","lon":-96.682559,"zip":"","librarysystem":"Clear Lake City Library","id":"a65x6hkhmfdr","address":"125 3rd Ave S / PO Box 199","lat":44.75525,"libraryname":"Clear Lake City Library","state":"SD"},"type":"Feature","geometry":{"type":"Point","coordinates":[-96.682559,44.75525]}},{"properties":{"city":"Colman","lon":-96.810169,"zip":"","librarysystem":"Moody County Resource Center","id":"a65x6h9e9exg","address":"PO Box 18","lat":43.979155,"libraryname":"Colman Branch Library","state":"SD"},"type":"Feature","geometry":{"type":"Point","coordinates":[-96.810169,43.979155]}},{"properties":{"city":"Colome","lon":-99.682309,"zip":"","librarysystem":"Tripp County Library - Grossenburg Memorial","id":"a65x6hdz04cl","address":"Main St / PO Box 285","lat":43.270273,"libraryname":"Colome Branch Library","state":"SD"},"type":"Feature","geometry":{"type":"Point","coordinates":[-99.682309,43.270273]}},{"properties":{"city":"Colton","lon":-96.927159,"zip":"","librarysystem":"Siouxland Libraries","id":"a65x6hkizrcs","address":"PO Box 338","lat":43.787005,"libraryname":"Colton Branch Library","state":"SD"},"type":"Feature","geometry":{"type":"Point","coordinates":[-96.927159,43.787005]}},{"properties":{"city":"Chamberlain","lon":-99.330098,"zip":"","librarysystem":"Cozard Memorial Library","id":"a65x6h7ecwud","address":"110 E Lawler Ave","lat":43.810757,"libraryname":"Cozard Memorial Library","state":"SD"},"type":"Feature","geometry":{"type":"Point","coordinates":[-99.330098,43.810757]}},{"properties":{"city":"Crooks","lon":-96.811206,"zip":"","librarysystem":"Siouxland Libraries","id":"a65x6hhbeidg","address":"900 N West Ave","lat":43.666928,"libraryname":"Crooks Branch","state":"SD"},"type":"Feature","geometry":{"type":"Point","coordinates":[-96.811206,43.666928]}},{"properties":{"city":"Custer","lon":-103.601759,"zip":"","librarysystem":"Custer County Library","id":"a65x6hh34h74","address":"447 Crook #4","lat":43.767295,"libraryname":"Custer County Library","state":"SD"},"type":"Feature","geometry":{"type":"Point","coordinates":[-103.601759,43.767295]}},{"properties":{"city":"Eagle Butte","lon":-101.234769,"zip":"","librarysystem":"Dakota Club Library","id":"a65x6hlpf6sr","address":"219 Main St / PO Box 37","lat":45.00038,"libraryname":"Dakota Club Library","state":"SD"},"type":"Feature","geometry":{"type":"Point","coordinates":[-101.234769,45.00038]}},{"properties":{"city":"Deadwood","lon":-103.732213,"zip":"","librarysystem":"Deadwood Public Library","id":"a65x6hg33dw9","address":"435 Williams Street","lat":44.375974,"libraryname":"Deadwood Public Library","state":"SD"},"type":"Feature","geometry":{"type":"Point","coordinates":[-103.732213,44.375974]}},{"properties":{"city":"Chester","lon":-96.929054,"zip":"","librarysystem":"Delker Memorial Library","id":"a65x6hhnoxxp","address":"400 Fourth St / PO Box 124","lat":43.918315,"libraryname":"Delker Memorial Library","state":"SD"},"type":"Feature","geometry":{"type":"Point","coordinates":[-96.929054,43.918315]}},{"properties":{"city":"Dell Rapids","lon":-96.710387,"zip":"","librarysystem":"Dell Rapids Carnegie Public Library","id":"a65x6hfywlo9","address":"513 New Orleans Ave","lat":43.824484,"libraryname":"Dell Rapids Carnegie Public Library","state":"SD"},"type":"Feature","geometry":{"type":"Point","coordinates":[-96.710387,43.824484]}},{"properties":{"city":"White","lon":-96.646129,"zip":"","librarysystem":"Deubrook Community Library","id":"a65x6h6jtys2","address":"PO Box 346","lat":44.43733,"libraryname":"Deubrook Community Library","state":"SD"},"type":"Feature","geometry":{"type":"Point","coordinates":[-96.646129,44.43733]}},{"properties":{"city":"Timber Lake","lon":-101.073894,"zip":"","librarysystem":"Dewey County Library","id":"a65x6hfqkmzn","address":"212 S Main / PO Box 68","lat":45.42971,"libraryname":"Dewey County Library","state":"SD"},"type":"Feature","geometry":{"type":"Point","coordinates":[-101.073894,45.42971]}},{"properties":{"city":"Edgemont","lon":-103.825069,"zip":"","librarysystem":"Edgemont Public Library","id":"a65x6h88n98i","address":"412 2nd Ave / PO Box 449","lat":43.301355,"libraryname":"Edgemont Public Library","state":"SD"},"type":"Feature","geometry":{"type":"Point","coordinates":[-103.825069,43.301355]}},{"properties":{"city":"Elk Point","lon":-96.683134,"zip":"","librarysystem":"Elk Point-Jefferson Community/School Library","id":"a65x6h819k4l","address":"402 S Douglas PO Box 190","lat":42.685465,"libraryname":"Elk Point Community Library","state":"SD"},"type":"Feature","geometry":{"type":"Point","coordinates":[-96.683134,42.685465]}},{"properties":{"city":"Elkton","lon":-96.486034,"zip":"","librarysystem":"Elkton Community Library","id":"a65x6h6yv0ng","address":"Box 190","lat":44.238945,"libraryname":"Elkton Community Library","state":"SD"},"type":"Feature","geometry":{"type":"Point","coordinates":[-96.486034,44.238945]}},{"properties":{"city":"Clark","lon":-97.735244,"zip":"","librarysystem":"Emil M Larson Library","id":"a65x6he0hjc6","address":"111 West 1st","lat":44.877514,"libraryname":"Emil M. Larson Public Library","state":"SD"},"type":"Feature","geometry":{"type":"Point","coordinates":[-97.735244,44.877514]}},{"properties":{"city":"Frederick","lon":-98.507249,"zip":"","librarysystem":"Emma Burnham Public Library","id":"a65x6hepo8at","address":"403 Main St / PO Box 457","lat":45.836395,"libraryname":"Emma Burnham Public Library","state":"SD"},"type":"Feature","geometry":{"type":"Point","coordinates":[-98.507249,45.836395]}},{"properties":{"city":"Erwin","lon":-97.441949,"zip":"","librarysystem":"Erwin Public Library","id":"a65x6hetgm67","address":"Main And Railroad","lat":44.48746,"libraryname":"Erwin Public Library","state":"SD"},"type":"Feature","geometry":{"type":"Point","coordinates":[-97.441949,44.48746]}},{"properties":{"city":"Estelline","lon":-96.894764,"zip":"","librarysystem":"Estelline Public Library","id":"a65x6hl7ewuq","address":"115 Main St N / PO Box 240","lat":44.57277,"libraryname":"Estelline Public Library","state":"SD"},"type":"Feature","geometry":{"type":"Point","coordinates":[-96.894764,44.57277]}},{"properties":{"city":"Springfield","lon":-97.892699,"zip":"","librarysystem":"Evelyn Lang Public Library","id":"a65x6hc10alm","address":"605 8th St","lat":42.854089,"libraryname":"Evelyn Lang Public Library","state":"SD"},"type":"Feature","geometry":{"type":"Point","coordinates":[-97.892699,42.854089]}},{"properties":{"city":"Faith","lon":-102.045119,"zip":"","librarysystem":"Faith Public Library","id":"a65x6hl1ytuc","address":"204 W Fifth St / PO Box 172","lat":45.0224,"libraryname":"Faith Public Library","state":"SD"},"type":"Feature","geometry":{"type":"Point","coordinates":[-102.045119,45.0224]}},{"properties":{"city":"Faulkton","lon":-99.124485,"zip":"","librarysystem":"Faulk County Library","id":"a65x6hdwphpa","address":"810 Court St","lat":45.033966,"libraryname":"Faulk County Library","state":"SD"},"type":"Feature","geometry":{"type":"Point","coordinates":[-99.124485,45.033966]}},{"properties":{"city":"Freeman","lon":-97.439614,"zip":"","librarysystem":"Freeman Public Library","id":"a65x6hhioiaw","address":"185 E 3rd St / PO Box I","lat":43.35738,"libraryname":"Freeman Public Library","state":"SD"},"type":"Feature","geometry":{"type":"Point","coordinates":[-97.439614,43.35738]}},{"properties":{"city":"Garretson","lon":-96.502779,"zip":"","librarysystem":"Siouxland Libraries","id":"a65x6hhg6j6k","address":"Po Drawer N","lat":43.717736,"libraryname":"Garretson Branch Library","state":"SD"},"type":"Feature","geometry":{"type":"Point","coordinates":[-96.502779,43.717736]}},{"properties":{"city":"Gary","lon":-96.465374,"zip":"","librarysystem":"Gary Public Library","id":"a65x6hd37zg7","address":"1127 Coteau Street PO Box 64","lat":44.790625,"libraryname":"Gary Public Library","state":"SD"},"type":"Feature","geometry":{"type":"Point","coordinates":[-96.465374,44.790625]}},{"properties":{"city":"Spearfish","lon":-103.859799,"zip":"","librarysystem":"Grace Balloch Memorial Library","id":"a65x6hcrjddl","address":"106 West Kansas Street","lat":44.492289,"libraryname":"Grace Balloch Memorial Library","state":"SD"},"type":"Feature","geometry":{"type":"Point","coordinates":[-103.859799,44.492289]}},{"properties":{"city":"Big Stone City","lon":-96.462094,"zip":"","librarysystem":"Grant County Public Library","id":"a65x6heiexw5","address":"655 Walnut St / PO Box 108","lat":45.29152,"libraryname":"Grant Cnty Mini L Ibrary I","state":"SD"},"type":"Feature","geometry":{"type":"Point","coordinates":[-96.462094,45.29152]}},{"properties":{"city":"Revillo","lon":-96.571314,"zip":"","librarysystem":"Grant County Public Library","id":"a65x6hhqw772","address":"Main St / PO Box 37","lat":45.016075,"libraryname":"Grant Cnty Mini-Library Ii","state":"SD"},"type":"Feature","geometry":{"type":"Point","coordinates":[-96.571314,45.016075]}},{"properties":{"city":"Stockholm","lon":-96.802309,"zip":"","librarysystem":"Grant County Public Library","id":"a65x6hgoehoa","address":"103 W Johnson Ave","lat":45.099716,"libraryname":"Grant County Mini Library","state":"SD"},"type":"Feature","geometry":{"type":"Point","coordinates":[-96.802309,45.099716]}},{"properties":{"city":"Strandberg","lon":-96.760819,"zip":"","librarysystem":"Grant County Public Library","id":"a65x6hfb3ghq","address":"Community Center / Main St","lat":45.04539,"libraryname":"Grant County Mini Library","state":"SD"},"type":"Feature","geometry":{"type":"Point","coordinates":[-96.760819,45.04539]}},{"properties":{"city":"Milbank","lon":-96.637019,"zip":"","librarysystem":"Grant County Public Library","id":"a65x6hanytqu","address":"207 Park Ave East","lat":45.216584,"libraryname":"Grant County Public Library","state":"SD"},"type":"Feature","geometry":{"type":"Point","coordinates":[-96.637019,45.216584]}},{"properties":{"city":"Gregory","lon":-99.430477,"zip":"","librarysystem":"Gregory Public Library","id":"a65x6hcba5xb","address":"112 East Fifth Street","lat":43.231335,"libraryname":"Gregory Public Library","state":"SD"},"type":"Feature","geometry":{"type":"Point","coordinates":[-99.430477,43.231335]}},{"properties":{"city":"Philip","lon":-101.665434,"zip":"","librarysystem":"Haakon Community Public Library","id":"a65x6h6bfvjz","address":"104 S Howard St / PO Box 696","lat":44.038865,"libraryname":"Haakon County Public Library","state":"SD"},"type":"Feature","geometry":{"type":"Point","coordinates":[-101.665434,44.038865]}},{"properties":{"city":"Watertown","lon":-97.104389,"zip":"","librarysystem":"Hamlin-Codington Regional Library","id":"a65x6hdmsk92","address":"912 8th St Se","lat":44.889805,"libraryname":"Hamlin-Codington Regional Library","state":"SD"},"type":"Feature","geometry":{"type":"Point","coordinates":[-97.104389,44.889805]}},{"properties":{"city":"Miller","lon":-98.98853,"zip":"","librarysystem":"Hand County Library","id":"a65x6hagvf2h","address":"402 North Broadway","lat":44.519574,"libraryname":"Hand County Library","state":"SD"},"type":"Feature","geometry":{"type":"Point","coordinates":[-98.98853,44.519574]}},{"properties":{"city":"Spencer","lon":-97.588974,"zip":"","librarysystem":"Hanson-Mccook Regional Library","id":"a65x6hhw20t9","address":"306 Main St / PO Box 217","lat":43.7306,"libraryname":"Hanson-Mccook Regional Library","state":"SD"},"type":"Feature","geometry":{"type":"Point","coordinates":[-97.588974,43.7306]}},{"properties":{"city":"Hartford","lon":-96.935166,"zip":"","librarysystem":"Siouxland Libraries","id":"a65x6hdpjw1a","address":"705 East 2nd","lat":43.623405,"libraryname":"Hartford Branch Library","state":"SD"},"type":"Feature","geometry":{"type":"Point","coordinates":[-96.935166,43.623405]}},{"properties":{"city":"Desmet","lon":-97.550712,"zip":"","librarysystem":"Hazel L Meyer Memorial Library","id":"a65x6hg6o7d4","address":"114 1st St / PO Box J","lat":44.38676,"libraryname":"Hazel L. Meyer Memorial Library","state":"SD"},"type":"Feature","geometry":{"type":"Point","coordinates":[-97.550712,44.38676]}},{"properties":{"city":"Hecla","lon":-98.154194,"zip":"","librarysystem":"Hecla Public Library","id":"a65x6h73755f","address":"206 Main Street","lat":45.88264,"libraryname":"Hecla Public Library","state":"SD"},"type":"Feature","geometry":{"type":"Point","coordinates":[-98.154194,45.88264]}},{"properties":{"city":"Hill City","lon":-103.57525,"zip":"","librarysystem":"Hill City Public Library","id":"a65x6hgmsjin","address":"324 Main St / PO Box 88","lat":43.933389,"libraryname":"Hill City Public Library","state":"SD"},"type":"Feature","geometry":{"type":"Point","coordinates":[-103.57525,43.933389]}},{"properties":{"city":"Hot Springs","lon":-103.479628,"zip":"","librarysystem":"Hot Springs Public Library","id":"a65x6hb8qf0m","address":"1543 Baltimore Ave","lat":43.42755,"libraryname":"Hot Springs Public Library","state":"SD"},"type":"Feature","geometry":{"type":"Point","coordinates":[-103.479628,43.42755]}},{"properties":{"city":"Howard","lon":-97.526509,"zip":"","librarysystem":"Howard Public Library","id":"a65x6hfnc4z8","address":"100 S Main / PO Box A","lat":44.008,"libraryname":"Howard Public Library","state":"SD"},"type":"Feature","geometry":{"type":"Point","coordinates":[-97.526509,44.008]}},{"properties":{"city":"Hudson","lon":-96.454085,"zip":"","librarysystem":"Hudson Public Library","id":"a65x6he97s11","address":"4th St / PO Box 453","lat":43.128904,"libraryname":"Hudson Public Library","state":"SD"},"type":"Feature","geometry":{"type":"Point","coordinates":[-96.454085,43.128904]}},{"properties":{"city":"Humboldt","lon":-97.073907,"zip":"","librarysystem":"Siouxland Libraries","id":"a65x6hc4516q","address":"3rd and Main","lat":43.644488,"libraryname":"Humboldt Branch Library","state":"SD"},"type":"Feature","geometry":{"type":"Point","coordinates":[-97.073907,43.644488]}},{"properties":{"city":"Hurley","lon":-97.089615,"zip":"","librarysystem":"Hurley Public Library","id":"a65x6hho00kt","address":"603 Center Avenue","lat":43.282855,"libraryname":"Hurley Public Library","state":"SD"},"type":"Feature","geometry":{"type":"Point","coordinates":[-97.089615,43.282855]}},{"properties":{"city":"Huron","lon":-98.214271,"zip":"","librarysystem":"Huron Public Library","id":"a65x6hcabyej","address":"521 Dakota Ave South","lat":44.360402,"libraryname":"Huron Public Library","state":"SD"},"type":"Feature","geometry":{"type":"Point","coordinates":[-98.214271,44.360402]}},{"properties":{"city":"Highmore","lon":-99.441564,"zip":"","librarysystem":"Hyde County Library","id":"a65x6hdhpdjj","address":"107 Commercial Se/ Box 479","lat":44.51982,"libraryname":"Hyde County Library","state":"SD"},"type":"Feature","geometry":{"type":"Point","coordinates":[-99.441564,44.51982]}},{"properties":{"city":"Interior","lon":-101.980294,"zip":"","librarysystem":"Jackson County Library","id":"a65x6h96hss5","address":"PO Box 24","lat":43.72612,"libraryname":"Interior Branch Library","state":"SD"},"type":"Feature","geometry":{"type":"Point","coordinates":[-101.980294,43.72612]}},{"properties":{"city":"Irene","lon":-97.161224,"zip":"","librarysystem":"Irene Public Library","id":"a65x6haszsi7","address":"130 E State St / PO Box 111","lat":43.08313,"libraryname":"Irene Public Library","state":"SD"},"type":"Feature","geometry":{"type":"Point","coordinates":[-97.161224,43.08313]}},{"properties":{"city":"Isabel","lon":-101.429839,"zip":"","librarysystem":"Dewey County Library","id":"a65x6hj8nx9v","address":"East Main St / PO Box 42","lat":45.392635,"libraryname":"Isabel Branch Library","state":"SD"},"type":"Feature","geometry":{"type":"Point","coordinates":[-101.429839,45.392635]}},{"properties":{"city":"Kadoka","lon":-101.512019,"zip":"","librarysystem":"Jackson County Library","id":"a65x6h95m489","address":"Main St / PO Box 368","lat":43.838595,"libraryname":"Jackson County Library","state":"SD"},"type":"Feature","geometry":{"type":"Point","coordinates":[-101.512019,43.838595]}},{"properties":{"city":"Java","lon":-99.891209,"zip":"","librarysystem":"Java Public Library","id":"a65x6h5oa0e8","address":"PO Box 67","lat":45.50737,"libraryname":"Java Public Library","state":"SD"},"type":"Feature","geometry":{"type":"Point","coordinates":[-99.891209,45.50737]}},{"properties":{"city":"Eureka","lon":-99.624634,"zip":"","librarysystem":"Kathryn Schulkoski Public Library","id":"a65x6hij38mz","address":"613 7th St / PO Box 655","lat":45.767145,"libraryname":"Kathryn Schulkoski Public Library","state":"SD"},"type":"Feature","geometry":{"type":"Point","coordinates":[-99.624634,45.767145]}},{"properties":{"city":"Kennebec","lon":-99.865539,"zip":"","librarysystem":"Kennebec Public Library","id":"a65x6hds1yb9","address":"203 S Main St / PO Box 111","lat":43.904425,"libraryname":"Kennebec Public Library","state":"SD"},"type":"Feature","geometry":{"type":"Point","coordinates":[-99.865539,43.904425]}},{"properties":{"city":"Keystone","lon":-103.414807,"zip":"","librarysystem":"Keystone Town Library","id":"a65x6hkd9g86","address":"1101 Madill St","lat":43.900562,"libraryname":"Keystone Town Library","state":"SD"},"type":"Feature","geometry":{"type":"Point","coordinates":[-103.414807,43.900562]}},{"properties":{"city":"Kimball","lon":-98.958169,"zip":"","librarysystem":"Kimball Public Library","id":"a65x6h7f745r","address":"140 N Main St / PO Box 49","lat":43.73944,"libraryname":"Kimball Public Library","state":"SD"},"type":"Feature","geometry":{"type":"Point","coordinates":[-98.958169,43.73944]}},{"properties":{"city":"Lake Andes","lon":-98.538838,"zip":"","librarysystem":"Lake Andes Carnegie Library","id":"a65x6hljigws","address":"5th And Main","lat":43.156188,"libraryname":"Lake Andes Carnegie Public Library","state":"SD"},"type":"Feature","geometry":{"type":"Point","coordinates":[-98.538838,43.156188]}},{"properties":{"city":"Lake Preston","lon":-97.376509,"zip":"","librarysystem":"Lake Preston City Library","id":"a65x6h9vj0un","address":"225 N Main / PO Box 36","lat":44.361102,"libraryname":"Lake Preston City Library","state":"SD"},"type":"Feature","geometry":{"type":"Point","coordinates":[-97.376509,44.361102]}},{"properties":{"city":"Langford","lon":-97.829934,"zip":"","librarysystem":"Langford Public Library","id":"a65x6hl5n9pa","address":"413 Main St / Rr1 Box 44","lat":45.60256,"libraryname":"Langford Public Library","state":"SD"},"type":"Feature","geometry":{"type":"Point","coordinates":[-97.829934,45.60256]}},{"properties":{"city":"Lemmon","lon":-102.161619,"zip":"","librarysystem":"Lemmon Public Library","id":"a65x6hl8x90l","address":"303 1st Ave W / PO Box 120","lat":45.93493,"libraryname":"Lemmon Public Library","state":"SD"},"type":"Feature","geometry":{"type":"Point","coordinates":[-102.161619,45.93493]}},{"properties":{"city":"Leola","lon":-98.941534,"zip":"","librarysystem":"Leola Public Library","id":"a65x6h7sz2f4","address":"802 Main St / PO Box B","lat":45.722735,"libraryname":"Leola Public Library","state":"SD"},"type":"Feature","geometry":{"type":"Point","coordinates":[-98.941534,45.722735]}},{"properties":{"city":"Long Valley","lon":-101.497575,"zip":"","librarysystem":"Jackson County Library","id":"a65x6h9ez095","address":"PO Box 21 Hwy 73","lat":43.474193,"libraryname":"Long Vlley Branch Library","state":"SD"},"type":"Feature","geometry":{"type":"Point","coordinates":[-101.497575,43.474193]}},{"properties":{"city":"Ipswich","lon":-99.029314,"zip":"","librarysystem":"M. P. Beebe Memorial Library","id":"a65x6h8v8mt9","address":"120 Main / PO Box 304","lat":45.443805,"libraryname":"M. P. Beebe Memorial Library","state":"SD"},"type":"Feature","geometry":{"type":"Point","coordinates":[-99.029314,45.443805]}},{"properties":{"city":"Madison","lon":-97.112253,"zip":"","librarysystem":"Madison Public Library","id":"a65x6h5vcz1t","address":"209 E Center","lat":44.004957,"libraryname":"Madison Public Library","state":"SD"},"type":"Feature","geometry":{"type":"Point","coordinates":[-97.112253,44.004957]}},{"properties":{"city":"Mclaughlin","lon":-100.810679,"zip":"","librarysystem":"Mclaughlin Public Library","id":"a65x6hekjh3g","address":"Main St / PO Box 877","lat":45.814025,"libraryname":"Mclaughlin Public Library","state":"SD"},"type":"Feature","geometry":{"type":"Point","coordinates":[-100.810679,45.814025]}},{"properties":{"city":"Menno","lon":-97.577814,"zip":"","librarysystem":"Menno Community/School Library","id":"a65x6h6a6yoz","address":"414 5th Street","lat":43.237043,"libraryname":"Menno Community-School Library","state":"SD"},"type":"Feature","geometry":{"type":"Point","coordinates":[-97.577814,43.237043]}},{"properties":{"city":"Midland","lon":-101.155664,"zip":"","librarysystem":"Midland Community Library","id":"a65x6hiyihvu","address":"401 Russell St","lat":44.070235,"libraryname":"Midland Community Library","state":"SD"},"type":"Feature","geometry":{"type":"Point","coordinates":[-101.155664,44.070235]}},{"properties":{"city":"Mitchell","lon":-98.028424,"zip":"","librarysystem":"Mitchell Public Library","id":"a65x6h68178b","address":"221 N Duff Street","lat":43.710691,"libraryname":"Mitchell Public Library","state":"SD"},"type":"Feature","geometry":{"type":"Point","coordinates":[-98.028424,43.710691]}},{"properties":{"city":"Flandreau","lon":-96.587704,"zip":"","librarysystem":"Moody County Resource Center","id":"a65x6hekdmhb","address":"PO Box 191","lat":44.0484,"libraryname":"Moody County Public Library","state":"SD"},"type":"Feature","geometry":{"type":"Point","coordinates":[-96.587704,44.0484]}},{"properties":{"city":"Mt Vernon","lon":-98.265824,"zip":"","librarysystem":"Mt Vernon Public Library","id":"a65x6hkovuhn","address":"PO Box 32","lat":43.711095,"libraryname":"Mt Vernon Public Library","state":"SD"},"type":"Feature","geometry":{"type":"Point","coordinates":[-98.265824,43.711095]}},{"properties":{"city":"Newell","lon":-103.424644,"zip":"","librarysystem":"Newell Public Library","id":"a65x6hdkidr2","address":"208 Girard / PO Box 54","lat":44.719785,"libraryname":"Newell Public Library","state":"SD"},"type":"Feature","geometry":{"type":"Point","coordinates":[-103.424644,44.719785]}},{"properties":{"city":"North Sioux City","lon":-96.481642,"zip":"","librarysystem":"North Sioux City Community Library","id":"a65x6h8372o2","address":"504 River Drive","lat":42.52511,"libraryname":"North Sioux City Community Library","state":"SD"},"type":"Feature","geometry":{"type":"Point","coordinates":[-96.481642,42.52511]}},{"properties":{"city":"Belle Fourche","lon":-103.849247,"zip":"","librarysystem":"Northwest Regional Library","id":"a65x6hjzamin","address":"1301 8th","lat":44.664225,"libraryname":"Northwest Regional Library","state":"SD"},"type":"Feature","geometry":{"type":"Point","coordinates":[-103.849247,44.664225]}},{"properties":{"city":"Sioux Falls","lon":-96.680758,"zip":"","librarysystem":"Siouxland Libraries","id":"a65x6h9iyjii","address":"3700 E 3rd St","lat":43.555009,"libraryname":"Oak View Branch Library","state":"SD"},"type":"Feature","geometry":{"type":"Point","coordinates":[-96.680758,43.555009]}},{"properties":{"city":"Kyle","lon":-102.173239,"zip":"","librarysystem":"Oglala Lakota College","id":"a65x6hgeowzk","address":"3-Mile Creek Road /PO Box 310","lat":43.425115,"libraryname":"Oglala Lakota College Library Resource Ctr","state":"SD"},"type":"Feature","geometry":{"type":"Point","coordinates":[-102.173239,43.425115]}},{"properties":{"city":"Delmont","lon":-98.169442,"zip":"","librarysystem":"Opera Block Library","id":"a65x6h8zitji","address":"Main Street","lat":43.268155,"libraryname":"Opera Block Library","state":"SD"},"type":"Feature","geometry":{"type":"Point","coordinates":[-98.169442,43.268155]}},{"properties":{"city":"Parker","lon":-97.136654,"zip":"","librarysystem":"Parker Public Library","id":"a65x6he2r6dc","address":"115 N Main / PO Box 576","lat":43.397155,"libraryname":"Parker Public Library","state":"SD"},"type":"Feature","geometry":{"type":"Point","coordinates":[-97.136654,43.397155]}},{"properties":{"city":"Parkston","lon":-97.996199,"zip":"","librarysystem":"Parkston Public Library","id":"a65x6hjvavl9","address":"110 W Main / PO Box G","lat":43.398615,"libraryname":"Parkston Public Library","state":"SD"},"type":"Feature","geometry":{"type":"Point","coordinates":[-97.996199,43.398615]}},{"properties":{"city":"Lead","lon":-103.766423,"zip":"","librarysystem":"Phoebe Aperson Hearst Free Library","id":"a65x6ha8gaq9","address":"315 West Main","lat":44.351844,"libraryname":"Phoebe Apperson Hearst Free Library","state":"SD"},"type":"Feature","geometry":{"type":"Point","coordinates":[-103.766423,44.351844]}},{"properties":{"city":"Plankinton","lon":-98.485549,"zip":"","librarysystem":"Plankinton City Library","id":"a65x6h6r9m3l","address":"123 N Main / PO Box 517","lat":43.709805,"libraryname":"Plankinton City Library","state":"SD"},"type":"Feature","geometry":{"type":"Point","coordinates":[-98.485549,43.709805]}},{"properties":{"city":"Platte","lon":-98.844769,"zip":"","librarysystem":"Platte Public Library","id":"a65x6hlm5vqo","address":"304 S Main PO Box 64","lat":43.38568,"libraryname":"Platte Public Library","state":"SD"},"type":"Feature","geometry":{"type":"Point","coordinates":[-98.844769,43.38568]}},{"properties":{"city":"Gettysburg","lon":-99.955454,"zip":"","librarysystem":"Potter County Free Library","id":"a65x6haijau4","address":"106 East Commercial","lat":45.011264,"libraryname":"Potter County Free Library","state":"SD"},"type":"Feature","geometry":{"type":"Point","coordinates":[-99.955454,45.011264]}},{"properties":{"city":"Presho","lon":-100.058804,"zip":"","librarysystem":"Presho Public Library","id":"a65x6hazi0t6","address":"223 Main / PO Box 118","lat":43.91009,"libraryname":"Presho Public Library","state":"SD"},"type":"Feature","geometry":{"type":"Point","coordinates":[-100.058804,43.91009]}},{"properties":{"city":"Corsica","lon":-98.410866,"zip":"","librarysystem":"Priscilla Club Library","id":"a65x6hg7g18j","address":"335 E Main St / PO Box 226","lat":43.42735,"libraryname":"Priscilla Club Library","state":"SD"},"type":"Feature","geometry":{"type":"Point","coordinates":[-98.410866,43.42735]}},{"properties":{"city":"Rapid City","lon":-103.228291,"zip":"","librarysystem":"Rapid City Public Library","id":"a65x6h5pauai","address":"610 Quincy Street","lat":44.078069,"libraryname":"Rapid City Public Library","state":"SD"},"type":"Feature","geometry":{"type":"Point","coordinates":[-103.228291,44.078069]}},{"properties":{"city":"Pierre","lon":-100.336962,"zip":"","librarysystem":"Rawlins Municipal Library","id":"a65x6h9jgmf0","address":"1000 E. Church St.","lat":44.369638,"libraryname":"Rawlins Municipal Library","state":"SD"},"type":"Feature","geometry":{"type":"Point","coordinates":[-100.336962,44.369638]}},{"properties":{"city":"Redfield","lon":-98.518297,"zip":"","librarysystem":"Redfield Carnegie Library","id":"a65x6h6tw69o","address":"5 East 5th Ave.","lat":44.878236,"libraryname":"Redfield Carnegie Library","state":"SD"},"type":"Feature","geometry":{"type":"Point","coordinates":[-98.518297,44.878236]}},{"properties":{"city":"Bowdle","lon":-99.647129,"zip":"","librarysystem":"Reverend Martin Bieber Public Lib","id":"a65x6hhtzhdg","address":"123 Main / PO Box 280","lat":45.453725,"libraryname":"Reverend Martin Bieber Public Library","state":"SD"},"type":"Feature","geometry":{"type":"Point","coordinates":[-99.647129,45.453725]}},{"properties":{"city":"Sioux Falls","lon":-96.689293,"zip":"","librarysystem":"Siouxland Libraries","id":"a65x6h8i03cn","address":"3100 E 49th St","lat":43.507649,"libraryname":"Ronning Branch Library","state":"SD"},"type":"Feature","geometry":{"type":"Point","coordinates":[-96.689293,43.507649]}},{"properties":{"city":"Salem","lon":-97.385695,"zip":"","librarysystem":"Salem Public Library","id":"a65x6hd2k0o2","address":"200 E Essex","lat":43.727681,"libraryname":"Salem Public Library","state":"SD"},"type":"Feature","geometry":{"type":"Point","coordinates":[-97.385695,43.727681]}},{"properties":{"city":"Scotland","lon":-97.716154,"zip":"","librarysystem":"Scotland Community Library","id":"a65x6h7x9yps","address":"711 4th St / PO Box 383","lat":43.149105,"libraryname":"Scotland Public Library","state":"SD"},"type":"Feature","geometry":{"type":"Point","coordinates":[-97.716154,43.149105]}},{"properties":{"city":"Selby","lon":-100.024134,"zip":"","librarysystem":"Selby Community/School Library","id":"a65x6hlqks8i","address":"6401 Main St / PO Box 322","lat":45.507435,"libraryname":"Selby Community / School Library","state":"SD"},"type":"Feature","geometry":{"type":"Point","coordinates":[-100.024134,45.507435]}},{"properties":{"city":"Doland","lon":-98.101019,"zip":"","librarysystem":"Sherwood Memorial Library","id":"a65x6heyo9h3","address":"204 Humphrey Dr N / PO Box 267","lat":44.89287,"libraryname":"Sherwood Memorial Library","state":"SD"},"type":"Feature","geometry":{"type":"Point","coordinates":[-98.101019,44.89287]}},{"properties":{"city":"Mission","lon":-100.64907,"zip":"","librarysystem":"Sinte Gleska University Library","id":"a65x6h5whar8","address":"Highway 18 East, Main Campus","lat":43.305761,"libraryname":"Sinte Gleska University Library","state":"SD"},"type":"Feature","geometry":{"type":"Point","coordinates":[-100.64907,43.305761]}},{"properties":{"city":"Sioux Falls","lon":-96.728459,"zip":"","librarysystem":"Siouxland Libraries","id":"a65x6hb1zq53","address":"201 North Main Avenue","lat":43.548787,"libraryname":"Siouxland Libraries","state":"SD"},"type":"Feature","geometry":{"type":"Point","coordinates":[-96.728459,43.548787]}},{"properties":{"city":"Sisseton","lon":-97.041164,"zip":"","librarysystem":"Sisseton Memorial Library","id":"a65x6h9pdojj","address":"305 E Maple St / PO Box 289","lat":45.660215,"libraryname":"Sisseton Memorial Library","state":"SD"},"type":"Feature","geometry":{"type":"Point","coordinates":[-97.041164,45.660215]}},{"properties":{"city":"Sisseton","lon":-97.041164,"zip":"","librarysystem":"Sisseton Wahpeton Community College","id":"a65x6h6vailh","address":"Agency Village","lat":45.660215,"libraryname":"Sisseton Wahpeton Community College Library","state":"SD"},"type":"Feature","geometry":{"type":"Point","coordinates":[-97.041164,45.660215]}},{"properties":{"city":"Sturgis","lon":-103.512542,"zip":"","librarysystem":"Sturgis Public Library","id":"a65x6hazcoti","address":"1040 Second St","lat":44.414019,"libraryname":"Sturgis Public Library","state":"SD"},"type":"Feature","geometry":{"type":"Point","coordinates":[-103.512542,44.414019]}},{"properties":{"city":"Onida","lon":-100.066139,"zip":"","librarysystem":"Sully Area Library","id":"a65x6h9g5ct1","address":"500 Eigth St / PO Box 472","lat":44.707335,"libraryname":"Sully County Library","state":"SD"},"type":"Feature","geometry":{"type":"Point","coordinates":[-100.066139,44.707335]}},{"properties":{"city":"Winner","lon":-99.858175,"zip":"","librarysystem":"Tripp County Library - Grossenburg Memorial","id":"a65x6hgbrlgf","address":"442 Monroe St","lat":43.373948,"libraryname":"Tripp County Library","state":"SD"},"type":"Feature","geometry":{"type":"Point","coordinates":[-99.858175,43.373948]}},{"properties":{"city":"Tripp","lon":-97.965377,"zip":"","librarysystem":"Tripp Public Library","id":"a65x6hbtn16g","address":"102 E 2nd St / PO Box 336","lat":43.224421,"libraryname":"Tripp Public Library","state":"SD"},"type":"Feature","geometry":{"type":"Point","coordinates":[-97.965377,43.224421]}},{"properties":{"city":"Tyndall","lon":-97.862906,"zip":"","librarysystem":"Tyndall Public Library","id":"a65x6hfpsbgh","address":"110 W 17th Ave / PO Box 26","lat":42.992421,"libraryname":"Tyndall Public Library","state":"SD"},"type":"Feature","geometry":{"type":"Point","coordinates":[-97.862906,42.992421]}},{"properties":{"city":"Valley Springs","lon":-96.467907,"zip":"","librarysystem":"Siouxland Libraries","id":"a65x6h62v4dh","address":"401 Broadway Ave","lat":43.582557,"libraryname":"Valley Springs Branch Library","state":"SD"},"type":"Feature","geometry":{"type":"Point","coordinates":[-96.467907,43.582557]}},{"properties":{"city":"Vermillion","lon":-96.930653,"zip":"","librarysystem":"Vermillion Public Library","id":"a65x6h8g8sws","address":"18 Church Street","lat":42.779153,"libraryname":"Vermillion Public Library","state":"SD"},"type":"Feature","geometry":{"type":"Point","coordinates":[-96.930653,42.779153]}},{"properties":{"city":"Viborg","lon":-97.081619,"zip":"","librarysystem":"Viborg Public Library","id":"a65x6h9t1hdu","address":"110 N Main / PO Box 172","lat":43.170835,"libraryname":"Viborg Public Library","state":"SD"},"type":"Feature","geometry":{"type":"Point","coordinates":[-97.081619,43.170835]}},{"properties":{"city":"Groton","lon":-98.103414,"zip":"","librarysystem":"Wage Memorial Library","id":"a65x6hbwtnj2","address":"209 N Main PO Box 587","lat":45.446675,"libraryname":"Wage Memorial Library","state":"SD"},"type":"Feature","geometry":{"type":"Point","coordinates":[-98.103414,45.446675]}},{"properties":{"city":"Wagner","lon":-98.292769,"zip":"","librarysystem":"Wagner Public Library","id":"a65x6hcm4589","address":"Rr1 Box 6","lat":43.08167,"libraryname":"Wagner Public Library","state":"SD"},"type":"Feature","geometry":{"type":"Point","coordinates":[-98.292769,43.08167]}},{"properties":{"city":"Wakonda","lon":-97.106244,"zip":"","librarysystem":"Wakonda Public Library","id":"a65x6hgeouvl","address":"118 Ohio St / PO Box 311","lat":43.00865,"libraryname":"Wakonda Public Library","state":"SD"},"type":"Feature","geometry":{"type":"Point","coordinates":[-97.106244,43.00865]}},{"properties":{"city":"Wall","lon":-102.238924,"zip":"","librarysystem":"Wall Community Library","id":"a65x6hin1jit","address":"407 Main St / PO Box 318","lat":43.992765,"libraryname":"Wall Community Library","state":"SD"},"type":"Feature","geometry":{"type":"Point","coordinates":[-102.238924,43.992765]}},{"properties":{"city":"Watertown","lon":-97.116264,"zip":"","librarysystem":"Watertown Regional Library","id":"a65x6hgn3bfi","address":"15 1st Street NW","lat":44.901095,"libraryname":"Watertown Regional Library","state":"SD"},"type":"Feature","geometry":{"type":"Point","coordinates":[-97.116264,44.901095]}},{"properties":{"city":"Waubay","lon":-97.304764,"zip":"","librarysystem":"Waubay Public Library","id":"a65x6h5svi8r","address":"94 Main St / PO Box 446","lat":45.32939,"libraryname":"Waubay Public Library","state":"SD"},"type":"Feature","geometry":{"type":"Point","coordinates":[-97.304764,45.32939]}},{"properties":{"city":"Webster","lon":-97.520052,"zip":"","librarysystem":"Webster Public Library","id":"a65x6hhf81sd","address":"800 Main","lat":45.333309,"libraryname":"Webster Public Library","state":"SD"},"type":"Feature","geometry":{"type":"Point","coordinates":[-97.520052,45.333309]}},{"properties":{"city":"Wessington","lon":-98.697444,"zip":"","librarysystem":"Wessington Public Library","id":"a65x6hjloo48","address":"240 Wessington St / PO Box 108","lat":44.45754,"libraryname":"Wessington Public Library","state":"SD"},"type":"Feature","geometry":{"type":"Point","coordinates":[-98.697444,44.45754]}},{"properties":{"city":"Wessington Spring","lon":-98.698039,"zip":"","librarysystem":"Wessington Springs Carnegie Library","id":"a65x6h9cctp2","address":"Rr 2 Box 25","lat":43.921129,"libraryname":"Wessington Springs Carnegie Library","state":"SD"},"type":"Feature","geometry":{"type":"Point","coordinates":[-98.698039,43.921129]}},{"properties":{"city":"White Lake","lon":-98.713949,"zip":"","librarysystem":"White Lake Community Library","id":"a65x6hhf2mtd","address":"South Main St. / P.O. Box 185","lat":43.72614,"libraryname":"White Lake Community Library","state":"SD"},"type":"Feature","geometry":{"type":"Point","coordinates":[-98.713949,43.72614]}},{"properties":{"city":"Whitewood","lon":-103.638369,"zip":"","librarysystem":"Whitewood Public Library","id":"a65x6h73x2l3","address":"PO Box 505","lat":44.461435,"libraryname":"Whitewood Public Library","state":"SD"},"type":"Feature","geometry":{"type":"Point","coordinates":[-103.638369,44.461435]}},{"properties":{"city":"Wilmot","lon":-96.861879,"zip":"","librarysystem":"Wilmot Public Library","id":"a65x6hlqnvfd","address":"123 Main St / PO Box 69","lat":45.40922,"libraryname":"Wilmot Public Library","state":"SD"},"type":"Feature","geometry":{"type":"Point","coordinates":[-96.861879,45.40922]}},{"properties":{"city":"Woonsocket","lon":-98.273089,"zip":"","librarysystem":"Woonsocket Public Library","id":"a65x6hd4ierf","address":"100 2nd St / PO Box 126","lat":44.053945,"libraryname":"Woonsocket Public Library","state":"SD"},"type":"Feature","geometry":{"type":"Point","coordinates":[-98.273089,44.053945]}},{"properties":{"city":"Yankton","lon":-97.393906,"zip":"","librarysystem":"Yankton Community Library","id":"a65x6h9stib8","address":"515 Walnut","lat":42.872691,"libraryname":"Yankton Community Library","state":"SD"},"type":"Feature","geometry":{"type":"Point","coordinates":[-97.393906,42.872691]}}],"is_temporal":false,"author":{"url":"http://www.publiclibraries.com/southdakota.htm","metadata":"","contact_name":"","contact_address":"","source":"publiclibrairies.com","contact_phone":""},"source":"http://www.publiclibraries.com/southdakota.htm","pagination":{"sort":null,"start":0,"total":145,"limit":1000000},"state":"complete","tags":"books,dakota,education,libraries,library,public,south","published":"2008-05-09T12:00:00Z","id":954}