{"type":"FeatureCollection","data_type":"Dataset","url_type":null,"permissions":[{"permissions":{"download":true,"view":true},"group_id":"everyone"}],"classification":null,"title":"publiclibraries.com, Tennessee Public Libraries, Tennessee, 1.2008","count":289,"stream_id":955,"contributor":{"url":"http://geocommons.com/users/2","name":"data"},"data_attributes":null,"calculation_params":null,"icon_link":null,"link":"http://geocommons.com/overlays/955.json","extent":[-90.0621,34.9896,-81.8035,36.5957],"geometry_types":["point"],"unique_name":null,"name":"publiclibraries.com, Tennessee Public Libraries, Tennessee, 1.2008","feature_count":289,"description":"This dataset displays the locations of all the public libraries in the state of Tennessee. The data included is the name of the library, name of the library system, library's address, phone, and lat/lon coordinates. The data came from publiclibraries.com which is a updated directory of all the public libraries throughout the United States.\n","next_feature":null,"is_raster":false,"short_classification":"Y","stats":{"lon":{"max":-81.803539,"mean":-86.024994982699,"variance":4.75500125939336,"stdev":2.18059653750834,"min":-90.062117,"median":-85.940667},"lat":{"max":36.595702,"mean":35.8521591453287,"variance":0.216181261676312,"stdev":0.464952967165833,"min":34.98957,"median":35.966566}},"features":[{"properties":{"city":"Woodbury","lon":-86.075263,"zip":"","librarysystem":"Adams Memorial Library","id":"a65s83uy6jo2","address":"212 College Street","lat":35.82674,"libraryname":"Adams Memorial Library","state":"TN"},"type":"Feature","geometry":{"type":"Point","coordinates":[-86.075263,35.82674]}},{"properties":{"city":"Alexandria","lon":-86.037703,"zip":"","librarysystem":"Justin Potter Library","id":"a65s83rc2bpv","address":"109 Public Square","lat":36.072881,"libraryname":"Alexandria Branch Library","state":"TN"},"type":"Feature","geometry":{"type":"Point","coordinates":[-86.037703,36.072881]}},{"properties":{"city":"Algood","lon":-85.452284,"zip":"","librarysystem":"Putnam County Library","id":"a65s845anh9s","address":"125 Fourth Avenue","lat":36.194625,"libraryname":"Algood Branch Library","state":"TN"},"type":"Feature","geometry":{"type":"Point","coordinates":[-85.452284,36.194625]}},{"properties":{"city":"Altamont","lon":-85.722399,"zip":"","librarysystem":"Altamont Public Library","id":"a65s83r49rdz","address":"Hwy 56","lat":35.427315,"libraryname":"Altamont Public Library","state":"TN"},"type":"Feature","geometry":{"type":"Point","coordinates":[-85.722399,35.427315]}},{"properties":{"city":"Gatlinburg","lon":-83.51345,"zip":"","librarysystem":"Anna Porter Public Library","id":"a65s8415s86j","address":"207 Cherokee Orchard Rd","lat":35.706326,"libraryname":"Anna Porter Public Library","state":"TN"},"type":"Feature","geometry":{"type":"Point","coordinates":[-83.51345,35.706326]}},{"properties":{"city":"Ardmore","lon":-86.850391,"zip":"","librarysystem":"Ardmore Community Library","id":"a65s8469me3n","address":"26347 Main Street","lat":34.993453,"libraryname":"Ardmore Community Library","state":"TN"},"type":"Feature","geometry":{"type":"Point","coordinates":[-86.850391,34.993453]}},{"properties":{"city":"Shelbyville","lon":-86.460123,"zip":"","librarysystem":"Argie Cooper Public Library","id":"a65s83vodsot","address":"100 South Main Street","lat":35.482508,"libraryname":"Argie Cooper Public Library","state":"TN"},"type":"Feature","geometry":{"type":"Point","coordinates":[-86.460123,35.482508]}},{"properties":{"city":"Crossville","lon":-85.025061,"zip":"","librarysystem":"Art Circle Public Library","id":"a65s83wj1etl","address":"154 East First Street","lat":35.946974,"libraryname":"Art Circle Public Library","state":"TN"},"type":"Feature","geometry":{"type":"Point","coordinates":[-85.025061,35.946974]}},{"properties":{"city":"Auburntown","lon":-86.095634,"zip":"","librarysystem":"Auburntown Public Library","id":"a65s83tc821q","address":"73 East Main Street","lat":35.948312,"libraryname":"Auburntown Public Library","state":"TN"},"type":"Feature","geometry":{"type":"Point","coordinates":[-86.095634,35.948312]}},{"properties":{"city":"Spring City","lon":-84.861075,"zip":"","librarysystem":"Audrey Pack Public Library","id":"a65s846026y8","address":"169 West Rhea Avenue","lat":35.693701,"libraryname":"Audrey Pack Public Library","state":"TN"},"type":"Feature","geometry":{"type":"Point","coordinates":[-84.861075,35.693701]}},{"properties":{"city":"Tazewell","lon":-83.580194,"zip":"","librarysystem":"Barbara Reynolds Carr Memorial Library","id":"a65s83zv6jv3","address":"1304 Old Knoxville Road","lat":36.449215,"libraryname":"Barbara Reynolds Carr Memorial Library","state":"TN"},"type":"Feature","geometry":{"type":"Point","coordinates":[-83.580194,36.449215]}},{"properties":{"city":"Bartlett","lon":-89.850016,"zip":"","librarysystem":"Memphis Public Library &amp; Information Center","id":"a65s83zbal3u","address":"6382 Stage Road","lat":35.204876,"libraryname":"Bartlett Branch Library","state":"TN"},"type":"Feature","geometry":{"type":"Point","coordinates":[-89.850016,35.204876]}},{"properties":{"city":"Baxter","lon":-85.634009,"zip":"","librarysystem":"Putnam County Library","id":"a65s83x9gnx7","address":"Main Street","lat":36.15779,"libraryname":"Baxter Branch Library","state":"TN"},"type":"Feature","geometry":{"type":"Point","coordinates":[-85.634009,36.15779]}},{"properties":{"city":"Bean Station","lon":-83.282243,"zip":"","librarysystem":"Bean Station Public Library","id":"a65s844zc765","address":"895 Broadway Drive","lat":36.321191,"libraryname":"Bean Station Public Library","state":"TN"},"type":"Feature","geometry":{"type":"Point","coordinates":[-83.282243,36.321191]}},{"properties":{"city":"South Pittsburg","lon":-85.705477,"zip":"","librarysystem":"Beene-Pearson Public Library","id":"a65s83re982o","address":"208 Elm Avenue","lat":35.013929,"libraryname":"Beene-Pearson Public Library","state":"TN"},"type":"Feature","geometry":{"type":"Point","coordinates":[-85.705477,35.013929]}},{"properties":{"city":"Beersheba Springs","lon":-85.695736,"zip":"","librarysystem":"Beersheba Springs Public Library","id":"a65s842ijeyf","address":"Hwy 56","lat":35.528224,"libraryname":"Beersheba Springs Public Library","state":"TN"},"type":"Feature","geometry":{"type":"Point","coordinates":[-85.695736,35.528224]}},{"properties":{"city":"Nashville","lon":-86.934217,"zip":"","librarysystem":"Nashville Public Library","id":"a65s83s6v4lo","address":"650 Colice Jeanne Road","lat":36.071692,"libraryname":"Bellevue Branch Library","state":"TN"},"type":"Feature","geometry":{"type":"Point","coordinates":[-86.934217,36.071692]}},{"properties":{"city":"Camden","lon":-88.097456,"zip":"","librarysystem":"Benton County Library","id":"a65s83xfd60o","address":"121 South Forrest Avenue","lat":36.056176,"libraryname":"Benton County Library","state":"TN"},"type":"Feature","geometry":{"type":"Point","coordinates":[-88.097456,36.056176]}},{"properties":{"city":"Benton","lon":-84.622609,"zip":"","librarysystem":"Benton Public Library","id":"a65s843u81ps","address":"Hwy 411","lat":35.19804,"libraryname":"Benton Public Library","state":"TN"},"type":"Feature","geometry":{"type":"Point","coordinates":[-84.622609,35.19804]}},{"properties":{"city":"Thompson's Station","lon":-86.798698,"zip":"","librarysystem":"Williamson County Public Library","id":"a65s8442dcqs","address":"4905 Bethesda Road","lat":35.766289,"libraryname":"Bethesda Public Library","state":"TN"},"type":"Feature","geometry":{"type":"Point","coordinates":[-86.798698,35.766289]}},{"properties":{"city":"Big Sandy","lon":-88.086606,"zip":"","librarysystem":"Benton County Library","id":"a65s83tojuf9","address":"12 Front Street","lat":36.235074,"libraryname":"Big Sandy Branch Library","state":"TN"},"type":"Feature","geometry":{"type":"Point","coordinates":[-88.086606,36.235074]}},{"properties":{"city":"Blaine","lon":-83.699747,"zip":"","librarysystem":"Blaine Public Library","id":"a65s83zsi181","address":"220 Indian Ridge Road","lat":36.152676,"libraryname":"Blaine Public Library","state":"TN"},"type":"Feature","geometry":{"type":"Point","coordinates":[-83.699747,36.152676]}},{"properties":{"city":"Pikeville","lon":-85.190865,"zip":"","librarysystem":"Bledsoe County Public Library","id":"a65s843zbqib","address":"102 E. Cumberland Avenue","lat":35.605806,"libraryname":"Bledsoe County Public Library","state":"TN"},"type":"Feature","geometry":{"type":"Point","coordinates":[-85.190865,35.605806]}},{"properties":{"city":"Kingsport","lon":-82.488383,"zip":"","librarysystem":"Sullivan County Public Library","id":"a65s846pt6fl","address":"3230 Van Horn Street","lat":36.585635,"libraryname":"Bloomingdale Branch Library","state":"TN"},"type":"Feature","geometry":{"type":"Point","coordinates":[-82.488383,36.585635]}},{"properties":{"city":"Maryville","lon":-83.973575,"zip":"","librarysystem":"Blount County Public Library","id":"a65s847i4cue","address":"508 N. Cusick Street","lat":35.757717,"libraryname":"Blount County Public Library","state":"TN"},"type":"Feature","geometry":{"type":"Point","coordinates":[-83.973575,35.757717]}},{"properties":{"city":"Bolivar","lon":-88.989277,"zip":"","librarysystem":"Bolivar-Hardeman County Library","id":"a65s83x1d727","address":"213 North Washington St.","lat":35.257201,"libraryname":"Bolivar-Hardeman County Library","state":"TN"},"type":"Feature","geometry":{"type":"Point","coordinates":[-88.989277,35.257201]}},{"properties":{"city":"Knoxville","lon":-83.897052,"zip":"","librarysystem":"Knox County Public Library System","id":"a65s83ulakp3","address":"7732 Martin Mill Pike","lat":35.880163,"libraryname":"Bonny Kate Branch Library","state":"TN"},"type":"Feature","geometry":{"type":"Point","coordinates":[-83.897052,35.880163]}},{"properties":{"city":"Nashville","lon":-86.838686,"zip":"","librarysystem":"Nashville Public Library","id":"a65s83vk4b9u","address":"4000 Clarksville Pike","lat":36.21135,"libraryname":"Bordeaux Branch Library","state":"TN"},"type":"Feature","geometry":{"type":"Point","coordinates":[-86.838686,36.21135]}},{"properties":{"city":"Briceville","lon":-84.180739,"zip":"","librarysystem":"Briceville Public Library","id":"a65s843og9gg","address":"921 Andy's Ridge Road","lat":36.1782,"libraryname":"Briceville Public Library","state":"TN"},"type":"Feature","geometry":{"type":"Point","coordinates":[-84.180739,36.1782]}},{"properties":{"city":"Bristol","lon":-82.185599,"zip":"","librarysystem":"Bristol Public Library","id":"a65s83zdmhcr","address":"701 Goode Street","lat":36.595702,"libraryname":"Bristol Public Library","state":"TN"},"type":"Feature","geometry":{"type":"Point","coordinates":[-82.185599,36.595702]}},{"properties":{"city":"Knoxville","lon":-83.862859,"zip":"","librarysystem":"Knox County Public Library System","id":"a65s846yjz4d","address":"4512 Asheville Highway","lat":36.00448,"libraryname":"Burlington Branch Library","state":"TN"},"type":"Feature","geometry":{"type":"Point","coordinates":[-83.862859,36.00448]}},{"properties":{"city":"Spencer","lon":-85.345177,"zip":"","librarysystem":"Burritt Memorial Library","id":"a65s83u33ygc","address":"Highway 30 N","lat":35.706822,"libraryname":"Burritt Memorial Library","state":"TN"},"type":"Feature","geometry":{"type":"Point","coordinates":[-85.345177,35.706822]}},{"properties":{"city":"Martin","lon":-88.850359,"zip":"","librarysystem":"C. E. Weldon Public Library","id":"a65s83zijz89","address":"100 Main Street","lat":36.343247,"libraryname":"C. E. Weldon Public Library","state":"TN"},"type":"Feature","geometry":{"type":"Point","coordinates":[-88.850359,36.343247]}},{"properties":{"city":"Calhoun","lon":-84.744705,"zip":"","librarysystem":"Calhoun Public Library","id":"a65s83suxo8z","address":"746 Hwy 163","lat":35.295848,"libraryname":"Calhoun Public Library","state":"TN"},"type":"Feature","geometry":{"type":"Point","coordinates":[-84.744705,35.295848]}},{"properties":{"city":"Huntingdon","lon":-88.409051,"zip":"","librarysystem":"Carroll County Library","id":"a65s83wibq3r","address":"625 High Street, Suite 102","lat":36.022154,"libraryname":"Carroll County Library","state":"TN"},"type":"Feature","geometry":{"type":"Point","coordinates":[-88.409051,36.022154]}},{"properties":{"city":"Knoxville","lon":-83.723311,"zip":"","librarysystem":"Knox County Public Library System","id":"a65s844kqctp","address":"9036 Asheville Highway","lat":36.024627,"libraryname":"Carter Branch Library","state":"TN"},"type":"Feature","geometry":{"type":"Point","coordinates":[-83.723311,36.024627]}},{"properties":{"city":"Caryville","lon":-84.222626,"zip":"","librarysystem":"Caryville Public Library","id":"a65s83xm20vz","address":"4839 Old Highway 63, Suite 2","lat":36.303273,"libraryname":"Caryville Public Library","state":"TN"},"type":"Feature","geometry":{"type":"Point","coordinates":[-84.222626,36.303273]}},{"properties":{"city":"Knoxville","lon":-84.082887,"zip":"","librarysystem":"Knox County Public Library System","id":"a65s83td29c8","address":"9045 Cross Park Drive","lat":35.923754,"libraryname":"Cedar Bluff Branch Library","state":"TN"},"type":"Feature","geometry":{"type":"Point","coordinates":[-84.082887,35.923754]}},{"properties":{"city":"Gainesboro","lon":-85.659982,"zip":"","librarysystem":"Charles Ralph Holland Memorial Library","id":"a65s83xs1eal","address":"205 West Hull Avenue","lat":36.355332,"libraryname":"Charles Ralph Holland Memorial Library","state":"TN"},"type":"Feature","geometry":{"type":"Point","coordinates":[-85.659982,36.355332]}},{"properties":{"city":"Chattanooga","lon":-85.31044,"zip":"","librarysystem":"Chattanooga-Hamilton County Bicentennial Public Library","id":"a65s840ifoz5","address":"1001 Broad Street","lat":35.044714,"libraryname":"Chattanooga-Hamilton County Bicentennial Public Library","state":"TN"},"type":"Feature","geometry":{"type":"Point","coordinates":[-85.31044,35.044714]}},{"properties":{"city":"Ashland City","lon":-87.063003,"zip":"","librarysystem":"Cheatham County Public Library","id":"a65s841mu9eh","address":"188 County Services Drive, Suite 20","lat":36.274426,"libraryname":"Cheatham County Public Library","state":"TN"},"type":"Feature","geometry":{"type":"Point","coordinates":[-87.063003,36.274426]}},{"properties":{"city":"Memphis","lon":-89.952704,"zip":"","librarysystem":"Memphis Public Library &amp; Information Center","id":"a65s841zumdz","address":"3300 Sharpe","lat":35.086922,"libraryname":"Cherokee Branch Library","state":"TN"},"type":"Feature","geometry":{"type":"Point","coordinates":[-89.952704,35.086922]}},{"properties":{"city":"Henderson","lon":-88.614377,"zip":"","librarysystem":"Chester County Library","id":"a65s83x0j9kt","address":"1012 East Main Street","lat":35.445913,"libraryname":"Chester County Library","state":"TN"},"type":"Feature","geometry":{"type":"Point","coordinates":[-88.614377,35.445913]}},{"properties":{"city":"Church Hill","lon":-82.699011,"zip":"","librarysystem":"H.B. Stamps Memorial Library","id":"a65s840hpo3z","address":"302 East Main Boulevard","lat":36.524147,"libraryname":"Church Hill Public Library","state":"TN"},"type":"Feature","geometry":{"type":"Point","coordinates":[-82.699011,36.524147]}},{"properties":{"city":"Clarksville","lon":-87.339095,"zip":"","librarysystem":"Clarksville-Montgomery County Public Library","id":"a65s845jgsq2","address":"350 Pageant Lane, Suite 501","lat":36.520608,"libraryname":"Clarksville-Montgomery County Public Library","state":"TN"},"type":"Feature","geometry":{"type":"Point","coordinates":[-87.339095,36.520608]}},{"properties":{"city":"Celina","lon":-85.505902,"zip":"","librarysystem":"Clay County Public Library","id":"a65s83txve88","address":"116 Guffey Street","lat":36.547863,"libraryname":"Clay County Public Library","state":"TN"},"type":"Feature","geometry":{"type":"Point","coordinates":[-85.505902,36.547863]}},{"properties":{"city":"Cleveland","lon":-84.873102,"zip":"","librarysystem":"Cleveland Public Library","id":"a65s841gpywf","address":"833 North Ocoee Street","lat":35.164199,"libraryname":"Cleveland History Branch","state":"TN"},"type":"Feature","geometry":{"type":"Point","coordinates":[-84.873102,35.164199]}},{"properties":{"city":"Cleveland","lon":-84.871804,"zip":"","librarysystem":"Cleveland Public Library","id":"a65s841mf276","address":"795 Church Street NE","lat":35.163735,"libraryname":"Cleveland Public Library","state":"TN"},"type":"Feature","geometry":{"type":"Point","coordinates":[-84.871804,35.163735]}},{"properties":{"city":"Clifton","lon":-87.99182,"zip":"","librarysystem":"Wayne County Public Library","id":"a65s8419ekup","address":"300 East Water Street","lat":35.387452,"libraryname":"Clifton Branch Library","state":"TN"},"type":"Feature","geometry":{"type":"Point","coordinates":[-87.99182,35.387452]}},{"properties":{"city":"Clinton","lon":-84.135235,"zip":"","librarysystem":"Clinton Public Library","id":"a65s83r24iyl","address":"118 South Hicks Street","lat":36.09998,"libraryname":"Clinton Public Library","state":"TN"},"type":"Feature","geometry":{"type":"Point","coordinates":[-84.135235,36.09998]}},{"properties":{"city":"Dayton","lon":-85.013952,"zip":"","librarysystem":"Clyde W. Roddy Public Library","id":"a65s83wdnnll","address":"371 First Avenue","lat":35.493775,"libraryname":"Clyde W. Roddy Public Library","state":"TN"},"type":"Feature","geometry":{"type":"Point","coordinates":[-85.013952,35.493775]}},{"properties":{"city":"Coalfield","lon":-84.423004,"zip":"","librarysystem":"Coalfield Public Library","id":"a65s83xu5jyl","address":"112 Jerry Jones Road","lat":36.027755,"libraryname":"Coalfield Public Library","state":"TN"},"type":"Feature","geometry":{"type":"Point","coordinates":[-84.423004,36.027755]}},{"properties":{"city":"Coalmont","lon":-85.703322,"zip":"","librarysystem":"Coalmont Public Library","id":"a65s842w8t0h","address":"7426 SR 56","lat":35.376296,"libraryname":"Coalmont Public Library","state":"TN"},"type":"Feature","geometry":{"type":"Point","coordinates":[-85.703322,35.376296]}},{"properties":{"city":"Manchester","lon":-86.078009,"zip":"","librarysystem":"Coffee Co. Manchester Public Library","id":"a65s83r0igd8","address":"1005 Hillsboro Blvd.","lat":35.473865,"libraryname":"Coffee Co. Manchester Public Library","state":"TN"},"type":"Feature","geometry":{"type":"Point","coordinates":[-86.078009,35.473865]}},{"properties":{"city":"Tullahoma","lon":-86.218088,"zip":"","librarysystem":"Coffee County Lannom Memorial Library","id":"a65s843c3j1u","address":"312 North Collins Street","lat":35.35982,"libraryname":"Coffee County Lannom Memorial Library","state":"TN"},"type":"Feature","geometry":{"type":"Point","coordinates":[-86.218088,35.35982]}},{"properties":{"city":"Collierville","lon":-89.700433,"zip":"","librarysystem":"Memphis Public Library &amp; Information Center","id":"a65s83r9g1ze","address":"501 Poplar View Pkwy","lat":35.052473,"libraryname":"Collierville Branch Library","state":"TN"},"type":"Feature","geometry":{"type":"Point","coordinates":[-89.700433,35.052473]}},{"properties":{"city":"Collinwood","lon":-87.739161,"zip":"","librarysystem":"Wayne County Public Library","id":"a65s83uoxvfr","address":"101 East Depot Street","lat":35.17316,"libraryname":"Collinwood Depot Branch Library","state":"TN"},"type":"Feature","geometry":{"type":"Point","coordinates":[-87.739161,35.17316]}},{"properties":{"city":"Kingsport","lon":-82.526922,"zip":"","librarysystem":"Sullivan County Public Library","id":"a65s844o112i","address":"149 Pactolus Road","lat":36.491822,"libraryname":"Colonial Heights Branch Library","state":"TN"},"type":"Feature","geometry":{"type":"Point","coordinates":[-82.526922,36.491822]}},{"properties":{"city":"Copperhill","lon":-84.37069,"zip":"","librarysystem":"Copperhill Public Library","id":"a65s84251u59","address":"160 Main Street","lat":34.98957,"libraryname":"Copperhill Public Library","state":"TN"},"type":"Feature","geometry":{"type":"Point","coordinates":[-84.37069,34.98957]}},{"properties":{"city":"Cordova","lon":-89.771544,"zip":"","librarysystem":"Memphis Public Library &amp; Information Center","id":"a65s83x6muq9","address":"1017 North Sanga Road","lat":35.15298,"libraryname":"Cordova Branch Library","state":"TN"},"type":"Feature","geometry":{"type":"Point","coordinates":[-89.771544,35.15298]}},{"properties":{"city":"Memphis","lon":-90.044248,"zip":"","librarysystem":"Memphis Public Library &amp; Information Center","id":"a65s843tkhzs","address":"531 Vance Avenue","lat":35.134576,"libraryname":"Cornelia Crenshaw Branch","state":"TN"},"type":"Feature","geometry":{"type":"Point","coordinates":[-90.044248,35.134576]}},{"properties":{"city":"Corryton","lon":-83.781679,"zip":"","librarysystem":"Knox County Public Library System","id":"a65s83y6a7ck","address":"7733 Corryton Road","lat":36.153569,"libraryname":"Corryton Branch Library","state":"TN"},"type":"Feature","geometry":{"type":"Point","coordinates":[-83.781679,36.153569]}},{"properties":{"city":"Cosby","lon":-83.22251,"zip":"","librarysystem":"Cosby Community Library","id":"a65s841wt9nb","address":"3292 Cosby Hwy, Suite 1","lat":35.842824,"libraryname":"Cosby Community Library","state":"TN"},"type":"Feature","geometry":{"type":"Point","coordinates":[-83.22251,35.842824]}},{"properties":{"city":"Collierville","lon":-89.666619,"zip":"","librarysystem":"Memphis Public Library &amp; Information Center","id":"a65s83rbsw0q","address":"33 South Front Street","lat":35.04259,"libraryname":"Cossitt Branch Library","state":"TN"},"type":"Feature","geometry":{"type":"Point","coordinates":[-89.666619,35.04259]}},{"properties":{"city":"Alamo","lon":-89.115741,"zip":"","librarysystem":"Crockett County Library","id":"a65s83w23t8h","address":"258 East Church Street","lat":35.78672,"libraryname":"Crockett County Library","state":"TN"},"type":"Feature","geometry":{"type":"Point","coordinates":[-89.115741,35.78672]}},{"properties":{"city":"Dandridge","lon":-83.415324,"zip":"","librarysystem":"Dandridge Memorial Library","id":"a65s83r1xddp","address":"1235 Circle Drive","lat":36.013977,"libraryname":"Dandridge Memorial Library","state":"TN"},"type":"Feature","geometry":{"type":"Point","coordinates":[-83.415324,36.013977]}},{"properties":{"city":"Decaturville","lon":-88.121369,"zip":"","librarysystem":"Decatur County Public Library","id":"a65s845v5i96","address":"20 West Market Street","lat":35.58484,"libraryname":"Decatur County Public Library","state":"TN"},"type":"Feature","geometry":{"type":"Point","coordinates":[-88.121369,35.58484]}},{"properties":{"city":"Deer Lodge","lon":-84.763319,"zip":"","librarysystem":"Deer Lodge Public Library","id":"a65s83rztbt6","address":"110 Corinne Avenue","lat":36.20155,"libraryname":"Deer Lodge Public Library","state":"TN"},"type":"Feature","geometry":{"type":"Point","coordinates":[-84.763319,36.20155]}},{"properties":{"city":"Dickson","lon":-87.37327,"zip":"","librarysystem":"Dickson County Public Library","id":"a65s83yamf4r","address":"206 Henslee Drive","lat":36.076634,"libraryname":"Dickson County Public Library","state":"TN"},"type":"Feature","geometry":{"type":"Point","coordinates":[-87.37327,36.076634]}},{"properties":{"city":"Nashville","lon":-86.685442,"zip":"","librarysystem":"Nashville Public Library","id":"a65s83stt86t","address":"2315 Lebanon Road","lat":36.168578,"libraryname":"Donelson Branch Library","state":"TN"},"type":"Feature","geometry":{"type":"Point","coordinates":[-86.685442,36.168578]}},{"properties":{"city":"Dowelltown","lon":-85.940667,"zip":"","librarysystem":"Justin Potter Library","id":"a65s8461yofc","address":"Church Street","lat":36.013277,"libraryname":"Dowelltown Branch Library","state":"TN"},"type":"Feature","geometry":{"type":"Point","coordinates":[-85.940667,36.013277]}},{"properties":{"city":"Greenfield","lon":-88.800139,"zip":"","librarysystem":"Dr. Nathan Porter Library","id":"a65s83xbpb1h","address":"228 North Front St.","lat":36.154584,"libraryname":"Dr. Nathan Porter Library","state":"TN"},"type":"Feature","geometry":{"type":"Point","coordinates":[-88.800139,36.154584]}},{"properties":{"city":"Ducktown","lon":-84.383011,"zip":"","librarysystem":"Ducktown Public Library","id":"a65s842huuty","address":"Main Street","lat":35.035443,"libraryname":"Ducktown Public Library","state":"TN"},"type":"Feature","geometry":{"type":"Point","coordinates":[-84.383011,35.035443]}},{"properties":{"city":"Athens","lon":-84.582515,"zip":"","librarysystem":"E.G. Fisher Public Library","id":"a65s83x325hr","address":"1289 Ingleside Avenue","lat":35.455441,"libraryname":"E.G. Fisher Public Library","state":"TN"},"type":"Feature","geometry":{"type":"Point","coordinates":[-84.582515,35.455441]}},{"properties":{"city":"Eagleville","lon":-86.64827,"zip":"","librarysystem":"Eagleville Bicentennial Public Library","id":"a65s842i3zez","address":"Highway 99E","lat":35.741236,"libraryname":"Eagleville Bicentennial Public Library","state":"TN"},"type":"Feature","geometry":{"type":"Point","coordinates":[-86.64827,35.741236]}},{"properties":{"city":"Nashville","lon":-86.750766,"zip":"","librarysystem":"Nashville Public Library","id":"a65s844fobv8","address":"206 Gallatin Road","lat":36.17875,"libraryname":"East Branch Library","state":"TN"},"type":"Feature","geometry":{"type":"Point","coordinates":[-86.750766,36.17875]}},{"properties":{"city":"Lyles","lon":-87.330293,"zip":"","librarysystem":"Hickman County Public Library","id":"a65s83rrgniq","address":"4887 Highway 100","lat":35.916557,"libraryname":"East Hickman Public Library","state":"TN"},"type":"Feature","geometry":{"type":"Point","coordinates":[-87.330293,35.916557]}},{"properties":{"city":"East Ridge","lon":-85.241737,"zip":"","librarysystem":"East Ridge City Library","id":"a65s83stsjvh","address":"1517 Tombras Avenue","lat":34.994659,"libraryname":"East Ridge City Library","state":"TN"},"type":"Feature","geometry":{"type":"Point","coordinates":[-85.241737,34.994659]}},{"properties":{"city":"Memphis","lon":-89.823473,"zip":"","librarysystem":"Memphis Public Library &amp; Information Center","id":"a65s845psp10","address":"7200 East Shelby Drive","lat":35.020531,"libraryname":"East Shelby Branch","state":"TN"},"type":"Feature","geometry":{"type":"Point","coordinates":[-89.823473,35.020531]}},{"properties":{"city":"Chattanooga","lon":-85.210837,"zip":"","librarysystem":"Chattanooga-Hamilton County Bicentennial Public Library","id":"a65s843x9pha","address":"5705 Marlin Road","lat":35.008385,"libraryname":"Eastgate Branch Library","state":"TN"},"type":"Feature","geometry":{"type":"Point","coordinates":[-85.210837,35.008385]}},{"properties":{"city":"Nashville","lon":-86.787839,"zip":"","librarysystem":"Nashville Public Library","id":"a65s840jho67","address":"1409 12th Avenue, South","lat":36.139302,"libraryname":"Edgehill Branch Library","state":"TN"},"type":"Feature","geometry":{"type":"Point","coordinates":[-86.787839,36.139302]}},{"properties":{"city":"Nashville","lon":-86.744216,"zip":"","librarysystem":"Nashville Public Library","id":"a65s83xehdpt","address":"5501 Edmondson Pike","lat":36.044344,"libraryname":"Edmondson Pike Branch Library","state":"TN"},"type":"Feature","geometry":{"type":"Point","coordinates":[-86.744216,36.044344]}},{"properties":{"city":"Gallatin","lon":-86.431402,"zip":"","librarysystem":"Edward Ward Carmack-Sumner County","id":"a65s841mlf35","address":"658 Hartsville Pike","lat":36.390808,"libraryname":"Edward Ward Carmack-Sumner County","state":"TN"},"type":"Feature","geometry":{"type":"Point","coordinates":[-86.431402,36.390808]}},{"properties":{"city":"Elizabethton","lon":-82.214913,"zip":"","librarysystem":"Elizabethton/Carter County Public Library","id":"a65s843omur2","address":"201 N. Sycamore Street","lat":36.348959,"libraryname":"Elizabethton/Carter County Public Library","state":"TN"},"type":"Feature","geometry":{"type":"Point","coordinates":[-82.214913,36.348959]}},{"properties":{"city":"Elkton","lon":-86.889898,"zip":"","librarysystem":"Giles County Public Library","id":"a65s840r2ii4","address":"110 Main Street","lat":35.051346,"libraryname":"Elkton Branch Library","state":"TN"},"type":"Feature","geometry":{"type":"Point","coordinates":[-86.889898,35.051346]}},{"properties":{"city":"Brownsville","lon":-89.247623,"zip":"","librarysystem":"Elma Ross Public Library","id":"a65s845yfil6","address":"1011 East Main Street","lat":35.593574,"libraryname":"Elma Ross Public Library","state":"TN"},"type":"Feature","geometry":{"type":"Point","coordinates":[-89.247623,35.593574]}},{"properties":{"city":"Portland","lon":-86.509444,"zip":"","librarysystem":"Elmer Hinton Memorial Public Library","id":"a65s83uq5wn9","address":"301 Portland Boulevard","lat":36.58217,"libraryname":"Elmer Hinton Memorial Public Library","state":"TN"},"type":"Feature","geometry":{"type":"Point","coordinates":[-86.509444,36.58217]}},{"properties":{"city":"Englewood","lon":-84.488038,"zip":"","librarysystem":"Englewood Public Library","id":"a65s83thop5d","address":"103a South Niota Road","lat":35.428284,"libraryname":"Englewood Public Library","state":"TN"},"type":"Feature","geometry":{"type":"Point","coordinates":[-84.488038,35.428284]}},{"properties":{"city":"Etowah","lon":-84.525924,"zip":"","librarysystem":"Etowah Carnegie Library","id":"a65s846ft6m7","address":"723 Ohio Avenue","lat":35.324639,"libraryname":"Etowah Carnegie Library","state":"TN"},"type":"Feature","geometry":{"type":"Point","coordinates":[-84.525924,35.324639]}},{"properties":{"city":"Lexington","lon":-88.414557,"zip":"","librarysystem":"Everett Horn Public Library","id":"a65s83r1g3cb","address":"702 West Church Street","lat":35.658308,"libraryname":"Everett Horn Public Library","state":"TN"},"type":"Feature","geometry":{"type":"Point","coordinates":[-88.414557,35.658308]}},{"properties":{"city":"Fairview","lon":-87.12989,"zip":"","librarysystem":"Williamson County Public Library","id":"a65s83x722ws","address":"2240 Fairview Boulevard","lat":35.971376,"libraryname":"Fairview Public Library","state":"TN"},"type":"Feature","geometry":{"type":"Point","coordinates":[-87.12989,35.971376]}},{"properties":{"city":"Knoxville","lon":-84.168531,"zip":"","librarysystem":"Knox County Public Library System","id":"a65s845933o8","address":"417 N Campbell Station Road","lat":35.889086,"libraryname":"Farragut Branch Library","state":"TN"},"type":"Feature","geometry":{"type":"Point","coordinates":[-84.168531,35.889086]}},{"properties":{"city":"Fayetteville","lon":-86.569556,"zip":"","librarysystem":"Fayetteville-Lincoln County Public Library","id":"a65s83rx95vz","address":"400 Rocky Knob Lane","lat":35.155517,"libraryname":"Fayetteville-Lincoln County Public Library","state":"TN"},"type":"Feature","geometry":{"type":"Point","coordinates":[-86.569556,35.155517]}},{"properties":{"city":"Jamestown","lon":-84.932435,"zip":"","librarysystem":"Fentress County Library","id":"a65s844379ko","address":"306 South Main Street","lat":36.423543,"libraryname":"Fentress County Library","state":"TN"},"type":"Feature","geometry":{"type":"Point","coordinates":[-84.932435,36.423543]}},{"properties":{"city":"Knoxville","lon":-83.933519,"zip":"","librarysystem":"Knox County Public Library System","id":"a65s83xi36ub","address":"213 Hotel Avenue","lat":36.036428,"libraryname":"Fountain City Branch Library","state":"TN"},"type":"Feature","geometry":{"type":"Point","coordinates":[-83.933519,36.036428]}},{"properties":{"city":"Winchester","lon":-86.110192,"zip":"","librarysystem":"Franklin County Public Library","id":"a65s846arrww","address":"105 South Porter Street","lat":35.186909,"libraryname":"Franklin County Public Library","state":"TN"},"type":"Feature","geometry":{"type":"Point","coordinates":[-86.110192,35.186909]}},{"properties":{"city":"Memphis","lon":-90.001565,"zip":"","librarysystem":"Memphis Public Library &amp; Information Center","id":"a65s83ublz8t","address":"3712 Argonne","lat":35.226976,"libraryname":"Frayser Branch","state":"TN"},"type":"Feature","geometry":{"type":"Point","coordinates":[-90.001565,35.226976]}},{"properties":{"city":"Hartsville","lon":-86.161748,"zip":"","librarysystem":"Fred A. Vaught Memorial Library","id":"a65s83s082bu","address":"211 White Oak Street","lat":36.394608,"libraryname":"Fred A. Vaught Memorial Library","state":"TN"},"type":"Feature","geometry":{"type":"Point","coordinates":[-86.161748,36.394608]}},{"properties":{"city":"Memphis","lon":-90.054944,"zip":"","librarysystem":"Memphis Public Library &amp; Information Center","id":"a65s83x52ftc","address":"1040 South Third Street","lat":35.119028,"libraryname":"Gaston Park Branch","state":"TN"},"type":"Feature","geometry":{"type":"Point","coordinates":[-90.054944,35.119028]}},{"properties":{"city":"Kingsport","lon":-82.554919,"zip":"","librarysystem":"Kingsport Public Library","id":"a65s840gv58q","address":"1013 Douglas Street","lat":36.536694,"libraryname":"George Washington Carver Branch Library","state":"TN"},"type":"Feature","geometry":{"type":"Point","coordinates":[-82.554919,36.536694]}},{"properties":{"city":"Germantown","lon":-89.802234,"zip":"","librarysystem":"Memphis Public Library &amp; Information Center","id":"a65s847eiof6","address":"1925 Exeter Road","lat":35.096773,"libraryname":"Germantown Branch Library","state":"TN"},"type":"Feature","geometry":{"type":"Point","coordinates":[-89.802234,35.096773]}},{"properties":{"city":"Trenton","lon":-88.942911,"zip":"","librarysystem":"Gibson County Memorial Library","id":"a65s842juiwn","address":"303 High Street","lat":35.982721,"libraryname":"Gibson County Memorial Library","state":"TN"},"type":"Feature","geometry":{"type":"Point","coordinates":[-88.942911,35.982721]}},{"properties":{"city":"Pulaski","lon":-87.03207,"zip":"","librarysystem":"Giles County Public Library","id":"a65s841gcrqy","address":"122 South Second Street","lat":35.198976,"libraryname":"Giles County Public Library","state":"TN"},"type":"Feature","geometry":{"type":"Point","coordinates":[-87.03207,35.198976]}},{"properties":{"city":"Gleason","lon":-88.611407,"zip":"","librarysystem":"Gleason Memorial Library","id":"a65s83zx74y9","address":"105 College","lat":36.213372,"libraryname":"Gleason Memorial Library","state":"TN"},"type":"Feature","geometry":{"type":"Point","coordinates":[-88.611407,36.213372]}},{"properties":{"city":"Goodlettsville","lon":-86.714374,"zip":"","librarysystem":"Nashville Public Library","id":"a65s83vd157b","address":"106 Old Brick Church Pike","lat":36.325921,"libraryname":"Goodlettsville Branch Library","state":"TN"},"type":"Feature","geometry":{"type":"Point","coordinates":[-86.714374,36.325921]}},{"properties":{"city":"Gordonsville","lon":-85.92286,"zip":"","librarysystem":"Smith County Public Library","id":"a65s83thd5nr","address":"63 E. Main Street","lat":36.172101,"libraryname":"Gordonsville Branch Library","state":"TN"},"type":"Feature","geometry":{"type":"Point","coordinates":[-85.92286,36.172101]}},{"properties":{"city":"Springfield","lon":-86.890256,"zip":"","librarysystem":"Gorham Macbane Public Library","id":"a65s83yd673d","address":"405 White Street","lat":36.510077,"libraryname":"Gorham Macbane Public Library","state":"TN"},"type":"Feature","geometry":{"type":"Point","coordinates":[-86.890256,36.510077]}},{"properties":{"city":"Grand Junction","lon":-89.186716,"zip":"","librarysystem":"Grand Junction Community Library","id":"a65s846kohum","address":"103 Washington Street","lat":35.047062,"libraryname":"Grand Junction Community Library","state":"TN"},"type":"Feature","geometry":{"type":"Point","coordinates":[-89.186716,35.047062]}},{"properties":{"city":"Gray","lon":-82.473434,"zip":"","librarysystem":"Washington County-Jonesborough Library","id":"a65s840e646l","address":"5026 Bobby Hicks Highway","lat":36.4109,"libraryname":"Gray Branch Library","state":"TN"},"type":"Feature","geometry":{"type":"Point","coordinates":[-82.473434,36.4109]}},{"properties":{"city":"Graysville","lon":-85.078746,"zip":"","librarysystem":"Graysville Public Library","id":"a65s842omf37","address":"151 Mill Street","lat":35.445936,"libraryname":"Graysville Public Library","state":"TN"},"type":"Feature","geometry":{"type":"Point","coordinates":[-85.078746,35.445936]}},{"properties":{"city":"Nashville","lon":-86.808825,"zip":"","librarysystem":"Nashville Public Library","id":"a65s83ud0kzk","address":"3701 Benham Avenue","lat":36.109461,"libraryname":"Green Hills Branch Library","state":"TN"},"type":"Feature","geometry":{"type":"Point","coordinates":[-86.808825,36.109461]}},{"properties":{"city":"Greenback","lon":-84.143174,"zip":"","librarysystem":"Greenback Public Library","id":"a65s846aig43","address":"6889 Morganton Road","lat":35.670998,"libraryname":"Greenback Public Library","state":"TN"},"type":"Feature","geometry":{"type":"Point","coordinates":[-84.143174,35.670998]}},{"properties":{"city":"Greeneville","lon":-82.829876,"zip":"","librarysystem":"Greeneville-Greene County Public Library","id":"a65s83ysqefu","address":"210 North Main Street","lat":36.164664,"libraryname":"Greeneville-Greene County Public Library","state":"TN"},"type":"Feature","geometry":{"type":"Point","coordinates":[-82.829876,36.164664]}},{"properties":{"city":"Rogersville","lon":-83.003954,"zip":"","librarysystem":"H.B. Stamps Memorial Library","id":"a65s83r4m0ul","address":"407 East Main Street","lat":36.40801,"libraryname":"H.B. Stamps Memorial Library","state":"TN"},"type":"Feature","geometry":{"type":"Point","coordinates":[-83.003954,36.40801]}},{"properties":{"city":"Nashville","lon":-86.820308,"zip":"","librarysystem":"Nashville Public Library","id":"a65s8433v8go","address":"1038 28th Avenue, North","lat":36.166749,"libraryname":"Hadley Park Branch Library","state":"TN"},"type":"Feature","geometry":{"type":"Point","coordinates":[-86.820308,36.166749]}},{"properties":{"city":"Knoxville","lon":-83.927695,"zip":"","librarysystem":"Knox County Public Library System","id":"a65s8454cpta","address":"7006a Maynardville Highway","lat":36.07543,"libraryname":"Halls Branch Library","state":"TN"},"type":"Feature","geometry":{"type":"Point","coordinates":[-83.927695,36.07543]}},{"properties":{"city":"Halls","lon":-89.395875,"zip":"","librarysystem":"Halls Public Library","id":"a65s842tr8r3","address":"110 North Church Street","lat":35.875579,"libraryname":"Halls Public Library","state":"TN"},"type":"Feature","geometry":{"type":"Point","coordinates":[-89.395875,35.875579]}},{"properties":{"city":"Sneedville","lon":-83.214137,"zip":"","librarysystem":"Hancock County Public Library","id":"a65s842bd38b","address":"138 Willow Street","lat":36.534212,"libraryname":"Hancock County Public Library","state":"TN"},"type":"Feature","geometry":{"type":"Point","coordinates":[-83.214137,36.534212]}},{"properties":{"city":"Savannah","lon":-88.246342,"zip":"","librarysystem":"Hardin County Library","id":"a65s83wno5i8","address":"110 Pickwick Road","lat":35.22438,"libraryname":"Hardin County Library","state":"TN"},"type":"Feature","geometry":{"type":"Point","coordinates":[-88.246342,35.22438]}},{"properties":{"city":"Harriman","lon":-84.550369,"zip":"","librarysystem":"Harriman Public Library","id":"a65s845gxhmj","address":"601 Walden Street","lat":35.933086,"libraryname":"Harriman Public Library","state":"TN"},"type":"Feature","geometry":{"type":"Point","coordinates":[-84.550369,35.933086]}},{"properties":{"city":"Hermitage","lon":-86.616376,"zip":"","librarysystem":"Nashville Public Library","id":"a65s83rpi5sa","address":"3700 James Kay Lane","lat":36.177458,"libraryname":"Hermitage Branch Library","state":"TN"},"type":"Feature","geometry":{"type":"Point","coordinates":[-86.616376,36.177458]}},{"properties":{"city":"Centerville","lon":-87.469956,"zip":"","librarysystem":"Hickman County Public Library","id":"a65s83yusalq","address":"120 West Swan Street","lat":35.782326,"libraryname":"Hickman County Public Library","state":"TN"},"type":"Feature","geometry":{"type":"Point","coordinates":[-87.469956,35.782326]}},{"properties":{"city":"Memphis","lon":-89.945431,"zip":"","librarysystem":"Memphis Public Library &amp; Information Center","id":"a65s843qdfi8","address":"460 South Highland","lat":35.11878,"libraryname":"Highland Branch","state":"TN"},"type":"Feature","geometry":{"type":"Point","coordinates":[-89.945431,35.11878]}},{"properties":{"city":"Memphis","lon":-89.975088,"zip":"","librarysystem":"Memphis Public Library &amp; Information Center","id":"a65s83st5w00","address":"1530 North Hollywood","lat":35.178026,"libraryname":"Hollywood Branch","state":"TN"},"type":"Feature","geometry":{"type":"Point","coordinates":[-89.975088,35.178026]}},{"properties":{"city":"Erin","lon":-87.694377,"zip":"","librarysystem":"Houston County Public Library","id":"a65s83vcymwr","address":"21 Spring Street","lat":36.317419,"libraryname":"Houston County Public Library","state":"TN"},"type":"Feature","geometry":{"type":"Point","coordinates":[-87.694377,36.317419]}},{"properties":{"city":"Humboldt","lon":-88.915286,"zip":"","librarysystem":"Humboldt Public Library","id":"a65s845hofw0","address":"115 S. 16th Ave.","lat":35.819636,"libraryname":"Humboldt Public Library","state":"TN"},"type":"Feature","geometry":{"type":"Point","coordinates":[-88.915286,35.819636]}},{"properties":{"city":"Waverly","lon":-87.795618,"zip":"37185-1529","librarysystem":"Humphreys County Public Library","id":"a65s83vfrkgq","address":"201 Pavo Avenue","lat":36.0845,"libraryname":"Humphreys County Public Library","state":"TN"},"type":"Feature","geometry":{"type":"Point","coordinates":[-87.795618,36.0845]}},{"properties":{"city":"Waverly","lon":-87.795618,"zip":"","librarysystem":"Humphreys County Public Library","id":"a65s83z75mf0","address":"201 Pavo Avenue","lat":36.0845,"libraryname":"Humphreys County Public Library","state":"TN"},"type":"Feature","geometry":{"type":"Point","coordinates":[-87.795618,36.0845]}},{"properties":{"city":"Huntsville","lon":-84.491304,"zip":"","librarysystem":"Huntsville Public Library","id":"a65s83tcan4t","address":"314 Court House Square","lat":36.411905,"libraryname":"Huntsville Public Library","state":"TN"},"type":"Feature","geometry":{"type":"Point","coordinates":[-84.491304,36.411905]}},{"properties":{"city":"Nashville","lon":-86.725304,"zip":"","librarysystem":"Nashville Public Library","id":"a65s83tnkbnv","address":"4312 Gallatin Road","lat":36.225691,"libraryname":"Inglewood Branch Library","state":"TN"},"type":"Feature","geometry":{"type":"Point","coordinates":[-86.725304,36.225691]}},{"properties":{"city":"Adamsville","lon":-88.393249,"zip":"","librarysystem":"Irving Meek Jr. Public Library","id":"a65s83wlytd3","address":"204 West Main Street","lat":35.236076,"libraryname":"Irving Meek Jr. Public Library","state":"TN"},"type":"Feature","geometry":{"type":"Point","coordinates":[-88.393249,35.236076]}},{"properties":{"city":"Selmer","lon":-88.572964,"zip":"","librarysystem":"Jack Mcconnico Memorial Library","id":"a65s843967xk","address":"225 Oak Grove Rd.","lat":35.163424,"libraryname":"Jack Mcconnico Memorial Library","state":"TN"},"type":"Feature","geometry":{"type":"Point","coordinates":[-88.572964,35.163424]}},{"properties":{"city":"Jacksboro","lon":-84.181059,"zip":"","librarysystem":"Jacksboro Public Library","id":"a65s83zpirjl","address":"585 Main Street, Suite 201","lat":36.330669,"libraryname":"Jacksboro Public Library","state":"TN"},"type":"Feature","geometry":{"type":"Point","coordinates":[-84.181059,36.330669]}},{"properties":{"city":"Jackson","lon":-88.815027,"zip":"","librarysystem":"Jackson-Madison County Library","id":"a65s846f6efg","address":"433 East Lafayette Street","lat":35.615121,"libraryname":"Jackson-Madison County Library","state":"TN"},"type":"Feature","geometry":{"type":"Point","coordinates":[-88.815027,35.615121]}},{"properties":{"city":"Jasper","lon":-85.628245,"zip":"","librarysystem":"Jasper Public Library","id":"a65s842cgyrm","address":"14 West Second Street","lat":35.075388,"libraryname":"Jasper Public Library","state":"TN"},"type":"Feature","geometry":{"type":"Point","coordinates":[-85.628245,35.075388]}},{"properties":{"city":"Jefferson City","lon":-83.493055,"zip":"","librarysystem":"Jefferson City Public Library","id":"a65s83v8kz3p","address":"1427 Russell Ave","lat":36.116686,"libraryname":"Jefferson City Public Library","state":"TN"},"type":"Feature","geometry":{"type":"Point","coordinates":[-83.493055,36.116686]}},{"properties":{"city":"Jellico","lon":-84.126727,"zip":"","librarysystem":"Jellico Public Library","id":"a65s83uxsldt","address":"104 North Main Street","lat":36.587781,"libraryname":"Jellico Public Library","state":"TN"},"type":"Feature","geometry":{"type":"Point","coordinates":[-84.126727,36.587781]}},{"properties":{"city":"Johnson City","lon":-82.353924,"zip":"","librarysystem":"Johnson City Public Library","id":"a65s83wp9di0","address":"100 West Millard Street","lat":36.319591,"libraryname":"Johnson City Public Library","state":"TN"},"type":"Feature","geometry":{"type":"Point","coordinates":[-82.353924,36.319591]}},{"properties":{"city":"Mountain City","lon":-81.803539,"zip":"","librarysystem":"Johnson County Public Library","id":"a65s83v7wt1j","address":"219 N. Church Street","lat":36.476212,"libraryname":"Johnson County Public Library","state":"TN"},"type":"Feature","geometry":{"type":"Point","coordinates":[-81.803539,36.476212]}},{"properties":{"city":"Smithville","lon":-85.811758,"zip":"","librarysystem":"Justin Potter Library","id":"a65s83rzii0q","address":"101 South First Street","lat":35.960392,"libraryname":"Justin Potter Library","state":"TN"},"type":"Feature","geometry":{"type":"Point","coordinates":[-85.811758,35.960392]}},{"properties":{"city":"Knoxville","lon":-84.096778,"zip":"","librarysystem":"Knox County Public Library System","id":"a65s83r8hees","address":"7516 Oak Ridge Highway","lat":35.98125,"libraryname":"Karns Branch Library","state":"TN"},"type":"Feature","geometry":{"type":"Point","coordinates":[-84.096778,35.98125]}},{"properties":{"city":"Kingsport","lon":-82.559333,"zip":"","librarysystem":"Kingsport Public Library","id":"a65s840z1lqp","address":"400 Broad Street","lat":36.548363,"libraryname":"Kingsport Public Library","state":"TN"},"type":"Feature","geometry":{"type":"Point","coordinates":[-82.559333,36.548363]}},{"properties":{"city":"Kingston","lon":-84.520576,"zip":"","librarysystem":"Kingston Public Library","id":"a65s83vqen1w","address":"1004 Bradford Way","lat":35.865846,"libraryname":"Kingston Public Library","state":"TN"},"type":"Feature","geometry":{"type":"Point","coordinates":[-84.520576,35.865846]}},{"properties":{"city":"Kodak","lon":-83.622242,"zip":"","librarysystem":"Sevier County Public Library","id":"a65s83tnjhv2","address":"319 West Dumplin Valley Road","lat":35.977007,"libraryname":"Kodak Branch","state":"TN"},"type":"Feature","geometry":{"type":"Point","coordinates":[-83.622242,35.977007]}},{"properties":{"city":"La Vergne","lon":-86.583986,"zip":"","librarysystem":"La Vergne Public Library","id":"a65s83r8eacv","address":"5063 Murfreesboro Road","lat":36.023014,"libraryname":"La Vergne Public Library","state":"TN"},"type":"Feature","geometry":{"type":"Point","coordinates":[-86.583986,36.023014]}},{"properties":{"city":"Lafollette","lon":-84.121719,"zip":"","librarysystem":"Lafollette Public Library","id":"a65s83s3zc9t","address":"201 South Tennessee Avenue","lat":36.379804,"libraryname":"Lafollette Public Library","state":"TN"},"type":"Feature","geometry":{"type":"Point","coordinates":[-84.121719,36.379804]}},{"properties":{"city":"Lake City","lon":-84.157584,"zip":"","librarysystem":"Lake City Public Library","id":"a65s84532b5o","address":"226 North Main St.","lat":36.222138,"libraryname":"Lake City Public Library","state":"TN"},"type":"Feature","geometry":{"type":"Point","coordinates":[-84.157584,36.222138]}},{"properties":{"city":"Ripley","lon":-89.527458,"zip":"","librarysystem":"Lauderdale County Library","id":"a65s84449azq","address":"120 Lafayette Street","lat":35.747573,"libraryname":"Lauderdale County Library","state":"TN"},"type":"Feature","geometry":{"type":"Point","coordinates":[-89.527458,35.747573]}},{"properties":{"city":"Lawrenceburg","lon":-87.326641,"zip":"","librarysystem":"Lawrence County Public Library","id":"a65s8415sp7p","address":"519 East Gaines Street","lat":35.239894,"libraryname":"Lawrence County Public Library","state":"TN"},"type":"Feature","geometry":{"type":"Point","coordinates":[-87.326641,35.239894]}},{"properties":{"city":"Knoxville","lon":-83.919398,"zip":"","librarysystem":"Knox County Public Library System","id":"a65s83z5yfzb","address":"500 West Church Avenue","lat":35.962488,"libraryname":"Lawson Mcghee Library","state":"TN"},"type":"Feature","geometry":{"type":"Point","coordinates":[-83.919398,35.962488]}},{"properties":{"city":"Lebanon","lon":-86.298922,"zip":"","librarysystem":"Lebanon-Wilson County Public Library","id":"a65s83x9py2a","address":"108 South Hatton Avenue","lat":36.208253,"libraryname":"Lebanon-Wilson County Public Library","state":"TN"},"type":"Feature","geometry":{"type":"Point","coordinates":[-86.298922,36.208253]}},{"properties":{"city":"Whiteville","lon":-89.15656,"zip":"","librarysystem":"Lee Ola Roberts Library","id":"a65s8446ytsx","address":"140 W. Main St.","lat":35.322978,"libraryname":"Lee Ola Roberts Library","state":"TN"},"type":"Feature","geometry":{"type":"Point","coordinates":[-89.15656,35.322978]}},{"properties":{"city":"Franklin","lon":-86.998877,"zip":"","librarysystem":"Williamson County Public Library","id":"a65s84619dg9","address":"5333 Old Highway 96","lat":35.898334,"libraryname":"Leiper's Fork Public Library","state":"TN"},"type":"Feature","geometry":{"type":"Point","coordinates":[-86.998877,35.898334]}},{"properties":{"city":"Lenoir City","lon":-84.265856,"zip":"","librarysystem":"Lenoir City Public Library","id":"a65s847ghu5g","address":"100 West Broadway","lat":35.790912,"libraryname":"Lenoir City Public Library","state":"TN"},"type":"Feature","geometry":{"type":"Point","coordinates":[-84.265856,35.790912]}},{"properties":{"city":"Memphis","lon":-90.062117,"zip":"","librarysystem":"Memphis Public Library &amp; Information Center","id":"a65s840jzw2p","address":"3676 Highway 61 South","lat":35.048749,"libraryname":"Levi Branch","state":"TN"},"type":"Feature","geometry":{"type":"Point","coordinates":[-90.062117,35.048749]}},{"properties":{"city":"Hohenwald","lon":-87.552705,"zip":"","librarysystem":"Lewis County Public Library","id":"a65s8400fd9i","address":"15 Kyle Avenue","lat":35.549747,"libraryname":"Lewis County Public Library","state":"TN"},"type":"Feature","geometry":{"type":"Point","coordinates":[-87.552705,35.549747]}},{"properties":{"city":"Nashville","lon":-86.781918,"zip":"","librarysystem":"Nashville Public Library","id":"a65s846wkp41","address":"615 Church Street","lat":36.162348,"libraryname":"Library Service For Deaf And Hard Of Hearing","state":"TN"},"type":"Feature","geometry":{"type":"Point","coordinates":[-86.781918,36.162348]}},{"properties":{"city":"Murfreesboro","lon":-86.391768,"zip":"","librarysystem":"Linebaugh Public Library","id":"a65s83uydw74","address":"105 West Vine Street","lat":35.844827,"libraryname":"Linebaugh Public Library","state":"TN"},"type":"Feature","geometry":{"type":"Point","coordinates":[-86.391768,35.844827]}},{"properties":{"city":"Lobelville","lon":-87.782989,"zip":"","librarysystem":"Perry County Public Library","id":"a65s843ayxpu","address":"Seventh Street","lat":35.767505,"libraryname":"Lobelville Public Library","state":"TN"},"type":"Feature","geometry":{"type":"Point","coordinates":[-87.782989,35.767505]}},{"properties":{"city":"Loretto","lon":-87.440023,"zip":"","librarysystem":"Lawrence County Public Library","id":"a65s83zwngmd","address":"102 South Main Street","lat":35.078788,"libraryname":"Loretto Branch Library","state":"TN"},"type":"Feature","geometry":{"type":"Point","coordinates":[-87.440023,35.078788]}},{"properties":{"city":"Loudon","lon":-84.343212,"zip":"","librarysystem":"Loudon Public Library","id":"a65s84606oh9","address":"100 River Road","lat":35.739512,"libraryname":"Loudon Public Library","state":"TN"},"type":"Feature","geometry":{"type":"Point","coordinates":[-84.343212,35.739512]}},{"properties":{"city":"Luttrell","lon":-83.744138,"zip":"","librarysystem":"Luttrell Public Library","id":"a65s83u2u7bs","address":"3512 Highway 61e","lat":36.201883,"libraryname":"Luttrell Public Library","state":"TN"},"type":"Feature","geometry":{"type":"Point","coordinates":[-83.744138,36.201883]}},{"properties":{"city":"Lafayette","lon":-86.030649,"zip":"","librarysystem":"Macon County Public Library","id":"a65s83xsqw9r","address":"311 Church Street","lat":36.52147,"libraryname":"Macon County Public Library","state":"TN"},"type":"Feature","geometry":{"type":"Point","coordinates":[-86.030649,36.52147]}},{"properties":{"city":"Nashville","lon":-86.714058,"zip":"","librarysystem":"Nashville Public Library","id":"a65s83wmlt0i","address":"610 Gallatin Pike South","lat":36.257404,"libraryname":"Madison Branch Library","state":"TN"},"type":"Feature","geometry":{"type":"Point","coordinates":[-86.714058,36.257404]}},{"properties":{"city":"Madisonville","lon":-84.363492,"zip":"","librarysystem":"Madisonville Public Library","id":"a65s841xkf0n","address":"305 E College St.","lat":35.521036,"libraryname":"Madisonville Public Library","state":"TN"},"type":"Feature","geometry":{"type":"Point","coordinates":[-84.363492,35.521036]}},{"properties":{"city":"McMinnville","lon":-85.773974,"zip":"","librarysystem":"Magness Community House &amp; Library","id":"a65s83t2xvuo","address":"118 West Main Street","lat":35.681482,"libraryname":"Magness Community House &amp; Library","state":"TN"},"type":"Feature","geometry":{"type":"Point","coordinates":[-85.773974,35.681482]}},{"properties":{"city":"Del Rio","lon":-83.017562,"zip":"","librarysystem":"Marie Ellison Memorial Library","id":"a65s840tt24x","address":"480 S. Hwy 107","lat":35.903482,"libraryname":"Marie Ellison Memorial Library","state":"TN"},"type":"Feature","geometry":{"type":"Point","coordinates":[-83.017562,35.903482]}},{"properties":{"city":"Lewisburg","lon":-86.787158,"zip":"","librarysystem":"Marshall County Memorial Library","id":"a65s840wqj8w","address":"310 Farmington Pike","lat":35.454786,"libraryname":"Marshall County Memorial Library","state":"TN"},"type":"Feature","geometry":{"type":"Point","coordinates":[-86.787158,35.454786]}},{"properties":{"city":"Hendersonville","lon":-86.622258,"zip":"","librarysystem":"Martin Curtis-Hendersonville Public Library","id":"a65s8478kcgp","address":"116 Dunn Street","lat":36.304025,"libraryname":"Martin Curtis-Hendersonville Public Library","state":"TN"},"type":"Feature","geometry":{"type":"Point","coordinates":[-86.622258,36.304025]}},{"properties":{"city":"Nashville","lon":-86.761749,"zip":"","librarysystem":"Nashville Public Library","id":"a65s84779gd3","address":"117 Charles E Davis Boulevard","lat":36.152492,"libraryname":"Mary &amp; Charles W. Pruitt Library","state":"TN"},"type":"Feature","geometry":{"type":"Point","coordinates":[-86.761749,36.152492]}},{"properties":{"city":"Townsend","lon":-83.754359,"zip":"","librarysystem":"Mary E. Tippitt Memorial Library","id":"a65s83ra38pr","address":"120 Tiger Drive","lat":35.676022,"libraryname":"Mary E. Tippitt Memorial Library","state":"TN"},"type":"Feature","geometry":{"type":"Point","coordinates":[-83.754359,35.676022]}},{"properties":{"city":"Mascot","lon":-83.743586,"zip":"","librarysystem":"Knox County Public Library System","id":"a65s83ujmhb7","address":"2010 Library Road","lat":36.062007,"libraryname":"Mascot Branch Library","state":"TN"},"type":"Feature","geometry":{"type":"Point","coordinates":[-83.743586,36.062007]}},{"properties":{"city":"Columbia","lon":-87.036067,"zip":"","librarysystem":"Maury County Public Library","id":"a65s845bzeto","address":"211 West 8th Street","lat":35.613508,"libraryname":"Maury County Public Library","state":"TN"},"type":"Feature","geometry":{"type":"Point","coordinates":[-87.036067,35.613508]}},{"properties":{"city":"Monteagle","lon":-85.82715,"zip":"","librarysystem":"May Justus Memorial Library","id":"a65s841mukv8","address":"24 Dixie Lee Ave.","lat":35.239603,"libraryname":"May Justus Memorial Library","state":"TN"},"type":"Feature","geometry":{"type":"Point","coordinates":[-85.82715,35.239603]}},{"properties":{"city":"Maynardville","lon":-83.846031,"zip":"","librarysystem":"Maynardville Public Library","id":"a65s8404dxem","address":"296 Main Street","lat":36.22546,"libraryname":"Maynardville Public Library","state":"TN"},"type":"Feature","geometry":{"type":"Point","coordinates":[-83.846031,36.22546]}},{"properties":{"city":"Dyersburg","lon":-89.386474,"zip":"","librarysystem":"McIver's Grant Public Library","id":"a65s83s4p1gl","address":"204 North Mill Street","lat":36.033831,"libraryname":"McIver's Grant Public Library","state":"TN"},"type":"Feature","geometry":{"type":"Point","coordinates":[-89.386474,36.033831]}},{"properties":{"city":"McKenzie","lon":-88.518637,"zip":"","librarysystem":"McKenzie Memorial Library","id":"a65s83y9eiim","address":"15 N. Broadway","lat":36.131311,"libraryname":"McKenzie Memorial Library","state":"TN"},"type":"Feature","geometry":{"type":"Point","coordinates":[-88.518637,36.131311]}},{"properties":{"city":"Knoxville","lon":-83.917892,"zip":"","librarysystem":"Knox County Public Library System","id":"a65s84374b1g","address":"314 West Clinch Avenue","lat":35.964029,"libraryname":"Mcclung, East Tn History Center &amp; Knox Archives","state":"TN"},"type":"Feature","geometry":{"type":"Point","coordinates":[-83.917892,35.964029]}},{"properties":{"city":"Decatur","lon":-84.789914,"zip":"","librarysystem":"Meigs-Decatur Public Library","id":"a65s845wnopv","address":"120 Memorial Drive","lat":35.514627,"libraryname":"Meigs-Decatur Public Library","state":"TN"},"type":"Feature","geometry":{"type":"Point","coordinates":[-84.789914,35.514627]}},{"properties":{"city":"Memphis","lon":-89.960664,"zip":"","librarysystem":"Memphis Public Library &amp; Information Center","id":"a65s83ttok8t","address":"3030 Poplar Avenue","lat":35.132517,"libraryname":"Memphis/Shelby County Public Library &amp; Info C","state":"TN"},"type":"Feature","geometry":{"type":"Point","coordinates":[-89.960664,35.132517]}},{"properties":{"city":"Nashville","lon":-86.735082,"zip":"","librarysystem":"Nashville Public Library","id":"a65s841lp0j4","address":"1113 Elm Hill Pike","lat":36.143714,"libraryname":"Metropolitan Archives Of Davidson County","state":"TN"},"type":"Feature","geometry":{"type":"Point","coordinates":[-86.735082,36.143714]}},{"properties":{"city":"Middleton","lon":-88.88919,"zip":"","librarysystem":"Middleton Community Library","id":"a65s845n5jnd","address":"102 Bolton Ave","lat":35.060026,"libraryname":"Middleton Community Library","state":"TN"},"type":"Feature","geometry":{"type":"Point","coordinates":[-88.88919,35.060026]}},{"properties":{"city":"Milan","lon":-88.752058,"zip":"","librarysystem":"Mildred G. Fields Memorial Library","id":"a65s842zhnun","address":"1075a E. Van Hook Street","lat":35.917373,"libraryname":"Mildred G. Fields Memorial Library","state":"TN"},"type":"Feature","geometry":{"type":"Point","coordinates":[-88.752058,35.917373]}},{"properties":{"city":"Millington","lon":-89.901378,"zip":"","librarysystem":"Memphis Public Library &amp; Information Center","id":"a65s83rq8v68","address":"4858 Navy Road","lat":35.341497,"libraryname":"Millington Branch Library","state":"TN"},"type":"Feature","geometry":{"type":"Point","coordinates":[-89.901378,35.341497]}},{"properties":{"city":"Minor Hill","lon":-87.159403,"zip":"","librarysystem":"Minor Hill Public Library","id":"a65s83wv6ggv","address":"108 Pickett Drive","lat":35.051691,"libraryname":"Minor Hill Public Library","state":"TN"},"type":"Feature","geometry":{"type":"Point","coordinates":[-87.159403,35.051691]}},{"properties":{"city":"Monterey","lon":-85.265315,"zip":"","librarysystem":"Putnam County Library","id":"a65s83yf1plm","address":"401 E Commercial Avenue","lat":36.145204,"libraryname":"Monterey Branch Library","state":"TN"},"type":"Feature","geometry":{"type":"Point","coordinates":[-85.265315,36.145204]}},{"properties":{"city":"Lynchburg","lon":-86.373903,"zip":"","librarysystem":"Moore County Public Library","id":"a65s83thuhit","address":"17 Lynchburg Hwy.","lat":35.283606,"libraryname":"Moore County Public Library","state":"TN"},"type":"Feature","geometry":{"type":"Point","coordinates":[-86.373903,35.283606]}},{"properties":{"city":"Morristown","lon":-83.295788,"zip":"","librarysystem":"Morristown-Hamblen Public Library","id":"a65s83s1fc1m","address":"417 West Main Street","lat":36.211736,"libraryname":"Morristown-Hamblen Public Library","state":"TN"},"type":"Feature","geometry":{"type":"Point","coordinates":[-83.295788,36.211736]}},{"properties":{"city":"Mosheim","lon":-82.960011,"zip":"","librarysystem":"Mosheim Public Library","id":"a65s842hnxos","address":"1030 Main Street","lat":36.188951,"libraryname":"Mosheim Public Library","state":"TN"},"type":"Feature","geometry":{"type":"Point","coordinates":[-82.960011,36.188951]}},{"properties":{"city":"Mt. Carmel","lon":-82.654616,"zip":"","librarysystem":"Mt. Carmel Library","id":"a65s844mh6h5","address":"100 1/2 Main Street","lat":36.545401,"libraryname":"Mt. Carmel Library","state":"TN"},"type":"Feature","geometry":{"type":"Point","coordinates":[-82.654616,36.545401]}},{"properties":{"city":"Mt. Juliet","lon":-86.51623,"zip":"","librarysystem":"Mt. Juliet-Harvey Freeman Public Library","id":"a65s840nxaq6","address":"2765 N. Mt. Juliet Rd.","lat":36.208315,"libraryname":"Mt. Juliet-Harvey Freeman Public Library","state":"TN"},"type":"Feature","geometry":{"type":"Point","coordinates":[-86.51623,36.208315]}},{"properties":{"city":"Mt Pleasant","lon":-87.208191,"zip":"","librarysystem":"Maury County Public Library","id":"a65s8405p5b4","address":"200 Hay Long Avenue","lat":35.535058,"libraryname":"Mt. Pleasant Branch Library","state":"TN"},"type":"Feature","geometry":{"type":"Point","coordinates":[-87.208191,35.535058]}},{"properties":{"city":"Munford","lon":-89.813865,"zip":"","librarysystem":"Munford-Tipton Memorial Public Library","id":"a65s83tokp4d","address":"87 College Street","lat":35.446987,"libraryname":"Munford-Tipton Memorial Public Library","state":"TN"},"type":"Feature","geometry":{"type":"Point","coordinates":[-89.813865,35.446987]}},{"properties":{"city":"Knoxville","lon":-83.920829,"zip":"","librarysystem":"Knox County Public Library System","id":"a65s83zbyeu3","address":"L.T. Ross Building","lat":35.960525,"libraryname":"Murphy Branch Library","state":"TN"},"type":"Feature","geometry":{"type":"Point","coordinates":[-83.920829,35.960525]}},{"properties":{"city":"Nashville","lon":-86.781918,"zip":"","librarysystem":"Nashville Public Library","id":"a65s842ua4l2","address":"615 Church Street","lat":36.162348,"libraryname":"Nashville Public Library","state":"TN"},"type":"Feature","geometry":{"type":"Point","coordinates":[-86.781918,36.162348]}},{"properties":{"city":"Madison","lon":-86.710649,"zip":"","librarysystem":"Nashville Public Library","id":"a65s8449n0ox","address":"700 2nd Avenue South, Room 200","lat":36.26002,"libraryname":"Nashville Talking Library","state":"TN"},"type":"Feature","geometry":{"type":"Point","coordinates":[-86.710649,36.26002]}},{"properties":{"city":"Dresden","lon":-88.705732,"zip":"","librarysystem":"Ned R. McWherter Weakley County Library","id":"a65s83tu0p8y","address":"341 Linden Street","lat":36.286743,"libraryname":"Ned R. McWherter Weakley County Library","state":"TN"},"type":"Feature","geometry":{"type":"Point","coordinates":[-88.705732,36.286743]}},{"properties":{"city":"Newbern","lon":-89.261209,"zip":"","librarysystem":"Newbern City Library","id":"a65s83yvy6am","address":"220 E. Main Street","lat":36.113344,"libraryname":"Newbern City Library","state":"TN"},"type":"Feature","geometry":{"type":"Point","coordinates":[-89.261209,36.113344]}},{"properties":{"city":"Niota","lon":-84.549719,"zip":"","librarysystem":"Niota Public Library","id":"a65s841e9oyl","address":"11 East Main Street","lat":35.51335,"libraryname":"Niota Public Library","state":"TN"},"type":"Feature","geometry":{"type":"Point","coordinates":[-84.549719,35.51335]}},{"properties":{"city":"Nolensville","lon":-86.673028,"zip":"","librarysystem":"Williamson County Public Library","id":"a65s840uh3hj","address":"915 Oldham Drive","lat":35.961741,"libraryname":"Nolensville Public Library","state":"TN"},"type":"Feature","geometry":{"type":"Point","coordinates":[-86.673028,35.961741]}},{"properties":{"city":"Norris","lon":-84.068439,"zip":"","librarysystem":"Norris Community Library","id":"a65s83wbgztc","address":"One Norris Square","lat":36.195755,"libraryname":"Norris Community Library","state":"TN"},"type":"Feature","geometry":{"type":"Point","coordinates":[-84.068439,36.195755]}},{"properties":{"city":"Memphis","lon":-90.0174,"zip":"","librarysystem":"Memphis Public Library &amp; Information Center","id":"a65s846k4l6u","address":"1192 Vollintine","lat":35.165539,"libraryname":"North Branch","state":"TN"},"type":"Feature","geometry":{"type":"Point","coordinates":[-90.0174,35.165539]}},{"properties":{"city":"Nashville","lon":-86.795859,"zip":"","librarysystem":"Nashville Public Library","id":"a65s83tpq535","address":"1001 Monroe Street","lat":36.174289,"libraryname":"North Branch Library","state":"TN"},"type":"Feature","geometry":{"type":"Point","coordinates":[-86.795859,36.174289]}},{"properties":{"city":"Knoxville","lon":-83.922702,"zip":"","librarysystem":"Knox County Public Library System","id":"a65s83zeomq7","address":"2901 Ocoee Trail","lat":36.000568,"libraryname":"North Knoxville Branch Library","state":"TN"},"type":"Feature","geometry":{"type":"Point","coordinates":[-83.922702,36.000568]}},{"properties":{"city":"Chattanooga","lon":-85.241979,"zip":"","librarysystem":"Chattanooga-Hamilton County Bicentennial Public Library","id":"a65s83xeoevz","address":"520 Northgate Mall","lat":35.128884,"libraryname":"Northgate Branch Library","state":"TN"},"type":"Feature","geometry":{"type":"Point","coordinates":[-85.241979,35.128884]}},{"properties":{"city":"Knoxville","lon":-83.982828,"zip":"","librarysystem":"Knox County Public Library System","id":"a65s83vbu9yv","address":"1110 Merchants Drive","lat":36.002992,"libraryname":"Norwood Branch Library","state":"TN"},"type":"Feature","geometry":{"type":"Point","coordinates":[-83.982828,36.002992]}},{"properties":{"city":"Oak Ridge","lon":-84.259845,"zip":"","librarysystem":"Oak Ridge Public Library","id":"a65s8458uwss","address":"1401 Oak Ridge Turnpike","lat":36.013771,"libraryname":"Oak Ridge Public Library","state":"TN"},"type":"Feature","geometry":{"type":"Point","coordinates":[-84.259845,36.013771]}},{"properties":{"city":"Oakdale","lon":-84.559199,"zip":"","librarysystem":"Oakdale Public Library","id":"a65s845nsrtz","address":"212 Queen Street","lat":35.98459,"libraryname":"Oakdale Public Library","state":"TN"},"type":"Feature","geometry":{"type":"Point","coordinates":[-84.559199,35.98459]}},{"properties":{"city":"Union City","lon":-89.057583,"zip":"","librarysystem":"Obion County Public Library","id":"a65s83wbe0le","address":"710 S. First Street","lat":36.42027,"libraryname":"Obion County Public Library","state":"TN"},"type":"Feature","geometry":{"type":"Point","coordinates":[-89.057583,36.42027]}},{"properties":{"city":"Old Hickory","lon":-86.646118,"zip":"","librarysystem":"Nashville Public Library","id":"a65s83udkzc6","address":"1010 Jones Avenue","lat":36.260622,"libraryname":"Old Hickory Branch Library","state":"TN"},"type":"Feature","geometry":{"type":"Point","coordinates":[-86.646118,36.260622]}},{"properties":{"city":"Oliver Springs","lon":-84.345325,"zip":"","librarysystem":"Oliver Springs Public Library","id":"a65s83v7v0ee","address":"610 Walker Avenue.","lat":36.044424,"libraryname":"Oliver Springs Public Library","state":"TN"},"type":"Feature","geometry":{"type":"Point","coordinates":[-84.345325,36.044424]}},{"properties":{"city":"Oneida","lon":-84.510833,"zip":"","librarysystem":"Oneida Public Library","id":"a65s83xoh4rd","address":"290 South Main Street","lat":36.494285,"libraryname":"Oneida Public Library","state":"TN"},"type":"Feature","geometry":{"type":"Point","coordinates":[-84.510833,36.494285]}},{"properties":{"city":"Ooltewah","lon":-85.073516,"zip":"","librarysystem":"Chattanooga-Hamilton County Bicentennial Public Library","id":"a65s83u1swuw","address":"9318 Apison Pike","lat":35.062471,"libraryname":"Ooltewah/Collegedale Branch Library","state":"TN"},"type":"Feature","geometry":{"type":"Point","coordinates":[-85.073516,35.062471]}},{"properties":{"city":"Whitwell","lon":-85.51973,"zip":"","librarysystem":"Orena Humphreys Public Library","id":"a65s845m7u1x","address":"900 Main Street, Suite 1","lat":35.20073,"libraryname":"Orena Humphreys Public Library","state":"TN"},"type":"Feature","geometry":{"type":"Point","coordinates":[-85.51973,35.20073]}},{"properties":{"city":"Livingston","lon":-85.31994,"zip":"","librarysystem":"Overton County Public Library","id":"a65s8420qpen","address":"225 East Main Street","lat":36.383618,"libraryname":"Overton County Public Library","state":"TN"},"type":"Feature","geometry":{"type":"Point","coordinates":[-85.31994,36.383618]}},{"properties":{"city":"Palmer","lon":-85.564784,"zip":"","librarysystem":"Palmer Public Library","id":"a65s83ybof4g","address":"Highway 108","lat":35.331646,"libraryname":"Palmer Public Library","state":"TN"},"type":"Feature","geometry":{"type":"Point","coordinates":[-85.564784,35.331646]}},{"properties":{"city":"Memphis","lon":-89.908543,"zip":"","librarysystem":"Memphis Public Library &amp; Information Center","id":"a65s83rbcyi8","address":"4655 Knight Arnold","lat":35.062316,"libraryname":"Parkway Village Branch","state":"TN"},"type":"Feature","geometry":{"type":"Point","coordinates":[-89.908543,35.062316]}},{"properties":{"city":"Strawberry Plains","lon":-83.685942,"zip":"","librarysystem":"Parrott-Wood Memorial Library","id":"a65s83xxt969","address":"3133 W. Old Andrew Johnson Hwy.","lat":36.062909,"libraryname":"Parrott-Wood Memorial Library","state":"TN"},"type":"Feature","geometry":{"type":"Point","coordinates":[-83.685942,36.062909]}},{"properties":{"city":"Parrottsville","lon":-83.091016,"zip":"","librarysystem":"Parrottsville Community Library","id":"a65s83yr87og","address":"2060 Canary Drive","lat":36.008335,"libraryname":"Parrottsville Community Library","state":"TN"},"type":"Feature","geometry":{"type":"Point","coordinates":[-83.091016,36.008335]}},{"properties":{"city":"Parsons","lon":-88.124685,"zip":"","librarysystem":"Parsons Public Library","id":"a65s83zew7o6","address":"105 Kentucky Ave. So.","lat":35.647637,"libraryname":"Parsons Public Library","state":"TN"},"type":"Feature","geometry":{"type":"Point","coordinates":[-88.124685,35.647637]}},{"properties":{"city":"Linden","lon":-87.839768,"zip":"","librarysystem":"Perry County Public Library","id":"a65s83v7e42h","address":"College Street","lat":35.609267,"libraryname":"Perry County Public Library","state":"TN"},"type":"Feature","geometry":{"type":"Point","coordinates":[-87.839768,35.609267]}},{"properties":{"city":"Petros","lon":-84.439901,"zip":"","librarysystem":"Petros Public Library","id":"a65s83y0fjs1","address":"208 West Main Street","lat":36.095925,"libraryname":"Petros Public Library","state":"TN"},"type":"Feature","geometry":{"type":"Point","coordinates":[-84.439901,36.095925]}},{"properties":{"city":"Philadelphia","lon":-84.40304,"zip":"","librarysystem":"Philadelphia Public Library","id":"a65s844sa5st","address":"714 Thompson St.","lat":35.679872,"libraryname":"Philadelphia Public Library","state":"TN"},"type":"Feature","geometry":{"type":"Point","coordinates":[-84.40304,35.679872]}},{"properties":{"city":"Byrdstown","lon":-85.130503,"zip":"","librarysystem":"Pickett County Library","id":"a65s83w0wjwy","address":"105 S. Main Street","lat":36.570497,"libraryname":"Pickett County Library","state":"TN"},"type":"Feature","geometry":{"type":"Point","coordinates":[-85.130503,36.570497]}},{"properties":{"city":"Pigeon Forge","lon":-83.5559,"zip":"","librarysystem":"Pigeon Forge Public Library","id":"a65s83tn3q1h","address":"2449 Library Drive","lat":35.788597,"libraryname":"Pigeon Forge Public Library","state":"TN"},"type":"Feature","geometry":{"type":"Point","coordinates":[-83.5559,35.788597]}},{"properties":{"city":"Memphis","lon":-89.892341,"zip":"","librarysystem":"Memphis Public Library &amp; Information Center","id":"a65s846yw85x","address":"5094 Poplar","lat":35.111445,"libraryname":"Poplar-White Station Branch","state":"TN"},"type":"Feature","geometry":{"type":"Point","coordinates":[-89.892341,35.111445]}},{"properties":{"city":"Powell","lon":-84.02772,"zip":"","librarysystem":"Knox County Public Library System","id":"a65s843v3zz6","address":"Powell Place Shopping Center","lat":36.031554,"libraryname":"Powell Branch Library","state":"TN"},"type":"Feature","geometry":{"type":"Point","coordinates":[-84.02772,36.031554]}},{"properties":{"city":"Cookeville","lon":-85.504781,"zip":"","librarysystem":"Putnam County Library","id":"a65s83tpr59f","address":"50 East Broad Street","lat":36.163366,"libraryname":"Putnam County Library","state":"TN"},"type":"Feature","geometry":{"type":"Point","coordinates":[-85.504781,36.163366]}},{"properties":{"city":"Memphis","lon":-89.92135,"zip":"","librarysystem":"Memphis Public Library &amp; Information Center","id":"a65s83zvhe98","address":"3157 Powers Road","lat":35.212704,"libraryname":"Raleigh Branch","state":"TN"},"type":"Feature","geometry":{"type":"Point","coordinates":[-89.92135,35.212704]}},{"properties":{"city":"Memphis","lon":-89.935536,"zip":"","librarysystem":"Memphis Public Library &amp; Information Center","id":"a65s8432nlm1","address":"3752 Given","lat":35.156194,"libraryname":"Randolph Branch","state":"TN"},"type":"Feature","geometry":{"type":"Point","coordinates":[-89.935536,35.156194]}},{"properties":{"city":"Red Boiling Springs","lon":-85.847903,"zip":"","librarysystem":"Macon County Public Library","id":"a65s840ekevn","address":"335 E Main Street","lat":36.530519,"libraryname":"Red Boiling Springs Branch Library","state":"TN"},"type":"Feature","geometry":{"type":"Point","coordinates":[-85.847903,36.530519]}},{"properties":{"city":"Nashville","lon":-86.843688,"zip":"","librarysystem":"Nashville Public Library","id":"a65s847c2bw1","address":"4711 Charlotte Avenue","lat":36.151996,"libraryname":"Richland Park Branch Library","state":"TN"},"type":"Feature","geometry":{"type":"Point","coordinates":[-86.843688,36.151996]}},{"properties":{"city":"Ridgely","lon":-89.487343,"zip":"","librarysystem":"Ridgely Public Library","id":"a65s844lv1gj","address":"134 North Main Street","lat":36.264433,"libraryname":"Ridgely Public Library","state":"TN"},"type":"Feature","geometry":{"type":"Point","coordinates":[-89.487343,36.264433]}},{"properties":{"city":"Lynnville","lon":-87.018119,"zip":"","librarysystem":"Robert B. Jones Memorial Library &amp; Museum","id":"a65s847dxaqy","address":"135 Main Street","lat":35.3747,"libraryname":"Robert B. Jones Memorial Library &amp; Museum","state":"TN"},"type":"Feature","geometry":{"type":"Point","coordinates":[-87.018119,35.3747]}},{"properties":{"city":"Rockwood","lon":-84.686717,"zip":"","librarysystem":"Rockwood Public Library","id":"a65s846wl93f","address":"117 North Front Street","lat":35.867884,"libraryname":"Rockwood Public Library","state":"TN"},"type":"Feature","geometry":{"type":"Point","coordinates":[-84.686717,35.867884]}},{"properties":{"city":"Rutledge","lon":-83.515476,"zip":"","librarysystem":"Rutledge Public Library","id":"a65s840uxi4v","address":"8030 Rutledge Pike","lat":36.280506,"libraryname":"Rutledge Public Library","state":"TN"},"type":"Feature","geometry":{"type":"Point","coordinates":[-83.515476,36.280506]}},{"properties":{"city":"Arlington","lon":-89.663661,"zip":"","librarysystem":"Sam T. Wilson Public Library","id":"a65s83utnav5","address":"11968 Walker","lat":35.295473,"libraryname":"Sam T. Wilson Public Library","state":"TN"},"type":"Feature","geometry":{"type":"Point","coordinates":[-89.663661,35.295473]}},{"properties":{"city":"Dunlap","lon":-85.394103,"zip":"","librarysystem":"Sequatchie County Public Library","id":"a65s83u311jr","address":"8 Cherry Street, West","lat":35.372509,"libraryname":"Sequatchie County Public Library","state":"TN"},"type":"Feature","geometry":{"type":"Point","coordinates":[-85.394103,35.372509]}},{"properties":{"city":"Knoxville","lon":-83.967704,"zip":"","librarysystem":"Knox County Public Library System","id":"a65s84344bes","address":"1140 Southgate Road","lat":35.93355,"libraryname":"Sequoyah Branch Library","state":"TN"},"type":"Feature","geometry":{"type":"Point","coordinates":[-83.967704,35.93355]}},{"properties":{"city":"Sevierville","lon":-83.566215,"zip":"","librarysystem":"Sevier County Public Library","id":"a65s83s76mfr","address":"321 Court Ave","lat":35.865371,"libraryname":"Sevier County Public Library","state":"TN"},"type":"Feature","geometry":{"type":"Point","coordinates":[-83.566215,35.865371]}},{"properties":{"city":"Seymour","lon":-83.748003,"zip":"","librarysystem":"Sevier County Public Library","id":"a65s843kh0dl","address":"11560 Chapman Highway","lat":35.865253,"libraryname":"Seymour Branch Library","state":"TN"},"type":"Feature","geometry":{"type":"Point","coordinates":[-83.748003,35.865253]}},{"properties":{"city":"Sharon","lon":-88.826302,"zip":"","librarysystem":"Sharon Public Library","id":"a65s8452uz3f","address":"133 Main St.","lat":36.233672,"libraryname":"Sharon Public Library","state":"TN"},"type":"Feature","geometry":{"type":"Point","coordinates":[-88.826302,36.233672]}},{"properties":{"city":"Signal Mountain","lon":-85.336087,"zip":"","librarysystem":"Signal Mountain Public Library","id":"a65s83w5e41r","address":"1114 James Boulevard","lat":35.133138,"libraryname":"Signal Mountain Public Library","state":"TN"},"type":"Feature","geometry":{"type":"Point","coordinates":[-85.336087,35.133138]}},{"properties":{"city":"Carthage","lon":-85.952243,"zip":"","librarysystem":"Smith County Public Library","id":"a65s83wd9p9d","address":"215 North Main Street","lat":36.251353,"libraryname":"Smith County Public Library","state":"TN"},"type":"Feature","geometry":{"type":"Point","coordinates":[-85.952243,36.251353]}},{"properties":{"city":"Smyrna","lon":-86.520663,"zip":"","librarysystem":"Linebaugh Public Library","id":"a65s83ygjqt5","address":"400 Enon Springs West","lat":35.976886,"libraryname":"Smyrna Public Library","state":"TN"},"type":"Feature","geometry":{"type":"Point","coordinates":[-86.520663,35.976886]}},{"properties":{"city":"Somerville","lon":-89.351571,"zip":"","librarysystem":"Somerville-Fayette County Library","id":"a65s840e59i1","address":"216 West Market Street","lat":35.244489,"libraryname":"Somerville-Fayette County Library","state":"TN"},"type":"Feature","geometry":{"type":"Point","coordinates":[-89.351571,35.244489]}},{"properties":{"city":"Memphis","lon":-90.056118,"zip":"","librarysystem":"Memphis Public Library &amp; Information Center","id":"a65s8410hv5o","address":"1929 South Third Street","lat":35.09441,"libraryname":"South Branch","state":"TN"},"type":"Feature","geometry":{"type":"Point","coordinates":[-90.056118,35.09441]}},{"properties":{"city":"Chattanooga","lon":-85.319688,"zip":"","librarysystem":"Chattanooga-Hamilton County Bicentennial Public Library","id":"a65s8422l5nv","address":"925 West 39th Street","lat":35.008098,"libraryname":"South Chattanooga Branch Library","state":"TN"},"type":"Feature","geometry":{"type":"Point","coordinates":[-85.319688,35.008098]}},{"properties":{"city":"Kingston Springs","lon":-87.114844,"zip":"","librarysystem":"South Cheatham Public Library","id":"a65s841tv1yw","address":"358 North Main Street","lat":36.099813,"libraryname":"South Cheatham Public Library","state":"TN"},"type":"Feature","geometry":{"type":"Point","coordinates":[-87.114844,36.099813]}},{"properties":{"city":"Knoxville","lon":-83.903651,"zip":"","librarysystem":"Knox County Public Library System","id":"a65s83ybc7g8","address":"4500 Chapman Highway","lat":35.932739,"libraryname":"South Knoxville Branch Library","state":"TN"},"type":"Feature","geometry":{"type":"Point","coordinates":[-83.903651,35.932739]}},{"properties":{"city":"Antioch","lon":-86.641964,"zip":"","librarysystem":"Nashville Public Library","id":"a65s8444xfl2","address":"2325 Hickory Highlands Drive","lat":36.06068,"libraryname":"Southeast Branch Library","state":"TN"},"type":"Feature","geometry":{"type":"Point","coordinates":[-86.641964,36.06068]}},{"properties":{"city":"Spring Hill","lon":-86.935765,"zip":"","librarysystem":"Spring Hill Public Library","id":"a65s83yzv1p7","address":"144 Kedron Parkway","lat":35.7475,"libraryname":"Spring Hill Public Library","state":"TN"},"type":"Feature","geometry":{"type":"Point","coordinates":[-86.935765,35.7475]}},{"properties":{"city":"Bulls Gap/St. Clair","lon":-83.072088,"zip":"","librarysystem":"H.B. Stamps Memorial Library","id":"a65s83x8p3ry","address":"118 St. Clair Park Circle","lat":36.339357,"libraryname":"St. Clair Library","state":"TN"},"type":"Feature","geometry":{"type":"Point","coordinates":[-83.072088,36.339357]}},{"properties":{"city":"Dover","lon":-87.831099,"zip":"","librarysystem":"Stewart County Public Library","id":"a65s8471lyl5","address":"102 Natcor Drive","lat":36.485686,"libraryname":"Stewart County Public Library","state":"TN"},"type":"Feature","geometry":{"type":"Point","coordinates":[-87.831099,36.485686]}},{"properties":{"city":"Newport","lon":-83.183133,"zip":"","librarysystem":"Stokely Memorial Library","id":"a65s847erp2x","address":"383 East Broadway","lat":35.966566,"libraryname":"Stokely Memorial Library","state":"TN"},"type":"Feature","geometry":{"type":"Point","coordinates":[-83.183133,35.966566]}},{"properties":{"city":"Blountville","lon":-82.316953,"zip":"","librarysystem":"Sullivan County Public Library","id":"a65s84010yip","address":"1655 Blountville Boulevard","lat":36.533023,"libraryname":"Sullivan County Public Library","state":"TN"},"type":"Feature","geometry":{"type":"Point","coordinates":[-82.316953,36.533023]}},{"properties":{"city":"Kingsport","lon":-82.593726,"zip":"","librarysystem":"Sullivan County Public Library","id":"a65s83rvewl3","address":"104 Bluegrass Drive","lat":36.478047,"libraryname":"Sullivan Gardens Branch Library","state":"TN"},"type":"Feature","geometry":{"type":"Point","coordinates":[-82.593726,36.478047]}},{"properties":{"city":"Sunbright","lon":-84.670311,"zip":"","librarysystem":"Sunbright Public Library","id":"a65s83tlabm2","address":"142 Melton Drive","lat":36.24349,"libraryname":"Sunbright Public Library","state":"TN"},"type":"Feature","geometry":{"type":"Point","coordinates":[-84.670311,36.24349]}},{"properties":{"city":"Surgoinsville","lon":-82.852464,"zip":"","librarysystem":"H.B. Stamps Memorial Library","id":"a65s83z8pa09","address":"120 Old Stage Road","lat":36.47062,"libraryname":"Surgoinsville Public Library","state":"TN"},"type":"Feature","geometry":{"type":"Point","coordinates":[-82.852464,36.47062]}},{"properties":{"city":"Sweetwater","lon":-84.461458,"zip":"","librarysystem":"Sweetwater Public Library","id":"a65s83tgnp01","address":"210 Mayes Avenue","lat":35.60267,"libraryname":"Sweetwater Public Library","state":"TN"},"type":"Feature","geometry":{"type":"Point","coordinates":[-84.461458,35.60267]}},{"properties":{"city":"Greeneville","lon":-82.82995,"zip":"","librarysystem":"Greeneville-Greene County Public Library","id":"a65s83vij3n6","address":"229 N Main Street","lat":36.165188,"libraryname":"T. Elmer Cox Historical And Genealogical Collection","state":"TN"},"type":"Feature","geometry":{"type":"Point","coordinates":[-82.82995,36.165188]}},{"properties":{"city":"Tellico Plains","lon":-84.299805,"zip":"","librarysystem":"Tellico Plains Public Library","id":"a65s840zivfp","address":"209 Highway 165","lat":35.367194,"libraryname":"Tellico Plains Public Library","state":"TN"},"type":"Feature","geometry":{"type":"Point","coordinates":[-84.299805,35.367194]}},{"properties":{"city":"Loudon","lon":-84.336512,"zip":"","librarysystem":"Tellico Village Public Library","id":"a65s847e8ggj","address":"304 Lakeside Plaza","lat":35.741605,"libraryname":"Tellico Village Public Library","state":"TN"},"type":"Feature","geometry":{"type":"Point","coordinates":[-84.336512,35.741605]}},{"properties":{"city":"Brentwood","lon":-86.787433,"zip":"","librarysystem":"The Brentwood Library","id":"a65s843celpl","address":"8109 Concord Road","lat":35.996248,"libraryname":"The Brentwood Library","state":"TN"},"type":"Feature","geometry":{"type":"Point","coordinates":[-86.787433,35.996248]}},{"properties":{"city":"Bluff City","lon":-82.260101,"zip":"","librarysystem":"Sullivan County Public Library","id":"a65s83z0ch9k","address":"481 Cedar Street","lat":36.474135,"libraryname":"Thomas Memorial Branch Library","state":"TN"},"type":"Feature","geometry":{"type":"Point","coordinates":[-82.260101,36.474135]}},{"properties":{"city":"Nashville","lon":-86.743309,"zip":"","librarysystem":"Nashville Public Library","id":"a65s8401h6i2","address":"380 Thompson Lane","lat":36.110875,"libraryname":"Thompson Lane Branch Library","state":"TN"},"type":"Feature","geometry":{"type":"Point","coordinates":[-86.743309,36.110875]}},{"properties":{"city":"Covington","lon":-89.649037,"zip":"","librarysystem":"Tipton County Public Library","id":"a65s83r89sep","address":"300 West Church Street","lat":35.562253,"libraryname":"Tipton County Public Library","state":"TN"},"type":"Feature","geometry":{"type":"Point","coordinates":[-89.649037,35.562253]}},{"properties":{"city":"Tiptonville","lon":-89.477807,"zip":"","librarysystem":"Tiptonville Public Library","id":"a65s8439mo8z","address":"126 Tipton Street","lat":36.378645,"libraryname":"Tiptonville Public Library","state":"TN"},"type":"Feature","geometry":{"type":"Point","coordinates":[-89.477807,36.378645]}},{"properties":{"city":"Tracy City","lon":-85.72266,"zip":"","librarysystem":"Tracy City Public Library","id":"a65s83x3k22j","address":"Main St.","lat":35.25765,"libraryname":"Tracy City Public Library","state":"TN"},"type":"Feature","geometry":{"type":"Point","coordinates":[-85.72266,35.25765]}},{"properties":{"city":"Trimble","lon":-89.191362,"zip":"","librarysystem":"Trimble Public Library","id":"a65s83unz0xw","address":"86 Main Street","lat":36.204575,"libraryname":"Trimble Public Library","state":"TN"},"type":"Feature","geometry":{"type":"Point","coordinates":[-89.191362,36.204575]}},{"properties":{"city":"Erwin","lon":-82.41822,"zip":"","librarysystem":"Unicoi County Public Library","id":"a65s842hn8uu","address":"201 Nolichucky Ave","lat":36.145402,"libraryname":"Unicoi County Public Library","state":"TN"},"type":"Feature","geometry":{"type":"Point","coordinates":[-82.41822,36.145402]}},{"properties":{"city":"Vonore","lon":-84.244842,"zip":"","librarysystem":"Vonore Public Library","id":"a65s83yqyudr","address":"611 Church Street","lat":35.590851,"libraryname":"Vonore Public Library","state":"TN"},"type":"Feature","geometry":{"type":"Point","coordinates":[-84.244842,35.590851]}},{"properties":{"city":"Paris","lon":-88.327924,"zip":"","librarysystem":"W. G. Rhea Library","id":"a65s84278tvn","address":"400 West Washington Street","lat":36.302681,"libraryname":"W. G. Rhea Library","state":"TN"},"type":"Feature","geometry":{"type":"Point","coordinates":[-88.327924,36.302681]}},{"properties":{"city":"Wartburg","lon":-84.597255,"zip":"","librarysystem":"Wartburg Public Library","id":"a65s83ukdn9o","address":"514 Spring Street","lat":36.104035,"libraryname":"Wartburg Public Library","state":"TN"},"type":"Feature","geometry":{"type":"Point","coordinates":[-84.597255,36.104035]}},{"properties":{"city":"Washburn","lon":-83.638517,"zip":"","librarysystem":"Washburn Public Library","id":"a65s83rp899t","address":"Hwy 131","lat":36.272384,"libraryname":"Washburn Public Library","state":"TN"},"type":"Feature","geometry":{"type":"Point","coordinates":[-83.638517,36.272384]}},{"properties":{"city":"Jonesborough","lon":-82.472453,"zip":"","librarysystem":"Washington County-Jonesborough Library","id":"a65s8470go6d","address":"200 Sabin Drive","lat":36.296079,"libraryname":"Washington County-Jonesborough Library","state":"TN"},"type":"Feature","geometry":{"type":"Point","coordinates":[-82.472453,36.296079]}},{"properties":{"city":"Watertown","lon":-86.134156,"zip":"","librarysystem":"Lebanon-Wilson County Public Library","id":"a65s83rvv848","address":"206 Public Square","lat":36.100062,"libraryname":"Watertown-Wilson County Library","state":"TN"},"type":"Feature","geometry":{"type":"Point","coordinates":[-86.134156,36.100062]}},{"properties":{"city":"Nashville","lon":-86.800005,"zip":"","librarysystem":"Nashville Public Library","id":"a65s8462lbsb","address":"612 17th Avenue North","lat":36.161773,"libraryname":"Watkins Park Community Library","state":"TN"},"type":"Feature","geometry":{"type":"Point","coordinates":[-86.800005,36.161773]}},{"properties":{"city":"Waynesboro","lon":-87.733166,"zip":"","librarysystem":"Wayne County Public Library","id":"a65s83wqzbok","address":"525 Highway 64 East","lat":35.325673,"libraryname":"Wayne County Public Library","state":"TN"},"type":"Feature","geometry":{"type":"Point","coordinates":[-87.733166,35.325673]}},{"properties":{"city":"Knoxville","lon":-84.017492,"zip":"","librarysystem":"Knox County Public Library System","id":"a65s83szn2od","address":"100 Golf Club Road","lat":35.932215,"libraryname":"West Knoxville Branch Library","state":"TN"},"type":"Feature","geometry":{"type":"Point","coordinates":[-84.017492,35.932215]}},{"properties":{"city":"Westmoreland","lon":-86.246094,"zip":"","librarysystem":"Westmoreland Public Library","id":"a65s83t32do3","address":"2305 Epperson Springs Road","lat":36.562729,"libraryname":"Westmoreland Public Library","state":"TN"},"type":"Feature","geometry":{"type":"Point","coordinates":[-86.246094,36.562729]}},{"properties":{"city":"Sparta","lon":-85.464749,"zip":"","librarysystem":"White County Public Library","id":"a65s83tlg4sr","address":"144 South Main Street","lat":35.92367,"libraryname":"White County Public Library","state":"TN"},"type":"Feature","geometry":{"type":"Point","coordinates":[-85.464749,35.92367]}},{"properties":{"city":"White House","lon":-86.661439,"zip":"","librarysystem":"White House Inn Library","id":"a65s83u6wv0k","address":"412 Highway 76","lat":36.468602,"libraryname":"White House Inn Library &amp; Museum","state":"TN"},"type":"Feature","geometry":{"type":"Point","coordinates":[-86.661439,36.468602]}},{"properties":{"city":"White Pine","lon":-83.286038,"zip":"","librarysystem":"White Pine Public Library","id":"a65s843fktkp","address":"1708 Main St","lat":36.108309,"libraryname":"White Pine Public Library","state":"TN"},"type":"Feature","geometry":{"type":"Point","coordinates":[-83.286038,36.108309]}},{"properties":{"city":"Memphis","lon":-90.022069,"zip":"","librarysystem":"Memphis Public Library &amp; Information Center","id":"a65s83wfglj3","address":"4122 Barton Drive","lat":35.036783,"libraryname":"Whitehaven Branch","state":"TN"},"type":"Feature","geometry":{"type":"Point","coordinates":[-90.022069,35.036783]}},{"properties":{"city":"Franklin","lon":-86.87183,"zip":"","librarysystem":"Williamson County Public Library","id":"a65s8471nvt1","address":"510 Columbia Avenue","lat":35.923716,"libraryname":"Williamson County Genealogy Library","state":"TN"},"type":"Feature","geometry":{"type":"Point","coordinates":[-86.87183,35.923716]}},{"properties":{"city":"Franklin","lon":-86.872439,"zip":"","librarysystem":"Williamson County Public Library","id":"a65s83zw7x2e","address":"611 West Main Street","lat":35.92341,"libraryname":"Williamson County Public Library","state":"TN"},"type":"Feature","geometry":{"type":"Point","coordinates":[-86.872439,35.92341]}},{"properties":{"city":"Winfield","lon":-84.449958,"zip":"","librarysystem":"Winfield Public Library","id":"a65s83z1fnnz","address":"24961 Scott Highway","lat":36.560924,"libraryname":"Winfield Public Library","state":"TN"},"type":"Feature","geometry":{"type":"Point","coordinates":[-84.449958,36.560924]}},{"properties":{"city":"Nashville","lon":-86.807182,"zip":"","librarysystem":"Nashville Public Library","id":"a65s840093s7","address":"2301 Metro Center Boulevard","lat":36.193487,"libraryname":"Z. Alexander Looby Branch Library","state":"TN"},"type":"Feature","geometry":{"type":"Point","coordinates":[-86.807182,36.193487]}}],"is_temporal":false,"author":{"url":"http://www.publiclibraries.com/tennessee.htm","metadata":"","contact_name":"","contact_address":"","source":"publiclibrairies.com","contact_phone":""},"source":"http://www.publiclibraries.com/tennessee.htm","pagination":{"sort":null,"start":0,"total":289,"limit":1000000},"state":"complete","tags":"books,education,libraries,library,public,tennessee","published":"2008-05-09T12:00:00Z","id":955}