{"type":"FeatureCollection","data_type":"Dataset","url_type":null,"permissions":[{"permissions":{"download":true,"view":true},"group_id":"everyone"}],"classification":null,"title":"MC LD by Metro","count":17,"stream_id":95737,"contributor":{"url":"http://geocommons.com/users/22577","name":"jcbailey2"},"data_attributes":null,"calculation_params":null,"icon_link":null,"link":"http://geocommons.com/overlays/95737.json","extent":[-98.4069,41.3819,-92.1613,44.9541],"geometry_types":["point"],"unique_name":null,"name":"MC LD by Metro","feature_count":17,"description":"","next_feature":null,"is_raster":false,"short_classification":"Y","stats":{"billsec":{"max":903053,"mean":183402.647058824,"variance":45953823309.3676,"stdev":214368.428900731,"min":10721,"median":145972}},"features":[{"properties":{"city":"Clemons","billsec":25514,"geo_score":0.857,"id":"a6okm04mf7f1","geo_precision":"city","state":"IA"},"type":"Feature","geometry":{"type":"Point","coordinates":[-93.149072,42.11412]}},{"properties":{"city":"Redfield","billsec":23005,"geo_score":0.857,"id":"a6oklzy1jmpa","geo_precision":"city","state":"SD"},"type":"Feature","geometry":{"type":"Point","coordinates":[-98.406878,44.954101]}},{"properties":{"city":"Mason City","billsec":129606,"geo_score":0.73,"id":"a6okm006k3d4","geo_precision":"city","state":"IA"},"type":"Feature","geometry":{"type":"Point","coordinates":[-92.161281,43.198027]}},{"properties":{"city":"Ackley","billsec":26299,"geo_score":0.857,"id":"a6okm0c5gssv","geo_precision":"city","state":"IA"},"type":"Feature","geometry":{"type":"Point","coordinates":[-93.09251,42.408805]}},{"properties":{"city":"Laurel","billsec":30696,"geo_score":0.857,"id":"a6okm06cdpyt","geo_precision":"city","state":"IA"},"type":"Feature","geometry":{"type":"Point","coordinates":[-92.967122,41.898521]}},{"properties":{"city":"Toledo","billsec":145972,"geo_score":0.738,"id":"a6okm07h4iv0","geo_precision":"city","state":"IA"},"type":"Feature","geometry":{"type":"Point","coordinates":[-95.304518,42.123762]}},{"properties":{"city":"Waterloo","billsec":239735,"geo_score":0.857,"id":"a6okm0ckctpu","geo_precision":"city","state":"IA"},"type":"Feature","geometry":{"type":"Point","coordinates":[-92.342963,42.492764]}},{"properties":{"city":"Newton","billsec":199795,"geo_score":0.857,"id":"a6okm0ajpi2u","geo_precision":"city","state":"IA"},"type":"Feature","geometry":{"type":"Point","coordinates":[-93.012335,41.718107]}},{"properties":{"city":"Iowa City","billsec":202907,"geo_score":0.732,"id":"a6okm06ofilc","geo_precision":"city","state":"IA"},"type":"Feature","geometry":{"type":"Point","coordinates":[-92.161281,43.198027]}},{"properties":{"city":"Ames","billsec":383663,"geo_score":0.857,"id":"a6okm0b1iu08","geo_precision":"city","state":"IA"},"type":"Feature","geometry":{"type":"Point","coordinates":[-93.600254,42.037879]}},{"properties":{"city":"Iowa Falls","billsec":283906,"geo_score":0.857,"id":"a6oklzyxzrhb","geo_precision":"city","state":"IA"},"type":"Feature","geometry":{"type":"Point","coordinates":[-93.253363,42.43026]}},{"properties":{"city":"Eldora","billsec":210382,"geo_score":0.857,"id":"a6okm07l0l9u","geo_precision":"city","state":"IA"},"type":"Feature","geometry":{"type":"Point","coordinates":[-93.141651,42.335289]}},{"properties":{"city":"Des Moines","billsec":903053,"geo_score":0.857,"id":"a6okm08z1ofm","geo_precision":"city","state":"IA"},"type":"Feature","geometry":{"type":"Point","coordinates":[-93.609106,41.600545]}},{"properties":{"city":"Atlantic","billsec":10721,"geo_score":0.857,"id":"a6okm0c1uplq","geo_precision":"city","state":"IA"},"type":"Feature","geometry":{"type":"Point","coordinates":[-94.960765,41.381871]}},{"properties":{"city":"Grinnell","billsec":69858,"geo_score":0.75,"id":"a6okm052ybj9","geo_precision":"city","state":"IA"},"type":"Feature","geometry":{"type":"Point","coordinates":[-93.683268,42.789971]}},{"properties":{"city":"Webster City","billsec":53288,"geo_score":0.727,"id":"a6okm09z3qf3","geo_precision":"city","state":"IA"},"type":"Feature","geometry":{"type":"Point","coordinates":[-92.161281,43.198027]}},{"properties":{"city":"Fort Dodge","billsec":179445,"geo_score":0.857,"id":"a6okm0a8s7c9","geo_precision":"city","state":"IA"},"type":"Feature","geometry":{"type":"Point","coordinates":[-94.166587,42.438596]}}],"is_temporal":false,"author":{"url":"","metadata":"","contact_name":"","contact_address":"","source":"","contact_phone":""},"source":"","pagination":{"sort":null,"start":0,"total":17,"limit":1000000},"state":"complete","tags":"","published":"2014-08-10T19:25:22-04:00","id":95737}