{"type":"FeatureCollection","data_type":"Dataset","url_type":null,"permissions":[{"permissions":{"download":true,"view":true},"group_id":"everyone"}],"classification":null,"title":"Oakland Neighborhood Names from Zillow","count":131,"stream_id":95763,"contributor":{"url":"http://geocommons.com/users/12600","name":"jtmonti"},"data_attributes":null,"calculation_params":null,"icon_link":null,"link":"http://geocommons.com/overlays/95763.json","extent":[-122.312,37.7303,-122.132,37.8723],"geometry_types":["point"],"unique_name":null,"name":"Oakland Neighborhood Names from Zillow","feature_count":131,"description":"lat long mapping\r\n","next_feature":null,"is_raster":false,"short_classification":"Y","stats":{"latitude":{"max":37.87234184,"variance":0.00103703120875159,"mean":37.7935229694657,"stdev":0.0322029689431206,"min":37.73032652,"median":37.7942527},"regionid":{"max":343604,"variance":502269016.117557,"mean":270441.114503817,"stdev":22411.3590868014,"min":114292,"median":268492},"longitude":{"max":-122.1321244,"variance":0.00161771840759623,"mean":-122.219935612977,"stdev":0.0402208702988414,"min":-122.3116249,"median":-122.2196918}},"features":[{"properties":{"city":"Oakland","name":"Acorn-Acorn Industrial","latitude":37.80194602,"county":"Alameda","regionid":272723,"longitude":-122.3113129,"id":"a63389y2po5j","state":"CA"},"type":"Feature","geometry":{"type":"Point","coordinates":[-122.3113129,37.80194602]}},{"properties":{"city":"Oakland","name":"Adams Point","latitude":37.81322902,"county":"Alameda","regionid":267990,"longitude":-122.2543749,"id":"a63389wvix84","state":"CA"},"type":"Feature","geometry":{"type":"Point","coordinates":[-122.2543749,37.81322902]}},{"properties":{"city":"Oakland","name":"Allendale","latitude":37.78740452,"county":"Alameda","regionid":272751,"longitude":-122.2030804,"id":"a63389saqne2","state":"CA"},"type":"Feature","geometry":{"type":"Point","coordinates":[-122.2030804,37.78740452]}},{"properties":{"city":"Oakland","name":"Arrowhead Marsh","latitude":37.76340552,"county":"Alameda","regionid":272803,"longitude":-122.2197619,"id":"a63389qgo28c","state":"CA"},"type":"Feature","geometry":{"type":"Point","coordinates":[-122.2197619,37.76340552]}},{"properties":{"city":"Oakland","name":"Arroyo Viejo","latitude":37.76072452,"county":"Alameda","regionid":272806,"longitude":-122.1788189,"id":"a63389r7ljar","state":"CA"},"type":"Feature","geometry":{"type":"Point","coordinates":[-122.1788189,37.76072452]}},{"properties":{"city":"Oakland","name":"Bancroft Business-Havenscourt","latitude":37.76703802,"county":"Alameda","regionid":272852,"longitude":-122.1840421,"id":"a63389yqf2sa","state":"CA"},"type":"Feature","geometry":{"type":"Point","coordinates":[-122.1840421,37.76703802]}},{"properties":{"city":"Oakland","name":"Bartlett","latitude":37.78817099,"county":"Alameda","regionid":272863,"longitude":-122.2126719,"id":"a63389lk747g","state":"CA"},"type":"Feature","geometry":{"type":"Point","coordinates":[-122.2126719,37.78817099]}},{"properties":{"city":"Oakland","name":"Bella Vista","latitude":37.79925952,"county":"Alameda","regionid":276208,"longitude":-122.2375594,"id":"a63389wv5ld1","state":"CA"},"type":"Feature","geometry":{"type":"Point","coordinates":[-122.2375594,37.79925952]}},{"properties":{"city":"Oakland","name":"Brookfield Village","latitude":37.73376052,"county":"Alameda","regionid":268032,"longitude":-122.1872625,"id":"a63389mul52p","state":"CA"},"type":"Feature","geometry":{"type":"Point","coordinates":[-122.1872625,37.73376052]}},{"properties":{"city":"Oakland","name":"Bushrod","latitude":37.84295752,"county":"Alameda","regionid":268035,"longitude":-122.2655999,"id":"a63389kg4fa4","state":"CA"},"type":"Feature","geometry":{"type":"Point","coordinates":[-122.2655999,37.84295752]}},{"properties":{"city":"Oakland","name":"Caballo Hills","latitude":37.78464952,"county":"Alameda","regionid":273100,"longitude":-122.1590054,"id":"a63389ynxxia","state":"CA"},"type":"Feature","geometry":{"type":"Point","coordinates":[-122.1590054,37.78464952]}},{"properties":{"city":"Oakland","name":"Castlemont","latitude":37.7553049,"county":"Alameda","regionid":268052,"longitude":-122.1655344,"id":"a63389y2r3mg","state":"CA"},"type":"Feature","geometry":{"type":"Point","coordinates":[-122.1655344,37.7553049]}},{"properties":{"city":"Oakland","name":"Chabot Park","latitude":37.74240752,"county":"Alameda","regionid":268062,"longitude":-122.1321244,"id":"a63389qmns90","state":"CA"},"type":"Feature","geometry":{"type":"Point","coordinates":[-122.1321244,37.74240752]}},{"properties":{"city":"Oakland","name":"Chinatown","latitude":37.79892202,"county":"Alameda","regionid":114292,"longitude":-122.2695549,"id":"a63389lhbw1c","state":"CA"},"type":"Feature","geometry":{"type":"Point","coordinates":[-122.2695549,37.79892202]}},{"properties":{"city":"Oakland","name":"Civic Center","latitude":37.79980602,"county":"Alameda","regionid":268073,"longitude":-122.2644159,"id":"a63389pnb69z","state":"CA"},"type":"Feature","geometry":{"type":"Point","coordinates":[-122.2644159,37.79980602]}},{"properties":{"city":"Oakland","name":"Claremont","latitude":37.86195327,"county":"Alameda","regionid":273272,"longitude":-122.230283,"id":"a6338a0so9bf","state":"CA"},"type":"Feature","geometry":{"type":"Point","coordinates":[-122.230283,37.86195327]}},{"properties":{"city":"Oakland","name":"Clawson","latitude":37.82484952,"county":"Alameda","regionid":268077,"longitude":-122.2855554,"id":"a63389qpzr08","state":"CA"},"type":"Feature","geometry":{"type":"Point","coordinates":[-122.2855554,37.82484952]}},{"properties":{"city":"Oakland","name":"Cleveland Heights","latitude":37.80499802,"county":"Alameda","regionid":268078,"longitude":-122.2439609,"id":"a6338a0dkdvw","state":"CA"},"type":"Feature","geometry":{"type":"Point","coordinates":[-122.2439609,37.80499802]}},{"properties":{"city":"Oakland","name":"Clinton","latitude":37.79501952,"county":"Alameda","regionid":273287,"longitude":-122.2462964,"id":"a63389uusowo","state":"CA"},"type":"Feature","geometry":{"type":"Point","coordinates":[-122.2462964,37.79501952]}},{"properties":{"city":"Oakland","name":"Coliseum","latitude":37.75741752,"county":"Alameda","regionid":273301,"longitude":-122.1947659,"id":"a63389qn0e42","state":"CA"},"type":"Feature","geometry":{"type":"Point","coordinates":[-122.1947659,37.75741752]}},{"properties":{"city":"Oakland","name":"Coliseum Industrial","latitude":37.75398728,"county":"Alameda","regionid":273303,"longitude":-122.2032834,"id":"a6338a0ni4nr","state":"CA"},"type":"Feature","geometry":{"type":"Point","coordinates":[-122.2032834,37.75398728]}},{"properties":{"city":"Oakland","name":"Columbia Gardens","latitude":37.73222747,"county":"Alameda","regionid":273330,"longitude":-122.191214,"id":"a63389njbw5t","state":"CA"},"type":"Feature","geometry":{"type":"Point","coordinates":[-122.191214,37.73222747]}},{"properties":{"city":"Oakland","name":"Cox","latitude":37.74871402,"county":"Alameda","regionid":273389,"longitude":-122.1686822,"id":"a63389p6c8z8","state":"CA"},"type":"Feature","geometry":{"type":"Point","coordinates":[-122.1686822,37.74871402]}},{"properties":{"city":"Oakland","name":"Crestmont","latitude":37.79952652,"county":"Alameda","regionid":268099,"longitude":-122.1779537,"id":"a63389mq557f","state":"CA"},"type":"Feature","geometry":{"type":"Point","coordinates":[-122.1779537,37.79952652]}},{"properties":{"city":"Oakland","name":"Crocker Highland","latitude":37.81181352,"county":"Alameda","regionid":268100,"longitude":-122.2281354,"id":"a63389n6x5ik","state":"CA"},"type":"Feature","geometry":{"type":"Point","coordinates":[-122.2281354,37.81181352]}},{"properties":{"city":"Oakland","name":"Dimond","latitude":37.79755002,"county":"Alameda","regionid":268111,"longitude":-122.2101909,"id":"a63389vs2mtm","state":"CA"},"type":"Feature","geometry":{"type":"Point","coordinates":[-122.2101909,37.79755002]}},{"properties":{"city":"Oakland","name":"Downtown","latitude":37.80674612,"county":"Alameda","regionid":268115,"longitude":-122.2700539,"id":"a63389rlq29v","state":"CA"},"type":"Feature","geometry":{"type":"Point","coordinates":[-122.2700539,37.80674612]}},{"properties":{"city":"Oakland","name":"Durant Manor","latitude":37.74047552,"county":"Alameda","regionid":268121,"longitude":-122.1613749,"id":"a63389ym22b2","state":"CA"},"type":"Feature","geometry":{"type":"Point","coordinates":[-122.1613749,37.74047552]}},{"properties":{"city":"Oakland","name":"East Peralta","latitude":37.78783952,"county":"Alameda","regionid":268125,"longitude":-122.2474507,"id":"a63389z5n57q","state":"CA"},"type":"Feature","geometry":{"type":"Point","coordinates":[-122.2474507,37.78783952]}},{"properties":{"city":"Oakland","name":"Eastmont","latitude":37.76455202,"county":"Alameda","regionid":268129,"longitude":-122.1709504,"id":"a63389vav2k2","state":"CA"},"type":"Feature","geometry":{"type":"Point","coordinates":[-122.1709504,37.76455202]}},{"properties":{"city":"Oakland","name":"Eastmont Hills","latitude":37.76987702,"county":"Alameda","regionid":268130,"longitude":-122.1631759,"id":"a63389s5ygze","state":"CA"},"type":"Feature","geometry":{"type":"Point","coordinates":[-122.1631759,37.76987702]}},{"properties":{"city":"Oakland","name":"Elmhurst Park","latitude":37.74331924,"county":"Alameda","regionid":268142,"longitude":-122.1806739,"id":"a63389krt6gn","state":"CA"},"type":"Feature","geometry":{"type":"Point","coordinates":[-122.1806739,37.74331924]}},{"properties":{"city":"Oakland","name":"Fairfax","latitude":37.77757402,"county":"Alameda","regionid":273665,"longitude":-122.2011534,"id":"a63389nx855e","state":"CA"},"type":"Feature","geometry":{"type":"Point","coordinates":[-122.2011534,37.77757402]}},{"properties":{"city":"Oakland","name":"Fairfax Business-Wentworth-Holland","latitude":37.76987252,"county":"Alameda","regionid":343603,"longitude":-122.2014509,"id":"a63389vdoavm","state":"CA"},"type":"Feature","geometry":{"type":"Point","coordinates":[-122.2014509,37.76987252]}},{"properties":{"city":"Oakland","name":"Fairview Park","latitude":37.84722752,"county":"Alameda","regionid":268153,"longitude":-122.2570079,"id":"a63389tgvb9u","state":"CA"},"type":"Feature","geometry":{"type":"Point","coordinates":[-122.2570079,37.84722752]}},{"properties":{"city":"Oakland","name":"Fitchburg","latitude":37.75390402,"county":"Alameda","regionid":268158,"longitude":-122.1886469,"id":"a63389m6zpra","state":"CA"},"type":"Feature","geometry":{"type":"Point","coordinates":[-122.1886469,37.75390402]}},{"properties":{"city":"Oakland","name":"Foothill Square","latitude":37.74747052,"county":"Alameda","regionid":268163,"longitude":-122.1518249,"id":"a6338a06zklc","state":"CA"},"type":"Feature","geometry":{"type":"Point","coordinates":[-122.1518249,37.74747052]}},{"properties":{"city":"Oakland","name":"Forestland","latitude":37.84278733,"county":"Alameda","regionid":268164,"longitude":-122.1990529,"id":"a63389p9wjw5","state":"CA"},"type":"Feature","geometry":{"type":"Point","coordinates":[-122.1990529,37.84278733]}},{"properties":{"city":"Oakland","name":"Fremont","latitude":37.77441852,"county":"Alameda","regionid":273788,"longitude":-122.2098624,"id":"a63389z11e4j","state":"CA"},"type":"Feature","geometry":{"type":"Point","coordinates":[-122.2098624,37.77441852]}},{"properties":{"city":"Oakland","name":"Frick","latitude":37.7736386,"county":"Alameda","regionid":268169,"longitude":-122.1839734,"id":"a6338a0nnp50","state":"CA"},"type":"Feature","geometry":{"type":"Point","coordinates":[-122.1839734,37.7736386]}},{"properties":{"city":"Oakland","name":"Fruitvale Station","latitude":37.77358069,"county":"Alameda","regionid":276340,"longitude":-122.2223679,"id":"a63389ub7m4c","state":"CA"},"type":"Feature","geometry":{"type":"Point","coordinates":[-122.2223679,37.77358069]}},{"properties":{"city":"Oakland","name":"Gaskill","latitude":37.84002952,"county":"Alameda","regionid":268170,"longitude":-122.2794744,"id":"a6338a0rdi2z","state":"CA"},"type":"Feature","geometry":{"type":"Point","coordinates":[-122.2794744,37.84002952]}},{"properties":{"city":"Oakland","name":"Glen Highlands","latitude":37.840044,"county":"Alameda","regionid":273830,"longitude":-122.2204794,"id":"a63389ojd0qn","state":"CA"},"type":"Feature","geometry":{"type":"Point","coordinates":[-122.2204794,37.840044]}},{"properties":{"city":"Oakland","name":"Glenview","latitude":37.80599752,"county":"Alameda","regionid":273836,"longitude":-122.2225199,"id":"a63389ocw2r0","state":"CA"},"type":"Feature","geometry":{"type":"Point","coordinates":[-122.2225199,37.80599752]}},{"properties":{"city":"Oakland","name":"Golden Gate","latitude":37.84356852,"county":"Alameda","regionid":268182,"longitude":-122.2854639,"id":"a63389krakcu","state":"CA"},"type":"Feature","geometry":{"type":"Point","coordinates":[-122.2854639,37.84356852]}},{"properties":{"city":"Oakland","name":"Golf Links","latitude":37.76407202,"county":"Alameda","regionid":273846,"longitude":-122.1560644,"id":"a63389m6mkf1","state":"CA"},"type":"Feature","geometry":{"type":"Point","coordinates":[-122.1560644,37.76407202]}},{"properties":{"city":"Oakland","name":"Grand Lake","latitude":37.81691637,"county":"Alameda","regionid":273863,"longitude":-122.2497074,"id":"a63389zw8anm","state":"CA"},"type":"Feature","geometry":{"type":"Point","coordinates":[-122.2497074,37.81691637]}},{"properties":{"city":"Oakland","name":"Harrington","latitude":37.78352602,"county":"Alameda","regionid":276365,"longitude":-122.2133344,"id":"a63389liqi8q","state":"CA"},"type":"Feature","geometry":{"type":"Point","coordinates":[-122.2133344,37.78352602]}},{"properties":{"city":"Oakland","name":"Hawthorne","latitude":37.77986502,"county":"Alameda","regionid":273947,"longitude":-122.2307349,"id":"a63389mxfjkw","state":"CA"},"type":"Feature","geometry":{"type":"Point","coordinates":[-122.2307349,37.77986502]}},{"properties":{"city":"Oakland","name":"Hegenberger","latitude":37.76279554,"county":"Alameda","regionid":268207,"longitude":-122.1865174,"id":"a63389kmr6v6","state":"CA"},"type":"Feature","geometry":{"type":"Point","coordinates":[-122.1865174,37.76279554]}},{"properties":{"city":"Oakland","name":"Highland","latitude":37.74848402,"county":"Alameda","regionid":273988,"longitude":-122.1814979,"id":"a63389va2yum","state":"CA"},"type":"Feature","geometry":{"type":"Point","coordinates":[-122.1814979,37.74848402]}},{"properties":{"city":"Oakland","name":"Highland Terrace","latitude":37.79193441,"county":"Alameda","regionid":268209,"longitude":-122.234044,"id":"a63389mqwfa4","state":"CA"},"type":"Feature","geometry":{"type":"Point","coordinates":[-122.234044,37.79193441]}},{"properties":{"city":"Oakland","name":"Hiller Highlands","latitude":37.8522442,"county":"Alameda","regionid":268210,"longitude":-122.2281781,"id":"a63389q609i4","state":"CA"},"type":"Feature","geometry":{"type":"Point","coordinates":[-122.2281781,37.8522442]}},{"properties":{"city":"Oakland","name":"Hoover-Foster","latitude":37.81976302,"county":"Alameda","regionid":274057,"longitude":-122.2734449,"id":"a63389tx2e5d","state":"CA"},"type":"Feature","geometry":{"type":"Point","coordinates":[-122.2734449,37.81976302]}},{"properties":{"city":"Oakland","name":"Iveywood","latitude":37.7441528,"county":"Alameda","regionid":268223,"longitude":-122.1650289,"id":"a63389ngt0mt","state":"CA"},"type":"Feature","geometry":{"type":"Point","coordinates":[-122.1650289,37.7441528]}},{"properties":{"city":"Oakland","name":"Ivy Hill","latitude":37.80003302,"county":"Alameda","regionid":268224,"longitude":-122.2441499,"id":"a63389p83gsq","state":"CA"},"type":"Feature","geometry":{"type":"Point","coordinates":[-122.2441499,37.80003302]}},{"properties":{"city":"Oakland","name":"Jefferson","latitude":37.78010094,"county":"Alameda","regionid":276398,"longitude":-122.2104244,"id":"a63389sufgtq","state":"CA"},"type":"Feature","geometry":{"type":"Point","coordinates":[-122.2104244,37.78010094]}},{"properties":{"city":"Oakland","name":"Joaquin Miller Park","latitude":37.81382852,"county":"Alameda","regionid":274144,"longitude":-122.1847414,"id":"a6338a0irvee","state":"CA"},"type":"Feature","geometry":{"type":"Point","coordinates":[-122.1847414,37.81382852]}},{"properties":{"city":"Oakland","name":"Lake Merritt","latitude":37.80379352,"county":"Alameda","regionid":274232,"longitude":-122.2564404,"id":"a63389zv3bx5","state":"CA"},"type":"Feature","geometry":{"type":"Point","coordinates":[-122.2564404,37.80379352]}},{"properties":{"city":"Oakland","name":"Lakeshore","latitude":37.81469052,"county":"Alameda","regionid":274247,"longitude":-122.2402039,"id":"a63389nerd9t","state":"CA"},"type":"Feature","geometry":{"type":"Point","coordinates":[-122.2402039,37.81469052]}},{"properties":{"city":"Oakland","name":"Lakewide","latitude":37.80603602,"county":"Alameda","regionid":276414,"longitude":-122.2623979,"id":"a63389xw9jvb","state":"CA"},"type":"Feature","geometry":{"type":"Point","coordinates":[-122.2623979,37.80603602]}},{"properties":{"city":"Oakland","name":"Las Palmas","latitude":37.74444652,"county":"Alameda","regionid":274277,"longitude":-122.1557747,"id":"a63389secy5o","state":"CA"},"type":"Feature","geometry":{"type":"Point","coordinates":[-122.1557747,37.74444652]}},{"properties":{"city":"Oakland","name":"Laurel","latitude":37.79150802,"county":"Alameda","regionid":274283,"longitude":-122.2012249,"id":"a63389ociik6","state":"CA"},"type":"Feature","geometry":{"type":"Point","coordinates":[-122.2012249,37.79150802]}},{"properties":{"city":"Oakland","name":"Leona Heights","latitude":37.78865352,"county":"Alameda","regionid":268256,"longitude":-122.1767464,"id":"a63389ksd6wn","state":"CA"},"type":"Feature","geometry":{"type":"Point","coordinates":[-122.1767464,37.78865352]}},{"properties":{"city":"Oakland","name":"Lincoln Highlands","latitude":37.80435952,"county":"Alameda","regionid":268257,"longitude":-122.2010614,"id":"a63389llb0y3","state":"CA"},"type":"Feature","geometry":{"type":"Point","coordinates":[-122.2010614,37.80435952]}},{"properties":{"city":"Oakland","name":"Lockwood Tevis","latitude":37.76110002,"county":"Alameda","regionid":274340,"longitude":-122.2014679,"id":"a63389sdfi49","state":"CA"},"type":"Feature","geometry":{"type":"Point","coordinates":[-122.2014679,37.76110002]}},{"properties":{"city":"Oakland","name":"Longfellow","latitude":37.83079052,"county":"Alameda","regionid":268264,"longitude":-122.2727474,"id":"a63389nlmn0g","state":"CA"},"type":"Feature","geometry":{"type":"Point","coordinates":[-122.2727474,37.83079052]}},{"properties":{"city":"Oakland","name":"Lynn-Highland Park","latitude":37.79945652,"county":"Alameda","regionid":274382,"longitude":-122.2338304,"id":"a63389z1ovzk","state":"CA"},"type":"Feature","geometry":{"type":"Point","coordinates":[-122.2338304,37.79945652]}},{"properties":{"city":"Oakland","name":"Maxwell Park","latitude":37.77973952,"county":"Alameda","regionid":268279,"longitude":-122.1955594,"id":"a6338a0mzyi0","state":"CA"},"type":"Feature","geometry":{"type":"Point","coordinates":[-122.1955594,37.77973952]}},{"properties":{"city":"Oakland","name":"McClymonds","latitude":37.81780802,"county":"Alameda","regionid":268282,"longitude":-122.2818444,"id":"a63389pagw5h","state":"CA"},"type":"Feature","geometry":{"type":"Point","coordinates":[-122.2818444,37.81780802]}},{"properties":{"city":"Oakland","name":"Melrose","latitude":37.76777552,"county":"Alameda","regionid":268286,"longitude":-122.2111684,"id":"a63389zyz8b7","state":"CA"},"type":"Feature","geometry":{"type":"Point","coordinates":[-122.2111684,37.76777552]}},{"properties":{"city":"Oakland","name":"Merritt","latitude":37.79767152,"county":"Alameda","regionid":274501,"longitude":-122.2551414,"id":"a63389xg7g4m","state":"CA"},"type":"Feature","geometry":{"type":"Point","coordinates":[-122.2551414,37.79767152]}},{"properties":{"city":"Oakland","name":"Merriwood","latitude":37.84788452,"county":"Alameda","regionid":268289,"longitude":-122.2132159,"id":"a63389wdd6c8","state":"CA"},"type":"Feature","geometry":{"type":"Point","coordinates":[-122.2132159,37.84788452]}},{"properties":{"city":"Oakland","name":"Mills College","latitude":37.78006402,"county":"Alameda","regionid":268300,"longitude":-122.1789129,"id":"a63389wzbm3r","state":"CA"},"type":"Feature","geometry":{"type":"Point","coordinates":[-122.1789129,37.78006402]}},{"properties":{"city":"Oakland","name":"Millsmont","latitude":37.77477452,"county":"Alameda","regionid":268301,"longitude":-122.1741209,"id":"a63389rjcxnz","state":"CA"},"type":"Feature","geometry":{"type":"Point","coordinates":[-122.1741209,37.77477452]}},{"properties":{"city":"Oakland","name":"Montclair","latitude":37.82939252,"county":"Alameda","regionid":274577,"longitude":-122.2104286,"id":"a63389r4i55y","state":"CA"},"type":"Feature","geometry":{"type":"Point","coordinates":[-122.2104286,37.82939252]}},{"properties":{"city":"Oakland","name":"Montclair Business","latitude":37.82512122,"county":"Alameda","regionid":268313,"longitude":-122.2094999,"id":"a63389vkxelv","state":"CA"},"type":"Feature","geometry":{"type":"Point","coordinates":[-122.2094999,37.82512122]}},{"properties":{"city":"Oakland","name":"Mosswood","latitude":37.82586802,"county":"Alameda","regionid":268325,"longitude":-122.2627981,"id":"a63389qava2s","state":"CA"},"type":"Feature","geometry":{"type":"Point","coordinates":[-122.2627981,37.82586802]}},{"properties":{"city":"Oakland","name":"Mountain View Cemetery","latitude":37.83544552,"county":"Alameda","regionid":274616,"longitude":-122.2406176,"id":"a63389klx1x9","state":"CA"},"type":"Feature","geometry":{"type":"Point","coordinates":[-122.2406176,37.83544552]}},{"properties":{"city":"Oakland","name":"North Kennedy Tract","latitude":37.77764052,"county":"Alameda","regionid":268344,"longitude":-122.2321634,"id":"a63389qxb9so","state":"CA"},"type":"Feature","geometry":{"type":"Point","coordinates":[-122.2321634,37.77764052]}},{"properties":{"city":"Oakland","name":"North Stonehurst","latitude":37.73801702,"county":"Alameda","regionid":268348,"longitude":-122.1729804,"id":"a63389rx48v6","state":"CA"},"type":"Feature","geometry":{"type":"Point","coordinates":[-122.1729804,37.73801702]}},{"properties":{"city":"Oakland","name":"Northgate","latitude":37.81408752,"county":"Alameda","regionid":268349,"longitude":-122.2688109,"id":"a63389px4qit","state":"CA"},"type":"Feature","geometry":{"type":"Point","coordinates":[-122.2688109,37.81408752]}},{"properties":{"city":"Oakland","name":"Oak Center","latitude":37.80950052,"county":"Alameda","regionid":268358,"longitude":-122.2847269,"id":"a63389rwqbis","state":"CA"},"type":"Feature","geometry":{"type":"Point","coordinates":[-122.2847269,37.80950052]}},{"properties":{"city":"Oakland","name":"Oak Tree","latitude":37.78264291,"county":"Alameda","regionid":268363,"longitude":-122.2313819,"id":"a63389kis3cc","state":"CA"},"type":"Feature","geometry":{"type":"Point","coordinates":[-122.2313819,37.78264291]}},{"properties":{"city":"Oakland","name":"Oakland Airport","latitude":37.73032652,"county":"Alameda","regionid":274852,"longitude":-122.220129,"id":"a63389silpmc","state":"CA"},"type":"Feature","geometry":{"type":"Point","coordinates":[-122.220129,37.73032652]}},{"properties":{"city":"Oakland","name":"Oakland Ave-Harrison St","latitude":37.81842202,"county":"Alameda","regionid":274853,"longitude":-122.2586064,"id":"a63389q8qlh3","state":"CA"},"type":"Feature","geometry":{"type":"Point","coordinates":[-122.2586064,37.81842202]}},{"properties":{"city":"Oakland","name":"Oakmore","latitude":37.81239492,"county":"Alameda","regionid":268365,"longitude":-122.2071684,"id":"a63389z9fz0o","state":"CA"},"type":"Feature","geometry":{"type":"Point","coordinates":[-122.2071684,37.81239492]}},{"properties":{"city":"Oakland","name":"Old City-Produce And Waterfront","latitude":37.79958552,"county":"Alameda","regionid":343602,"longitude":-122.2790574,"id":"a6338a0byb2r","state":"CA"},"type":"Feature","geometry":{"type":"Point","coordinates":[-122.2790574,37.79958552]}},{"properties":{"city":"Oakland","name":"Panoramic Hill","latitude":37.87234184,"county":"Alameda","regionid":268389,"longitude":-122.2313479,"id":"a63389x7yrhy","state":"CA"},"type":"Feature","geometry":{"type":"Point","coordinates":[-122.2313479,37.87234184]}},{"properties":{"city":"Oakland","name":"Paradise Park","latitude":37.84583852,"county":"Alameda","regionid":274956,"longitude":-122.2817054,"id":"a63389sj9s5i","state":"CA"},"type":"Feature","geometry":{"type":"Point","coordinates":[-122.2817054,37.84583852]}},{"properties":{"city":"Oakland","name":"Patten","latitude":37.78887702,"county":"Alameda","regionid":268397,"longitude":-122.2187789,"id":"a63389ylabnn","state":"CA"},"type":"Feature","geometry":{"type":"Point","coordinates":[-122.2187789,37.78887702]}},{"properties":{"city":"Oakland","name":"Peralta-Hacienda","latitude":37.78699152,"county":"Alameda","regionid":275009,"longitude":-122.2166862,"id":"a63389un0hyy","state":"CA"},"type":"Feature","geometry":{"type":"Point","coordinates":[-122.2166862,37.78699152]}},{"properties":{"city":"Oakland","name":"Peralta-Laney","latitude":37.7942527,"county":"Alameda","regionid":275010,"longitude":-122.2609319,"id":"a63389xrphsb","state":"CA"},"type":"Feature","geometry":{"type":"Point","coordinates":[-122.2609319,37.7942527]}},{"properties":{"city":"Oakland","name":"Piedmont","latitude":37.82254702,"county":"Alameda","regionid":117313,"longitude":-122.2297379,"id":"a63389vkvv2f","state":"CA"},"type":"Feature","geometry":{"type":"Point","coordinates":[-122.2297379,37.82254702]}},{"properties":{"city":"Oakland","name":"Piedmont Avenue","latitude":37.82753652,"county":"Alameda","regionid":268405,"longitude":-122.2510729,"id":"a63389zei244","state":"CA"},"type":"Feature","geometry":{"type":"Point","coordinates":[-122.2510729,37.82753652]}},{"properties":{"city":"Oakland","name":"Piedmont Pines","latitude":37.82184555,"county":"Alameda","regionid":268406,"longitude":-122.1958889,"id":"a63389myin7x","state":"CA"},"type":"Feature","geometry":{"type":"Point","coordinates":[-122.1958889,37.82184555]}},{"properties":{"city":"Oakland","name":"Pill Hill","latitude":37.81996752,"county":"Alameda","regionid":268407,"longitude":-122.2653469,"id":"a63389s88m5w","state":"CA"},"type":"Feature","geometry":{"type":"Point","coordinates":[-122.2653469,37.81996752]}},{"properties":{"city":"Oakland","name":"Prescott","latitude":37.81891552,"county":"Alameda","regionid":268416,"longitude":-122.3116249,"id":"a63389kz0qsw","state":"CA"},"type":"Feature","geometry":{"type":"Point","coordinates":[-122.3116249,37.81891552]}},{"properties":{"city":"Oakland","name":"Produce And Waterfront","latitude":37.79137652,"county":"Alameda","regionid":343604,"longitude":-122.2647073,"id":"a63389pxitu7","state":"CA"},"type":"Feature","geometry":{"type":"Point","coordinates":[-122.2647073,37.79137652]}},{"properties":{"city":"Oakland","name":"Ralph Bunche","latitude":37.81336302,"county":"Alameda","regionid":268423,"longitude":-122.2820119,"id":"a63389zwoe8l","state":"CA"},"type":"Feature","geometry":{"type":"Point","coordinates":[-122.2820119,37.81336302]}},{"properties":{"city":"Oakland","name":"Rancho San Antonio","latitude":37.78877361,"county":"Alameda","regionid":268426,"longitude":-122.2395524,"id":"a63389y5s8u7","state":"CA"},"type":"Feature","geometry":{"type":"Point","coordinates":[-122.2395524,37.78877361]}},{"properties":{"city":"Oakland","name":"Redwood Heights","latitude":37.79370902,"county":"Alameda","regionid":268429,"longitude":-122.1832584,"id":"a63389wx27s1","state":"CA"},"type":"Feature","geometry":{"type":"Point","coordinates":[-122.1832584,37.79370902]}},{"properties":{"city":"Oakland","name":"Reservoir Hill-Meadow Brook","latitude":37.79227652,"county":"Alameda","regionid":276530,"longitude":-122.2274669,"id":"a63389qovqo1","state":"CA"},"type":"Feature","geometry":{"type":"Point","coordinates":[-122.2274669,37.79227652]}},{"properties":{"city":"Oakland","name":"Rockridge","latitude":37.84416802,"county":"Alameda","regionid":268442,"longitude":-122.2498349,"id":"a63389ugld7r","state":"CA"},"type":"Feature","geometry":{"type":"Point","coordinates":[-122.2498349,37.84416802]}},{"properties":{"city":"Oakland","name":"Saint Elizabeth","latitude":37.77851902,"county":"Alameda","regionid":275543,"longitude":-122.2196918,"id":"a63389z4t7or","state":"CA"},"type":"Feature","geometry":{"type":"Point","coordinates":[-122.2196918,37.77851902]}},{"properties":{"city":"Oakland","name":"San Pablo Gateway","latitude":37.80912558,"county":"Alameda","regionid":275292,"longitude":-122.2743269,"id":"a63389yo941s","state":"CA"},"type":"Feature","geometry":{"type":"Point","coordinates":[-122.2743269,37.80912558]}},{"properties":{"city":"Oakland","name":"Santa Fe","latitude":37.84205702,"county":"Alameda","regionid":268456,"longitude":-122.2733074,"id":"a63389lp2di8","state":"CA"},"type":"Feature","geometry":{"type":"Point","coordinates":[-122.2733074,37.84205702]}},{"properties":{"city":"Oakland","name":"Sausal Creek","latitude":37.79152852,"county":"Alameda","regionid":268457,"longitude":-122.2219089,"id":"a63389x40ljn","state":"CA"},"type":"Feature","geometry":{"type":"Point","coordinates":[-122.2219089,37.79152852]}},{"properties":{"city":"Oakland","name":"School","latitude":37.79501452,"county":"Alameda","regionid":268459,"longitude":-122.2146194,"id":"a63389mssuau","state":"CA"},"type":"Feature","geometry":{"type":"Point","coordinates":[-122.2146194,37.79501452]}},{"properties":{"city":"Oakland","name":"Seminary","latitude":37.76790502,"county":"Alameda","regionid":268464,"longitude":-122.1963554,"id":"a63389yi6apo","state":"CA"},"type":"Feature","geometry":{"type":"Point","coordinates":[-122.1963554,37.76790502]}},{"properties":{"city":"Oakland","name":"Sequoyah","latitude":37.76457543,"county":"Alameda","regionid":275331,"longitude":-122.1373859,"id":"a63389r8febk","state":"CA"},"type":"Feature","geometry":{"type":"Point","coordinates":[-122.1373859,37.76457543]}},{"properties":{"city":"Oakland","name":"Shafter","latitude":37.83974952,"county":"Alameda","regionid":276558,"longitude":-122.2583964,"id":"a63389tul9ai","state":"CA"},"type":"Feature","geometry":{"type":"Point","coordinates":[-122.2583964,37.83974952]}},{"properties":{"city":"Oakland","name":"Sheffield Village","latitude":37.73442171,"county":"Alameda","regionid":276559,"longitude":-122.1362987,"id":"a63389ucbsci","state":"CA"},"type":"Feature","geometry":{"type":"Point","coordinates":[-122.1362987,37.73442171]}},{"properties":{"city":"Oakland","name":"Shepherd Canyon","latitude":37.82929263,"county":"Alameda","regionid":268469,"longitude":-122.1966054,"id":"a63389w57tns","state":"CA"},"type":"Feature","geometry":{"type":"Point","coordinates":[-122.1966054,37.82929263]}},{"properties":{"city":"Oakland","name":"Skyline-Hillcrest Estates","latitude":37.79364752,"county":"Alameda","regionid":275388,"longitude":-122.1553579,"id":"a63389ua59dl","state":"CA"},"type":"Feature","geometry":{"type":"Point","coordinates":[-122.1553579,37.79364752]}},{"properties":{"city":"Oakland","name":"Sobrante Park","latitude":37.73065902,"county":"Alameda","regionid":268478,"longitude":-122.1771429,"id":"a63389t28bdo","state":"CA"},"type":"Feature","geometry":{"type":"Point","coordinates":[-122.1771429,37.73065902]}},{"properties":{"city":"Oakland","name":"South Kennedy Tract","latitude":37.77211952,"county":"Alameda","regionid":268487,"longitude":-122.2292209,"id":"a63389slf4zq","state":"CA"},"type":"Feature","geometry":{"type":"Point","coordinates":[-122.2292209,37.77211952]}},{"properties":{"city":"Oakland","name":"South Prescott","latitude":37.80502198,"county":"Alameda","regionid":268492,"longitude":-122.3019428,"id":"a63389t3rko4","state":"CA"},"type":"Feature","geometry":{"type":"Point","coordinates":[-122.3019428,37.80502198]}},{"properties":{"city":"Oakland","name":"South Stonehurst","latitude":37.73519252,"county":"Alameda","regionid":268493,"longitude":-122.1759194,"id":"a63389xmv00t","state":"CA"},"type":"Feature","geometry":{"type":"Point","coordinates":[-122.1759194,37.73519252]}},{"properties":{"city":"Oakland","name":"Temescal","latitude":37.8325325,"county":"Alameda","regionid":275678,"longitude":-122.2598191,"id":"a63389s5g803","state":"CA"},"type":"Feature","geometry":{"type":"Point","coordinates":[-122.2598191,37.8325325]}},{"properties":{"city":"Oakland","name":"Toler Heights","latitude":37.75520252,"county":"Alameda","regionid":268523,"longitude":-122.1581444,"id":"a63389m1ddw3","state":"CA"},"type":"Feature","geometry":{"type":"Point","coordinates":[-122.1581444,37.75520252]}},{"properties":{"city":"Oakland","name":"Trestle Glen","latitude":37.80886502,"county":"Alameda","regionid":275773,"longitude":-122.2352651,"id":"a63389svrkgo","state":"CA"},"type":"Feature","geometry":{"type":"Point","coordinates":[-122.2352651,37.80886502]}},{"properties":{"city":"Oakland","name":"Tuxedo","latitude":37.79706852,"county":"Alameda","regionid":268532,"longitude":-122.2304224,"id":"a63389uwph0i","state":"CA"},"type":"Feature","geometry":{"type":"Point","coordinates":[-122.2304224,37.79706852]}},{"properties":{"city":"Oakland","name":"Upper Dimond","latitude":37.80019052,"county":"Alameda","regionid":268541,"longitude":-122.2088084,"id":"a63389zrxa9o","state":"CA"},"type":"Feature","geometry":{"type":"Point","coordinates":[-122.2088084,37.80019052]}},{"properties":{"city":"Oakland","name":"Upper Laurel","latitude":37.79222652,"county":"Alameda","regionid":275828,"longitude":-122.1945514,"id":"a63389p3gp41","state":"CA"},"type":"Feature","geometry":{"type":"Point","coordinates":[-122.1945514,37.79222652]}},{"properties":{"city":"Oakland","name":"Upper Peralta Creek-Bartlett","latitude":37.79244352,"county":"Alameda","regionid":276620,"longitude":-122.2097924,"id":"a63389lurg34","state":"CA"},"type":"Feature","geometry":{"type":"Point","coordinates":[-122.2097924,37.79244352]}},{"properties":{"city":"Oakland","name":"Upper Rockridge","latitude":37.84162502,"county":"Alameda","regionid":268544,"longitude":-122.2338874,"id":"a63389pa4qzt","state":"CA"},"type":"Feature","geometry":{"type":"Point","coordinates":[-122.2338874,37.84162502]}},{"properties":{"city":"Oakland","name":"Waverly","latitude":37.81324502,"county":"Alameda","regionid":275936,"longitude":-122.2642224,"id":"a63389x3kxvt","state":"CA"},"type":"Feature","geometry":{"type":"Point","coordinates":[-122.2642224,37.81324502]}},{"properties":{"city":"Oakland","name":"Webster","latitude":37.75434902,"county":"Alameda","regionid":275937,"longitude":-122.1735379,"id":"a63389l1a5rw","state":"CA"},"type":"Feature","geometry":{"type":"Point","coordinates":[-122.1735379,37.75434902]}},{"properties":{"city":"Oakland","name":"Woodland","latitude":37.75058652,"county":"Alameda","regionid":276133,"longitude":-122.1857384,"id":"a63389r4yhow","state":"CA"},"type":"Feature","geometry":{"type":"Point","coordinates":[-122.1857384,37.75058652]}},{"properties":{"city":"Oakland","name":"Woodminster","latitude":37.80488577,"county":"Alameda","regionid":276145,"longitude":-122.1884479,"id":"a63389riz9h8","state":"CA"},"type":"Feature","geometry":{"type":"Point","coordinates":[-122.1884479,37.80488577]}}],"is_temporal":false,"author":{"url":"","metadata":"","contact_name":"","contact_address":"","source":"","contact_phone":""},"source":"","pagination":{"sort":null,"start":0,"total":131,"limit":1000000},"state":"complete","tags":"data,demo,kmdc,mmw,test,training","published":"2014-08-10T19:26:30-04:00","id":95763}