{"type":"FeatureCollection","data_type":"Dataset","url_type":null,"permissions":[{"permissions":{"download":true,"view":true},"group_id":"everyone"}],"classification":null,"title":"2007AbsenteePrecinctMayoral","count":112,"stream_id":95845,"contributor":{"url":"http://geocommons.com/users/22486","name":"catchman86"},"data_attributes":null,"calculation_params":null,"icon_link":null,"link":"http://geocommons.com/overlays/95845.json","extent":[-82.5506,27.8697,-82.3314,28.1471],"geometry_types":["point"],"unique_name":null,"name":"2007AbsenteePrecinctMayoral","feature_count":112,"description":"","next_feature":null,"is_raster":false,"short_classification":"Y","stats":{"mayoral":{"max":193,"mean":36.5892857142857,"variance":1235.84781209781,"stdev":35.1546271790473,"min":0,"median":30}},"features":[{"properties":{"city":"Tampa","address1":"4702 W McCoy St","name":"Port Tampa Community Center","precinct":"101 - Absentee","geo_score":0.768,"mayoral":50,"id":"a6mz5nwlcrfi","geo_precision":"range","state":"FL"},"type":"Feature","geometry":{"type":"Point","coordinates":[-82.524622,27.869731]}},{"properties":{"city":"Tampa","address1":"4702 W McCoy St","name":"Port Tampa Community Center","precinct":"103 - Absentee","geo_score":0.768,"mayoral":53,"id":"a6mz5nk6ifb4","geo_precision":"range","state":"FL"},"type":"Feature","geometry":{"type":"Point","coordinates":[-82.524622,27.869731]}},{"properties":{"city":"Tampa","address1":"4207 W Oklahoma Ave","name":"Gandy Civic Association","precinct":"105 - Absentee","geo_score":0.612,"mayoral":59,"id":"a6mz5nrv95d0","geo_precision":"street","state":"FL"},"type":"Feature","geometry":{"type":"Point","coordinates":[-82.515922,27.883882]}},{"properties":{"city":"Tampa","address1":"3600 W Ballast Point Blvd","name":"Peninsular Christian Church","precinct":"107 - Absentee","geo_score":0.753,"mayoral":83,"id":"a6mz5not5jpf","geo_precision":"range","state":"FL"},"type":"Feature","geometry":{"type":"Point","coordinates":[-82.504177,27.89002]}},{"properties":{"city":"Tampa","address1":"6202 S MacDill Ave","name":"Victory Baptist Church","precinct":"108 - Absentee","geo_score":0.805,"mayoral":51,"id":"a6mz5nvl7ug0","geo_precision":"range","state":"FL"},"type":"Feature","geometry":{"type":"Point","coordinates":[-82.494016,27.879146]}},{"properties":{"city":"Tampa","address1":"5212  Interbay Blvd","name":"Joe Abrahams Fitness &amp; Wellness Ctr","precinct":"109 - Absentee","geo_score":0.805,"mayoral":71,"id":"a6mz5nwi5hsp","geo_precision":"range","state":"FL"},"type":"Feature","geometry":{"type":"Point","coordinates":[-82.483254,27.88998]}},{"properties":{"city":"Tampa","address1":"3616 W Gandy Blvd","name":"Elks Lodge 708","precinct":"111 - Absentee","geo_score":0.805,"mayoral":92,"id":"a6mz5nnse5k8","geo_precision":"range","state":"FL"},"type":"Feature","geometry":{"type":"Point","coordinates":[-82.504292,27.893692]}},{"properties":{"city":"Tampa","address1":"2515  Bayshore Blvd","name":"Bayshore Presbyterian Church","precinct":"112 - Absentee","geo_score":0.805,"mayoral":68,"id":"a6mz5njtizsg","geo_precision":"range","state":"FL"},"type":"Feature","geometry":{"type":"Point","coordinates":[-82.484643,27.924029]}},{"properties":{"city":"Tampa","address1":"4020 S Manhattan Ave","name":"Manhattan Avenue Church of Christ","precinct":"113 - Absentee","geo_score":0.805,"mayoral":55,"id":"a6mz5nwd8hgs","geo_precision":"range","state":"FL"},"type":"Feature","geometry":{"type":"Point","coordinates":[-82.518244,27.906511]}},{"properties":{"city":"Tampa","address1":"3910 S Manhattan Ave","name":"Jan K Platt  Regional Library","precinct":"115 - Absentee","geo_score":0.805,"mayoral":63,"id":"a6mz5nvg4cou","geo_precision":"range","state":"FL"},"type":"Feature","geometry":{"type":"Point","coordinates":[-82.518036,27.907703]}},{"properties":{"city":"Tampa","address1":"4511 S Manhattan Ave","name":"Manhattan Ave United Methodist Chur","precinct":"116 - Absentee","geo_score":0.805,"mayoral":49,"id":"a6mz5nyux6k3","geo_precision":"range","state":"FL"},"type":"Feature","geometry":{"type":"Point","coordinates":[-82.518445,27.900002]}},{"properties":{"city":"Tampa","address1":"4003 S Manhattan Ave","name":"Bel Mar Presbyterian Church","precinct":"117 - Absentee","geo_score":0.805,"mayoral":87,"id":"a6mz5nn0xp1l","geo_precision":"range","state":"FL"},"type":"Feature","geometry":{"type":"Point","coordinates":[-82.518202,27.906827]}},{"properties":{"city":"Tampa","address1":"3723 W Bay To Bay Blvd","name":"Palma Ceia United Methodist Church","precinct":"119 - Absentee","geo_score":0.805,"mayoral":58,"id":"a6mz5nzghcif","geo_precision":"range","state":"FL"},"type":"Feature","geometry":{"type":"Point","coordinates":[-82.504325,27.919765]}},{"properties":{"city":"Tampa","address1":"3511  Bay To Bay Blvd","name":"Palma Ceia Baptist Church","precinct":"121 - Absentee","geo_score":0.782,"mayoral":66,"id":"a6mz5nuxwkm9","geo_precision":"range","state":"FL"},"type":"Feature","geometry":{"type":"Point","coordinates":[-82.500573,27.91975]}},{"properties":{"city":"Tampa","address1":"2629  Bayshore Blvd","name":"Tampa Garden Center","precinct":"123 - Absentee","geo_score":0.805,"mayoral":193,"id":"a6mz5nvtg3lb","geo_precision":"range","state":"FL"},"type":"Feature","geometry":{"type":"Point","coordinates":[-82.486841,27.922503]}},{"properties":{"city":"Tampa","address1":"97  Biscayne Ave","name":"Davis Island Baptist Church","precinct":"125 - Absentee","geo_score":0.805,"mayoral":56,"id":"a6mz5nvcnxcd","geo_precision":"range","state":"FL"},"type":"Feature","geometry":{"type":"Point","coordinates":[-82.454578,27.925519]}},{"properties":{"city":"Tampa","address1":"59  Columbia Dr","name":"Sandra Freedman Tennis Complex","precinct":"127 - Absentee","geo_score":0.805,"mayoral":98,"id":"a6mz5nl3mnzg","geo_precision":"range","state":"FL"},"type":"Feature","geometry":{"type":"Point","coordinates":[-82.456263,27.933454]}},{"properties":{"city":"Tampa","address1":"821 S Rome Ave","name":"Kate Jackson Community Center","precinct":"129 - Absentee","geo_score":0.805,"mayoral":35,"id":"a6mz5nuaermt","geo_precision":"range","state":"FL"},"type":"Feature","geometry":{"type":"Point","coordinates":[-82.476878,27.934868]}},{"properties":{"city":"Tampa","address1":"2418 W Swann Ave","name":"St John Greek Orthodox Church","precinct":"131 - Absentee","geo_score":0.805,"mayoral":67,"id":"a6mz5nv5gqxk","geo_precision":"range","state":"FL"},"type":"Feature","geometry":{"type":"Point","coordinates":[-82.484547,27.937398]}},{"properties":{"city":"Tampa","address1":"3511  Bay To Bay Blvd","name":"Palma Ceia Baptist Church","precinct":"133 - Absentee","geo_score":0.782,"mayoral":59,"id":"a6mz5nt0rhdb","geo_precision":"range","state":"FL"},"type":"Feature","geometry":{"type":"Point","coordinates":[-82.500573,27.91975]}},{"properties":{"city":"Tampa","address1":"501 S Dale Mabry Hwy","name":"Good Shepherd Lutheran Church","precinct":"135 - Absentee","geo_score":0.805,"mayoral":81,"id":"a6mz5nndyq0e","geo_precision":"range","state":"FL"},"type":"Feature","geometry":{"type":"Point","coordinates":[-82.50573,27.940303]}},{"properties":{"city":"Tampa","address1":"4311 W San Miguel St","name":"St Marys Episcopal Church","precinct":"137 - Absentee","geo_score":0.805,"mayoral":100,"id":"a6mz5nrvxr08","geo_precision":"range","state":"FL"},"type":"Feature","geometry":{"type":"Point","coordinates":[-82.516396,27.92479]}},{"properties":{"city":"Tampa","address1":"821 S Dale Mabry Hwy","name":"Christ the King Catholic Church","precinct":"139 - Absentee","geo_score":0.805,"mayoral":78,"id":"a6mz5nw4qhxk","geo_precision":"range","state":"FL"},"type":"Feature","geometry":{"type":"Point","coordinates":[-82.505772,27.935495]}},{"properties":{"city":"Tampa","address1":"306 N Lincoln Ave","name":"Fellowship Masonic Lodge 265","precinct":"141 - Absentee","geo_score":0.805,"mayoral":35,"id":"a6mz5nv2542a","geo_precision":"range","state":"FL"},"type":"Feature","geometry":{"type":"Point","coordinates":[-82.497402,27.947347]}},{"properties":{"city":"Tampa","address1":"3001 W De Leon St","name":"Jewish Center Towers","precinct":"145 - Absentee","geo_score":0.805,"mayoral":14,"id":"a6mz5nouedv8","geo_precision":"range","state":"FL"},"type":"Feature","geometry":{"type":"Point","coordinates":[-82.491239,27.938663]}},{"properties":{"city":"Tampa","address1":"608 N Willow Ave","name":"Greater Tpa Showmens Association","precinct":"147 - Absentee","geo_score":0.805,"mayoral":1,"id":"a6mz5nxcqm2t","geo_precision":"range","state":"FL"},"type":"Feature","geometry":{"type":"Point","coordinates":[-82.472622,27.94894]}},{"properties":{"city":"Tampa","address1":"2418 W Swann Ave","name":"St John Greek Orthodox Church","precinct":"149 - Absentee","geo_score":0.805,"mayoral":5,"id":"a6mz5npm8et6","geo_precision":"range","state":"FL"},"type":"Feature","geometry":{"type":"Point","coordinates":[-82.484547,27.937398]}},{"properties":{"city":"Tampa","address1":"608 N Willow Ave","name":"Greater Tpa Showmens Association","precinct":"151 - Absentee","geo_score":0.805,"mayoral":10,"id":"a6mz5nnks9cr","geo_precision":"range","state":"FL"},"type":"Feature","geometry":{"type":"Point","coordinates":[-82.472622,27.94894]}},{"properties":{"city":"Tampa","address1":"821 S Rome Ave","name":"Kate Jackson Community Center","precinct":"153 - Absentee","geo_score":0.805,"mayoral":5,"id":"a6mz5njgjg93","geo_precision":"range","state":"FL"},"type":"Feature","geometry":{"type":"Point","coordinates":[-82.476878,27.934868]}},{"properties":{"city":"Tampa","address1":"350 S Hyde Park Ave","name":"Holy Trinity Presbyterian Church","precinct":"155 - Absentee","geo_score":0.805,"mayoral":18,"id":"a6mz5nyi228p","geo_precision":"range","state":"FL"},"type":"Feature","geometry":{"type":"Point","coordinates":[-82.463934,27.941094]}},{"properties":{"city":"Tampa","address1":"821 S Rome Ave","name":"Kate Jackson Community Center","precinct":"157 - Absentee","geo_score":0.805,"mayoral":6,"id":"a6mz5nw4eaoo","geo_precision":"range","state":"FL"},"type":"Feature","geometry":{"type":"Point","coordinates":[-82.476878,27.934868]}},{"properties":{"city":"Tampa","address1":"701  Channelside Dr","name":"The Florida Aquarium","precinct":"159 - Absentee","geo_score":0.805,"mayoral":76,"id":"a6mz5ntsq94h","geo_precision":"range","state":"FL"},"type":"Feature","geometry":{"type":"Point","coordinates":[-82.446072,27.94421]}},{"properties":{"city":"Tampa","address1":"302 W Kennedy Blvd","name":"First Baptist Church of Tampa","precinct":"161 - Absentee","geo_score":0.805,"mayoral":2,"id":"a6mz5nxtjfp7","geo_precision":"range","state":"FL"},"type":"Feature","geometry":{"type":"Point","coordinates":[-82.462782,27.945951]}},{"properties":{"city":"Tampa","address1":"400 E Harrison St","name":"Methodist Place Apartments","precinct":"163 - Absentee","geo_score":0.805,"mayoral":3,"id":"a6mz5njbdfy9","geo_precision":"range","state":"FL"},"type":"Feature","geometry":{"type":"Point","coordinates":[-82.45937,27.953146]}},{"properties":{"city":"Tampa","address1":"1207 N Jefferson St","name":"Greater Bethel Baptist Church","precinct":"165 - Absentee","geo_score":0.805,"mayoral":2,"id":"a6mz5nwk1y2u","geo_precision":"range","state":"FL"},"type":"Feature","geometry":{"type":"Point","coordinates":[-82.456491,27.954812]}},{"properties":{"city":"Tampa","address1":"1006 W Cypress St","name":"Beulah Baptist Institutional Church","precinct":"167 - Absentee","geo_score":0.805,"mayoral":0,"id":"a6mz5nzbd7h6","geo_precision":"range","state":"FL"},"type":"Feature","geometry":{"type":"Point","coordinates":[-82.470076,27.951981]}},{"properties":{"city":"Tampa","address1":"1006 W Cypress St","name":"Beulah Baptist Institutional Church","precinct":"169 - Absentee","geo_score":0.805,"mayoral":39,"id":"a6mz5nvthwiu","geo_precision":"range","state":"FL"},"type":"Feature","geometry":{"type":"Point","coordinates":[-82.470076,27.951981]}},{"properties":{"city":"Tampa","address1":"2606 W Grace St","name":"Mt Tabor MB Church","precinct":"171 - Absentee","geo_score":0.805,"mayoral":1,"id":"a6mz5nslmi7s","geo_precision":"range","state":"FL"},"type":"Feature","geometry":{"type":"Point","coordinates":[-82.486191,27.952835]}},{"properties":{"city":"Tampa","address1":"2606 W Grace St","name":"Mt Tabor MB Church","precinct":"173 - Absentee","geo_score":0.805,"mayoral":1,"id":"a6mz5nwx0wmi","geo_precision":"range","state":"FL"},"type":"Feature","geometry":{"type":"Point","coordinates":[-82.486191,27.952835]}},{"properties":{"city":"Tampa","address1":"306 N Lincoln Ave","name":"Fellowship Masonic Lodge 265","precinct":"175 - Absentee","geo_score":0.805,"mayoral":64,"id":"a6mz5nw83f6u","geo_precision":"range","state":"FL"},"type":"Feature","geometry":{"type":"Point","coordinates":[-82.497402,27.947347]}},{"properties":{"city":"Tampa","address1":"3810 W Kennedy Blvd","name":"USS Tampa Post #5  American Legion","precinct":"177 - Absentee","geo_score":0.805,"mayoral":7,"id":"a6mz5nup9ism","geo_precision":"range","state":"FL"},"type":"Feature","geometry":{"type":"Point","coordinates":[-82.505889,27.944823]}},{"properties":{"city":"Tampa","address1":"305 N Manhattan Ave","name":"Westshore Baptist Church","precinct":"179 - Absentee","geo_score":0.805,"mayoral":17,"id":"a6mz5nxqpjgt","geo_precision":"range","state":"FL"},"type":"Feature","geometry":{"type":"Point","coordinates":[-82.518061,27.946754]}},{"properties":{"city":"Tampa","address1":"305 N Manhattan Ave","name":"Westshore Baptist Church","precinct":"183 - Absentee","geo_score":0.805,"mayoral":12,"id":"a6mz5nvxvjvc","geo_precision":"range","state":"FL"},"type":"Feature","geometry":{"type":"Point","coordinates":[-82.518061,27.946754]}},{"properties":{"city":"Tampa","address1":"1615 N Hubert Ave","name":"Loretta Ingraham Community Center","precinct":"201 - Absentee","geo_score":0.805,"mayoral":6,"id":"a6mz5nmptk6m","geo_precision":"range","state":"FL"},"type":"Feature","geometry":{"type":"Point","coordinates":[-82.515901,27.956729]}},{"properties":{"city":"Tampa","address1":"1615 N Hubert Ave","name":"Loretta Ingraham Community Center","precinct":"203 - Absentee","geo_score":0.805,"mayoral":41,"id":"a6mz5nujrwpf","geo_precision":"range","state":"FL"},"type":"Feature","geometry":{"type":"Point","coordinates":[-82.515901,27.956729]}},{"properties":{"city":"Tampa","address1":"3005 W Columbus Dr","name":"West Tampa Convention Center","precinct":"205 - Absentee","geo_score":0.805,"mayoral":152,"id":"a6mz5nuk4k6e","geo_precision":"range","state":"FL"},"type":"Feature","geometry":{"type":"Point","coordinates":[-82.491167,27.966717]}},{"properties":{"city":"Tampa","address1":"3005 W Columbus Dr","name":"West Tampa Convention Center","precinct":"206 - Absentee","geo_score":0.805,"mayoral":0,"id":"a6mz5nyxpw56","geo_precision":"range","state":"FL"},"type":"Feature","geometry":{"type":"Point","coordinates":[-82.491167,27.966717]}},{"properties":{"city":"Tampa","address1":"1515 W Union St","name":"Mary Bethune High Rise","precinct":"207 - Absentee","geo_score":0.805,"mayoral":30,"id":"a6mz5ns4b2f8","geo_precision":"range","state":"FL"},"type":"Feature","geometry":{"type":"Point","coordinates":[-82.474871,27.957788]}},{"properties":{"city":"Tampa","address1":"110 E Palm Ave","name":"Bob Gilbertson Central City YMCA","precinct":"209 - Absentee","geo_score":0.805,"mayoral":26,"id":"a6mz5nvxln1g","geo_precision":"range","state":"FL"},"type":"Feature","geometry":{"type":"Point","coordinates":[-82.460775,27.962269]}},{"properties":{"city":"Tampa","address1":"2708  Central Ave","name":"St James House of Prayer Episcopal","precinct":"213 - Absentee","geo_score":0.778,"mayoral":12,"id":"a6mz5npioerq","geo_precision":"range","state":"FL"},"type":"Feature","geometry":{"type":"Point","coordinates":[-82.455251,27.966932]}},{"properties":{"city":"Tampa","address1":"110 E Palm Ave","name":"Bob Gilbertson Central City YMCA","precinct":"214 - Absentee","geo_score":0.805,"mayoral":5,"id":"a6mz5nnhsb0g","geo_precision":"range","state":"FL"},"type":"Feature","geometry":{"type":"Point","coordinates":[-82.460775,27.962269]}},{"properties":{"city":"Tampa","address1":"815 W Orient St","name":"Smyrna Baptist Church","precinct":"215 - Absentee","geo_score":0.805,"mayoral":3,"id":"a6mz5njix6u3","geo_precision":"range","state":"FL"},"type":"Feature","geometry":{"type":"Point","coordinates":[-82.469917,27.980671]}},{"properties":{"city":"Tampa","address1":"815 W Orient St","name":"Smyrna Baptist Church","precinct":"217 - Absentee","geo_score":0.805,"mayoral":99,"id":"a6mz5ntzk7e2","geo_precision":"range","state":"FL"},"type":"Feature","geometry":{"type":"Point","coordinates":[-82.469917,27.980671]}},{"properties":{"city":"Tampa","address1":"2301 N Howard Ave","name":"Rey Park Center","precinct":"218 - Absentee","geo_score":0.805,"mayoral":28,"id":"a6mz5npamzm7","geo_precision":"range","state":"FL"},"type":"Feature","geometry":{"type":"Point","coordinates":[-82.482862,27.961548]}},{"properties":{"city":"Tampa","address1":"4120 N MacDill Ave","name":"St John Presbyterian Church","precinct":"219 - Absentee","geo_score":0.805,"mayoral":126,"id":"a6mz5ny11bwo","geo_precision":"range","state":"FL"},"type":"Feature","geometry":{"type":"Point","coordinates":[-82.493039,27.976964]}},{"properties":{"city":"Tampa","address1":"4414 N Grady Ave","name":"Gateway Baptist Church","precinct":"221 - Absentee","geo_score":0.805,"mayoral":1,"id":"a6mz5nplpuf5","geo_precision":"range","state":"FL"},"type":"Feature","geometry":{"type":"Point","coordinates":[-82.50953,27.981808]}},{"properties":{"city":"Tampa","address1":"5201 N Armenia Ave","name":"Revealing Truth Ministries","precinct":"223 - Absentee","geo_score":0.805,"mayoral":62,"id":"a6mz5nzke5gf","geo_precision":"range","state":"FL"},"type":"Feature","geometry":{"type":"Point","coordinates":[-82.484457,27.993821]}},{"properties":{"city":"Tampa","address1":"3901  George Rd","name":"Skyway Football Complex","precinct":"225 - Absentee","geo_score":0.612,"mayoral":0,"id":"a6mz5nj9sjrq","geo_precision":"street","state":"FL"},"type":"Feature","geometry":{"type":"Point","coordinates":[-82.550619,27.974076]}},{"properties":{"city":"Tampa","address1":"5101 N Rome Ave","name":"Wellswood Baptist Church","precinct":"227 - Absentee","geo_score":0.805,"mayoral":101,"id":"a6mz5nxcbvwt","geo_precision":"range","state":"FL"},"type":"Feature","geometry":{"type":"Point","coordinates":[-82.476362,27.989485]}},{"properties":{"city":"Tampa","address1":"5103 N Central Ave","name":"St Paul Lutheran Church","precinct":"231 - Absentee","geo_score":0.805,"mayoral":61,"id":"a6mz5nqii4tg","geo_precision":"range","state":"FL"},"type":"Feature","geometry":{"type":"Point","coordinates":[-82.455276,27.992464]}},{"properties":{"city":"Tampa","address1":"5800 N Central Ave","name":"Seminole Garden Club","precinct":"233 - Absentee","geo_score":0.805,"mayoral":11,"id":"a6mz5npimfd4","geo_precision":"range","state":"FL"},"type":"Feature","geometry":{"type":"Point","coordinates":[-82.455329,27.99971]}},{"properties":{"city":"Tampa","address1":"5609 N Albany Ave","name":"St Chads Episcopal Church","precinct":"235 - Absentee","geo_score":0.805,"mayoral":36,"id":"a6mz5nqv75a2","geo_precision":"range","state":"FL"},"type":"Feature","geometry":{"type":"Point","coordinates":[-82.480305,27.998265]}},{"properties":{"city":"Tampa","address1":"6918 N Florida Ave","name":"American Legion Post 111","precinct":"237 - Absentee","geo_score":0.805,"mayoral":49,"id":"a6mz5nplzg5q","geo_precision":"range","state":"FL"},"type":"Feature","geometry":{"type":"Point","coordinates":[-82.45953,28.01102]}},{"properties":{"city":"Tampa","address1":"6815 N Rome Ave","name":"North Rome Baptist Church","precinct":"239 - Absentee","geo_score":0.805,"mayoral":17,"id":"a6mz5nxsqcbh","geo_precision":"range","state":"FL"},"type":"Feature","geometry":{"type":"Point","coordinates":[-82.476121,28.009377]}},{"properties":{"city":"Tampa","address1":"2526 W Sligh Ave","name":"Support, Inc","precinct":"240 - Absentee","geo_score":0.805,"mayoral":63,"id":"a6mz5nluu2kh","geo_precision":"range","state":"FL"},"type":"Feature","geometry":{"type":"Point","coordinates":[-82.484581,28.010748]}},{"properties":{"city":"Tampa","address1":"8220 N Florida Ave","name":"J L Young Apartments","precinct":"241 - Absentee","geo_score":0.805,"mayoral":2,"id":"a6mz5nkbqs74","geo_precision":"range","state":"FL"},"type":"Feature","geometry":{"type":"Point","coordinates":[-82.459511,28.022761]}},{"properties":{"city":"Tampa","address1":"2526 W Sligh Ave","name":"Support, Inc","precinct":"242 - Absentee","geo_score":0.805,"mayoral":0,"id":"a6mz5nq3xirz","geo_precision":"range","state":"FL"},"type":"Feature","geometry":{"type":"Point","coordinates":[-82.484581,28.010748]}},{"properties":{"city":"Tampa","address1":"724 W 109th Ave","name":"Forest Hills Community Center","precinct":"243 - Absentee","geo_score":0.805,"mayoral":19,"id":"a6mz5noziy45","geo_precision":"range","state":"FL"},"type":"Feature","geometry":{"type":"Point","coordinates":[-82.46488,28.047309]}},{"properties":{"city":"Tampa","address1":"2526 W Sligh Ave","name":"Support, Inc","precinct":"244 - Absentee","geo_score":0.805,"mayoral":0,"id":"a6mz5nnm5ths","geo_precision":"range","state":"FL"},"type":"Feature","geometry":{"type":"Point","coordinates":[-82.484581,28.010748]}},{"properties":{"city":"Tampa","address1":"709 W Linebaugh Ave","name":"Forest Hills Presbyterian Church","precinct":"245 - Absentee","geo_score":0.805,"mayoral":51,"id":"a6mz5nj8glum","geo_precision":"range","state":"FL"},"type":"Feature","geometry":{"type":"Point","coordinates":[-82.463672,28.039984]}},{"properties":{"city":"Tampa","address1":"6907 N Nebraska Ave","name":"St Francis Episcopal Church","precinct":"246 - Absentee","geo_score":0.805,"mayoral":2,"id":"a6mz5nqrll0m","geo_precision":"range","state":"FL"},"type":"Feature","geometry":{"type":"Point","coordinates":[-82.451303,28.010734]}},{"properties":{"city":"Tampa","address1":"10401 N Florida Ave","name":"Bethanie French Seventh Day Advn Ch","precinct":"247 - Absentee","geo_score":0.805,"mayoral":2,"id":"a6mz5nzmwt2h","geo_precision":"range","state":"FL"},"type":"Feature","geometry":{"type":"Point","coordinates":[-82.459434,28.04364]}},{"properties":{"city":"Tampa","address1":"10902 N Armenia Ave","name":"Discovery Christian Church","precinct":"249 - Absentee","geo_score":0.805,"mayoral":60,"id":"a6mz5nyojman","geo_precision":"range","state":"FL"},"type":"Feature","geometry":{"type":"Point","coordinates":[-82.479727,28.048451]}},{"properties":{"city":"Tampa","address1":"10902 N Armenia Ave","name":"Discovery Christian Church","precinct":"250 - Absentee","geo_score":0.805,"mayoral":0,"id":"a6mz5njr69u8","geo_precision":"range","state":"FL"},"type":"Feature","geometry":{"type":"Point","coordinates":[-82.479727,28.048451]}},{"properties":{"city":"Tampa","address1":"724 W 109th Ave","name":"Forest Hills Community Center","precinct":"251 - Absentee","geo_score":0.805,"mayoral":5,"id":"a6mz5noi5mbl","geo_precision":"range","state":"FL"},"type":"Feature","geometry":{"type":"Point","coordinates":[-82.46488,28.047309]}},{"properties":{"city":"Tampa","address1":"2617  Corrine St","name":"Desoto Park","precinct":"301 - Absentee","geo_score":0.776,"mayoral":12,"id":"a6mz5nkzq9fn","geo_precision":"range","state":"FL"},"type":"Feature","geometry":{"type":"Point","coordinates":[-82.430044,27.948378]}},{"properties":{"city":"Tampa","address1":"2101  Lowe St","name":"Allen Temple AME Church","precinct":"303 - Absentee","geo_score":0.805,"mayoral":11,"id":"a6mz5nwuqevz","geo_precision":"range","state":"FL"},"type":"Feature","geometry":{"type":"Point","coordinates":[-82.447499,27.962403]}},{"properties":{"city":"Tampa","address1":"2511 E Columbus Dr","name":"New Mt Zion Baptist Church","precinct":"305 - Absentee","geo_score":0.805,"mayoral":65,"id":"a6mz5nqrkeb2","geo_precision":"range","state":"FL"},"type":"Feature","geometry":{"type":"Point","coordinates":[-82.431563,27.966799]}},{"properties":{"city":"Tampa","address1":"3724 N 54th St","name":"Grant Park","precinct":"307 - Absentee","geo_score":0.721,"mayoral":25,"id":"a6mz5ns90am8","geo_precision":"range","state":"FL"},"type":"Feature","geometry":{"type":"Point","coordinates":[-82.395292,27.978215]}},{"properties":{"city":"Tampa","address1":"5300 E 14th Ave","name":"Oak Park Center","precinct":"308 - Absentee","geo_score":0.732,"mayoral":0,"id":"a6mz5nwy6upm","geo_precision":"range","state":"FL"},"type":"Feature","geometry":{"type":"Point","coordinates":[-82.396568,27.964955]}},{"properties":{"city":"Tampa","address1":"3310 E Lake Ave","name":"Jackson Heights NFL YET Center","precinct":"309 - Absentee","geo_score":0.805,"mayoral":45,"id":"a6mz5njbl7x0","geo_precision":"range","state":"FL"},"type":"Feature","geometry":{"type":"Point","coordinates":[-82.423401,27.977801]}},{"properties":{"city":"Tampa","address1":"3515  Sarah St","name":"Wilbert Davis Brnch B&amp;G Clb Tpa Bay","precinct":"316 - Absentee","geo_score":0.805,"mayoral":0,"id":"a6mz5nt1gyjg","geo_precision":"range","state":"FL"},"type":"Feature","geometry":{"type":"Point","coordinates":[-82.438163,27.976134]}},{"properties":{"city":"Tampa","address1":"1200 E Lake Ave","name":"Ragan Park","precinct":"317 - Absentee","geo_score":0.805,"mayoral":29,"id":"a6mz5nmdxy5b","geo_precision":"range","state":"FL"},"type":"Feature","geometry":{"type":"Point","coordinates":[-82.44708,27.977814]}},{"properties":{"city":"Tampa","address1":"801 E Hillsborough Ave","name":"Seminole Heights Baptist Church","precinct":"318 - Absentee","geo_score":0.707,"mayoral":26,"id":"a6mz5nur14p9","geo_precision":"street","state":"FL"},"type":"Feature","geometry":{"type":"Point","coordinates":[-82.452187,27.996095]}},{"properties":{"city":"Tampa","address1":"801 E Hillsborough Ave","name":"Seminole Heights Baptist Church","precinct":"319 - Absentee","geo_score":0.707,"mayoral":34,"id":"a6mz5ns15ebc","geo_precision":"street","state":"FL"},"type":"Feature","geometry":{"type":"Point","coordinates":[-82.452187,27.996095]}},{"properties":{"city":"Tampa","address1":"2607 E Dr Martin Luther King Jr Blvd","name":"College Hill Branch Library","precinct":"321 - Absentee","geo_score":0.598,"mayoral":52,"id":"a6mz5nsc2xrk","geo_precision":"street","state":"FL"},"type":"Feature","geometry":{"type":"Point","coordinates":[-82.505386,27.981558]}},{"properties":{"city":"Tampa","address1":"5019 N 34th St","name":"Fair Oaks Recreation Center","precinct":"325 - Absentee","geo_score":0.721,"mayoral":54,"id":"a6mz5nwy7y0u","geo_precision":"range","state":"FL"},"type":"Feature","geometry":{"type":"Point","coordinates":[-82.422433,27.991501]}},{"properties":{"city":"Tampa","address1":"2510 E Hanna Ave","name":"Epiphany of Our Lord Church","precinct":"327 - Absentee","geo_score":0.805,"mayoral":44,"id":"a6mz5nz98s3j","geo_precision":"range","state":"FL"},"type":"Feature","geometry":{"type":"Point","coordinates":[-82.432509,28.003359]}},{"properties":{"city":"Tampa","address1":"6304 N 30th St","name":"Cathedral of Faith Church","precinct":"329 - Absentee","geo_score":0.721,"mayoral":48,"id":"a6mz5nuxj8hw","geo_precision":"range","state":"FL"},"type":"Feature","geometry":{"type":"Point","coordinates":[-82.426515,28.004156]}},{"properties":{"city":"Tampa","address1":"2510 E Hanna Ave","name":"Epiphany Of Our Lord Church","precinct":"330 - Absentee","geo_score":0.805,"mayoral":1,"id":"a6mz5nv0y76p","geo_precision":"range","state":"FL"},"type":"Feature","geometry":{"type":"Point","coordinates":[-82.432509,28.003359]}},{"properties":{"city":"Tampa","address1":"2709 E Hanna Ave","name":"Hillsborough County Fire Rescue","precinct":"331 - Absentee","geo_score":0.805,"mayoral":12,"id":"a6mz5njfohq6","geo_precision":"range","state":"FL"},"type":"Feature","geometry":{"type":"Point","coordinates":[-82.429558,28.003369]}},{"properties":{"city":"Tampa","address1":"6400 N 15th St","name":"Northeast United Methodist Church","precinct":"333 - Absentee","geo_score":0.721,"mayoral":17,"id":"a6mz5nvb5l9d","geo_precision":"range","state":"FL"},"type":"Feature","geometry":{"type":"Point","coordinates":[-82.442976,28.00517]}},{"properties":{"city":"Tampa","address1":"6400 N 15th St","name":"Northeast United Methodist Church","precinct":"334 - Absentee","geo_score":0.721,"mayoral":0,"id":"a6mz5nqpex3c","geo_precision":"range","state":"FL"},"type":"Feature","geometry":{"type":"Point","coordinates":[-82.442976,28.00517]}},{"properties":{"city":"Tampa","address1":"6907 N Nebraska Ave","name":"St Francis Episcopal Church","precinct":"335 - Absentee","geo_score":0.805,"mayoral":19,"id":"a6mz5nvdvk7t","geo_precision":"range","state":"FL"},"type":"Feature","geometry":{"type":"Point","coordinates":[-82.451303,28.010734]}},{"properties":{"city":"Tampa","address1":"6111 N Central Ave","name":"Seminole Heights United Methodist","precinct":"336 - Absentee","geo_score":0.805,"mayoral":4,"id":"a6mz5nu0cnmr","geo_precision":"range","state":"FL"},"type":"Feature","geometry":{"type":"Point","coordinates":[-82.455374,28.002545]}},{"properties":{"city":"Tampa","address1":"8608 N 12th St","name":"George Bartholomew Recreation Ctr","precinct":"337 - Absentee","geo_score":0.721,"mayoral":5,"id":"a6mz5nq7id8j","geo_precision":"range","state":"FL"},"type":"Feature","geometry":{"type":"Point","coordinates":[-82.447309,28.027922]}},{"properties":{"city":"Tampa","address1":"1611 E Bougainvillea","name":"New Life Pentecostal Church of God","precinct":"338 - Absentee","geo_score":0.753,"mayoral":13,"id":"a6mz5nl74xov","geo_precision":"range","state":"FL"},"type":"Feature","geometry":{"type":"Point","coordinates":[-82.441392,28.043578]}},{"properties":{"city":"Tampa","address1":"8116 N 37th St","name":"Temple Crest Community Center","precinct":"339 - Absentee","geo_score":0.721,"mayoral":27,"id":"a6mz5nle62is","geo_precision":"range","state":"FL"},"type":"Feature","geometry":{"type":"Point","coordinates":[-82.418028,28.021968]}},{"properties":{"city":"Tampa","address1":"201 E Yukon St","name":"Firemens Benevolent Assoc. Hall","precinct":"340 - Absentee","geo_score":0.805,"mayoral":2,"id":"a6mz5nt2lr7y","geo_precision":"range","state":"FL"},"type":"Feature","geometry":{"type":"Point","coordinates":[-82.458727,28.029048]}},{"properties":{"city":"Tampa","address1":"8718 N 46th St","name":"Bible Based Fellowship Church","precinct":"341 - Absentee","geo_score":0.721,"mayoral":35,"id":"a6mz5nksu3eu","geo_precision":"range","state":"FL"},"type":"Feature","geometry":{"type":"Point","coordinates":[-82.409933,28.031678]}},{"properties":{"city":"Tampa","address1":"5030 E Busch Blvd","name":"Temple Terrace United Methodist Ch","precinct":"343 - Absentee","geo_score":0.805,"mayoral":53,"id":"a6mz5nntebm3","geo_precision":"range","state":"FL"},"type":"Feature","geometry":{"type":"Point","coordinates":[-82.399643,28.032632]}},{"properties":{"city":"Tampa","address1":"8608 N 12th St","name":"George Bartholomew Recreation Ctr","precinct":"344 - Absentee","geo_score":0.721,"mayoral":29,"id":"a6mz5nzemfpg","geo_precision":"range","state":"FL"},"type":"Feature","geometry":{"type":"Point","coordinates":[-82.447309,28.027922]}},{"properties":{"city":"Tampa","address1":"2202 E Busch Blvd","name":"First Church Of God","precinct":"345 - Absentee","geo_score":0.805,"mayoral":37,"id":"a6mz5nslbn6x","geo_precision":"range","state":"FL"},"type":"Feature","geometry":{"type":"Point","coordinates":[-82.434619,28.032553]}},{"properties":{"city":"Tampa","address1":"11001 N 15th St","name":"Copeland Park","precinct":"347 - Absentee","geo_score":0.721,"mayoral":42,"id":"a6mz5noc8zt8","geo_precision":"range","state":"FL"},"type":"Feature","geometry":{"type":"Point","coordinates":[-82.442876,28.050939]}},{"properties":{"city":"Tampa","address1":"4202 E Fowler Ave","name":"USF Marshall Center","precinct":"353 - Absentee","geo_score":0.805,"mayoral":0,"id":"a6mz5nygdt5d","geo_precision":"range","state":"FL"},"type":"Feature","geometry":{"type":"Point","coordinates":[-82.413973,28.054459]}},{"properties":{"city":"Tampa","address1":"16221  Compton Dr","name":"New Tampa Family YMCA","precinct":"357 - Absentee","geo_score":0.805,"mayoral":38,"id":"a6mz5nqgp7qv","geo_precision":"range","state":"FL"},"type":"Feature","geometry":{"type":"Point","coordinates":[-82.387093,28.101352]}},{"properties":{"city":"Tampa","address1":"16101  Compton Dr","name":"Compton Park Recreation Center","precinct":"358 - Absentee","geo_score":0.805,"mayoral":27,"id":"a6mz5nw4bagd","geo_precision":"range","state":"FL"},"type":"Feature","geometry":{"type":"Point","coordinates":[-82.387424,28.100268]}},{"properties":{"city":"Tampa","address1":"5340  Primrose Lake Cir","name":"St Andrews Presbyterian Church","precinct":"359 - Absentee","geo_score":0.805,"mayoral":62,"id":"a6mz5nxf4v9o","geo_precision":"range","state":"FL"},"type":"Feature","geometry":{"type":"Point","coordinates":[-82.380781,28.125459]}},{"properties":{"city":"Tampa","address1":"10001  Cross Creek Blvd","name":"New Tampa Regional Library","precinct":"361 - Absentee","geo_score":0.805,"mayoral":72,"id":"a6mz5nyfderj","geo_precision":"range","state":"FL"},"type":"Feature","geometry":{"type":"Point","coordinates":[-82.331353,28.142093]}},{"properties":{"city":"Tampa","address1":"15820  Morris Bridge Rd","name":"Cypress Point Community Church","precinct":"363 - Absentee","geo_score":0.547,"mayoral":44,"id":"a6mz5nz38j4u","geo_precision":"street","state":"FL"},"type":"Feature","geometry":{"type":"Point","coordinates":[-82.349065,28.072065]}},{"properties":{"city":"Tampa","address1":"5340  Primrose Lake Cir","name":"St Andrew Presbyterian Church","precinct":"365 - Absentee","geo_score":0.805,"mayoral":6,"id":"a6mz5ntkgqyd","geo_precision":"range","state":"FL"},"type":"Feature","geometry":{"type":"Point","coordinates":[-82.380781,28.125459]}},{"properties":{"city":"Tampa","address1":"8401  New Tampa Blvd","name":"West Meadows Community Club","precinct":"367 - Absentee","geo_score":0.805,"mayoral":48,"id":"a6mz5nvki53l","geo_precision":"range","state":"FL"},"type":"Feature","geometry":{"type":"Point","coordinates":[-82.370223,28.147051]}}],"is_temporal":false,"author":{"url":"","metadata":"","contact_name":"","contact_address":"","source":"","contact_phone":""},"source":"","pagination":{"sort":null,"start":0,"total":112,"limit":1000000},"state":"complete","tags":"","published":"2014-08-10T19:35:09-04:00","id":95845}