{"type":"FeatureCollection","data_type":"Dataset","url_type":null,"permissions":[{"permissions":{"download":true,"view":true},"group_id":"everyone"}],"classification":null,"title":"NCAA Men's Lacrosse Matchup Locations, USA, 2.21.2009","count":38,"stream_id":9599,"contributor":{"url":"http://geocommons.com/users/139","name":"Burkey"},"data_attributes":null,"calculation_params":null,"icon_link":null,"link":"http://geocommons.com/overlays/9599.json","extent":[-122.517,33.9784,-70.8423,42.6807],"geometry_types":["point"],"unique_name":null,"name":"NCAA Men's Lacrosse Matchup Locations, USA, 2.21.2009","feature_count":38,"description":"This dataset displays the locations of sites were NCAA Men's Lacrosse matchups will be taking on Saturday, February 21st, 2009. \n\nThe data comes from LaxPower and includes: Matchup, time, location, city, state, lat/lon location\n","next_feature":null,"is_raster":false,"short_classification":"Y","stats":{"lon":{"max":-70.842253,"mean":-80.6313594473684,"variance":155.3565489626,"stdev":12.4642107236118,"min":-122.517217,"median":-76.700229},"lat":{"max":42.680683,"mean":38.8509839736842,"variance":6.10740005544105,"stdev":2.47131545041119,"min":33.978435,"median":39.422907}},"features":[{"properties":{"city":"Coraopolis","lon":-80.216242,"time":"1:00 PM","matchup":"Bellarmine at Robert Morris","id":"a62sd46f6g4f","lat":40.521189,"location":"Robert Morris","state":"PA"},"type":"Feature","geometry":{"type":"Point","coordinates":[-80.216242,40.521189]}},{"properties":{"city":"Gaffney","lon":-81.643348,"time":"1:00 PM","matchup":"Belmont Abbey at Limestone","id":"a62sd3zpnjjp","lat":35.055415,"location":"Limestone","state":"SC"},"type":"Feature","geometry":{"type":"Point","coordinates":[-81.643348,35.055415]}},{"properties":{"city":"Bethlehem","lon":-75.359732,"time":"1:00 PM","matchup":"Brown at Lehigh","id":"a62sd41337b6","lat":40.586483,"location":"Lehigh","state":"PA"},"type":"Feature","geometry":{"type":"Point","coordinates":[-75.359732,40.586483]}},{"properties":{"city":"Columbus","lon":-83.029291,"time":"12:00 PM","matchup":"Bucknell at Ohio State","id":"a62sd3v111tp","lat":40.012652,"location":"Ohio State","state":"OH"},"type":"Feature","geometry":{"type":"Point","coordinates":[-83.029291,40.012652]}},{"properties":{"city":"Priceton","lon":-74.649966,"time":"1:00 PM","matchup":"Canisius at Princeton","id":"a62sd3ssynpb","lat":40.345744,"location":"Princeton","state":"NJ"},"type":"Feature","geometry":{"type":"Point","coordinates":[-74.649966,40.345744]}},{"properties":{"city":"Binghamton","lon":-75.966046,"time":"1:00 PM","matchup":"Cornell at Binghamton","id":"a62sd424l7rz","lat":42.092683,"location":"Binghamton","state":"NY"},"type":"Feature","geometry":{"type":"Point","coordinates":[-75.966046,42.092683]}},{"properties":{"city":"Hartford","lon":-72.702778,"time":"1:00 PM","matchup":"Dartmouth at Hartford","id":"a62sd444he3i","lat":41.765242,"location":"Hartford","state":"CT"},"type":"Feature","geometry":{"type":"Point","coordinates":[-72.702778,41.765242]}},{"properties":{"city":"Fairfield","lon":-73.25819,"time":"1:00 PM","matchup":"Delaware at Fairfield","id":"a62sd3zv2i0i","lat":41.161692,"location":"Fairfield","state":"CT"},"type":"Feature","geometry":{"type":"Point","coordinates":[-73.25819,41.161692]}},{"properties":{"city":"Albany","lon":-73.827027,"time":"1:00 PM","matchup":"Denver at Albany","id":"a62sd3z84rtu","lat":42.680683,"location":"Albany","state":"NY"},"type":"Feature","geometry":{"type":"Point","coordinates":[-73.827027,42.680683]}},{"properties":{"city":"College Park","lon":-76.947266,"time":"1:00 PM","matchup":"Georgetown at Maryland","id":"a62sd3vtdd3h","lat":38.990266,"location":"Maryland","state":"MD"},"type":"Feature","geometry":{"type":"Point","coordinates":[-76.947266,38.990266]}},{"properties":{"city":"Greensboro","lon":-79.885991,"time":"12:00 PM","matchup":"Goucher at Guilford","id":"a62sd3stbi5t","lat":36.091502,"location":"Guilford","state":"NC"},"type":"Feature","geometry":{"type":"Point","coordinates":[-79.885991,36.091502]}},{"properties":{"city":"Washington","lon":-77.002786,"time":"1:00 PM","matchup":"Gwynedd-Mercy at Catholic","id":"a62sd3zpxkjf","lat":38.928495,"location":"Catholic","state":"DC"},"type":"Feature","geometry":{"type":"Point","coordinates":[-77.002786,38.928495]}},{"properties":{"city":"Philadelphia","lon":-75.236598,"time":"1:00 PM","matchup":"Hobart at Saint Joseph's","id":"a62sd3ybd8ii","lat":39.994637,"location":"Saint Joseph's","state":"PA"},"type":"Feature","geometry":{"type":"Point","coordinates":[-75.236598,39.994637]}},{"properties":{"city":"Norfolk","lon":-76.183575,"time":"1:00 PM","matchup":"Hood at Virginia Wesleyan","id":"a62sd3t0epjq","lat":36.870486,"location":"Virginia Wesleyan","state":"VA"},"type":"Feature","geometry":{"type":"Point","coordinates":[-76.183575,36.870486]}},{"properties":{"city":"Charlotte","lon":-80.854839,"time":"2:00 PM","matchup":"Lees-McRae at Queens U. of Charlotte","id":"a62sd3s2wlu5","lat":35.158751,"location":"Queens U. of Charlotte","state":"NC"},"type":"Feature","geometry":{"type":"Point","coordinates":[-80.854839,35.158751]}},{"properties":{"city":"Laurinburg","lon":-79.480183,"time":"2:00 PM","matchup":"Mars Hill at St. Andrews","id":"a62sd4866zqn","lat":34.748507,"location":"St. Andrews","state":"NC"},"type":"Feature","geometry":{"type":"Point","coordinates":[-79.480183,34.748507]}},{"properties":{"city":"Hampden-Sydney","lon":-78.455328,"time":"1:00 PM","matchup":"Mary Washington at Hampden-Sydney","id":"a62sd46q4g5f","lat":37.246564,"location":"Hampden-Sydney","state":"VA"},"type":"Feature","geometry":{"type":"Point","coordinates":[-78.455328,37.246564]}},{"properties":{"city":"Newport News","lon":-76.500745,"time":"1:00 PM","matchup":"Marymount at Christopher Newport","id":"a62sd46xl5ei","lat":37.064741,"location":"Christopher Newport","state":"VA"},"type":"Feature","geometry":{"type":"Point","coordinates":[-76.500745,37.064741]}},{"properties":{"city":"Hempstead","lon":-73.596183,"time":"1:00 PM","matchup":"Massachusetts at Hofstra","id":"a62sd47tu45j","lat":40.715534,"location":"Hofstra","state":"NY"},"type":"Feature","geometry":{"type":"Point","coordinates":[-73.596183,40.715534]}},{"properties":{"city":"Bethlehem","lon":-75.376525,"time":"1:00 PM","matchup":"Montclair State at Moravian","id":"a62sd46j0cup","lat":40.630234,"location":"Moravian","state":"PA"},"type":"Feature","geometry":{"type":"Point","coordinates":[-75.376525,40.630234]}},{"properties":{"city":"Beverly","lon":-70.842253,"time":"3:30 PM","matchup":"Oneonta at Endicott","id":"a62sd437ue5s","lat":42.555535,"location":"Endicott","state":"MA"},"type":"Feature","geometry":{"type":"Point","coordinates":[-70.842253,42.555535]}},{"properties":{"city":"Philadelphia","lon":-75.207869,"time":"12:00 PM","matchup":"Penn at Drexel","id":"a62sd45xzncd","lat":39.959769,"location":"Drexel","state":"PA"},"type":"Feature","geometry":{"type":"Point","coordinates":[-75.207869,39.959769]}},{"properties":{"city":"Salisbury","lon":-80.486284,"time":"2:00 PM","matchup":"Pfeiffer at Catawba","id":"a62sd3yq1vsc","lat":35.692286,"location":"Catawba","state":"NC"},"type":"Feature","geometry":{"type":"Point","coordinates":[-80.486284,35.692286]}},{"properties":{"city":"Queens","lon":-73.796804,"time":"1:00 PM","matchup":"Quinnipiac at St. John's","id":"a62sd3wt11lk","lat":40.722793,"location":"St. John's","state":"NY"},"type":"Feature","geometry":{"type":"Point","coordinates":[-73.796804,40.722793]}},{"properties":{"city":"Baltimore","lon":-76.707548,"time":"1:00 PM","matchup":"Rutgers at UMBC","id":"a62sd3ty0mzf","lat":39.25052,"location":"UMBC","state":"MD"},"type":"Feature","geometry":{"type":"Point","coordinates":[-76.707548,39.25052]}},{"properties":{"city":"Lynchburg","lon":-79.183261,"time":"1:00 PM","matchup":"Salisbury at Lynchburg","id":"a62sd3z6x96n","lat":37.398391,"location":"Lynchburg","state":"VA"},"type":"Feature","geometry":{"type":"Point","coordinates":[-79.183261,37.398391]}},{"properties":{"city":"Nashville","lon":-86.836625,"time":"12:00 PM","matchup":"Sewanee vs. Wittenberg","id":"a62sd3xahun0","lat":36.127681,"location":"Montgomery Bell Academy","state":"TN"},"type":"Feature","geometry":{"type":"Point","coordinates":[-86.836625,36.127681]}},{"properties":{"city":"Whittier","lon":-118.024875,"time":"3:00 PM","matchup":"Southern Maine vs. Grand Canyon","id":"a62sd3zul7qz","lat":33.978435,"location":"Whittier","state":"CA"},"type":"Feature","geometry":{"type":"Point","coordinates":[-118.024875,33.978435]}},{"properties":{"city":"San Rafael","lon":-122.517217,"time":"2:00 PM","matchup":"St. Mary's (CA) at Dominican U","id":"a62sd3x0jopg","lat":37.980511,"location":"Dominican U","state":"CA"},"type":"Feature","geometry":{"type":"Point","coordinates":[-122.517217,37.980511]}},{"properties":{"city":"Baltimore","lon":-76.618009,"time":"1:00 PM","matchup":"Towson at Loyola","id":"a62sd3vsk0vo","lat":39.346037,"location":"Loyola","state":"MD"},"type":"Feature","geometry":{"type":"Point","coordinates":[-76.618009,39.346037]}},{"properties":{"city":"Granville","lon":-82.525288,"time":"1:00 PM","matchup":"Trine at Denison","id":"a62sd40sm2vm","lat":40.078856,"location":"Denison","state":"OH"},"type":"Feature","geometry":{"type":"Point","coordinates":[-82.525288,40.078856]}},{"properties":{"city":"Clinton","lon":-81.86146,"time":"1:00 PM","matchup":"VMI at Presbyterian","id":"a62sd3tivoqa","lat":34.461601,"location":"Presbyterian","state":"SC"},"type":"Feature","geometry":{"type":"Point","coordinates":[-81.86146,34.461601]}},{"properties":{"city":"Easton","lon":-75.241779,"time":"1:00 PM","matchup":"Villanova at Lafayette","id":"a62sd3u569fc","lat":40.735686,"location":"Lafayette","state":"PA"},"type":"Feature","geometry":{"type":"Point","coordinates":[-75.241779,40.735686]}},{"properties":{"city":"Stony Brook","lon":-73.124308,"time":"1:00 PM","matchup":"Virginia at Stony Brook","id":"a62sd448p331","lat":40.918879,"location":"Stony Brook","state":"NY"},"type":"Feature","geometry":{"type":"Point","coordinates":[-73.124308,40.918879]}},{"properties":{"city":"Belmont","lon":-122.28425,"time":"1:00 PM","matchup":"Whittier at Notre Dame de Namur","id":"a62sd3wfhdas","lat":37.515565,"location":"Notre Dame de Namur","state":"CA"},"type":"Feature","geometry":{"type":"Point","coordinates":[-122.28425,37.515565]}},{"properties":{"city":"Stevenson","lon":-76.700229,"time":"12:00 PM","matchup":"Widener at Stevenson","id":"a62sd3x22pnc","lat":39.422907,"location":"Stevenson","state":"MD"},"type":"Feature","geometry":{"type":"Point","coordinates":[-76.700229,39.422907]}},{"properties":{"city":"Worcester","lon":-71.805399,"time":"12:00 PM","matchup":"Yale at Holy Cross","id":"a62sd46c30tc","lat":42.233492,"location":"Holy Cross","state":"MA"},"type":"Feature","geometry":{"type":"Point","coordinates":[-71.805399,42.233492]}},{"properties":{"city":"Salem","lon":-80.055562,"time":"2:00 PM","matchup":"York at Roanoke","id":"a62sd3s2mjzn","lat":37.296947,"location":"Roanoke","state":"VA"},"type":"Feature","geometry":{"type":"Point","coordinates":[-80.055562,37.296947]}}],"is_temporal":true,"author":{"url":"http://www.laxpower.com/calendar/gcalendar.php# ","metadata":"","contact_name":"","contact_address":"","source":"LaxPower","contact_phone":""},"source":"http://www.laxpower.com/calendar/gcalendar.php# ","pagination":{"sort":null,"start":0,"total":38,"limit":1000000},"state":"complete","tags":"athletics,college,lacrosse,ncaa","published":"2009-02-21T12:00:00Z","id":9599}