{"type":"FeatureCollection","data_type":"Dataset","url_type":null,"permissions":[{"permissions":{"download":true,"view":true},"group_id":"everyone"}],"classification":null,"title":"publiclibraries.com, Vermont Public Libraries, Vermont, 1.2008","count":193,"stream_id":960,"contributor":{"url":"http://geocommons.com/users/2","name":"data"},"data_attributes":null,"calculation_params":null,"icon_link":null,"link":"http://geocommons.com/overlays/960.json","extent":[-87.6226,35.612,-71.5386,45.0057],"geometry_types":["point"],"unique_name":null,"name":"publiclibraries.com, Vermont Public Libraries, Vermont, 1.2008","feature_count":193,"description":"This dataset displays the locations of all the public libraries in the state of Vermont. The data included is the name of the library, name of the library system, library's address, phone, and lat/lon coordinates. The data came from publiclibraries.com which is a updated directory of all the public libraries throughout the United States.\n","next_feature":null,"is_raster":false,"short_classification":"Y","stats":{"lon":{"max":-71.538628,"mean":-72.8229660673576,"variance":1.71976628092638,"stdev":1.31139859727177,"min":-87.622627,"median":-72.681862},"zip":{"max":5906,"mean":5491.63730569948,"variance":78263.0969343696,"stdev":279.75542342262,"min":5030,"median":5476},"lat":{"max":45.005661,"mean":43.9102013626943,"variance":1.01221841609174,"stdev":1.0060906599764,"min":35.611984,"median":44.093151}},"features":[{"properties":{"city":"S. Pomfret","lon":-72.539139,"zip":5067,"librarysystem":"","phone":"TEL:  457-2236","id":"a62cstuatpo8","address":"Library St. &amp; Stage Rd.","lat":43.664822,"libraryname":"Abbott Memorial Library","state":"VT"},"type":"Feature","geometry":{"type":"Point","coordinates":[-72.539139,43.664822]}},{"properties":{"city":"Williamstown","lon":-72.541443,"zip":5679,"librarysystem":"","phone":"TEL:  433-5887","id":"a62cstz7a4ec","address":"2338 VT Rte 14","lat":44.122559,"libraryname":"Ainsworth Public Library","state":"VT"},"type":"Feature","geometry":{"type":"Point","coordinates":[-72.541443,44.122559]}},{"properties":{"city":"Albany","lon":-72.378761,"zip":5820,"librarysystem":"","phone":"TEL:  755-6107","id":"a62cstx5o2rz","address":"530 Main St.","lat":44.735027,"libraryname":"Albany Town Library","state":"VT"},"type":"Feature","geometry":{"type":"Point","coordinates":[-72.378761,44.735027]}},{"properties":{"city":"Alburg","lon":-73.298759,"zip":5440,"librarysystem":"","phone":"TEL:  796-6077","id":"a62cstscaxph","address":"14 N. Main  St.","lat":44.978668,"libraryname":"Alburg Community Ed. Ctr. Library","state":"VT"},"type":"Feature","geometry":{"type":"Point","coordinates":[-73.298759,44.978668]}},{"properties":{"city":"Alburg","lon":-73.301094,"zip":5440,"librarysystem":"","phone":"TEL:  796-6077","id":"a62csty5n2ki","address":"16 S. Main St.","lat":44.975208,"libraryname":"Alburg Public Library","state":"VT"},"type":"Feature","geometry":{"type":"Point","coordinates":[-73.301094,44.975208]}},{"properties":{"city":"Lunenburg","lon":-71.681252,"zip":5906,"librarysystem":"","phone":"TEL:  892-5365","id":"a62cstyokfrd","address":"24 E. Main St.","lat":44.463131,"libraryname":"Alden Balch Memorial Library","state":"VT"},"type":"Feature","geometry":{"type":"Point","coordinates":[-71.681252,44.463131]}},{"properties":{"city":"Barre","lon":-72.500969,"zip":5641,"librarysystem":"","phone":"TEL:  476-7550","id":"a62cstzfqr4r","address":"6 Washington St.","lat":44.197342,"libraryname":"Aldrich Public Library","state":"VT"},"type":"Feature","geometry":{"type":"Point","coordinates":[-72.500969,44.197342]}},{"properties":{"city":"Barre","lon":-72.500969,"zip":5641,"librarysystem":"","phone":"TEL:  476-5118","id":"a62csu0dqahv","address":"6 Washington St.","lat":44.197342,"libraryname":"Aldrich Public Library - East Barre Branch","state":"VT"},"type":"Feature","geometry":{"type":"Point","coordinates":[-72.500969,44.197342]}},{"properties":{"city":"Canaan","lon":-71.538628,"zip":5903,"librarysystem":"","phone":"TEL:  266-7135","id":"a62csu2xczso","address":"27 Park St.","lat":44.99638,"libraryname":"Alice M. Ward Memorial Library","state":"VT"},"type":"Feature","geometry":{"type":"Point","coordinates":[-71.538628,44.99638]}},{"properties":{"city":"Richford","lon":-72.673149,"zip":5476,"librarysystem":"","phone":"TEL:  848-3313","id":"a62cstths3sx","address":"88 Main St.","lat":44.995018,"libraryname":"Arvin A. Brown Public Library","state":"VT"},"type":"Feature","geometry":{"type":"Point","coordinates":[-72.673149,44.995018]}},{"properties":{"city":"N. Clarendon","lon":-72.968117,"zip":5759,"librarysystem":"","phone":"TEL:  747-7743","id":"a62cstp7qysu","address":"111 Moulton Ave.","lat":43.564621,"libraryname":"Bailey Memorial Library","state":"VT"},"type":"Feature","geometry":{"type":"Point","coordinates":[-72.968117,43.564621]}},{"properties":{"city":"Wells River","lon":-72.045692,"zip":5081,"librarysystem":"","phone":"TEL:  757-2693","id":"a62cstv5nze2","address":"33 Main St.","lat":44.152332,"libraryname":"Baldwin Memorial Library","state":"VT"},"type":"Feature","geometry":{"type":"Point","coordinates":[-72.045692,44.152332]}},{"properties":{"city":"Barnet","lon":-72.052742,"zip":5821,"librarysystem":"","phone":"TEL:  633-4436","id":"a62cstrrh2zt","address":"147 Church St.","lat":44.296291,"libraryname":"Barnet Public Library","state":"VT"},"type":"Feature","geometry":{"type":"Point","coordinates":[-72.052742,44.296291]}},{"properties":{"city":"Barton","lon":-72.180573,"zip":5822,"librarysystem":"","phone":"TEL:  525-6524","id":"a62cstx5qlzz","address":"100 Church St.","lat":44.749634,"libraryname":"Barton Public Library","state":"VT"},"type":"Feature","geometry":{"type":"Point","coordinates":[-72.180573,44.749634]}},{"properties":{"city":"Sharon","lon":-72.456085,"zip":5065,"librarysystem":"","phone":"TEL:  763-2875","id":"a62cstrw68ay","address":"5114 Rte 14","lat":43.783901,"libraryname":"Baxter Memorial Library","state":"VT"},"type":"Feature","geometry":{"type":"Point","coordinates":[-72.456085,43.783901]}},{"properties":{"city":"Gaysville","lon":-72.698097,"zip":5746,"librarysystem":"","phone":"TEL:  234-6608","id":"a62cstslk46i","address":"4452 VT Rte 107","lat":43.778286,"libraryname":"Belcher Memorial Library","state":"VT"},"type":"Feature","geometry":{"type":"Point","coordinates":[-72.698097,43.778286]}},{"properties":{"city":"Bennington","lon":-73.193932,"zip":5201,"librarysystem":"","phone":"TEL:  442-9051","id":"a62cstokjcr2","address":"101 Silver St.","lat":42.877934,"libraryname":"Bennington Free Library","state":"VT"},"type":"Feature","geometry":{"type":"Point","coordinates":[-73.193932,42.877934]}},{"properties":{"city":"Benson","lon":-73.31015,"zip":5731,"librarysystem":"","phone":"TEL:  537-4181","id":"a62csu0x6tvt","address":"2724 Stage Rd.","lat":43.708561,"libraryname":"Benson Public Library","state":"VT"},"type":"Feature","geometry":{"type":"Point","coordinates":[-73.31015,43.708561]}},{"properties":{"city":"Fairfield","lon":-72.948128,"zip":5455,"librarysystem":"","phone":"TEL:  827-3945","id":"a62cstpvq2wm","address":"57 Park St.","lat":44.800488,"libraryname":"Bent Northrup Memorial Library","state":"VT"},"type":"Feature","geometry":{"type":"Point","coordinates":[-72.948128,44.800488]}},{"properties":{"city":"Bethel","lon":-72.631851,"zip":5032,"librarysystem":"","phone":"TEL:  234-9107","id":"a62cstr3s1mg","address":"106 Main St.","lat":43.82996,"libraryname":"Bethel Public Library","state":"VT"},"type":"Feature","geometry":{"type":"Point","coordinates":[-72.631851,43.82996]}},{"properties":{"city":"Vergennes","lon":-73.253746,"zip":5491,"librarysystem":"","phone":"TEL:  877-2211","id":"a62csto4rqd0","address":"258 Main St.","lat":44.167286,"libraryname":"Bixby Memorial Library","state":"VT"},"type":"Feature","geometry":{"type":"Point","coordinates":[-73.253746,44.167286]}},{"properties":{"city":"E. Corinth","lon":-72.222267,"zip":5040,"librarysystem":"","phone":"TEL:  439-5338","id":"a62csttcrezp","address":"676 Village Rd.","lat":44.063229,"libraryname":"Blake Memorial Library","state":"VT"},"type":"Feature","geometry":{"type":"Point","coordinates":[-72.222267,44.063229]}},{"properties":{"city":"Bradford","lon":-72.12825,"zip":5033,"librarysystem":"","phone":"TEL:  222-4536","id":"a62csu34lljd","address":"21 S. Main St.","lat":43.99334,"libraryname":"Bradford Public Library","state":"VT"},"type":"Feature","geometry":{"type":"Point","coordinates":[-72.12825,43.99334]}},{"properties":{"city":"N. Danville","lon":-72.098267,"zip":5828,"librarysystem":"","phone":"TEL:  no phone","id":"a62cstsaqzrx","address":"4215 Bruce Badger Meml. Hwy.","lat":44.459511,"libraryname":"Brainerd Memorial Library","state":"VT"},"type":"Feature","geometry":{"type":"Point","coordinates":[-72.098267,44.459511]}},{"properties":{"city":"Brandon","lon":-73.085991,"zip":5733,"librarysystem":"","phone":"TEL:  247-8230","id":"a62cstnipgi4","address":"4 Franklin St.","lat":43.798065,"libraryname":"Brandon Free Public Library","state":"VT"},"type":"Feature","geometry":{"type":"Point","coordinates":[-73.085991,43.798065]}},{"properties":{"city":"Brookfield","lon":-72.602699,"zip":5036,"librarysystem":"","phone":"TEL:  376-3358","id":"a62cstoa0uqq","address":"40 Ralph Rd.","lat":44.043198,"libraryname":"Brookfield Free Public Library","state":"VT"},"type":"Feature","geometry":{"type":"Point","coordinates":[-72.602699,44.043198]}},{"properties":{"city":"Brattleboro","lon":-72.559456,"zip":5301,"librarysystem":"","phone":"TEL:  254-5290","id":"a62cstuombo4","address":"224 Main St.","lat":42.855011,"libraryname":"Brooks Memorial Library","state":"VT"},"type":"Feature","geometry":{"type":"Point","coordinates":[-72.559456,42.855011]}},{"properties":{"city":"Northfield","lon":-72.656174,"zip":5663,"librarysystem":"","phone":"TEL:  485-4621","id":"a62cstpznsoy","address":"93 S. Main St.","lat":44.147465,"libraryname":"Brown Public Library","state":"VT"},"type":"Feature","geometry":{"type":"Point","coordinates":[-72.656174,44.147465]}},{"properties":{"city":"Essex Junction","lon":-73.111145,"zip":5452,"librarysystem":"","phone":"TEL:  878-6955","id":"a62cstzbpsd5","address":"6 Lincoln St.","lat":44.490929,"libraryname":"Brownell Library","state":"VT"},"type":"Feature","geometry":{"type":"Point","coordinates":[-73.111145,44.490929]}},{"properties":{"city":"Colchester","lon":-72.332375,"zip":5446,"librarysystem":"","phone":"TEL:  879-7576","id":"a62cstz5elng","address":"898 Main St.","lat":41.574169,"libraryname":"Burnham Memorial Library","state":"VT"},"type":"Feature","geometry":{"type":"Point","coordinates":[-72.332375,41.574169]}},{"properties":{"city":"Westminster","lon":-72.459236,"zip":5158,"librarysystem":"","phone":"TEL:  722-4891","id":"a62csu19qr4z","address":"3534 US Rte 5","lat":43.067055,"libraryname":"Butterfield Library","state":"VT"},"type":"Feature","geometry":{"type":"Point","coordinates":[-72.459236,43.067055]}},{"properties":{"city":"Cabot","lon":-72.310867,"zip":5647,"librarysystem":"","phone":"TEL:  563-2721","id":"a62csu1bnx19","address":"3084 Main St.","lat":44.402485,"libraryname":"Cabot Public Library","state":"VT"},"type":"Feature","geometry":{"type":"Point","coordinates":[-72.310867,44.402485]}},{"properties":{"city":"Washington","lon":-72.433456,"zip":5675,"librarysystem":"","phone":"TEL:  883-2343","id":"a62cstrwra0c","address":"2964 VT Rte 110","lat":44.107563,"libraryname":"Calef Memorial Library","state":"VT"},"type":"Feature","geometry":{"type":"Point","coordinates":[-72.433456,44.107563]}},{"properties":{"city":"Hinesburg","lon":-73.110458,"zip":5461,"librarysystem":"","phone":"TEL:  482-2878","id":"a62cstw5v5gx","address":"69 Ballards Corner Rd.","lat":44.329891,"libraryname":"Carpenter Carse Library","state":"VT"},"type":"Feature","geometry":{"type":"Point","coordinates":[-73.110458,44.329891]}},{"properties":{"city":"Castleton","lon":-73.181526,"zip":5735,"librarysystem":"","phone":"TEL:  468-5574","id":"a62csu1mcelp","address":"Main St.","lat":43.610786,"libraryname":"Castleton Free Library","state":"VT"},"type":"Feature","geometry":{"type":"Point","coordinates":[-73.181526,43.610786]}},{"properties":{"city":"Proctorsville","lon":-72.637047,"zip":5153,"librarysystem":"","phone":"TEL:  226-7503","id":"a62cstyw9dno","address":"573 Main St.","lat":43.383663,"libraryname":"Cavendish Fletcher Community Library","state":"VT"},"type":"Feature","geometry":{"type":"Point","coordinates":[-72.637047,43.383663]}},{"properties":{"city":"Barnard","lon":-72.619743,"zip":5031,"librarysystem":"","phone":"TEL:  234-9408","id":"a62csts5d374","address":"6208 VT Rte 12","lat":43.729168,"libraryname":"Charles B. Danforth Library","state":"VT"},"type":"Feature","geometry":{"type":"Point","coordinates":[-72.619743,43.729168]}},{"properties":{"city":"Charlotte","lon":-73.250053,"zip":5445,"librarysystem":"","phone":"TEL:  425-3864","id":"a62cstwdleog","address":"115 Ferry Rd.","lat":44.310852,"libraryname":"Charlotte Library","state":"VT"},"type":"Feature","geometry":{"type":"Point","coordinates":[-73.250053,44.310852]}},{"properties":{"city":"Chelsea","lon":-72.449074,"zip":5038,"librarysystem":"","phone":"TEL:  685-2188","id":"a62cstz4qw6w","address":"296 Rte 110","lat":43.997776,"libraryname":"Chelsea Public Library","state":"VT"},"type":"Feature","geometry":{"type":"Point","coordinates":[-72.449074,43.997776]}},{"properties":{"city":"Chittenden","lon":-73.184372,"zip":5737,"librarysystem":"","phone":"TEL:  773-3531","id":"a62csu2wngtm","address":"Barstow School","lat":44.408417,"libraryname":"Chittenden Public Library","state":"VT"},"type":"Feature","geometry":{"type":"Point","coordinates":[-73.184372,44.408417]}},{"properties":{"city":"Lyndonville","lon":-72.005417,"zip":5851,"librarysystem":"","phone":"TEL:  626-5475","id":"a62cstvi7flw","address":"14 Depot St.","lat":44.53458,"libraryname":"Cobleigh Public Library","state":"VT"},"type":"Feature","geometry":{"type":"Point","coordinates":[-72.005417,44.53458]}},{"properties":{"city":"Concord","lon":-71.882797,"zip":5824,"librarysystem":"","phone":"TEL:  no phone","id":"a62cstryuaon","address":"Main St.","lat":44.429409,"libraryname":"Concord Public Library","state":"VT"},"type":"Feature","geometry":{"type":"Point","coordinates":[-71.882797,44.429409]}},{"properties":{"city":"Cornwall","lon":-73.211227,"zip":5753,"librarysystem":"","phone":"TEL:  462-2775","id":"a62csu0os95q","address":"2629 Rte 30","lat":43.959869,"libraryname":"Cornwall Free Public Library","state":"VT"},"type":"Feature","geometry":{"type":"Point","coordinates":[-73.211227,43.959869]}},{"properties":{"city":"Craftsbury Common","lon":-72.383331,"zip":5827,"librarysystem":"","phone":"TEL:  586-9683","id":"a62cstsk5lba","address":"12 Church Ln.","lat":44.654388,"libraryname":"Craftsbury Public Library","state":"VT"},"type":"Feature","geometry":{"type":"Point","coordinates":[-72.383331,44.654388]}},{"properties":{"city":"Plainfield","lon":-72.427696,"zip":5667,"librarysystem":"","phone":"TEL:  454-8504","id":"a62cstnhp6ih","address":"151 High St.","lat":44.278141,"libraryname":"Cutler Memorial Library","state":"VT"},"type":"Feature","geometry":{"type":"Point","coordinates":[-72.427696,44.278141]}},{"properties":{"city":"Derby","lon":-72.098572,"zip":5829,"librarysystem":"","phone":"TEL:  766-5063","id":"a62csu162kgq","address":"101 Junior High Dr.","lat":44.945961,"libraryname":"Dailey Memorial Library","state":"VT"},"type":"Feature","geometry":{"type":"Point","coordinates":[-72.098572,44.945961]}},{"properties":{"city":"Lower Waterford","lon":-71.907692,"zip":5848,"librarysystem":"","phone":"TEL:  748-4609","id":"a62cstrz5ajq","address":"532 Maple St.","lat":44.354351,"libraryname":"Davies Memorial Library","state":"VT"},"type":"Feature","geometry":{"type":"Point","coordinates":[-71.907692,44.354351]}},{"properties":{"city":"Jericho","lon":-72.94693,"zip":5465,"librarysystem":"","phone":"TEL:  899-4962","id":"a62cstpef0d3","address":"8 River Rd.","lat":44.518532,"libraryname":"Deborah Rawson Memorial Library","state":"VT"},"type":"Feature","geometry":{"type":"Point","coordinates":[-72.94693,44.518532]}},{"properties":{"city":"Williston","lon":-73.074165,"zip":5495,"librarysystem":"","phone":"TEL:  878-4918","id":"a62cstrkzxrn","address":"21 Library Ln.","lat":44.439148,"libraryname":"Dorothy Alling Memorial Library","state":"VT"},"type":"Feature","geometry":{"type":"Point","coordinates":[-73.074165,44.439148]}},{"properties":{"city":"Dorset","lon":-73.093613,"zip":5251,"librarysystem":"","phone":"TEL:  867-5774","id":"a62csty4qtq2","address":"Rte 30 &amp; Church St.","lat":43.250229,"libraryname":"Dorset Village Public Library","state":"VT"},"type":"Feature","geometry":{"type":"Point","coordinates":[-73.093613,43.250229]}},{"properties":{"city":"Worcester","lon":-72.548607,"zip":5682,"librarysystem":"","phone":"TEL:  223-5656","id":"a62csu0jrzzg","address":"24 Calais Rd.","lat":44.373081,"libraryname":"Doty Meml. School Library","state":"VT"},"type":"Feature","geometry":{"type":"Point","coordinates":[-72.548607,44.373081]}},{"properties":{"city":"East Dover","lon":-72.802979,"zip":5341,"librarysystem":"","phone":"TEL:  348-7488","id":"a62cstwnek1z","address":"22 Holland Rd.","lat":42.943417,"libraryname":"Dover Free Library","state":"VT"},"type":"Feature","geometry":{"type":"Point","coordinates":[-72.802979,42.943417]}},{"properties":{"city":"E Burke","lon":-71.942307,"zip":5832,"librarysystem":"","phone":"TEL:  626-9823","id":"a62cstng3r4w","address":"PO Box 309","lat":44.588631,"libraryname":"East Burke Community Library","state":"VT"},"type":"Feature","geometry":{"type":"Point","coordinates":[-71.942307,44.588631]}},{"properties":{"city":"Enosburg Falls","lon":-72.805962,"zip":5450,"librarysystem":"","phone":"TEL:  933-2328","id":"a62csu190ljz","address":"241 Main St.","lat":44.905949,"libraryname":"Enosburgh Public Library","state":"VT"},"type":"Feature","geometry":{"type":"Point","coordinates":[-72.805962,44.905949]}},{"properties":{"city":"Essex","lon":-73.059341,"zip":5451,"librarysystem":"","phone":"TEL:  879-0313","id":"a62cstucyhfn","address":"Rtes. 15 &amp; 128","lat":44.511883,"libraryname":"Essex Free Library","state":"VT"},"type":"Feature","geometry":{"type":"Point","coordinates":[-73.059341,44.511883]}},{"properties":{"city":"Fair Haven","lon":-73.265289,"zip":5743,"librarysystem":"","phone":"TEL:  265-8011","id":"a62cstwd081u","address":"107 Main St.","lat":43.59457,"libraryname":"Fair Haven Free Library","state":"VT"},"type":"Feature","geometry":{"type":"Point","coordinates":[-73.265289,43.59457]}},{"properties":{"city":"Fairfax","lon":-73.013298,"zip":5454,"librarysystem":"","phone":"TEL:  849-2420","id":"a62csu37x9a4","address":"75 Hunt St.","lat":44.663158,"libraryname":"Fairfax Community Library","state":"VT"},"type":"Feature","geometry":{"type":"Point","coordinates":[-73.013298,44.663158]}},{"properties":{"city":"Fairlee","lon":-72.146057,"zip":5045,"librarysystem":"","phone":"TEL:  333-4716","id":"a62csty8tzoj","address":"221 US Rte 5 N","lat":43.906082,"libraryname":"Fairlee Public Library","state":"VT"},"type":"Feature","geometry":{"type":"Point","coordinates":[-72.146057,43.906082]}},{"properties":{"city":"Burlington","lon":-73.210892,"zip":5401,"librarysystem":"","phone":"TEL:  863-3403","id":"a62cstqpvamz","address":"235 College St.","lat":44.477028,"libraryname":"Fletcher Free Library","state":"VT"},"type":"Feature","geometry":{"type":"Point","coordinates":[-73.210892,44.477028]}},{"properties":{"city":"Ludlow","lon":-72.694702,"zip":5149,"librarysystem":"","phone":"TEL:  228-8921","id":"a62cstzietkf","address":"88 Main St.","lat":43.396717,"libraryname":"Fletcher Memorial Library","state":"VT"},"type":"Feature","geometry":{"type":"Point","coordinates":[-72.694702,43.396717]}},{"properties":{"city":"Wolcott","lon":-72.457619,"zip":5680,"librarysystem":"","phone":"TEL:  472-6551","id":"a62cstu4wlca","address":"School Hill Dr.","lat":44.546711,"libraryname":"G. M. Kelley Community Library","state":"VT"},"type":"Feature","geometry":{"type":"Point","coordinates":[-72.457619,44.546711]}},{"properties":{"city":"Post Mills","lon":-72.260513,"zip":5058,"librarysystem":"","phone":"TEL:  333-9724","id":"a62cstqzuiyz","address":"7922 Rte 113","lat":43.885906,"libraryname":"George Peabody Library","state":"VT"},"type":"Feature","geometry":{"type":"Point","coordinates":[-72.260513,43.885906]}},{"properties":{"city":"Fairfax","lon":-73.107269,"zip":5454,"librarysystem":"","phone":"TEL:  524-4643","id":"a62cstyyy1iu","address":"1697 Ethan Allen Hwy.","lat":44.697052,"libraryname":"Georgia Public Library","state":"VT"},"type":"Feature","geometry":{"type":"Point","coordinates":[-73.107269,44.697052]}},{"properties":{"city":"Wallingford","lon":-72.977005,"zip":5773,"librarysystem":"","phone":"TEL:  446-2685","id":"a62cstst1p7x","address":"14 S. Main St.","lat":43.471928,"libraryname":"Gilbert Hart Library","state":"VT"},"type":"Feature","geometry":{"type":"Point","coordinates":[-72.977005,43.471928]}},{"properties":{"city":"Glover","lon":-72.188927,"zip":5839,"librarysystem":"","phone":"TEL:  525-4365","id":"a62cstr1yhb1","address":"51 Bean Hill Rd","lat":44.707539,"libraryname":"Glover Public Library","state":"VT"},"type":"Feature","geometry":{"type":"Point","coordinates":[-72.188927,44.707539]}},{"properties":{"city":"Newport","lon":-72.210121,"zip":5855,"librarysystem":"","phone":"TEL:  334-7902","id":"a62cstxjojan","address":"202 Main St.","lat":44.935646,"libraryname":"Goodrich Memorial Library","state":"VT"},"type":"Feature","geometry":{"type":"Point","coordinates":[-72.210121,44.935646]}},{"properties":{"city":"Grafton","lon":-72.60762,"zip":5146,"librarysystem":"","phone":"TEL:  843-2404","id":"a62cstqqx4yi","address":"204 Main St.","lat":43.17205,"libraryname":"Grafton Public Library","state":"VT"},"type":"Feature","geometry":{"type":"Point","coordinates":[-72.60762,43.17205]}},{"properties":{"city":"Grand Isle","lon":-73.296188,"zip":5458,"librarysystem":"","phone":"TEL:  372-4797","id":"a62cstrh19vs","address":"10 Hyde Rd.","lat":44.722389,"libraryname":"Grand Isle Free Library","state":"VT"},"type":"Feature","geometry":{"type":"Point","coordinates":[-73.296188,44.722389]}},{"properties":{"city":"Greensboro","lon":-72.296135,"zip":5841,"librarysystem":"","phone":"TEL:  533-2531","id":"a62cstw4pxog","address":"53 Wilson St.","lat":44.5765,"libraryname":"Greensboro Free Library","state":"VT"},"type":"Feature","geometry":{"type":"Point","coordinates":[-72.296135,44.5765]}},{"properties":{"city":"Groton","lon":-72.23008,"zip":5046,"librarysystem":"","phone":"TEL:  584-3358","id":"a62cstvrgxj2","address":"1304 Scott Hwy.","lat":44.219379,"libraryname":"Groton Free Public Library","state":"VT"},"type":"Feature","geometry":{"type":"Point","coordinates":[-72.23008,44.219379]}},{"properties":{"city":"Guildhall","lon":-71.560287,"zip":5905,"librarysystem":"","phone":"TEL:  no phone","id":"a62cstrqpfui","address":"PO Box 9","lat":44.564651,"libraryname":"Guildhall Public Library","state":"VT"},"type":"Feature","geometry":{"type":"Point","coordinates":[-71.560287,44.564651]}},{"properties":{"city":"Guilford","lon":-72.624443,"zip":5301,"librarysystem":"","phone":"TEL:  257-4603","id":"a62cstuix1sc","address":"4024 Guilford Ctr. Rd.","lat":42.792156,"libraryname":"Guilford Free Library","state":"VT"},"type":"Feature","geometry":{"type":"Point","coordinates":[-72.624443,42.792156]}},{"properties":{"city":"Bakersfield","lon":-72.800957,"zip":5441,"librarysystem":"","phone":"TEL:  827-4414","id":"a62csu1c9bw4","address":"104 Main St.","lat":44.783566,"libraryname":"H. F. Brigham Free Library","state":"VT"},"type":"Feature","geometry":{"type":"Point","coordinates":[-72.800957,44.783566]}},{"properties":{"city":"Hancock","lon":-72.847069,"zip":5748,"librarysystem":"","phone":"TEL:  767-4651","id":"a62cstnz41wr","address":"47 Rte 125","lat":43.92754,"libraryname":"Hancock Free Public Library","state":"VT"},"type":"Feature","geometry":{"type":"Point","coordinates":[-72.847069,43.92754]}},{"properties":{"city":"Hartford","lon":-72.342659,"zip":5047,"librarysystem":"","phone":"TEL:  296-2568","id":"a62cstw6c5ip","address":"1587 Maple St.","lat":43.661427,"libraryname":"Hartford Library","state":"VT"},"type":"Feature","geometry":{"type":"Point","coordinates":[-72.342659,43.661427]}},{"properties":{"city":"Hartland","lon":-72.39492,"zip":5048,"librarysystem":"","phone":"TEL:  436-2473","id":"a62csu07n3eb","address":"153 Rte 5","lat":43.541,"libraryname":"Hartland Public Library","state":"VT"},"type":"Feature","geometry":{"type":"Point","coordinates":[-72.39492,43.541]}},{"properties":{"city":"Derby Line","lon":-72.097809,"zip":5830,"librarysystem":"","phone":"TEL:  873-3022","id":"a62csu2ophoo","address":"93 Caswell Ave.","lat":45.005661,"libraryname":"Haskell Free Library","state":"VT"},"type":"Feature","geometry":{"type":"Point","coordinates":[-72.097809,45.005661]}},{"properties":{"city":"Franklin","lon":-72.915756,"zip":5457,"librarysystem":"","phone":"TEL:  285-6505","id":"a62cstuk6t5v","address":"5167 Main St.","lat":44.981647,"libraryname":"Haston Library","state":"VT"},"type":"Feature","geometry":{"type":"Point","coordinates":[-72.915756,44.981647]}},{"properties":{"city":"Highgate","lon":-73.044716,"zip":5459,"librarysystem":"","phone":"TEL:  868-3970","id":"a62cstuuyek5","address":"17 Mill Hill","lat":44.937977,"libraryname":"Highgate Public Library","state":"VT"},"type":"Feature","geometry":{"type":"Point","coordinates":[-73.044716,44.937977]}},{"properties":{"city":"Westfield","lon":-72.42849,"zip":5874,"librarysystem":"","phone":"TEL:  744-8258","id":"a62cstvlbgyp","address":"Route 100","lat":44.889473,"libraryname":"Hitchcock Museum &amp; Library","state":"VT"},"type":"Feature","geometry":{"type":"Point","coordinates":[-72.42849,44.889473]}},{"properties":{"city":"Huntington","lon":-72.965401,"zip":5462,"librarysystem":"","phone":"TEL:  434-4583","id":"a62cstwszn1z","address":"2156 Main Rd.","lat":44.29454,"libraryname":"Huntington Public Library","state":"VT"},"type":"Feature","geometry":{"type":"Point","coordinates":[-72.965401,44.29454]}},{"properties":{"city":"Middlebury","lon":-73.169174,"zip":5753,"librarysystem":"","phone":"TEL:  388-4095","id":"a62cstxb2prt","address":"75 Main St.","lat":44.012402,"libraryname":"Ilsley Public Library","state":"VT"},"type":"Feature","geometry":{"type":"Point","coordinates":[-73.169174,44.012402]}},{"properties":{"city":"Island Pond","lon":-71.879829,"zip":5846,"librarysystem":"","phone":"TEL:  723-6134","id":"a62cstys2frc","address":"49 Mill St. Ext.","lat":44.814941,"libraryname":"Island Pond Public Library","state":"VT"},"type":"Feature","geometry":{"type":"Point","coordinates":[-71.879829,44.814941]}},{"properties":{"city":"Isle La Motte","lon":-73.338432,"zip":5463,"librarysystem":"","phone":"TEL:  928-4113","id":"a62cstzho5ew","address":"2238 Main St.","lat":44.878082,"libraryname":"Isle La Motte Free Public Library","state":"VT"},"type":"Feature","geometry":{"type":"Point","coordinates":[-73.338432,44.878082]}},{"properties":{"city":"North Bennington","lon":-73.242661,"zip":5257,"librarysystem":"","phone":"TEL:  447-7121","id":"a62csttbdgi7","address":"2 Main St.","lat":42.928909,"libraryname":"J. G. McCullough Free Library","state":"VT"},"type":"Feature","geometry":{"type":"Point","coordinates":[-73.242661,42.928909]}},{"properties":{"city":"Jamaica","lon":-72.78009,"zip":5343,"librarysystem":"","phone":"TEL:  874-4901","id":"a62cstpzn2eo","address":"17 Depot St.","lat":43.09935,"libraryname":"Jamaica Memorial Library","state":"VT"},"type":"Feature","geometry":{"type":"Point","coordinates":[-72.78009,43.09935]}},{"properties":{"city":"Marshfield","lon":-72.354134,"zip":5658,"librarysystem":"","phone":"TEL:  426-3581","id":"a62cstq4xmeg","address":"122 School St.","lat":44.349155,"libraryname":"Jaquith Public Library","state":"VT"},"type":"Feature","geometry":{"type":"Point","coordinates":[-72.354134,44.349155]}},{"properties":{"city":"Jericho Center","lon":-72.96772,"zip":5465,"librarysystem":"","phone":"TEL:  899-4686","id":"a62cstxz6vp6","address":"7 The Green","lat":44.47805,"libraryname":"Jericho Town Library","state":"VT"},"type":"Feature","geometry":{"type":"Point","coordinates":[-72.96772,44.47805]}},{"properties":{"city":"Hardwick","lon":-72.365356,"zip":5843,"librarysystem":"","phone":"TEL:  472-5948","id":"a62cstvdu4vo","address":"93 N. Main St.","lat":44.50573,"libraryname":"Jeudevine Memorial Library","state":"VT"},"type":"Feature","geometry":{"type":"Point","coordinates":[-72.365356,44.50573]}},{"properties":{"city":"Craftsbury Common","lon":-72.383041,"zip":5827,"librarysystem":"","phone":"TEL:  586-9692","id":"a62cstpya1ss","address":"1972 E Craftsbury Rd","lat":44.662113,"libraryname":"John W. Simpson Memorial Library","state":"VT"},"type":"Feature","geometry":{"type":"Point","coordinates":[-72.383041,44.662113]}},{"properties":{"city":"Johnson","lon":-72.681862,"zip":5656,"librarysystem":"","phone":"TEL:  635-7141","id":"a62cstprlb8y","address":"7 Library Dr.","lat":44.634537,"libraryname":"Johnson Public Library","state":"VT"},"type":"Feature","geometry":{"type":"Point","coordinates":[-72.681862,44.634537]}},{"properties":{"city":"Orleans","lon":-72.202087,"zip":5860,"librarysystem":"","phone":"TEL:  754-6660","id":"a62cstyjnx94","address":"1 Water St.","lat":44.811184,"libraryname":"Jones Memorial Library","state":"VT"},"type":"Feature","geometry":{"type":"Point","coordinates":[-72.202087,44.811184]}},{"properties":{"city":"Waitsfield","lon":-72.824203,"zip":5673,"librarysystem":"","phone":"TEL:  496-4205","id":"a62cstnulezu","address":"4391 Main St.","lat":44.19014,"libraryname":"Joslin Memorial Library","state":"VT"},"type":"Feature","geometry":{"type":"Point","coordinates":[-72.824203,44.19014]}},{"properties":{"city":"Montpelier","lon":-72.573891,"zip":5602,"librarysystem":"","phone":"TEL:  223-3338","id":"a62cstqvpcmi","address":"135 Main St.","lat":44.261303,"libraryname":"Kellogg Hubbard Library","state":"VT"},"type":"Feature","geometry":{"type":"Point","coordinates":[-72.573891,44.261303]}},{"properties":{"city":"Randolph","lon":-72.665558,"zip":5060,"librarysystem":"","phone":"TEL:  728-5073","id":"a62csu27mghb","address":"67 N. Main St.","lat":43.92514,"libraryname":"Kimball Public Library","state":"VT"},"type":"Feature","geometry":{"type":"Point","coordinates":[-72.665558,43.92514]}},{"properties":{"city":"Hyde Park","lon":-72.61718,"zip":5655,"librarysystem":"","phone":"TEL:  888-4628","id":"a62cstrggxb6","address":"141 Main St.","lat":44.593685,"libraryname":"Lanpher Memorial Library","state":"VT"},"type":"Feature","geometry":{"type":"Point","coordinates":[-72.61718,44.593685]}},{"properties":{"city":"Thetford","lon":-72.229752,"zip":5074,"librarysystem":"","phone":"TEL:  785-4361","id":"a62csto6njqz","address":"16 Library Ln.","lat":43.819077,"libraryname":"Latham Memorial Library","state":"VT"},"type":"Feature","geometry":{"type":"Point","coordinates":[-72.229752,43.819077]}},{"properties":{"city":"Bristol","lon":-73.078613,"zip":5443,"librarysystem":"","phone":"TEL:  453-2366","id":"a62cstsb8l7i","address":"40 North St.","lat":44.135715,"libraryname":"Lawrence Memorial Library","state":"VT"},"type":"Feature","geometry":{"type":"Point","coordinates":[-73.078613,44.135715]}},{"properties":{"city":"Irasburg","lon":-72.278427,"zip":5849,"librarysystem":"","phone":"TEL:  754-2526","id":"a62cstsulo8d","address":"130 Park Ave.","lat":44.802418,"libraryname":"Leach Public Library","state":"VT"},"type":"Feature","geometry":{"type":"Point","coordinates":[-72.278427,44.802418]}},{"properties":{"city":"Lincoln","lon":-72.999649,"zip":5443,"librarysystem":"","phone":"TEL:  453-2665","id":"a62cstmy6352","address":"222 West River Rd.","lat":44.107986,"libraryname":"Lincoln Library","state":"VT"},"type":"Feature","geometry":{"type":"Point","coordinates":[-72.999649,44.107986]}},{"properties":{"city":"Lowell","lon":-72.460121,"zip":5847,"librarysystem":"","phone":"TEL:  744-2447","id":"a62csu28pk4l","address":"Town Hall","lat":44.809738,"libraryname":"Lowell Community Library","state":"VT"},"type":"Feature","geometry":{"type":"Point","coordinates":[-72.460121,44.809738]}},{"properties":{"city":"West Dummerston","lon":-72.613007,"zip":5357,"librarysystem":"","phone":"TEL:  258-9878","id":"a62cstvh2ic1","address":"156 Lyons St.","lat":42.928593,"libraryname":"Lydia Taft Pratt Library","state":"VT"},"type":"Feature","geometry":{"type":"Point","coordinates":[-72.613007,42.928593]}},{"properties":{"city":"Pittsford","lon":-73.020348,"zip":5673,"librarysystem":"","phone":"TEL:  483-2972","id":"a62cstt54qnx","address":"840 Arch St.","lat":43.706779,"libraryname":"Maclure Library","state":"VT"},"type":"Feature","geometry":{"type":"Point","coordinates":[-73.020348,43.706779]}},{"properties":{"city":"Manchester","lon":-73.072067,"zip":5254,"librarysystem":"","phone":"TEL:  362-2607","id":"a62csto5n500","address":"48 West Rd.","lat":43.164208,"libraryname":"Mark Skinner Library","state":"VT"},"type":"Feature","geometry":{"type":"Point","coordinates":[-73.072067,43.164208]}},{"properties":{"city":"Arlington","lon":-77.068245,"zip":5250,"librarysystem":"","phone":"TEL:  375-6153","id":"a62csu0nweyp","address":"528 E. Arlington Rd.","lat":38.894226,"libraryname":"Martha Canfield Memorial Library","state":"VT"},"type":"Feature","geometry":{"type":"Point","coordinates":[-77.068245,38.894226]}},{"properties":{"city":"Brownsville","lon":-72.426559,"zip":5037,"librarysystem":"","phone":"TEL:  484-7205","id":"a62cstnmvisz","address":"41 Brownsville Hartland Rd.","lat":43.542542,"libraryname":"Mary L. Blood Memorial Library","state":"VT"},"type":"Feature","geometry":{"type":"Point","coordinates":[-72.426559,43.542542]}},{"properties":{"city":"Middletown Springs","lon":-73.11985,"zip":5757,"librarysystem":"","phone":"TEL:  235-2435","id":"a62cstqjiu05","address":"39 West St.","lat":43.485271,"libraryname":"Middletown Springs Public Library","state":"VT"},"type":"Feature","geometry":{"type":"Point","coordinates":[-73.11985,43.485271]}},{"properties":{"city":"Berlin","lon":-72.506149,"zip":5602,"librarysystem":"","phone":"TEL:  828-2320","id":"a62cstrrninj","address":"578 Paine Tpke N","lat":44.208939,"libraryname":"Midstate Regional Library","state":"VT"},"type":"Feature","geometry":{"type":"Point","coordinates":[-72.506149,44.208939]}},{"properties":{"city":"Milton","lon":-73.123627,"zip":5468,"librarysystem":"","phone":"TEL:  893-4644","id":"a62cstt8ulid","address":"39 Bombardier Rd.","lat":44.619572,"libraryname":"Milton Public Library","state":"VT"},"type":"Feature","geometry":{"type":"Point","coordinates":[-73.123627,44.619572]}},{"properties":{"city":"Montgomery Center","lon":-72.607201,"zip":5471,"librarysystem":"","phone":"TEL:  326-3113","id":"a62cstnub2pb","address":"86 Mountain Rd.","lat":44.878571,"libraryname":"Montgomery Town Library","state":"VT"},"type":"Feature","geometry":{"type":"Point","coordinates":[-72.607201,44.878571]}},{"properties":{"city":"Newfane","lon":-72.655899,"zip":5345,"librarysystem":"","phone":"TEL:  365-7948","id":"a62cstwkwml8","address":"23 West St.","lat":42.988232,"libraryname":"Moore Free Library","state":"VT"},"type":"Feature","geometry":{"type":"Point","coordinates":[-72.655899,42.988232]}},{"properties":{"city":"Moretown","lon":-72.761337,"zip":5660,"librarysystem":"","phone":"TEL:  496-9728","id":"a62cstwxll49","address":"897 Rte 100 B","lat":44.250832,"libraryname":"Moretown Memorial Library","state":"VT"},"type":"Feature","geometry":{"type":"Point","coordinates":[-72.761337,44.250832]}},{"properties":{"city":"Strafford","lon":-72.44046,"zip":5072,"librarysystem":"","phone":"TEL:  765-4037","id":"a62cstwysjir","address":"220 Justin Morrill Hwy.","lat":43.89537,"libraryname":"Morrill Mem. &amp; Harris Library","state":"VT"},"type":"Feature","geometry":{"type":"Point","coordinates":[-72.44046,43.89537]}},{"properties":{"city":"Morrisville","lon":-72.595566,"zip":5661,"librarysystem":"","phone":"TEL:  888-3853","id":"a62cstrc08i1","address":"7 Richmond St.","lat":44.562107,"libraryname":"Morristown Centennial Library","state":"VT"},"type":"Feature","geometry":{"type":"Point","coordinates":[-72.595566,44.562107]}},{"properties":{"city":"Belmont","lon":-72.820984,"zip":5730,"librarysystem":"","phone":"TEL:  259-3707","id":"a62csu2t68yy","address":"1 Maple Hill Rd.","lat":43.414707,"libraryname":"Mount Holly Town Library","state":"VT"},"type":"Feature","geometry":{"type":"Point","coordinates":[-72.820984,43.414707]}},{"properties":{"city":"New Haven","lon":-73.153511,"zip":5472,"librarysystem":"","phone":"TEL:  453-4015","id":"a62cstwpomdg","address":"50 North St.","lat":44.125195,"libraryname":"New Haven Community Library","state":"VT"},"type":"Feature","geometry":{"type":"Point","coordinates":[-73.153511,44.125195]}},{"properties":{"city":"Woodstock","lon":-72.51931,"zip":5091,"librarysystem":"","phone":"TEL:  457-2295","id":"a62csttojsmg","address":"10 South Park","lat":43.624046,"libraryname":"Norman Williams Public Library","state":"VT"},"type":"Feature","geometry":{"type":"Point","coordinates":[-72.51931,43.624046]}},{"properties":{"city":"North Hero","lon":-73.292282,"zip":5474,"librarysystem":"","phone":"TEL:  372-5458","id":"a62cstyu09cf","address":"3195 US Rte 2","lat":44.810909,"libraryname":"North Hero Public Library","state":"VT"},"type":"Feature","geometry":{"type":"Point","coordinates":[-73.292282,44.810909]}},{"properties":{"city":"N Thetford","lon":-72.186043,"zip":5054,"librarysystem":"","phone":"TEL:  no phone","id":"a62cstq04zat","address":"Box 74","lat":43.84259,"libraryname":"North Thetford Library","state":"VT"},"type":"Feature","geometry":{"type":"Point","coordinates":[-72.186043,43.84259]}},{"properties":{"city":"St. Johnsbury","lon":-72.052216,"zip":5819,"librarysystem":"","phone":"TEL:  748-3428","id":"a62cstzovwky","address":"23 Tilton Rd.","lat":44.428024,"libraryname":"Northeast Regional Library","state":"VT"},"type":"Feature","geometry":{"type":"Point","coordinates":[-72.052216,44.428024]}},{"properties":{"city":"Norwich","lon":-72.308769,"zip":5055,"librarysystem":"","phone":"TEL:  649-1184","id":"a62cstvl08va","address":"368 Main St.","lat":43.716877,"libraryname":"Norwich Public Library","state":"VT"},"type":"Feature","geometry":{"type":"Point","coordinates":[-72.308769,43.716877]}},{"properties":{"city":"Orwell","lon":-73.296318,"zip":5760,"librarysystem":"","phone":"TEL:  948-2041","id":"a62cstnupyt9","address":"PO Box 92","lat":43.80394,"libraryname":"Orwell Free Library","state":"VT"},"type":"Feature","geometry":{"type":"Point","coordinates":[-73.296318,43.80394]}},{"properties":{"city":"Pawlet","lon":-73.17746,"zip":5761,"librarysystem":"","phone":"TEL:  325-3123","id":"a62csu2v7png","address":"141 School St.","lat":43.34663,"libraryname":"Pawlet Public Library","state":"VT"},"type":"Feature","geometry":{"type":"Point","coordinates":[-73.17746,43.34663]}},{"properties":{"city":"Peacham","lon":-72.170525,"zip":5862,"librarysystem":"","phone":"TEL:  592-3216","id":"a62cstww9g25","address":"656 Bayley Hazen Rd.","lat":44.329174,"libraryname":"Peacham Library","state":"VT"},"type":"Feature","geometry":{"type":"Point","coordinates":[-72.170525,44.329174]}},{"properties":{"city":"Wilmington","lon":-72.872032,"zip":5363,"librarysystem":"","phone":"TEL:  464-8557","id":"a62cstzqqslj","address":"16 S. Main St.","lat":42.867798,"libraryname":"Pettee Memorial Library","state":"VT"},"type":"Feature","geometry":{"type":"Point","coordinates":[-72.872032,42.867798]}},{"properties":{"city":"Shelburne","lon":-73.228195,"zip":5482,"librarysystem":"","phone":"TEL:  985-5124","id":"a62cstzc3b2o","address":"5376 Shelburne Rd.","lat":44.379395,"libraryname":"Pierson Library","state":"VT"},"type":"Feature","geometry":{"type":"Point","coordinates":[-73.228195,44.379395]}},{"properties":{"city":"Shoreham","lon":-73.314651,"zip":5770,"librarysystem":"","phone":"TEL:  897-2647","id":"a62csu2od3ee","address":"279 Main St.","lat":43.8937,"libraryname":"Platt Memorial Library","state":"VT"},"type":"Feature","geometry":{"type":"Point","coordinates":[-73.314651,43.8937]}},{"properties":{"city":"Danville","lon":-87.622627,"zip":5828,"librarysystem":"","phone":"TEL:  684-2256","id":"a62csu07vd80","address":"121 Park St.","lat":40.122356,"libraryname":"Pope Memorial Library","state":"VT"},"type":"Feature","geometry":{"type":"Point","coordinates":[-87.622627,40.122356]}},{"properties":{"city":"Poultney","lon":-73.23275,"zip":5764,"librarysystem":"","phone":"TEL:  287-5556","id":"a62csu1qclnx","address":"205 Main St., Ste 1","lat":43.516338,"libraryname":"Poultney Public Library","state":"VT"},"type":"Feature","geometry":{"type":"Point","coordinates":[-73.23275,43.516338]}},{"properties":{"city":"Proctor","lon":-73.035217,"zip":5765,"librarysystem":"","phone":"TEL:  459-3539","id":"a62csu2zv5m6","address":"4 Main St.","lat":43.661018,"libraryname":"Proctor Free Library","state":"VT"},"type":"Feature","geometry":{"type":"Point","coordinates":[-73.035217,43.661018]}},{"properties":{"city":"Ascutney","lon":-72.407356,"zip":5030,"librarysystem":"","phone":"TEL:  674-2863","id":"a62cstywus89","address":"5181 Rte 5","lat":43.407001,"libraryname":"Proctor Library","state":"VT"},"type":"Feature","geometry":{"type":"Point","coordinates":[-72.407356,43.407001]}},{"properties":{"city":"Putney","lon":-72.522568,"zip":5346,"librarysystem":"","phone":"TEL:  387-4407","id":"a62cstq50ttk","address":"55 Main St.","lat":42.969757,"libraryname":"Putney Public Library","state":"VT"},"type":"Feature","geometry":{"type":"Point","coordinates":[-72.522568,42.969757]}},{"properties":{"city":"Quechee","lon":-72.421425,"zip":5059,"librarysystem":"","phone":"TEL:  295-1232","id":"a62cstzitpxu","address":"1957 Quechee Main St.","lat":43.64838,"libraryname":"Quechee Library","state":"VT"},"type":"Feature","geometry":{"type":"Point","coordinates":[-72.421425,43.64838]}},{"properties":{"city":"W. Rupert","lon":-73.225334,"zip":5776,"librarysystem":"","phone":"TEL:  394-7864","id":"a62cstuqvfpn","address":"2827 Rte 153","lat":43.258232,"libraryname":"R.K. Kittay Public Library","state":"VT"},"type":"Feature","geometry":{"type":"Point","coordinates":[-73.225334,43.258232]}},{"properties":{"city":"Reading","lon":-72.537483,"zip":5062,"librarysystem":"","phone":"TEL:  484-5588","id":"a62cstoxyfef","address":"717 VT Rte 106","lat":43.454334,"libraryname":"Reading Public Library","state":"VT"},"type":"Feature","geometry":{"type":"Point","coordinates":[-72.537483,43.454334]}},{"properties":{"city":"Richmond","lon":-72.995074,"zip":5477,"librarysystem":"","phone":"TEL:  434-3036","id":"a62csu13xoli","address":"201 Bridge St.","lat":44.403218,"libraryname":"Richmond Free Library","state":"VT"},"type":"Feature","geometry":{"type":"Point","coordinates":[-72.995074,44.403218]}},{"properties":{"city":"Rochester","lon":-72.808434,"zip":5767,"librarysystem":"","phone":"TEL:  767-3927","id":"a62cstrtxk7h","address":"22 S. Main St.","lat":43.874142,"libraryname":"Rochester Public Library","state":"VT"},"type":"Feature","geometry":{"type":"Point","coordinates":[-72.808434,43.874142]}},{"properties":{"city":"Bellows Fals","lon":-72.465782,"zip":5101,"librarysystem":"","phone":"TEL:  463-4270","id":"a62cstpo47g4","address":"65 Westminster St.","lat":43.072071,"libraryname":"Rockingham Free Public Library","state":"VT"},"type":"Feature","geometry":{"type":"Point","coordinates":[-72.465782,43.072071]}},{"properties":{"city":"Pittsfield","lon":-72.812401,"zip":5762,"librarysystem":"","phone":"TEL:  no phone","id":"a62cstzt7wkb","address":"40 Village Green","lat":43.770603,"libraryname":"Roger Clark Memorial Library","state":"VT"},"type":"Feature","geometry":{"type":"Point","coordinates":[-72.812401,43.770603]}},{"properties":{"city":"Roxbury","lon":-72.733276,"zip":5669,"librarysystem":"","phone":"TEL:  485-6860","id":"a62cstxb5rbi","address":"1491 Roxbury Rd.","lat":44.093151,"libraryname":"Roxbury Free Library","state":"VT"},"type":"Feature","geometry":{"type":"Point","coordinates":[-72.733276,44.093151]}},{"properties":{"city":"South Royalton","lon":-72.51944,"zip":5068,"librarysystem":"","phone":"TEL:  763-7094","id":"a62cstsj90pn","address":"23 Alexander Pl.","lat":43.818104,"libraryname":"Royalton Memorial Library","state":"VT"},"type":"Feature","geometry":{"type":"Point","coordinates":[-72.51944,43.818104]}},{"properties":{"city":"Monkton","lon":-73.142647,"zip":5469,"librarysystem":"","phone":"TEL:  453-4471","id":"a62cstyqjtqx","address":"4333 State Prison Hollow Rd.","lat":44.241749,"libraryname":"Russell Memorial Library","state":"VT"},"type":"Feature","geometry":{"type":"Point","coordinates":[-73.142647,44.241749]}},{"properties":{"city":"Rutland","lon":-72.975533,"zip":5701,"librarysystem":"","phone":"TEL:  773-1860","id":"a62csu21xwln","address":"10 Court St.","lat":43.607742,"libraryname":"Rutland Free Library","state":"VT"},"type":"Feature","geometry":{"type":"Point","coordinates":[-72.975533,43.607742]}},{"properties":{"city":"Salisbury","lon":-80.438309,"zip":5769,"librarysystem":"","phone":"TEL:  352-4198","id":"a62csu1ml7uk","address":"918 Maple St.","lat":35.611984,"libraryname":"Salisbury Free Public Library","state":"VT"},"type":"Feature","geometry":{"type":"Point","coordinates":[-80.438309,35.611984]}},{"properties":{"city":"E Middlebury","lon":-73.107361,"zip":5740,"librarysystem":"","phone":"TEL:  388-7588","id":"a62csu0u5xba","address":"Rte 125","lat":43.973495,"libraryname":"Sarah Partridge Community Library-Branch of Ilsley Library","state":"VT"},"type":"Feature","geometry":{"type":"Point","coordinates":[-73.107361,43.973495]}},{"properties":{"city":"Sheldon","lon":-72.946564,"zip":5483,"librarysystem":"","phone":"TEL:  933-7323","id":"a62csu2130jf","address":"1640 Main St.","lat":44.881031,"libraryname":"Sheldon Public Library","state":"VT"},"type":"Feature","geometry":{"type":"Point","coordinates":[-72.946564,44.881031]}},{"properties":{"city":"Killington","lon":-72.776497,"zip":5751,"librarysystem":"","phone":"TEL:  422-9765","id":"a62cstpvah2p","address":"2998 River Rd.","lat":43.671692,"libraryname":"Sherburne Memorial Library","state":"VT"},"type":"Feature","geometry":{"type":"Point","coordinates":[-72.776497,43.671692]}},{"properties":{"city":"Shrewsbury","lon":-72.880944,"zip":5738,"librarysystem":"","phone":"TEL:  492-3410","id":"a62cstyumrma","address":"98 Town Hill Rd.","lat":43.489362,"libraryname":"Shrewsbury Library","state":"VT"},"type":"Feature","geometry":{"type":"Point","coordinates":[-72.880944,43.489362]}},{"properties":{"city":"Danby","lon":-72.996124,"zip":5739,"librarysystem":"","phone":"TEL:  293-5106","id":"a62cstr53rf4","address":"74 S. Main St.","lat":43.346058,"libraryname":"Silas L. Griffith Meml. Library","state":"VT"},"type":"Feature","geometry":{"type":"Point","coordinates":[-72.996124,43.346058]}},{"properties":{"city":"Pownal","lon":-73.240791,"zip":5261,"librarysystem":"","phone":"TEL:  823-5400","id":"a62cstwygty0","address":"97 Main St.","lat":42.767471,"libraryname":"Solomon Wright Public Library","state":"VT"},"type":"Feature","geometry":{"type":"Point","coordinates":[-73.240791,42.767471]}},{"properties":{"city":"S. Burlington","lon":-73.178726,"zip":5403,"librarysystem":"","phone":"TEL:  652-7080","id":"a62cstr25r9c","address":"550 Dorset St.","lat":44.454323,"libraryname":"South  Burlington Community Library","state":"VT"},"type":"Feature","geometry":{"type":"Point","coordinates":[-73.178726,44.454323]}},{"properties":{"city":"S. Londonderry","lon":-72.813812,"zip":5155,"librarysystem":"","phone":"TEL:  824-3371","id":"a62cstuhvheb","address":"15 Old School St.","lat":43.191799,"libraryname":"South Londonderry Free Library","state":"VT"},"type":"Feature","geometry":{"type":"Point","coordinates":[-72.813812,43.191799]}},{"properties":{"city":"South Ryegate","lon":-72.138977,"zip":5069,"librarysystem":"","phone":"TEL:  no phone","id":"a62csu2gcmnj","address":"140 Church St.","lat":44.186588,"libraryname":"South Ryegate Public Library","state":"VT"},"type":"Feature","geometry":{"type":"Point","coordinates":[-72.138977,44.186588]}},{"properties":{"city":"Springfield","lon":-72.482147,"zip":5156,"librarysystem":"","phone":"TEL:  885-3108","id":"a62cstv7x5b5","address":"43 Main St.","lat":43.298374,"libraryname":"Springfield Town Library","state":"VT"},"type":"Feature","geometry":{"type":"Point","coordinates":[-72.482147,43.298374]}},{"properties":{"city":"St. Albans","lon":-73.081818,"zip":5478,"librarysystem":"","phone":"TEL:  524-1507","id":"a62cstumoz3i","address":"11 Maiden Ln.","lat":44.812454,"libraryname":"St. Albans Free Library","state":"VT"},"type":"Feature","geometry":{"type":"Point","coordinates":[-73.081818,44.812454]}},{"properties":{"city":"St. Johnsbury","lon":-72.021103,"zip":5819,"librarysystem":"","phone":"TEL:  748-8291","id":"a62csu01d411","address":"1171 Main St.","lat":44.418526,"libraryname":"St. Johnsbury Athenaeum","state":"VT"},"type":"Feature","geometry":{"type":"Point","coordinates":[-72.021103,44.418526]}},{"properties":{"city":"Stamford","lon":-73.561096,"zip":5352,"librarysystem":"","phone":"TEL:  694-1379","id":"a62csu1i51ju","address":"986 Main Rd.","lat":41.048626,"libraryname":"Stamford Community Library","state":"VT"},"type":"Feature","geometry":{"type":"Point","coordinates":[-73.561096,41.048626]}},{"properties":{"city":"Starksboro","lon":-73.057999,"zip":5487,"librarysystem":"","phone":"TEL:  453-3732","id":"a62cstynddya","address":"2827 Rte 116","lat":44.239185,"libraryname":"Starksboro Public Library","state":"VT"},"type":"Feature","geometry":{"type":"Point","coordinates":[-73.057999,44.239185]}},{"properties":{"city":"Stowe","lon":-72.685066,"zip":5672,"librarysystem":"","phone":"TEL:  253-6145","id":"a62cstza03tm","address":"90 Pond St.","lat":44.465401,"libraryname":"Stowe Free Library","state":"VT"},"type":"Feature","geometry":{"type":"Point","coordinates":[-72.685066,44.465401]}},{"properties":{"city":"Swanton","lon":-73.124252,"zip":5488,"librarysystem":"","phone":"TEL:  868-7656","id":"a62csu33xrpm","address":"1 First St.","lat":44.917469,"libraryname":"Swanton Public Library","state":"VT"},"type":"Feature","geometry":{"type":"Point","coordinates":[-73.124252,44.917469]}},{"properties":{"city":"Newbury","lon":-72.056335,"zip":5051,"librarysystem":"","phone":"TEL:  866-5366","id":"a62csu31rpfb","address":"4886 Main St. S","lat":44.080395,"libraryname":"Tenney Memorial Library","state":"VT"},"type":"Feature","geometry":{"type":"Point","coordinates":[-72.056335,44.080395]}},{"properties":{"city":"Tinmouth","lon":-73.050369,"zip":5773,"librarysystem":"","phone":"TEL:  446-2498","id":"a62cstqccd76","address":"9 Mtn. View Rd.","lat":43.447796,"libraryname":"Tinmouth Library","state":"VT"},"type":"Feature","geometry":{"type":"Point","coordinates":[-73.050369,43.447796]}},{"properties":{"city":"Townshend","lon":-72.668518,"zip":5353,"librarysystem":"","phone":"TEL:  365-4039","id":"a62csu0mu1y8","address":"1971 Rte 30","lat":43.046135,"libraryname":"Townshend Public Library","state":"VT"},"type":"Feature","geometry":{"type":"Point","coordinates":[-72.668518,43.046135]}},{"properties":{"city":"Tunbridge","lon":-72.49263,"zip":5077,"librarysystem":"","phone":"TEL:  889-9404","id":"a62csu2byahp","address":"289 VT Rte 110","lat":43.889385,"libraryname":"Tunbridge Public Library","state":"VT"},"type":"Feature","geometry":{"type":"Point","coordinates":[-72.49263,43.889385]}},{"properties":{"city":"Ludlow","lon":-72.708252,"zip":5149,"librarysystem":"","phone":"TEL:  no phone","id":"a62cstsoi8ar","address":"286 Dublin Rd.","lat":43.467587,"libraryname":"Tyson Library","state":"VT"},"type":"Feature","geometry":{"type":"Point","coordinates":[-72.708252,43.467587]}},{"properties":{"city":"Jeffersonville","lon":-72.82811,"zip":5464,"librarysystem":"","phone":"TEL:  644-2117","id":"a62csu2hmogd","address":"194 Main St.","lat":44.646358,"libraryname":"Varnum Memorial Library","state":"VT"},"type":"Feature","geometry":{"type":"Point","coordinates":[-72.82811,44.646358]}},{"properties":{"city":"Barre","lon":-72.499229,"zip":5641,"librarysystem":"","phone":"TEL:  479-8500","id":"a62cstsfxid4","address":"60 Washington St.","lat":44.196392,"libraryname":"Vermont Historical Society Library","state":"VT"},"type":"Feature","geometry":{"type":"Point","coordinates":[-72.499229,44.196392]}},{"properties":{"city":"Bennington","lon":-73.198051,"zip":5201,"librarysystem":"","phone":"TEL:  442-6353","id":"a62cstt4rl4j","address":"325 North St.","lat":42.885799,"libraryname":"Vermont Veterans Home Library","state":"VT"},"type":"Feature","geometry":{"type":"Point","coordinates":[-73.198051,42.885799]}},{"properties":{"city":"Vernon","lon":-72.519264,"zip":5354,"librarysystem":"","phone":"TEL:  257-0150","id":"a62cstnig7je","address":"567 Governor Hunt Rd.","lat":42.778278,"libraryname":"Vernon Free Library","state":"VT"},"type":"Feature","geometry":{"type":"Point","coordinates":[-72.519264,42.778278]}},{"properties":{"city":"Vershire","lon":-72.323692,"zip":5079,"librarysystem":"","phone":"TEL:  685-9982","id":"a62cstps7ev3","address":"Rt. 113","lat":43.970474,"libraryname":"Vershire Community Library","state":"VT"},"type":"Feature","geometry":{"type":"Point","coordinates":[-72.323692,43.970474]}},{"properties":{"city":"West Danville","lon":-72.218102,"zip":5873,"librarysystem":"","phone":"TEL:  563-3000","id":"a62cstzyhuf4","address":"135 Cahoon Farm Rd.","lat":44.421669,"libraryname":"Walden Community Library","state":"VT"},"type":"Feature","geometry":{"type":"Point","coordinates":[-72.218102,44.421669]}},{"properties":{"city":"Wardsboro","lon":-72.789894,"zip":5355,"librarysystem":"","phone":"TEL:  896-6988","id":"a62csu2uj3ts","address":"170 Main St.","lat":43.043156,"libraryname":"Wardsboro Free Public Library","state":"VT"},"type":"Feature","geometry":{"type":"Point","coordinates":[-72.789894,43.043156]}},{"properties":{"city":"Warren","lon":-72.855515,"zip":5674,"librarysystem":"","phone":"TEL:  496-3913","id":"a62cstorkg3l","address":"42 Cemetary Rd.","lat":44.113293,"libraryname":"Warren Public Library","state":"VT"},"type":"Feature","geometry":{"type":"Point","coordinates":[-72.855515,44.113293]}},{"properties":{"city":"Waterbury","lon":-72.758347,"zip":5676,"librarysystem":"","phone":"TEL:  244-7036","id":"a62cstvgrvm8","address":"28 N. Main St.","lat":44.339687,"libraryname":"Waterbury Public Library","state":"VT"},"type":"Feature","geometry":{"type":"Point","coordinates":[-72.758347,44.339687]}},{"properties":{"city":"Waterville","lon":-72.776535,"zip":5492,"librarysystem":"","phone":"TEL:  no phone","id":"a62csu1smb2l","address":"1555 Lapland Rd.","lat":44.715733,"libraryname":"Waterville Town Library","state":"VT"},"type":"Feature","geometry":{"type":"Point","coordinates":[-72.776535,44.715733]}},{"properties":{"city":"Wells","lon":-73.203201,"zip":5774,"librarysystem":"","phone":"TEL:  645-0611","id":"a62cstp57wf1","address":"5 East Wells Rd.","lat":43.417137,"libraryname":"Wells Village Library","state":"VT"},"type":"Feature","geometry":{"type":"Point","coordinates":[-73.203201,43.417137]}},{"properties":{"city":"West Burke","lon":-71.979507,"zip":5871,"librarysystem":"","phone":"TEL:  no phone","id":"a62cstzse2dq","address":"135 Main St.","lat":44.641869,"libraryname":"West Burke Library","state":"VT"},"type":"Feature","geometry":{"type":"Point","coordinates":[-71.979507,44.641869]}},{"properties":{"city":"West Fairlee","lon":-72.262695,"zip":5083,"librarysystem":"","phone":"TEL:  333-3502","id":"a62cstvcfq4f","address":"380 Rte 113","lat":43.907898,"libraryname":"West Fairlee Free Public Library","state":"VT"},"type":"Feature","geometry":{"type":"Point","coordinates":[-72.262695,43.907898]}},{"properties":{"city":"West Hartford","lon":-72.431091,"zip":5084,"librarysystem":"","phone":"TEL:  295-7992","id":"a62cstoyg823","address":"5133 Rte 14","lat":43.724655,"libraryname":"West Hartford Library","state":"VT"},"type":"Feature","geometry":{"type":"Point","coordinates":[-72.431091,43.724655]}},{"properties":{"city":"West Rutland","lon":-73.04911,"zip":5777,"librarysystem":"","phone":"TEL:  438-2964","id":"a62cstw6r1sz","address":"595 Main St.","lat":43.594891,"libraryname":"West Rutland Public Library","state":"VT"},"type":"Feature","geometry":{"type":"Point","coordinates":[-73.04911,43.594891]}},{"properties":{"city":"Westford","lon":-73.010567,"zip":5494,"librarysystem":"","phone":"TEL:  878-5639","id":"a62cstn89rri","address":"1717 VT Rte 128","lat":44.612156,"libraryname":"Westford Public Library","state":"VT"},"type":"Feature","geometry":{"type":"Point","coordinates":[-73.010567,44.612156]}},{"properties":{"city":"Westminster West","lon":-72.541405,"zip":5346,"librarysystem":"","phone":"TEL:  387-4682","id":"a62cstxj4iiu","address":"3409 Westminster W. Rd.","lat":43.064835,"libraryname":"Westminster West Public Library","state":"VT"},"type":"Feature","geometry":{"type":"Point","coordinates":[-72.541405,43.064835]}},{"properties":{"city":"Whiting","lon":-73.194527,"zip":5778,"librarysystem":"","phone":"TEL:  no phone","id":"a62cstujucff","address":"91 Murray Rd.","lat":43.862209,"libraryname":"Whiting Free Library","state":"VT"},"type":"Feature","geometry":{"type":"Point","coordinates":[-73.194527,43.862209]}},{"properties":{"city":"Chester","lon":-72.597702,"zip":5143,"librarysystem":"","phone":"TEL:  875-2277","id":"a62csts9kffx","address":"117 Main St.","lat":43.263969,"libraryname":"Whiting Library","state":"VT"},"type":"Feature","geometry":{"type":"Point","coordinates":[-72.597702,43.263969]}},{"properties":{"city":"Jacksonville","lon":-72.822548,"zip":5342,"librarysystem":"","phone":"TEL:  368-7506","id":"a62cstq3s59y","address":"2948 VT Rte 100","lat":42.798298,"libraryname":"Whitingham Free Public Library","state":"VT"},"type":"Feature","geometry":{"type":"Point","coordinates":[-72.822548,42.798298]}},{"properties":{"city":"Quechee","lon":-72.420143,"zip":5059,"librarysystem":"","phone":"TEL:  295-6341","id":"a62csu1578du","address":"PO Box 384","lat":43.647129,"libraryname":"Wilder Club &amp; Lib. - Branch of Quechee Library","state":"VT"},"type":"Feature","geometry":{"type":"Point","coordinates":[-72.420143,43.647129]}},{"properties":{"city":"Weston","lon":-72.795746,"zip":5161,"librarysystem":"","phone":"TEL:  824-4307","id":"a62cstq2r069","address":"24 Lawrence Hill Rd.","lat":43.291862,"libraryname":"Wilder Memorial Library","state":"VT"},"type":"Feature","geometry":{"type":"Point","coordinates":[-72.795746,43.291862]}},{"properties":{"city":"Windham","lon":-72.726082,"zip":5359,"librarysystem":"","phone":"TEL:  875-4874","id":"a62csu0gp344","address":"26 Harrington Rd.","lat":43.180614,"libraryname":"Windham Town Library","state":"VT"},"type":"Feature","geometry":{"type":"Point","coordinates":[-72.726082,43.180614]}},{"properties":{"city":"Windsor","lon":-72.388733,"zip":5089,"librarysystem":"","phone":"TEL:  674-2556","id":"a62cstxprmxn","address":"43 State St.","lat":43.480473,"libraryname":"Windsor Public Library","state":"VT"},"type":"Feature","geometry":{"type":"Point","coordinates":[-72.388733,43.480473]}},{"properties":{"city":"Bondville","lon":-72.87471,"zip":5340,"librarysystem":"","phone":"TEL:  297-9741","id":"a62cstx7i1fm","address":"2 Lower Taylor Hill Rd.","lat":43.144531,"libraryname":"Winhall Memorial Library","state":"VT"},"type":"Feature","geometry":{"type":"Point","coordinates":[-72.87471,43.144531]}},{"properties":{"city":"Winooski","lon":-73.186424,"zip":5404,"librarysystem":"","phone":"TEL:  655-6424","id":"a62cstrpos7m","address":"1 Main St.","lat":44.488998,"libraryname":"Winooski Memorial Library","state":"VT"},"type":"Feature","geometry":{"type":"Point","coordinates":[-73.186424,44.488998]}},{"properties":{"city":"North Troy","lon":-72.405312,"zip":5859,"librarysystem":"","phone":"TEL:  988-4741","id":"a62cstv0rert","address":"160 Railroad St.","lat":44.997501,"libraryname":"Wm. &amp; Lucy Rand Memorial Library","state":"VT"},"type":"Feature","geometry":{"type":"Point","coordinates":[-72.405312,44.997501]}},{"properties":{"city":"Woodbury","lon":-72.416191,"zip":5681,"librarysystem":"","phone":"TEL:  472-5710","id":"a62cstu5qggw","address":"69 Valley Lake Rd.","lat":44.440559,"libraryname":"Woodbury Community Library","state":"VT"},"type":"Feature","geometry":{"type":"Point","coordinates":[-72.416191,44.440559]}}],"is_temporal":false,"author":{"url":"http://www.publiclibraries.com/vermont.htm","metadata":"","contact_name":"","contact_address":"","source":"publiclibrairies.com","contact_phone":""},"source":"http://www.publiclibraries.com/vermont.htm","pagination":{"sort":null,"start":0,"total":193,"limit":1000000},"state":"complete","tags":"books,education,libraries,library,public,vermont","published":"2008-05-09T12:00:00Z","id":960}