{"type":"FeatureCollection","data_type":"Dataset","url_type":null,"permissions":[{"permissions":{"download":true,"view":true},"group_id":"everyone"}],"classification":null,"title":"1dillondoyle ff","count":830,"stream_id":96289,"contributor":{"url":"http://geocommons.com/users/16843","name":"dillondoyle"},"data_attributes":null,"calculation_params":null,"icon_link":null,"link":"http://geocommons.com/overlays/96289.json","extent":[-105.096,39.5988,-104.737,39.8692],"geometry_types":["point"],"unique_name":null,"name":"1dillondoyle ff","feature_count":830,"description":"","next_feature":null,"is_raster":false,"short_classification":"Y","stats":{},"features":[{"properties":{"zip":"80223","geo_score":0.805,"id":"a67gs1b3l9jx","address":"831 S Raritan St","geo_precision":"range"},"type":"Feature","geometry":{"type":"Point","coordinates":[-105.008626,39.701474]}},{"properties":{"zip":"80209","geo_score":0.805,"id":"a67gs1gkykrt","address":"650 S Vine St","geo_precision":"range"},"type":"Feature","geometry":{"type":"Point","coordinates":[-104.962864,39.704748]}},{"properties":{"zip":"0","geo_score":0.0,"id":"a67gs1d4htxn","address":"1 Federal Ballot 1 St","geo_precision":"unmatched"},"type":"Feature","geometry":null},{"properties":{"zip":"80237","geo_score":0.677,"id":"a67gs1hfyrwd","address":"8100 E Union Ave Unit 409","geo_precision":"range"},"type":"Feature","geometry":{"type":"Point","coordinates":[-104.89515,39.629526]}},{"properties":{"zip":"80220","geo_score":0.805,"id":"a67gs170rifq","address":"830 Jersey St","geo_precision":"range"},"type":"Feature","geometry":{"type":"Point","coordinates":[-104.919459,39.729644]}},{"properties":{"zip":"80220","geo_score":0.805,"id":"a67gs1364jdt","address":"914 Ivanhoe St","geo_precision":"range"},"type":"Feature","geometry":{"type":"Point","coordinates":[-104.921666,39.730657]}},{"properties":{"zip":"80230","geo_score":0.721,"id":"a67gs147lxog","address":"7424 E 9th Ave","geo_precision":"range"},"type":"Feature","geometry":{"type":"Point","coordinates":[-104.906517,39.730491]}},{"properties":{"zip":"80230","geo_score":0.614,"id":"a67gs16yey3w","address":"743 Syracuse St","geo_precision":"street"},"type":"Feature","geometry":{"type":"Point","coordinates":[-104.898834,39.727337]}},{"properties":{"zip":"80230","geo_score":0.611,"id":"a67gs1ap3hf9","address":"556 Trenton St","geo_precision":"street"},"type":"Feature","geometry":{"type":"Point","coordinates":[-104.895758,39.729811]}},{"properties":{"zip":"80230","geo_score":0.396,"id":"a67gs1acx7w3","address":"8155 E Fairmount Dr Unit 1615","geo_precision":"street"},"type":"Feature","geometry":{"type":"Point","coordinates":[-104.890371,39.705676]}},{"properties":{"zip":"80219","geo_score":0.805,"id":"a67gs1cjwkyh","address":"1295 S Patton Ct","geo_precision":"range"},"type":"Feature","geometry":{"type":"Point","coordinates":[-105.039059,39.693184]}},{"properties":{"zip":"80219","geo_score":0.805,"id":"a67gs15b0vku","address":"1234 S Quitman St","geo_precision":"range"},"type":"Feature","geometry":{"type":"Point","coordinates":[-105.041392,39.694306]}},{"properties":{"zip":"80219","geo_score":0.805,"id":"a67gs1aqu42x","address":"1225 S Grove St","geo_precision":"range"},"type":"Feature","geometry":{"type":"Point","coordinates":[-105.02632,39.694679]}},{"properties":{"zip":"80219","geo_score":0.805,"id":"a67gs139pb7f","address":"1170 S Raleigh St","geo_precision":"range"},"type":"Feature","geometry":{"type":"Point","coordinates":[-105.042562,39.695465]}},{"properties":{"zip":"80231","geo_score":0.697,"id":"a67gs14szye2","address":"9200 Cherry Creek South Dr Apt 29","geo_precision":"range"},"type":"Feature","geometry":{"type":"Point","coordinates":[-104.880211,39.664135]}},{"properties":{"zip":"80231","geo_score":0.721,"id":"a67gs188uktw","address":"8862 E Amherst Dr Apt B","geo_precision":"range"},"type":"Feature","geometry":{"type":"Point","coordinates":[-104.887904,39.667239]}},{"properties":{"zip":"80231","geo_score":0.707,"id":"a67gs11w8zqf","address":"9162 Cherry Creek South Dr Apt A","geo_precision":"range"},"type":"Feature","geometry":{"type":"Point","coordinates":[-104.881602,39.665078]}},{"properties":{"zip":"80219","geo_score":0.805,"id":"a67gs1a868tc","address":"3141 W Louisiana Ave","geo_precision":"range"},"type":"Feature","geometry":{"type":"Point","coordinates":[-105.027191,39.693103]}},{"properties":{"zip":"80231","geo_score":0.805,"id":"a67gs1db5xu5","address":"8663 E Doane Pl","geo_precision":"range"},"type":"Feature","geometry":{"type":"Point","coordinates":[-104.889176,39.659911]}},{"properties":{"zip":"80231","geo_score":0.805,"id":"a67gs194skib","address":"2881 S Valentia St","geo_precision":"range"},"type":"Feature","geometry":{"type":"Point","coordinates":[-104.892492,39.665079]}},{"properties":{"zip":"80231","geo_score":0.805,"id":"a67gs1eudeu3","address":"3040 S Valentia St","geo_precision":"range"},"type":"Feature","geometry":{"type":"Point","coordinates":[-104.892508,39.662268]}},{"properties":{"zip":"80231","geo_score":0.805,"id":"a67gs1dbt786","address":"2991 S Whiting Way","geo_precision":"range"},"type":"Feature","geometry":{"type":"Point","coordinates":[-104.892038,39.663104]}},{"properties":{"zip":"80231","geo_score":0.724,"id":"a67gs14tjx16","address":"8101 E Dartmouth Ave Unit 9","geo_precision":"range"},"type":"Feature","geometry":{"type":"Point","coordinates":[-104.895313,39.66034]}},{"properties":{"zip":"80231","geo_score":0.805,"id":"a67gs14s5svq","address":"3057 S Rosemary St","geo_precision":"range"},"type":"Feature","geometry":{"type":"Point","coordinates":[-104.899306,39.661738]}},{"properties":{"zip":"80231","geo_score":0.805,"id":"a67gs1h5jtn4","address":"7642 E Bates Dr","geo_precision":"range"},"type":"Feature","geometry":{"type":"Point","coordinates":[-104.898445,39.665371]}},{"properties":{"zip":"80231","geo_score":0.805,"id":"a67gs1a1gheb","address":"2967 S Rosemary St","geo_precision":"range"},"type":"Feature","geometry":{"type":"Point","coordinates":[-104.900708,39.663842]}},{"properties":{"zip":"80231","geo_score":0.805,"id":"a67gs1gs40vn","address":"2813 S Uinta St","geo_precision":"range"},"type":"Feature","geometry":{"type":"Point","coordinates":[-104.893606,39.666101]}},{"properties":{"zip":"80231","geo_score":0.805,"id":"a67gs1dewqm2","address":"2906 S Sidney Ct","geo_precision":"range"},"type":"Feature","geometry":{"type":"Point","coordinates":[-104.898586,39.665206]}},{"properties":{"zip":"80231","geo_score":0.805,"id":"a67gs133wg5w","address":"7443 E Bates Dr","geo_precision":"range"},"type":"Feature","geometry":{"type":"Point","coordinates":[-104.900925,39.665164]}},{"properties":{"zip":"80224","geo_score":0.805,"id":"a67gs1cqeojb","address":"2960 S Magnolia Way","geo_precision":"range"},"type":"Feature","geometry":{"type":"Point","coordinates":[-104.910588,39.663122]}},{"properties":{"zip":"80224","geo_score":0.805,"id":"a67gs15kj5kw","address":"3064 S Niagara Way","geo_precision":"range"},"type":"Feature","geometry":{"type":"Point","coordinates":[-104.910626,39.661264]}},{"properties":{"zip":"80224","geo_score":0.805,"id":"a67gs16p2f60","address":"2972 S Newport St","geo_precision":"range"},"type":"Feature","geometry":{"type":"Point","coordinates":[-104.908534,39.662806]}},{"properties":{"zip":"80231","geo_score":0.805,"id":"a67gs1grvtdw","address":"3205 S Tulare Ct","geo_precision":"range"},"type":"Feature","geometry":{"type":"Point","coordinates":[-104.895796,39.658162]}},{"properties":{"zip":"80224","geo_score":0.805,"id":"a67gs1fjdl54","address":"6630 E Harvard Ave","geo_precision":"range"},"type":"Feature","geometry":{"type":"Point","coordinates":[-104.911844,39.670918]}},{"properties":{"zip":"80224","geo_score":0.805,"id":"a67gs12qz8cx","address":"2696 S Norman Ct","geo_precision":"range"},"type":"Feature","geometry":{"type":"Point","coordinates":[-104.908588,39.667675]}},{"properties":{"zip":"80222","geo_score":0.805,"id":"a67gs1hmkvrq","address":"6456 E Bates Ave","geo_precision":"range"},"type":"Feature","geometry":{"type":"Point","coordinates":[-104.914147,39.664367]}},{"properties":{"zip":"80222","geo_score":0.805,"id":"a67gs1hr37os","address":"6453 E Bethany Pl","geo_precision":"range"},"type":"Feature","geometry":{"type":"Point","coordinates":[-104.913744,39.663548]}},{"properties":{"zip":"80222","geo_score":0.805,"id":"a67gs1go1605","address":"2595 S Leyden St","geo_precision":"range"},"type":"Feature","geometry":{"type":"Point","coordinates":[-104.917572,39.67246]}},{"properties":{"zip":"80222","geo_score":0.715,"id":"a67gs1b6n8oi","address":"2880 S Locust St Apt N502","geo_precision":"range"},"type":"Feature","geometry":{"type":"Point","coordinates":[-104.91541,39.664671]}},{"properties":{"zip":"80222","geo_score":0.805,"id":"a67gs15i33g2","address":"2405 S Kirkwood Ct","geo_precision":"range"},"type":"Feature","geometry":{"type":"Point","coordinates":[-104.91564,39.67275]}},{"properties":{"zip":"80222","geo_score":0.805,"id":"a67gs18bl1jy","address":"2443 S Kirkwood Ct","geo_precision":"range"},"type":"Feature","geometry":{"type":"Point","coordinates":[-104.914855,39.672099]}},{"properties":{"zip":"80224","geo_score":0.805,"id":"a67gs158sfse","address":"2323 S Olive St","geo_precision":"range"},"type":"Feature","geometry":{"type":"Point","coordinates":[-104.907158,39.674719]}},{"properties":{"zip":"80247","geo_score":0.688,"id":"a67gs1a4hyl2","address":"660 S Alton Way Apt 11A","geo_precision":"range"},"type":"Feature","geometry":{"type":"Point","coordinates":[-104.882724,39.703607]}},{"properties":{"zip":"80222","geo_score":0.668,"id":"a67gs1d31tku","address":"4570 E Yale Ave Apt 1008","geo_precision":"range"},"type":"Feature","geometry":{"type":"Point","coordinates":[-104.935381,39.667466]}},{"properties":{"zip":"80224","geo_score":0.805,"id":"a67gs1c33hbw","address":"1905 S Linden Ct","geo_precision":"range"},"type":"Feature","geometry":{"type":"Point","coordinates":[-104.915065,39.681994]}},{"properties":{"zip":"80222","geo_score":0.707,"id":"a67gs1463k4l","address":"2205 S Holly St Apt 2","geo_precision":"range"},"type":"Feature","geometry":{"type":"Point","coordinates":[-104.92228,39.675941]}},{"properties":{"zip":"80222","geo_score":0.805,"id":"a67gs13cewwq","address":"5415 E Atlantic Pl","geo_precision":"range"},"type":"Feature","geometry":{"type":"Point","coordinates":[-104.925278,39.681247]}},{"properties":{"zip":"80222","geo_score":0.805,"id":"a67gs199yqnv","address":"4959 E Iliff Ave","geo_precision":"range"},"type":"Feature","geometry":{"type":"Point","coordinates":[-104.92925,39.674829]}},{"properties":{"zip":"80224","geo_score":0.805,"id":"a67gs17au1gs","address":"1735 S Oneida St","geo_precision":"range"},"type":"Feature","geometry":{"type":"Point","coordinates":[-104.9083,39.684534]}},{"properties":{"zip":"80222","geo_score":0.805,"id":"a67gs129vs2o","address":"1631 S Glencoe St","geo_precision":"range"},"type":"Feature","geometry":{"type":"Point","coordinates":[-104.926395,39.686818]}},{"properties":{"zip":"80222","geo_score":0.805,"id":"a67gs1f3zpv9","address":"1624 S Hudson St","geo_precision":"range"},"type":"Feature","geometry":{"type":"Point","coordinates":[-104.923491,39.687115]}},{"properties":{"zip":"80222","geo_score":0.805,"id":"a67gs1i8ky8r","address":"5522 E Colorado Ave","geo_precision":"range"},"type":"Feature","geometry":{"type":"Point","coordinates":[-104.923632,39.684456]}},{"properties":{"zip":"80222","geo_score":0.805,"id":"a67gs138l23s","address":"1803 S Glencoe St","geo_precision":"range"},"type":"Feature","geometry":{"type":"Point","coordinates":[-104.9259,39.684052]}},{"properties":{"zip":"80222","geo_score":0.805,"id":"a67gs1gq0c4q","address":"5385 E Bails Dr","geo_precision":"range"},"type":"Feature","geometry":{"type":"Point","coordinates":[-104.924803,39.682147]}},{"properties":{"zip":"80222","geo_score":0.805,"id":"a67gs1eaom9j","address":"1760 S Filbert Ct","geo_precision":"range"},"type":"Feature","geometry":{"type":"Point","coordinates":[-104.92781,39.684869]}},{"properties":{"zip":"80222","geo_score":0.805,"id":"a67gs17pqpy6","address":"1537 S Fairfax St","geo_precision":"range"},"type":"Feature","geometry":{"type":"Point","coordinates":[-104.928402,39.688681]}},{"properties":{"zip":"80222","geo_score":0.805,"id":"a67gs12zh4bm","address":"1892 S Eudora St","geo_precision":"range"},"type":"Feature","geometry":{"type":"Point","coordinates":[-104.930725,39.682224]}},{"properties":{"zip":"80222","geo_score":0.805,"id":"a67gs1d4l374","address":"4753 E Utah Pl","geo_precision":"range"},"type":"Feature","geometry":{"type":"Point","coordinates":[-104.932172,39.683528]}},{"properties":{"zip":"80222","geo_score":0.805,"id":"a67gs1de2dof","address":"1557 S Fairfax St","geo_precision":"range"},"type":"Feature","geometry":{"type":"Point","coordinates":[-104.928402,39.688308]}},{"properties":{"zip":"80222","geo_score":0.805,"id":"a67gs1i9pfcu","address":"4627 E Utah Pl","geo_precision":"range"},"type":"Feature","geometry":{"type":"Point","coordinates":[-104.933575,39.683524]}},{"properties":{"zip":"80222","geo_score":0.695,"id":"a67gs1avrx9p","address":"4295 E Mexico Ave Apt 606","geo_precision":"range"},"type":"Feature","geometry":{"type":"Point","coordinates":[-104.937456,39.685701]}},{"properties":{"zip":"80222","geo_score":0.679,"id":"a67gs1d1m0u0","address":"4280 E Iowa Ave Apt 104","geo_precision":"range"},"type":"Feature","geometry":{"type":"Point","coordinates":[-104.936873,39.687501]}},{"properties":{"zip":"80222","geo_score":0.679,"id":"a67gs1cgiw3k","address":"1625 S Birch St Apt 607","geo_precision":"range"},"type":"Feature","geometry":{"type":"Point","coordinates":[-104.936003,39.687062]}},{"properties":{"zip":"80210","geo_score":0.805,"id":"a67gs14rxkki","address":"2955 E Colorado Ave","geo_precision":"range"},"type":"Feature","geometry":{"type":"Point","coordinates":[-104.952031,39.683871]}},{"properties":{"zip":"80231","geo_score":0.707,"id":"a67gs18rdjeb","address":"1811 S Quebec Way Apt 79","geo_precision":"range"},"type":"Feature","geometry":{"type":"Point","coordinates":[-104.89206,39.684412]}},{"properties":{"zip":"80231","geo_score":0.805,"id":"a67gs14qhaj9","address":"1592 S Roslyn St","geo_precision":"range"},"type":"Feature","geometry":{"type":"Point","coordinates":[-104.900744,39.687183]}},{"properties":{"zip":"80231","geo_score":0.805,"id":"a67gs16nwi6f","address":"1553 S Syracuse St","geo_precision":"range"},"type":"Feature","geometry":{"type":"Point","coordinates":[-104.898801,39.687887]}},{"properties":{"zip":"80231","geo_score":0.805,"id":"a67gs1i5wnfw","address":"1552 S Syracuse St","geo_precision":"range"},"type":"Feature","geometry":{"type":"Point","coordinates":[-104.898801,39.687887]}},{"properties":{"zip":"80231","geo_score":0.805,"id":"a67gs1h1kskb","address":"1575 S Roslyn St","geo_precision":"range"},"type":"Feature","geometry":{"type":"Point","coordinates":[-104.9006,39.687441]}},{"properties":{"zip":"80231","geo_score":0.805,"id":"a67gs1ah4tp2","address":"1563 S Roslyn St","geo_precision":"range"},"type":"Feature","geometry":{"type":"Point","coordinates":[-104.900593,39.687632]}},{"properties":{"zip":"80231","geo_score":0.805,"id":"a67gs14vront","address":"7938 E Mexico Ave","geo_precision":"range"},"type":"Feature","geometry":{"type":"Point","coordinates":[-104.8954,39.685761]}},{"properties":{"zip":"80231","geo_score":0.707,"id":"a67gs1a5f9hq","address":"1470 S Quebec Way Apt 86","geo_precision":"range"},"type":"Feature","geometry":{"type":"Point","coordinates":[-104.897372,39.690023]}},{"properties":{"zip":"80231","geo_score":0.707,"id":"a67gs184rvdn","address":"1600 S Quebec Way Apt 11","geo_precision":"range"},"type":"Feature","geometry":{"type":"Point","coordinates":[-104.894967,39.687429]}},{"properties":{"zip":"80231","geo_score":0.695,"id":"a67gs1c0n661","address":"1470 S Quebec Way Apt 154","geo_precision":"range"},"type":"Feature","geometry":{"type":"Point","coordinates":[-104.897372,39.690023]}},{"properties":{"zip":"80224","geo_score":0.713,"id":"a67gs13e0pjr","address":"1250 S Monaco Pkwy Apt 15","geo_precision":"range"},"type":"Feature","geometry":{"type":"Point","coordinates":[-104.912889,39.693421]}},{"properties":{"zip":"80224","geo_score":0.713,"id":"a67gs19tyhyl","address":"1250 S Monaco Pkwy Apt 25","geo_precision":"range"},"type":"Feature","geometry":{"type":"Point","coordinates":[-104.912889,39.693421]}},{"properties":{"zip":"80224","geo_score":0.619,"id":"a67gs1ep9caq","address":"1311 S Magnolia Way","geo_precision":"street"},"type":"Feature","geometry":{"type":"Point","coordinates":[-104.911224,39.691674]}},{"properties":{"zip":"80224","geo_score":0.713,"id":"a67gs14a666z","address":"1200 S Monaco Pkwy Apt 24","geo_precision":"range"},"type":"Feature","geometry":{"type":"Point","coordinates":[-104.91289,39.695308]}},{"properties":{"zip":"80224","geo_score":0.805,"id":"a67gs1i5s3t9","address":"1585 S Monaco Pkwy","geo_precision":"range"},"type":"Feature","geometry":{"type":"Point","coordinates":[-104.912889,39.687793]}},{"properties":{"zip":"80224","geo_score":0.805,"id":"a67gs1fip5fb","address":"1473 S Monaco Pkwy","geo_precision":"range"},"type":"Feature","geometry":{"type":"Point","coordinates":[-104.912892,39.689776]}},{"properties":{"zip":"80222","geo_score":0.805,"id":"a67gs1fe0fz1","address":"1345 S Holly St","geo_precision":"range"},"type":"Feature","geometry":{"type":"Point","coordinates":[-104.922322,39.69163]}},{"properties":{"zip":"80222","geo_score":0.805,"id":"a67gs1hdrive","address":"1308 S Edison Way","geo_precision":"range"},"type":"Feature","geometry":{"type":"Point","coordinates":[-104.930644,39.692776]}},{"properties":{"zip":"80222","geo_score":0.805,"id":"a67gs1e7roqw","address":"1341 S Forest Way","geo_precision":"range"},"type":"Feature","geometry":{"type":"Point","coordinates":[-104.926493,39.692245]}},{"properties":{"zip":"80222","geo_score":0.805,"id":"a67gs18nxrsq","address":"1321 S Glencoe St","geo_precision":"range"},"type":"Feature","geometry":{"type":"Point","coordinates":[-104.925451,39.692547]}},{"properties":{"zip":"80218","geo_score":0.805,"id":"a67gs12xc3ug","address":"544 Williams St","geo_precision":"range"},"type":"Feature","geometry":{"type":"Point","coordinates":[-104.965857,39.724588]}},{"properties":{"zip":"80222","geo_score":0.805,"id":"a67gs13r1ctm","address":"1470 S Birch St","geo_precision":"range"},"type":"Feature","geometry":{"type":"Point","coordinates":[-104.936229,39.689895]}},{"properties":{"zip":"80230","geo_score":0.559,"id":"a67gs1drst4p","address":"8005 E 9th Ave","geo_precision":"street"},"type":"Feature","geometry":{"type":"Point","coordinates":[-104.905805,39.730489]}},{"properties":{"zip":"80246","geo_score":0.702,"id":"a67gs1heznln","address":"5250 Cherry Creek South Dr Apt 20E","geo_precision":"range"},"type":"Feature","geometry":{"type":"Point","coordinates":[-104.926087,39.698801]}},{"properties":{"zip":"80237","geo_score":0.805,"id":"a67gs1516fb1","address":"8754 E Monmouth Pl","geo_precision":"range"},"type":"Feature","geometry":{"type":"Point","coordinates":[-104.886532,39.62546]}},{"properties":{"zip":"80220","geo_score":0.61,"id":"a67gs1ahvd2q","address":"5025 E 6th Avenue Pkwy","geo_precision":"range"},"type":"Feature","geometry":{"type":"Point","coordinates":[-104.929155,39.725619]}},{"properties":{"zip":"80220","geo_score":0.805,"id":"a67gs13aj1ft","address":"711 Forest St","geo_precision":"range"},"type":"Feature","geometry":{"type":"Point","coordinates":[-104.927209,39.727433]}},{"properties":{"zip":"80220","geo_score":0.805,"id":"a67gs1bj8a7q","address":"712 Forest St","geo_precision":"range"},"type":"Feature","geometry":{"type":"Point","coordinates":[-104.927209,39.727465]}},{"properties":{"zip":"80220","geo_score":0.805,"id":"a67gs1855isx","address":"660 Bellaire St","geo_precision":"range"},"type":"Feature","geometry":{"type":"Point","coordinates":[-104.937155,39.726718]}},{"properties":{"zip":"80246","geo_score":0.78,"id":"a67gs17lru3g","address":"4901 Kentucky Cir","geo_precision":"range"},"type":"Feature","geometry":{"type":"Point","coordinates":[-104.930252,39.700622]}},{"properties":{"zip":"80218","geo_score":0.592,"id":"a67gs15wnpfq","address":"910 E 8th Ave Apt 305","geo_precision":"range"},"type":"Feature","geometry":{"type":"Point","coordinates":[-104.97632,39.729068]}},{"properties":{"zip":"80238","geo_score":0.537,"id":"a67gs19ml8lr","address":"9622 E 27th Ave","geo_precision":"street"},"type":"Feature","geometry":{"type":"Point","coordinates":[-104.942962,39.755686]}},{"properties":{"zip":"80238","geo_score":0.581,"id":"a67gs1f78qec","address":"2562 Xanthia Ct","geo_precision":"street"},"type":"Feature","geometry":{"type":"Point","coordinates":[-104.886091,39.664536]}},{"properties":{"zip":"80238","geo_score":0.61,"id":"a67gs1alfsck","address":"2760 Uinta St","geo_precision":"street"},"type":"Feature","geometry":{"type":"Point","coordinates":[-104.892846,39.747459]}},{"properties":{"zip":"80247","geo_score":0.707,"id":"a67gs13etdxy","address":"650 S Clinton St Apt 1C","geo_precision":"range"},"type":"Feature","geometry":{"type":"Point","coordinates":[-104.876155,39.705306]}},{"properties":{"zip":"80247","geo_score":0.7,"id":"a67gs12o60sy","address":"660 S Alton Way Apt 1A","geo_precision":"range"},"type":"Feature","geometry":{"type":"Point","coordinates":[-104.882724,39.703607]}},{"properties":{"zip":"80247","geo_score":0.695,"id":"a67gs1ccho2t","address":"610 S Clinton St Apt 10D","geo_precision":"range"},"type":"Feature","geometry":{"type":"Point","coordinates":[-104.876427,39.706218]}},{"properties":{"zip":"80247","geo_score":0.707,"id":"a67gs1hyx74m","address":"580 S Clinton St Apt 6B","geo_precision":"range"},"type":"Feature","geometry":{"type":"Point","coordinates":[-104.876784,39.706467]}},{"properties":{"zip":"80247","geo_score":0.707,"id":"a67gs17cskbl","address":"610 S Clinton St Apt 4D","geo_precision":"range"},"type":"Feature","geometry":{"type":"Point","coordinates":[-104.876427,39.706218]}},{"properties":{"zip":"80247","geo_score":0.707,"id":"a67gs167ys1u","address":"9655 E Center Ave Apt 6A","geo_precision":"range"},"type":"Feature","geometry":{"type":"Point","coordinates":[-104.875708,39.706891]}},{"properties":{"zip":"80247","geo_score":0.707,"id":"a67gs1bx5gii","address":"300 S Clinton St Apt 2A","geo_precision":"range"},"type":"Feature","geometry":{"type":"Point","coordinates":[-104.879022,39.708156]}},{"properties":{"zip":"80247","geo_score":0.707,"id":"a67gs11zj6qt","address":"9335 E Center Ave Apt 5B","geo_precision":"range"},"type":"Feature","geometry":{"type":"Point","coordinates":[-104.878278,39.7064]}},{"properties":{"zip":"80247","geo_score":0.695,"id":"a67gs19z5hcn","address":"9315 E Center Ave Apt 10B","geo_precision":"range"},"type":"Feature","geometry":{"type":"Point","coordinates":[-104.878512,39.706321]}},{"properties":{"zip":"80219","geo_score":0.805,"id":"a67gs17altlh","address":"3125 W Colorado Ave","geo_precision":"range"},"type":"Feature","geometry":{"type":"Point","coordinates":[-105.026782,39.684961]}},{"properties":{"zip":"80247","geo_score":0.707,"id":"a67gs1ag3wnb","address":"9385 E Center Ave Apt 8A","geo_precision":"range"},"type":"Feature","geometry":{"type":"Point","coordinates":[-104.877928,39.706797]}},{"properties":{"zip":"80247","geo_score":0.707,"id":"a67gs1eq8dwk","address":"9320 E Center Ave Apt 7B","geo_precision":"range"},"type":"Feature","geometry":{"type":"Point","coordinates":[-104.878437,39.706337]}},{"properties":{"zip":"80247","geo_score":0.707,"id":"a67gs1eohqby","address":"9300 E Center Ave Apt 7D","geo_precision":"range"},"type":"Feature","geometry":{"type":"Point","coordinates":[-104.878696,39.706305]}},{"properties":{"zip":"80247","geo_score":0.707,"id":"a67gs130pzjn","address":"9380 E Center Ave Apt 9A","geo_precision":"range"},"type":"Feature","geometry":{"type":"Point","coordinates":[-104.877946,39.706762]}},{"properties":{"zip":"80247","geo_score":0.721,"id":"a67gs1d4yow9","address":"9071 E Mississippi Ave Apt 20E","geo_precision":"range"},"type":"Feature","geometry":{"type":"Point","coordinates":[-104.882829,39.696483]}},{"properties":{"zip":"80247","geo_score":0.721,"id":"a67gs1gijtq6","address":"7877 E Mississippi Ave Apt 506","geo_precision":"range"},"type":"Feature","geometry":{"type":"Point","coordinates":[-104.896863,39.69658]}},{"properties":{"zip":"80247","geo_score":0.713,"id":"a67gs1e4rpkz","address":"8300 Fairmount Dr Unit A101","geo_precision":"range"},"type":"Feature","geometry":{"type":"Point","coordinates":[-104.892911,39.711194]}},{"properties":{"zip":"80231","geo_score":0.805,"id":"a67gs1e0imfl","address":"7932 E Bucknell Pl","geo_precision":"range"},"type":"Feature","geometry":{"type":"Point","coordinates":[-104.895794,39.664028]}},{"properties":{"zip":"80247","geo_score":0.688,"id":"a67gs1fhucdv","address":"645 S Alton Way Apt 11D","geo_precision":"range"},"type":"Feature","geometry":{"type":"Point","coordinates":[-104.882751,39.703619]}},{"properties":{"zip":"80247","geo_score":0.688,"id":"a67gs1d22st2","address":"595 S Alton Way Apt 11D","geo_precision":"range"},"type":"Feature","geometry":{"type":"Point","coordinates":[-104.88311,39.706055]}},{"properties":{"zip":"80247","geo_score":0.7,"id":"a67gs15252lw","address":"605 S Alton Way Apt 4D","geo_precision":"range"},"type":"Feature","geometry":{"type":"Point","coordinates":[-104.883274,39.705518]}},{"properties":{"zip":"80247","geo_score":0.143,"id":"a67gs1dv2nkr","address":"8225 Fairmount Dr Apt B7-101","geo_precision":"street"},"type":"Feature","geometry":{"type":"Point","coordinates":[-104.89291,39.711192]}},{"properties":{"zip":"80247","geo_score":0.584,"id":"a67gs1bbzqbc","address":"8335 Fairmount Dr Unit 1-207","geo_precision":"range"},"type":"Feature","geometry":{"type":"Point","coordinates":[-104.892567,39.70851]}},{"properties":{"zip":"80224","geo_score":0.805,"id":"a67gs12z9lsu","address":"7035 E Louisiana Ave","geo_precision":"range"},"type":"Feature","geometry":{"type":"Point","coordinates":[-104.905964,39.692579]}},{"properties":{"zip":"80224","geo_score":0.743,"id":"a67gs151ptcp","address":"6880 E Mississippi Ave Apt D","geo_precision":"range"},"type":"Feature","geometry":{"type":"Point","coordinates":[-104.908591,39.696623]}},{"properties":{"zip":"80224","geo_score":0.727,"id":"a67gs13502jf","address":"6805 E Arizona Ave Apt C","geo_precision":"range"},"type":"Feature","geometry":{"type":"Point","coordinates":[-104.909298,39.694649]}},{"properties":{"zip":"80224","geo_score":0.743,"id":"a67gs16a8oh1","address":"6801 E Mississippi Ave Apt C108","geo_precision":"range"},"type":"Feature","geometry":{"type":"Point","coordinates":[-104.909635,39.696622]}},{"properties":{"zip":"80224","geo_score":0.743,"id":"a67gs185ao2e","address":"6820 E Mississippi Ave Apt B","geo_precision":"range"},"type":"Feature","geometry":{"type":"Point","coordinates":[-104.909138,39.696622]}},{"properties":{"zip":"80224","geo_score":0.743,"id":"a67gs18jbuk9","address":"6801 E Mississippi Ave Apt C211","geo_precision":"range"},"type":"Feature","geometry":{"type":"Point","coordinates":[-104.909635,39.696622]}},{"properties":{"zip":"80224","geo_score":0.805,"id":"a67gs1a2wlgp","address":"7140 E Exposition Ave","geo_precision":"range"},"type":"Feature","geometry":{"type":"Point","coordinates":[-104.904804,39.703875]}},{"properties":{"zip":"80224","geo_score":0.805,"id":"a67gs1gdpg3c","address":"1271 S Monaco Pkwy","geo_precision":"range"},"type":"Feature","geometry":{"type":"Point","coordinates":[-104.912889,39.693799]}},{"properties":{"zip":"80224","geo_score":0.805,"id":"a67gs13jw17e","address":"828 S Jasmine St","geo_precision":"range"},"type":"Feature","geometry":{"type":"Point","coordinates":[-104.918576,39.701517]}},{"properties":{"zip":"80224","geo_score":0.805,"id":"a67gs1i3yp6c","address":"855 S Krameria St","geo_precision":"range"},"type":"Feature","geometry":{"type":"Point","coordinates":[-104.916431,39.701056]}},{"properties":{"zip":"80246","geo_score":0.805,"id":"a67gs12111ft","address":"880 S Hudson St","geo_precision":"range"},"type":"Feature","geometry":{"type":"Point","coordinates":[-104.922709,39.700575]}},{"properties":{"zip":"80246","geo_score":0.805,"id":"a67gs1ekv8fn","address":"710 S Hudson St","geo_precision":"range"},"type":"Feature","geometry":{"type":"Point","coordinates":[-104.922702,39.703678]}},{"properties":{"zip":"80246","geo_score":0.805,"id":"a67gs17grr9t","address":"764 S Flamingo Ct","geo_precision":"range"},"type":"Feature","geometry":{"type":"Point","coordinates":[-104.925823,39.703054]}},{"properties":{"zip":"80224","geo_score":0.805,"id":"a67gs1e6tj9y","address":"320 S Newport Way","geo_precision":"range"},"type":"Feature","geometry":{"type":"Point","coordinates":[-104.908694,39.711347]}},{"properties":{"zip":"80224","geo_score":0.805,"id":"a67gs18aep8m","address":"366 S Newport Way","geo_precision":"range"},"type":"Feature","geometry":{"type":"Point","coordinates":[-104.908691,39.711262]}},{"properties":{"zip":"80224","geo_score":0.805,"id":"a67gs194rq1v","address":"344 S Oneida Way","geo_precision":"range"},"type":"Feature","geometry":{"type":"Point","coordinates":[-104.907544,39.710455]}},{"properties":{"zip":"80224","geo_score":0.805,"id":"a67gs14k8wsq","address":"7105 E Virginia Ave","geo_precision":"range"},"type":"Feature","geometry":{"type":"Point","coordinates":[-104.905306,39.707505]}},{"properties":{"zip":"80224","geo_score":0.805,"id":"a67gs12ne67e","address":"6620 E Nevada Pl","geo_precision":"range"},"type":"Feature","geometry":{"type":"Point","coordinates":[-104.910854,39.709697]}},{"properties":{"zip":"80224","geo_score":0.805,"id":"a67gs18kmawt","address":"665 S Newport St","geo_precision":"range"},"type":"Feature","geometry":{"type":"Point","coordinates":[-104.908782,39.704179]}},{"properties":{"zip":"80246","geo_score":0.805,"id":"a67gs13v7g70","address":"5445 E Custer Pl","geo_precision":"range"},"type":"Feature","geometry":{"type":"Point","coordinates":[-104.923343,39.706186]}},{"properties":{"zip":"80246","geo_score":0.805,"id":"a67gs14ft9wi","address":"5441 E Gill Pl","geo_precision":"range"},"type":"Feature","geometry":{"type":"Point","coordinates":[-104.92344,39.704651]}},{"properties":{"zip":"80246","geo_score":0.805,"id":"a67gs18lv1ig","address":"411 S Forest St","geo_precision":"range"},"type":"Feature","geometry":{"type":"Point","coordinates":[-104.926987,39.709292]}},{"properties":{"zip":"80246","geo_score":0.805,"id":"a67gs1hovqgv","address":"4943 E Kentucky Cir","geo_precision":"range"},"type":"Feature","geometry":{"type":"Point","coordinates":[-104.930208,39.70066]}},{"properties":{"zip":"80246","geo_score":0.697,"id":"a67gs1h81mgv","address":"4901 E Kentucky Ave Unit 304","geo_precision":"range"},"type":"Feature","geometry":{"type":"Point","coordinates":[-104.930363,39.70022]}},{"properties":{"zip":"80246","geo_score":0.707,"id":"a67gs14f7b1a","address":"4805 E Kentucky Ave Apt 205","geo_precision":"range"},"type":"Feature","geometry":{"type":"Point","coordinates":[-104.931256,39.70022]}},{"properties":{"zip":"80218","geo_score":0.61,"id":"a67gs144gbxi","address":"1080 E 13th Ave Apt 201","geo_precision":"range"},"type":"Feature","geometry":{"type":"Point","coordinates":[-104.974357,39.736864]}},{"properties":{"zip":"80230","geo_score":0.805,"id":"a67gs18qbvc4","address":"26 Rosemary St","geo_precision":"range"},"type":"Feature","geometry":{"type":"Point","coordinates":[-104.899571,39.716531]}},{"properties":{"zip":"80230","geo_score":0.805,"id":"a67gs1b72pgy","address":"240 S Oneida St","geo_precision":"range"},"type":"Feature","geometry":{"type":"Point","coordinates":[-104.907356,39.712401]}},{"properties":{"zip":"80224","geo_score":0.688,"id":"a67gs12a5eqd","address":"6784 E Cedar Ave Apt 308","geo_precision":"range"},"type":"Feature","geometry":{"type":"Point","coordinates":[-104.910142,39.7141]}},{"properties":{"zip":"80224","geo_score":0.727,"id":"a67gs15knr5o","address":"136 S Monaco Pkwy Apt A","geo_precision":"range"},"type":"Feature","geometry":{"type":"Point","coordinates":[-104.912708,39.714367]}},{"properties":{"zip":"80224","geo_score":0.702,"id":"a67gs15g816x","address":"160 S Monaco Pkwy Apt 202","geo_precision":"range"},"type":"Feature","geometry":{"type":"Point","coordinates":[-104.912713,39.714082]}},{"properties":{"zip":"80220","geo_score":0.805,"id":"a67gs164uk9o","address":"390 Ash St","geo_precision":"range"},"type":"Feature","geometry":{"type":"Point","coordinates":[-104.93822,39.722964]}},{"properties":{"zip":"80222","geo_score":0.805,"id":"a67gs1cqot0i","address":"3481 S Ivy Way","geo_precision":"range"},"type":"Feature","geometry":{"type":"Point","coordinates":[-104.920457,39.653367]}},{"properties":{"zip":"80231","geo_score":0.707,"id":"a67gs1ffve28","address":"9999 E Yale Ave Apt F204","geo_precision":"range"},"type":"Feature","geometry":{"type":"Point","coordinates":[-104.871278,39.666927]}},{"properties":{"zip":"80222","geo_score":0.805,"id":"a67gs14c3hff","address":"3455 S Dahlia St","geo_precision":"range"},"type":"Feature","geometry":{"type":"Point","coordinates":[-104.9317,39.65387]}},{"properties":{"zip":"80222","geo_score":0.805,"id":"a67gs16lgobk","address":"3421 S Bellaire St","geo_precision":"range"},"type":"Feature","geometry":{"type":"Point","coordinates":[-104.937435,39.654495]}},{"properties":{"zip":"80222","geo_score":0.805,"id":"a67gs18kkss3","address":"3255 S Albion St","geo_precision":"range"},"type":"Feature","geometry":{"type":"Point","coordinates":[-104.939746,39.657377]}},{"properties":{"zip":"80210","geo_score":0.805,"id":"a67gs18z8n0a","address":"3160 S Detroit St","geo_precision":"range"},"type":"Feature","geometry":{"type":"Point","coordinates":[-104.953301,39.658937]}},{"properties":{"zip":"80210","geo_score":0.805,"id":"a67gs131x7rw","address":"3201 E Floyd Dr","geo_precision":"range"},"type":"Feature","geometry":{"type":"Point","coordinates":[-104.949644,39.656099]}},{"properties":{"zip":"80210","geo_score":0.805,"id":"a67gs1espgr3","address":"2800 E Flora Pl","geo_precision":"range"},"type":"Feature","geometry":{"type":"Point","coordinates":[-104.953306,39.65706]}},{"properties":{"zip":"80210","geo_score":0.805,"id":"a67gs1f60u4q","address":"3400 E Flora Pl","geo_precision":"range"},"type":"Feature","geometry":{"type":"Point","coordinates":[-104.947617,39.656812]}},{"properties":{"zip":"80222","geo_score":0.805,"id":"a67gs1em12yd","address":"3101 S Grape Way","geo_precision":"range"},"type":"Feature","geometry":{"type":"Point","coordinates":[-104.923481,39.661929]}},{"properties":{"zip":"80222","geo_score":0.805,"id":"a67gs14ho15p","address":"5261 E Eastman Ave","geo_precision":"range"},"type":"Feature","geometry":{"type":"Point","coordinates":[-104.926787,39.659072]}},{"properties":{"zip":"80247","geo_score":0.712,"id":"a67gs1d2v0co","address":"7877 E Mississippi Ave Apt 1402","geo_precision":"range"},"type":"Feature","geometry":{"type":"Point","coordinates":[-104.896863,39.69658]}},{"properties":{"zip":"80210","geo_score":0.805,"id":"a67gs18uiy1p","address":"2764 S Milwaukee St","geo_precision":"range"},"type":"Feature","geometry":{"type":"Point","coordinates":[-104.952376,39.66573]}},{"properties":{"zip":"80210","geo_score":0.585,"id":"a67gs12m4o0y","address":"2736 S Saint Paul St","geo_precision":"street"},"type":"Feature","geometry":{"type":"Point","coordinates":[-104.951937,39.86916]}},{"properties":{"zip":"80210","geo_score":0.805,"id":"a67gs1ay7dry","address":"2988 S Dallas Way","geo_precision":"range"},"type":"Feature","geometry":{"type":"Point","coordinates":[-104.954905,39.661478]}},{"properties":{"zip":"80210","geo_score":0.805,"id":"a67gs1d0v9c5","address":"3080 S University Blvd","geo_precision":"range"},"type":"Feature","geometry":{"type":"Point","coordinates":[-104.959459,39.660762]}},{"properties":{"zip":"80210","geo_score":0.805,"id":"a67gs1ba5fuf","address":"2437 S Garfield St","geo_precision":"range"},"type":"Feature","geometry":{"type":"Point","coordinates":[-104.944263,39.672328]}},{"properties":{"zip":"80210","geo_score":0.585,"id":"a67gs1cbrfm4","address":"2269 S Saint Paul St","geo_precision":"street"},"type":"Feature","geometry":{"type":"Point","coordinates":[-104.951937,39.86916]}},{"properties":{"zip":"80222","geo_score":0.702,"id":"a67gs19rgmad","address":"2499 S Colorado Blvd Apt 1109","geo_precision":"range"},"type":"Feature","geometry":{"type":"Point","coordinates":[-104.94068,39.66831]}},{"properties":{"zip":"80210","geo_score":0.805,"id":"a67gs1dpdtj5","address":"2334 S Madison St","geo_precision":"range"},"type":"Feature","geometry":{"type":"Point","coordinates":[-104.946529,39.674202]}},{"properties":{"zip":"80210","geo_score":0.805,"id":"a67gs1fd1lns","address":"2518 S Josephine St","geo_precision":"range"},"type":"Feature","geometry":{"type":"Point","coordinates":[-104.957954,39.670877]}},{"properties":{"zip":"80222","geo_score":0.688,"id":"a67gs124536n","address":"4275 E Iliff Ave Apt 304","geo_precision":"range"},"type":"Feature","geometry":{"type":"Point","coordinates":[-104.937818,39.674822]}},{"properties":{"zip":"80210","geo_score":0.688,"id":"a67gs1cqmieg","address":"2020 S Monroe St Apt 306","geo_precision":"range"},"type":"Feature","geometry":{"type":"Point","coordinates":[-104.945187,39.679856]}},{"properties":{"zip":"80210","geo_score":0.688,"id":"a67gs1ekdzfv","address":"2020 S Monroe St Apt 302","geo_precision":"range"},"type":"Feature","geometry":{"type":"Point","coordinates":[-104.945187,39.679856]}},{"properties":{"zip":"80210","geo_score":0.805,"id":"a67gs14hqogk","address":"2100 S Monroe St","geo_precision":"range"},"type":"Feature","geometry":{"type":"Point","coordinates":[-104.9451,39.678418]}},{"properties":{"zip":"80210","geo_score":0.695,"id":"a67gs13ndoj7","address":"3700 E Jewell Ave Apt 114","geo_precision":"range"},"type":"Feature","geometry":{"type":"Point","coordinates":[-104.944191,39.682044]}},{"properties":{"zip":"80210","geo_score":0.805,"id":"a67gs12j2gwb","address":"2222 S Adams St","geo_precision":"range"},"type":"Feature","geometry":{"type":"Point","coordinates":[-104.949408,39.676208]}},{"properties":{"zip":"80210","geo_score":0.585,"id":"a67gs17xe1r0","address":"2050 S Saint Paul St","geo_precision":"street"},"type":"Feature","geometry":{"type":"Point","coordinates":[-104.951937,39.86916]}},{"properties":{"zip":"80210","geo_score":0.805,"id":"a67gs16rp35r","address":"2055 S Adams St","geo_precision":"range"},"type":"Feature","geometry":{"type":"Point","coordinates":[-104.949405,39.679263]}},{"properties":{"zip":"80210","geo_score":0.805,"id":"a67gs1fbdm27","address":"3451 E Asbury Ave","geo_precision":"range"},"type":"Feature","geometry":{"type":"Point","coordinates":[-104.947356,39.680234]}},{"properties":{"zip":"80204","geo_score":0.805,"id":"a67gs15lk59e","address":"913 Hazel Ct","geo_precision":"range"},"type":"Feature","geometry":{"type":"Point","coordinates":[-105.027517,39.731352]}},{"properties":{"zip":"80211","geo_score":0.805,"id":"a67gs1hqc8p5","address":"3225 W Scott Pl","geo_precision":"range"},"type":"Feature","geometry":{"type":"Point","coordinates":[-105.028705,39.779082]}},{"properties":{"zip":"80211","geo_score":0.619,"id":"a67gs1dy1dal","address":"2560 17th St Apt 2-201","geo_precision":"range"},"type":"Feature","geometry":{"type":"Point","coordinates":[-105.008716,39.75982]}},{"properties":{"zip":"80211","geo_score":0.805,"id":"a67gs1c902c7","address":"3654 Kalamath St","geo_precision":"range"},"type":"Feature","geometry":{"type":"Point","coordinates":[-105.000589,39.767509]}},{"properties":{"zip":"80211","geo_score":0.805,"id":"a67gs1c7t3ux","address":"3553 Wyandot St","geo_precision":"range"},"type":"Feature","geometry":{"type":"Point","coordinates":[-105.014364,39.766287]}},{"properties":{"zip":"80211","geo_score":0.805,"id":"a67gs1dy3k9y","address":"2535 W Caithness Pl","geo_precision":"range"},"type":"Feature","geometry":{"type":"Point","coordinates":[-105.018653,39.760777]}},{"properties":{"zip":"80211","geo_score":0.61,"id":"a67gs11zc3qy","address":"2835 W 32nd Ave Apt 104","geo_precision":"range"},"type":"Feature","geometry":{"type":"Point","coordinates":[-105.023099,39.762006]}},{"properties":{"zip":"80211","geo_score":0.683,"id":"a67gs1f1cxgt","address":"3279 Grove St Apt 32","geo_precision":"range"},"type":"Feature","geometry":{"type":"Point","coordinates":[-105.027715,39.763741]}},{"properties":{"zip":"80211","geo_score":0.805,"id":"a67gs1efdizo","address":"4235 Quivas St","geo_precision":"range"},"type":"Feature","geometry":{"type":"Point","coordinates":[-105.007615,39.774536]}},{"properties":{"zip":"80221","geo_score":0.805,"id":"a67gs122r3ya","address":"1545 W Berkeley Pl","geo_precision":"range"},"type":"Feature","geometry":{"type":"Point","coordinates":[-105.005638,39.790285]}},{"properties":{"zip":"80221","geo_score":0.805,"id":"a67gs11tu6g6","address":"5055 Umatilla St","geo_precision":"range"},"type":"Feature","geometry":{"type":"Point","coordinates":[-105.012373,39.788416]}},{"properties":{"zip":"80219","geo_score":0.805,"id":"a67gs18gmo7h","address":"59 S Perry St","geo_precision":"range"},"type":"Feature","geometry":{"type":"Point","coordinates":[-105.03969,39.715617]}},{"properties":{"zip":"80219","geo_score":0.805,"id":"a67gs175uygx","address":"241 Newton St","geo_precision":"range"},"type":"Feature","geometry":{"type":"Point","coordinates":[-105.037296,39.720284]}},{"properties":{"zip":"80219","geo_score":0.805,"id":"a67gs1fxogi1","address":"210 Osceola St","geo_precision":"range"},"type":"Feature","geometry":{"type":"Point","coordinates":[-105.038487,39.719746]}},{"properties":{"zip":"80219","geo_score":0.721,"id":"a67gs1baxt1k","address":"4623 W 2nd Ave","geo_precision":"range"},"type":"Feature","geometry":{"type":"Point","coordinates":[-105.045791,39.720349]}},{"properties":{"zip":"80219","geo_score":0.805,"id":"a67gs14vcm3z","address":"61 S Xavier St","geo_precision":"range"},"type":"Feature","geometry":{"type":"Point","coordinates":[-105.049377,39.715609]}},{"properties":{"zip":"80219","geo_score":0.805,"id":"a67gs19wtm41","address":"181 Utica St","geo_precision":"range"},"type":"Feature","geometry":{"type":"Point","coordinates":[-105.044508,39.719932]}},{"properties":{"zip":"80219","geo_score":0.721,"id":"a67gs1i6laap","address":"3530 W 2nd Ave","geo_precision":"range"},"type":"Feature","geometry":{"type":"Point","coordinates":[-105.034043,39.719744]}},{"properties":{"zip":"80219","geo_score":0.805,"id":"a67gs1f26ulq","address":"129 King St","geo_precision":"range"},"type":"Feature","geometry":{"type":"Point","coordinates":[-105.033697,39.719055]}},{"properties":{"zip":"80212","geo_score":0.677,"id":"a67gs1941mmv","address":"2626 Osceola St Apt 212W","geo_precision":"range"},"type":"Feature","geometry":{"type":"Point","coordinates":[-105.038145,39.755184]}},{"properties":{"zip":"80204","geo_score":0.805,"id":"a67gs13ia6j7","address":"1045 Hazel Ct","geo_precision":"range"},"type":"Feature","geometry":{"type":"Point","coordinates":[-105.027521,39.733336]}},{"properties":{"zip":"80204","geo_score":0.805,"id":"a67gs1ar06iv","address":"975 King St","geo_precision":"range"},"type":"Feature","geometry":{"type":"Point","coordinates":[-105.033296,39.732497]}},{"properties":{"zip":"80204","geo_score":0.805,"id":"a67gs1gjisvy","address":"1170 Lowell Blvd","geo_precision":"range"},"type":"Feature","geometry":{"type":"Point","coordinates":[-105.03461,39.734497]}},{"properties":{"zip":"80204","geo_score":0.805,"id":"a67gs1h2pccz","address":"1020 Tennyson St","geo_precision":"range"},"type":"Feature","geometry":{"type":"Point","coordinates":[-105.044022,39.733493]}},{"properties":{"zip":"80204","geo_score":0.805,"id":"a67gs1acfo6y","address":"913 Zenobia St","geo_precision":"range"},"type":"Feature","geometry":{"type":"Point","coordinates":[-105.052195,39.731481]}},{"properties":{"zip":"80204","geo_score":0.805,"id":"a67gs13qltdh","address":"875 Xavier St","geo_precision":"range"},"type":"Feature","geometry":{"type":"Point","coordinates":[-105.049848,39.730826]}},{"properties":{"zip":"80204","geo_score":0.805,"id":"a67gs1hhrx1l","address":"1253 Quitman St","geo_precision":"range"},"type":"Feature","geometry":{"type":"Point","coordinates":[-105.040485,39.735879]}},{"properties":{"zip":"80204","geo_score":0.805,"id":"a67gs1e1390s","address":"1229 Perry St","geo_precision":"range"},"type":"Feature","geometry":{"type":"Point","coordinates":[-105.039288,39.735136]}},{"properties":{"zip":"80222","geo_score":0.667,"id":"a67gs19wezsn","address":"2375 S Linden Ct Unit 308S","geo_precision":"range"},"type":"Feature","geometry":{"type":"Point","coordinates":[-104.915215,39.673478]}},{"properties":{"zip":"80204","geo_score":0.732,"id":"a67gs1h5km7e","address":"3615 W 17th Ave","geo_precision":"range"},"type":"Feature","geometry":{"type":"Point","coordinates":[-105.034732,39.74395]}},{"properties":{"zip":"80205","geo_score":0.496,"id":"a67gs1hpnv6u","address":"2350 Cleveland Pl Unit 518","geo_precision":"street"},"type":"Feature","geometry":{"type":"Point","coordinates":[-104.987416,39.742208]}},{"properties":{"zip":"80204","geo_score":0.805,"id":"a67gs17rffp1","address":"1449 Meade St","geo_precision":"range"},"type":"Feature","geometry":{"type":"Point","coordinates":[-105.035814,39.73939]}},{"properties":{"zip":"80204","geo_score":0.805,"id":"a67gs145stao","address":"1340 Perry St","geo_precision":"range"},"type":"Feature","geometry":{"type":"Point","coordinates":[-105.039309,39.737371]}},{"properties":{"zip":"80204","geo_score":0.805,"id":"a67gs1hzg7w1","address":"1620 Perry St","geo_precision":"range"},"type":"Feature","geometry":{"type":"Point","coordinates":[-105.039325,39.742996]}},{"properties":{"zip":"80204","geo_score":0.67,"id":"a67gs1ap6w1o","address":"1590 Yates St Apt 603","geo_precision":"range"},"type":"Feature","geometry":{"type":"Point","coordinates":[-105.050905,39.742052]}},{"properties":{"zip":"80204","geo_score":0.805,"id":"a67gs1292mhw","address":"1601 Zenobia St","geo_precision":"range"},"type":"Feature","geometry":{"type":"Point","coordinates":[-105.052038,39.741786]}},{"properties":{"zip":"80204","geo_score":0.659,"id":"a67gs1cxpiby","address":"1590 Yates St Apt 1410","geo_precision":"range"},"type":"Feature","geometry":{"type":"Point","coordinates":[-105.050905,39.742052]}},{"properties":{"zip":"80211","geo_score":0.805,"id":"a67gs128ibnc","address":"2146 Lowell Blvd","geo_precision":"range"},"type":"Feature","geometry":{"type":"Point","coordinates":[-105.034609,39.749358]}},{"properties":{"zip":"80211","geo_score":0.805,"id":"a67gs1cnddu6","address":"2010 Hooker St","geo_precision":"range"},"type":"Feature","geometry":{"type":"Point","coordinates":[-105.028384,39.747702]}},{"properties":{"zip":"80236","geo_score":0.805,"id":"a67gs1dp1emb","address":"2786 S Wolff St","geo_precision":"range"},"type":"Feature","geometry":{"type":"Point","coordinates":[-105.048037,39.665952]}},{"properties":{"zip":"80211","geo_score":0.805,"id":"a67gs1hwrlri","address":"2047 Newton St","geo_precision":"range"},"type":"Feature","geometry":{"type":"Point","coordinates":[-105.036958,39.748138]}},{"properties":{"zip":"80212","geo_score":0.805,"id":"a67gs1a4jxkq","address":"2371 Perry St","geo_precision":"range"},"type":"Feature","geometry":{"type":"Point","coordinates":[-105.039317,39.751851]}},{"properties":{"zip":"80212","geo_score":0.805,"id":"a67gs1720pl0","address":"2300 Stuart St","geo_precision":"range"},"type":"Feature","geometry":{"type":"Point","coordinates":[-105.042832,39.751184]}},{"properties":{"zip":"80211","geo_score":0.805,"id":"a67gs16o88xb","address":"2665 Java Ct","geo_precision":"range"},"type":"Feature","geometry":{"type":"Point","coordinates":[-105.031098,39.756036]}},{"properties":{"zip":"80211","geo_score":0.602,"id":"a67gs1hc6lpj","address":"3805 W 26th Ave Apt 816S","geo_precision":"range"},"type":"Feature","geometry":{"type":"Point","coordinates":[-105.037008,39.754864]}},{"properties":{"zip":"80212","geo_score":0.805,"id":"a67gs12yomns","address":"2636 Vrain St","geo_precision":"range"},"type":"Feature","geometry":{"type":"Point","coordinates":[-105.046932,39.755307]}},{"properties":{"zip":"80212","geo_score":0.805,"id":"a67gs1cmthzx","address":"2720 Zenobia St","geo_precision":"range"},"type":"Feature","geometry":{"type":"Point","coordinates":[-105.052071,39.75631]}},{"properties":{"zip":"80211","geo_score":0.805,"id":"a67gs1dr81tf","address":"3011 Grove St","geo_precision":"range"},"type":"Feature","geometry":{"type":"Point","coordinates":[-105.026842,39.759797]}},{"properties":{"zip":"80211","geo_score":0.805,"id":"a67gs16o5pjp","address":"3024 Hooker St","geo_precision":"range"},"type":"Feature","geometry":{"type":"Point","coordinates":[-105.028154,39.760432]}},{"properties":{"zip":"80212","geo_score":0.805,"id":"a67gs160mn9d","address":"2951 Quitman St","geo_precision":"range"},"type":"Feature","geometry":{"type":"Point","coordinates":[-105.040482,39.75944]}},{"properties":{"zip":"80211","geo_score":0.805,"id":"a67gs1hww6p4","address":"3335 W Clyde Pl","geo_precision":"range"},"type":"Feature","geometry":{"type":"Point","coordinates":[-105.030689,39.768333]}},{"properties":{"zip":"80209","geo_score":0.805,"id":"a67gs1bppadi","address":"794 S York St","geo_precision":"range"},"type":"Feature","geometry":{"type":"Point","coordinates":[-104.960559,39.702111]}},{"properties":{"zip":"80212","geo_score":0.688,"id":"a67gs1h06pdm","address":"3883 Quitman St Apt 210","geo_precision":"range"},"type":"Feature","geometry":{"type":"Point","coordinates":[-105.040479,39.770699]}},{"properties":{"zip":"80212","geo_score":0.805,"id":"a67gs16ytthz","address":"4019 Perry St","geo_precision":"range"},"type":"Feature","geometry":{"type":"Point","coordinates":[-105.039319,39.771483]}},{"properties":{"zip":"80211","geo_score":0.805,"id":"a67gs1cekvin","address":"4046 Alcott St","geo_precision":"range"},"type":"Feature","geometry":{"type":"Point","coordinates":[-105.017424,39.772287]}},{"properties":{"zip":"80211","geo_score":0.805,"id":"a67gs17pjwvs","address":"4100 Eliot St","geo_precision":"range"},"type":"Feature","geometry":{"type":"Point","coordinates":[-105.02362,39.772936]}},{"properties":{"zip":"80211","geo_score":0.805,"id":"a67gs1d8ghpm","address":"4033 Bryant St","geo_precision":"range"},"type":"Feature","geometry":{"type":"Point","coordinates":[-105.018977,39.772119]}},{"properties":{"zip":"80211","geo_score":0.805,"id":"a67gs1e57kms","address":"4535 Alcott St","geo_precision":"range"},"type":"Feature","geometry":{"type":"Point","coordinates":[-105.017041,39.778475]}},{"properties":{"zip":"80211","geo_score":0.805,"id":"a67gs14iel3t","address":"4470 Decatur St","geo_precision":"range"},"type":"Feature","geometry":{"type":"Point","coordinates":[-105.021658,39.777899]}},{"properties":{"zip":"80211","geo_score":0.732,"id":"a67gs1c5zt0d","address":"2454 W 43rd Ave","geo_precision":"range"},"type":"Feature","geometry":{"type":"Point","coordinates":[-105.016746,39.775347]}},{"properties":{"zip":"80211","geo_score":0.805,"id":"a67gs1cdp7du","address":"4195 Grove St","geo_precision":"range"},"type":"Feature","geometry":{"type":"Point","coordinates":[-105.027624,39.774966]}},{"properties":{"zip":"80211","geo_score":0.805,"id":"a67gs1bxgern","address":"4435 Grove St","geo_precision":"range"},"type":"Feature","geometry":{"type":"Point","coordinates":[-105.026788,39.777077]}},{"properties":{"zip":"80211","geo_score":0.805,"id":"a67gs15tfsuj","address":"3830 Newton St","geo_precision":"range"},"type":"Feature","geometry":{"type":"Point","coordinates":[-105.036982,39.770059]}},{"properties":{"zip":"80212","geo_score":0.732,"id":"a67gs19lwqei","address":"4039 W 44th Ave","geo_precision":"range"},"type":"Feature","geometry":{"type":"Point","coordinates":[-105.039673,39.776689]}},{"properties":{"zip":"80212","geo_score":0.805,"id":"a67gs1d0w4l1","address":"4371 Wolff St","geo_precision":"range"},"type":"Feature","geometry":{"type":"Point","coordinates":[-105.048607,39.776052]}},{"properties":{"zip":"80212","geo_score":0.732,"id":"a67gs19muy6y","address":"5120 W 41st Ave","geo_precision":"range"},"type":"Feature","geometry":{"type":"Point","coordinates":[-105.052318,39.772949]}},{"properties":{"zip":"80212","geo_score":0.67,"id":"a67gs1hn06fl","address":"4300 Vrain St Apt 106","geo_precision":"range"},"type":"Feature","geometry":{"type":"Point","coordinates":[-105.046277,39.774756]}},{"properties":{"zip":"80212","geo_score":0.805,"id":"a67gs1g3u7bn","address":"4468 Winona Ct","geo_precision":"range"},"type":"Feature","geometry":{"type":"Point","coordinates":[-105.047439,39.777821]}},{"properties":{"zip":"80211","geo_score":0.805,"id":"a67gs16wufta","address":"4695 Elm Ct","geo_precision":"range"},"type":"Feature","geometry":{"type":"Point","coordinates":[-105.022794,39.78193]}},{"properties":{"zip":"80211","geo_score":0.805,"id":"a67gs16wcndx","address":"4511 Grove St","geo_precision":"range"},"type":"Feature","geometry":{"type":"Point","coordinates":[-105.026778,39.778118]}},{"properties":{"zip":"80211","geo_score":0.805,"id":"a67gs1e74cpn","address":"4271 King St","geo_precision":"range"},"type":"Feature","geometry":{"type":"Point","coordinates":[-105.033408,39.775044]}},{"properties":{"zip":"80212","geo_score":0.805,"id":"a67gs1awldmz","address":"4715 Raleigh St","geo_precision":"range"},"type":"Feature","geometry":{"type":"Point","coordinates":[-105.041588,39.782251]}},{"properties":{"zip":"80211","geo_score":0.805,"id":"a67gs1blrmsh","address":"3818 W Alice Pl","geo_precision":"range"},"type":"Feature","geometry":{"type":"Point","coordinates":[-105.037099,39.781081]}},{"properties":{"zip":"80221","geo_score":0.805,"id":"a67gs18rpip0","address":"4962 Newton St","geo_precision":"range"},"type":"Feature","geometry":{"type":"Point","coordinates":[-105.036942,39.786768]}},{"properties":{"zip":"80221","geo_score":0.805,"id":"a67gs145x3a7","address":"4858 Meade St","geo_precision":"range"},"type":"Feature","geometry":{"type":"Point","coordinates":[-105.035791,39.784904]}},{"properties":{"zip":"80212","geo_score":0.805,"id":"a67gs14ndw1s","address":"5094 Quitman St","geo_precision":"range"},"type":"Feature","geometry":{"type":"Point","coordinates":[-105.04042,39.789171]}},{"properties":{"zip":"80212","geo_score":0.61,"id":"a67gs15hs09l","address":"5350 W 52nd Ave Apt 513","geo_precision":"range"},"type":"Feature","geometry":{"type":"Point","coordinates":[-105.05426,39.791064]}},{"properties":{"zip":"80212","geo_score":0.805,"id":"a67gs1eq4d7m","address":"4895 Depew St","geo_precision":"range"},"type":"Feature","geometry":{"type":"Point","coordinates":[-105.057906,39.785582]}},{"properties":{"zip":"80210","geo_score":0.805,"id":"a67gs1ci5goy","address":"1761 S Garfield St","geo_precision":"range"},"type":"Feature","geometry":{"type":"Point","coordinates":[-104.944187,39.68482]}},{"properties":{"zip":"80223","geo_score":0.805,"id":"a67gs1bohlyx","address":"1453 S Zuni St","geo_precision":"range"},"type":"Feature","geometry":{"type":"Point","coordinates":[-105.015703,39.690637]}},{"properties":{"zip":"80219","geo_score":0.805,"id":"a67gs15dofh0","address":"1380 S Patton Ct","geo_precision":"range"},"type":"Feature","geometry":{"type":"Point","coordinates":[-105.039059,39.691623]}},{"properties":{"zip":"80219","geo_score":0.805,"id":"a67gs1ho3g4d","address":"1457 S Xavier St","geo_precision":"range"},"type":"Feature","geometry":{"type":"Point","coordinates":[-105.049982,39.690332]}},{"properties":{"zip":"80219","geo_score":0.805,"id":"a67gs17bcoux","address":"1325 S Xavier St","geo_precision":"range"},"type":"Feature","geometry":{"type":"Point","coordinates":[-105.049562,39.692599]}},{"properties":{"zip":"80219","geo_score":0.805,"id":"a67gs1byzcwz","address":"1425 S Vrain Way","geo_precision":"range"},"type":"Feature","geometry":{"type":"Point","coordinates":[-105.046607,39.691141]}},{"properties":{"zip":"80203","geo_score":0.67,"id":"a67gs1f78vyi","address":"1420 Logan St Apt 325","geo_precision":"range"},"type":"Feature","geometry":{"type":"Point","coordinates":[-104.982318,39.738758]}},{"properties":{"zip":"80219","geo_score":0.805,"id":"a67gs1el0arh","address":"770 S Decatur St","geo_precision":"range"},"type":"Feature","geometry":{"type":"Point","coordinates":[-105.022698,39.702595]}},{"properties":{"zip":"80219","geo_score":0.805,"id":"a67gs1gzd4fa","address":"930 S Meade St","geo_precision":"range"},"type":"Feature","geometry":{"type":"Point","coordinates":[-105.035552,39.699794]}},{"properties":{"zip":"80219","geo_score":0.805,"id":"a67gs1d8tpxv","address":"934 S Tennyson St","geo_precision":"range"},"type":"Feature","geometry":{"type":"Point","coordinates":[-105.043745,39.699762]}},{"properties":{"zip":"80219","geo_score":0.805,"id":"a67gs18q965y","address":"1057 S Perry St","geo_precision":"range"},"type":"Feature","geometry":{"type":"Point","coordinates":[-105.040226,39.697534]}},{"properties":{"zip":"80219","geo_score":0.805,"id":"a67gs1hiksfv","address":"3540 W Hoye Pl","geo_precision":"range"},"type":"Feature","geometry":{"type":"Point","coordinates":[-105.033148,39.697689]}},{"properties":{"zip":"80219","geo_score":0.805,"id":"a67gs1glymu6","address":"1030 S Osceola St","geo_precision":"range"},"type":"Feature","geometry":{"type":"Point","coordinates":[-105.037881,39.698004]}},{"properties":{"zip":"80223","geo_score":0.805,"id":"a67gs18j01bi","address":"1581 W Nevada Pl","geo_precision":"range"},"type":"Feature","geometry":{"type":"Point","coordinates":[-105.008929,39.710249]}},{"properties":{"zip":"80219","geo_score":0.805,"id":"a67gs1a8k79z","address":"321 S Canosa Ct","geo_precision":"range"},"type":"Feature","geometry":{"type":"Point","coordinates":[-105.019233,39.710808]}},{"properties":{"zip":"80219","geo_score":0.805,"id":"a67gs1f0gxi3","address":"600 S Eliot St","geo_precision":"range"},"type":"Feature","geometry":{"type":"Point","coordinates":[-105.023858,39.705695]}},{"properties":{"zip":"80219","geo_score":0.805,"id":"a67gs14vt9nl","address":"438 S Alcott St","geo_precision":"range"},"type":"Feature","geometry":{"type":"Point","coordinates":[-105.016915,39.708633]}},{"properties":{"zip":"80219","geo_score":0.805,"id":"a67gs1fl7miy","address":"685 S Dale Ct","geo_precision":"range"},"type":"Feature","geometry":{"type":"Point","coordinates":[-105.021541,39.70415]}},{"properties":{"zip":"80219","geo_score":0.805,"id":"a67gs13m4ogx","address":"3281 W Walsh Pl","geo_precision":"range"},"type":"Feature","geometry":{"type":"Point","coordinates":[-105.029481,39.703123]}},{"properties":{"zip":"80223","geo_score":0.805,"id":"a67gs19mecmw","address":"2210 W Byers Dr","geo_precision":"range"},"type":"Feature","geometry":{"type":"Point","coordinates":[-105.012412,39.712168]}},{"properties":{"zip":"80219","geo_score":0.805,"id":"a67gs124vmcq","address":"2679 W Bayaud Ave","geo_precision":"range"},"type":"Feature","geometry":{"type":"Point","coordinates":[-105.019746,39.714825]}},{"properties":{"zip":"80219","geo_score":0.805,"id":"a67gs1c1v8c6","address":"1904 S Meade St","geo_precision":"range"},"type":"Feature","geometry":{"type":"Point","coordinates":[-105.036256,39.682148]}},{"properties":{"zip":"80204","geo_score":0.805,"id":"a67gs127c9ah","address":"1037 Alcott Way","geo_precision":"range"},"type":"Feature","geometry":{"type":"Point","coordinates":[-105.018502,39.733071]}},{"properties":{"zip":"80220","geo_score":0.805,"id":"a67gs1hvmnzx","address":"1201 Forest St","geo_precision":"range"},"type":"Feature","geometry":{"type":"Point","coordinates":[-104.926913,39.734688]}},{"properties":{"zip":"80220","geo_score":0.679,"id":"a67gs145id88","address":"955 Eudora St Apt 603","geo_precision":"range"},"type":"Feature","geometry":{"type":"Point","coordinates":[-104.930455,39.731523]}},{"properties":{"zip":"80220","geo_score":0.805,"id":"a67gs17igo9e","address":"1200 Glencoe St","geo_precision":"range"},"type":"Feature","geometry":{"type":"Point","coordinates":[-104.925758,39.734694]}},{"properties":{"zip":"80220","geo_score":0.805,"id":"a67gs18sn483","address":"1750 Forest Pkwy","geo_precision":"range"},"type":"Feature","geometry":{"type":"Point","coordinates":[-104.927017,39.744214]}},{"properties":{"zip":"80220","geo_score":0.732,"id":"a67gs1eas915","address":"5100 E 18th Ave","geo_precision":"range"},"type":"Feature","geometry":{"type":"Point","coordinates":[-104.928506,39.744682]}},{"properties":{"zip":"80220","geo_score":0.805,"id":"a67gs182hyd2","address":"1929 Fairfax St","geo_precision":"range"},"type":"Feature","geometry":{"type":"Point","coordinates":[-104.928686,39.746108]}},{"properties":{"zip":"80220","geo_score":0.715,"id":"a67gs16n1x3n","address":"4355 Batavia Pl Apt 2","geo_precision":"range"},"type":"Feature","geometry":{"type":"Point","coordinates":[-104.936787,39.742567]}},{"properties":{"zip":"80220","geo_score":0.805,"id":"a67gs14e3mp9","address":"1629 Fairfax St","geo_precision":"range"},"type":"Feature","geometry":{"type":"Point","coordinates":[-104.928672,39.742798]}},{"properties":{"zip":"80211","geo_score":0.805,"id":"a67gs1ftwu0f","address":"3557 Mariposa St","geo_precision":"range"},"type":"Feature","geometry":{"type":"Point","coordinates":[-105.002968,39.766326]}},{"properties":{"zip":"80206","geo_score":0.805,"id":"a67gs1a9bd4p","address":"1561 Monroe St","geo_precision":"range"},"type":"Feature","geometry":{"type":"Point","coordinates":[-104.945361,39.741264]}},{"properties":{"zip":"80206","geo_score":0.679,"id":"a67gs1b5bjom","address":"1663 Steele St Apt 203","geo_precision":"range"},"type":"Feature","geometry":{"type":"Point","coordinates":[-104.950055,39.743127]}},{"properties":{"zip":"80206","geo_score":0.805,"id":"a67gs1gm4ods","address":"1520 Adams St","geo_precision":"range"},"type":"Feature","geometry":{"type":"Point","coordinates":[-104.948845,39.740531]}},{"properties":{"zip":"80207","geo_score":0.805,"id":"a67gs1agie56","address":"2510 Fairfax St","geo_precision":"range"},"type":"Feature","geometry":{"type":"Point","coordinates":[-104.928159,39.753049]}},{"properties":{"zip":"80207","geo_score":0.805,"id":"a67gs1gmcele","address":"2035 Eudora St","geo_precision":"range"},"type":"Feature","geometry":{"type":"Point","coordinates":[-104.930496,39.747724]}},{"properties":{"zip":"80207","geo_score":0.805,"id":"a67gs1dccen5","address":"2261 Glencoe St","geo_precision":"range"},"type":"Feature","geometry":{"type":"Point","coordinates":[-104.925812,39.750368]}},{"properties":{"zip":"80207","geo_score":0.805,"id":"a67gs12u0gfp","address":"2236 Forest St","geo_precision":"range"},"type":"Feature","geometry":{"type":"Point","coordinates":[-104.926983,39.749925]}},{"properties":{"zip":"80220","geo_score":0.805,"id":"a67gs18pctay","address":"1819 Cherry St","geo_precision":"range"},"type":"Feature","geometry":{"type":"Point","coordinates":[-104.933783,39.745156]}},{"properties":{"zip":"80207","geo_score":0.707,"id":"a67gs16s95jx","address":"4600 Montview Blvd","geo_precision":"street"},"type":"Feature","geometry":{"type":"Point","coordinates":[-104.934523,39.747398]}},{"properties":{"zip":"80220","geo_score":0.629,"id":"a67gs18spgv7","address":"4621 E 17th Avenue Pkwy","geo_precision":"range"},"type":"Feature","geometry":{"type":"Point","coordinates":[-104.933677,39.743725]}},{"properties":{"zip":"80220","geo_score":0.805,"id":"a67gs1bm9z9a","address":"1745 Cherry St","geo_precision":"range"},"type":"Feature","geometry":{"type":"Point","coordinates":[-104.933785,39.74427]}},{"properties":{"zip":"80207","geo_score":0.805,"id":"a67gs1dxrln1","address":"2067 Dexter St","geo_precision":"range"},"type":"Feature","geometry":{"type":"Point","coordinates":[-104.932841,39.748019]}},{"properties":{"zip":"80207","geo_score":0.805,"id":"a67gs1fj3ybc","address":"2050 Dexter St","geo_precision":"range"},"type":"Feature","geometry":{"type":"Point","coordinates":[-104.932842,39.74787]}},{"properties":{"zip":"80207","geo_score":0.805,"id":"a67gs18v0my6","address":"2257 Ash St","geo_precision":"range"},"type":"Feature","geometry":{"type":"Point","coordinates":[-104.938349,39.750274]}},{"properties":{"zip":"80207","geo_score":0.805,"id":"a67gs12czw09","address":"2590 Bellaire St","geo_precision":"range"},"type":"Feature","geometry":{"type":"Point","coordinates":[-104.937228,39.754518]}},{"properties":{"zip":"80247","geo_score":0.707,"id":"a67gs15d71vf","address":"9335 E Center Ave Apt 6A","geo_precision":"range"},"type":"Feature","geometry":{"type":"Point","coordinates":[-104.878278,39.7064]}},{"properties":{"zip":"80205","geo_score":0.805,"id":"a67gs163lnk6","address":"2133 Gaylord St","geo_precision":"range"},"type":"Feature","geometry":{"type":"Point","coordinates":[-104.960995,39.748617]}},{"properties":{"zip":"80218","geo_score":0.695,"id":"a67gs17s6owb","address":"1710 Williams St Apt 300","geo_precision":"range"},"type":"Feature","geometry":{"type":"Point","coordinates":[-104.965987,39.743393]}},{"properties":{"zip":"80205","geo_score":0.707,"id":"a67gs1edzcx0","address":"2116 Gilpin St Apt A","geo_precision":"range"},"type":"Feature","geometry":{"type":"Point","coordinates":[-104.967184,39.748415]}},{"properties":{"zip":"80205","geo_score":0.619,"id":"a67gs1h6umts","address":"1415 E 22nd Ave Apt 1A","geo_precision":"range"},"type":"Feature","geometry":{"type":"Point","coordinates":[-104.970756,39.74946]}},{"properties":{"zip":"80205","geo_score":0.721,"id":"a67gs18ipoto","address":"3117 Williams St Apt B","geo_precision":"range"},"type":"Feature","geometry":{"type":"Point","coordinates":[-104.965953,39.761411]}},{"properties":{"zip":"80205","geo_score":0.688,"id":"a67gs18g76qa","address":"2160 Downing St Apt 308","geo_precision":"range"},"type":"Feature","geometry":{"type":"Point","coordinates":[-104.973357,39.748793]}},{"properties":{"zip":"80205","geo_score":0.805,"id":"a67gs17e6dif","address":"2407 Race St","geo_precision":"range"},"type":"Feature","geometry":{"type":"Point","coordinates":[-104.963453,39.752042]}},{"properties":{"zip":"80205","geo_score":0.805,"id":"a67gs11yyxhg","address":"2356 Gilpin St","geo_precision":"range"},"type":"Feature","geometry":{"type":"Point","coordinates":[-104.967177,39.751431]}},{"properties":{"zip":"80205","geo_score":0.805,"id":"a67gs13hhc6y","address":"2449 Race St","geo_precision":"range"},"type":"Feature","geometry":{"type":"Point","coordinates":[-104.963453,39.752579]}},{"properties":{"zip":"80205","geo_score":0.805,"id":"a67gs1a074kn","address":"2224 Gilpin St","geo_precision":"range"},"type":"Feature","geometry":{"type":"Point","coordinates":[-104.967176,39.749769]}},{"properties":{"zip":"80205","geo_score":0.805,"id":"a67gs1fuwald","address":"2352 Race St","geo_precision":"range"},"type":"Feature","geometry":{"type":"Point","coordinates":[-104.963452,39.75138]}},{"properties":{"zip":"80205","geo_score":0.732,"id":"a67gs1fhpl78","address":"1019 E 24th Ave","geo_precision":"range"},"type":"Feature","geometry":{"type":"Point","coordinates":[-104.974481,39.751983]}},{"properties":{"zip":"80205","geo_score":0.805,"id":"a67gs13dmyij","address":"2516 Ogden St","geo_precision":"range"},"type":"Feature","geometry":{"type":"Point","coordinates":[-104.974565,39.753456]}},{"properties":{"zip":"80205","geo_score":0.805,"id":"a67gs1bb3sr4","address":"2224 Ogden St","geo_precision":"range"},"type":"Feature","geometry":{"type":"Point","coordinates":[-104.974567,39.749786]}},{"properties":{"zip":"80207","geo_score":0.805,"id":"a67gs137im6f","address":"2957 Krameria St","geo_precision":"range"},"type":"Feature","geometry":{"type":"Point","coordinates":[-104.91641,39.759399]}},{"properties":{"zip":"80207","geo_score":0.805,"id":"a67gs1ez7kc4","address":"2890 Hudson St","geo_precision":"range"},"type":"Feature","geometry":{"type":"Point","coordinates":[-104.923454,39.758228]}},{"properties":{"zip":"80207","geo_score":0.805,"id":"a67gs1i2fm8q","address":"2666 Hudson St","geo_precision":"range"},"type":"Feature","geometry":{"type":"Point","coordinates":[-104.923462,39.755318]}},{"properties":{"zip":"80207","geo_score":0.805,"id":"a67gs17eu27c","address":"2923 Glencoe St","geo_precision":"range"},"type":"Feature","geometry":{"type":"Point","coordinates":[-104.925772,39.75878]}},{"properties":{"zip":"80207","geo_score":0.805,"id":"a67gs1bkjnh7","address":"2959 Fairfax St","geo_precision":"range"},"type":"Feature","geometry":{"type":"Point","coordinates":[-104.928233,39.759438]}},{"properties":{"zip":"80207","geo_score":0.805,"id":"a67gs15vru5y","address":"2835 Bellaire St","geo_precision":"range"},"type":"Feature","geometry":{"type":"Point","coordinates":[-104.937219,39.757117]}},{"properties":{"zip":"80207","geo_score":0.805,"id":"a67gs1gvmcl3","address":"2874 Cherry St","geo_precision":"range"},"type":"Feature","geometry":{"type":"Point","coordinates":[-104.933914,39.757861]}},{"properties":{"zip":"80207","geo_score":0.805,"id":"a67gs1e3manc","address":"2965 Dexter St","geo_precision":"range"},"type":"Feature","geometry":{"type":"Point","coordinates":[-104.932817,39.759519]}},{"properties":{"zip":"80205","geo_score":0.805,"id":"a67gs1btegz2","address":"3987 Haddon Rd","geo_precision":"range"},"type":"Feature","geometry":{"type":"Point","coordinates":[-104.941236,39.755968]}},{"properties":{"zip":"80205","geo_score":0.805,"id":"a67gs187l9wy","address":"3033 Wilson Ct","geo_precision":"range"},"type":"Feature","geometry":{"type":"Point","coordinates":[-104.946854,39.759675]}},{"properties":{"zip":"80205","geo_score":0.629,"id":"a67gs1cdppyn","address":"3435 E 27th Ave Apt 6","geo_precision":"range"},"type":"Feature","geometry":{"type":"Point","coordinates":[-104.947285,39.755706]}},{"properties":{"zip":"80202","geo_score":0.695,"id":"a67gs1etbe0j","address":"1955 Arapahoe St Apt 804","geo_precision":"range"},"type":"Feature","geometry":{"type":"Point","coordinates":[-104.991469,39.751175]}},{"properties":{"zip":"80205","geo_score":0.805,"id":"a67gs15u8rci","address":"3147 Milwaukee St","geo_precision":"range"},"type":"Feature","geometry":{"type":"Point","coordinates":[-104.952416,39.76125]}},{"properties":{"zip":"80205","geo_score":0.805,"id":"a67gs1ek2c6d","address":"3123 Milwaukee St","geo_precision":"range"},"type":"Feature","geometry":{"type":"Point","coordinates":[-104.952416,39.760978]}},{"properties":{"zip":"80207","geo_score":0.805,"id":"a67gs16gn3d6","address":"4646 Martin Luther King Blvd","geo_precision":"range"},"type":"Feature","geometry":{"type":"Point","coordinates":[-104.933457,39.762]}},{"properties":{"zip":"80205","geo_score":0.683,"id":"a67gs15uum67","address":"3021 Stout St Apt 49","geo_precision":"range"},"type":"Feature","geometry":{"type":"Point","coordinates":[-104.9759,39.759126]}},{"properties":{"zip":"80205","geo_score":0.707,"id":"a67gs18pd3wy","address":"2770 California St Apt 202","geo_precision":"range"},"type":"Feature","geometry":{"type":"Point","coordinates":[-104.978189,39.75612]}},{"properties":{"zip":"80205","geo_score":0.805,"id":"a67gs1am101a","address":"2813 California St","geo_precision":"range"},"type":"Feature","geometry":{"type":"Point","coordinates":[-104.977584,39.756501]}},{"properties":{"zip":"80207","geo_score":0.805,"id":"a67gs1bq4zu8","address":"3280 Jasmine St","geo_precision":"range"},"type":"Feature","geometry":{"type":"Point","coordinates":[-104.918811,39.763482]}},{"properties":{"zip":"80207","geo_score":0.805,"id":"a67gs18t4yhw","address":"3395 Locust St","geo_precision":"range"},"type":"Feature","geometry":{"type":"Point","coordinates":[-104.914073,39.764697]}},{"properties":{"zip":"80207","geo_score":0.805,"id":"a67gs1gdw45n","address":"3234 Holly St","geo_precision":"range"},"type":"Feature","geometry":{"type":"Point","coordinates":[-104.922291,39.762567]}},{"properties":{"zip":"80207","geo_score":0.805,"id":"a67gs1ghy56f","address":"5339 Martin Luther King Blvd","geo_precision":"range"},"type":"Feature","geometry":{"type":"Point","coordinates":[-104.925398,39.762011]}},{"properties":{"zip":"80207","geo_score":0.805,"id":"a67gs16co7wy","address":"3550 Forest St","geo_precision":"range"},"type":"Feature","geometry":{"type":"Point","coordinates":[-104.926998,39.766523]}},{"properties":{"zip":"80207","geo_score":0.698,"id":"a67gs1ge3uk3","address":"3427 Grape St Apt 2","geo_precision":"range"},"type":"Feature","geometry":{"type":"Point","coordinates":[-104.924615,39.764945]}},{"properties":{"zip":"80207","geo_score":0.805,"id":"a67gs1ch9dnt","address":"4815 E Thrill Pl","geo_precision":"range"},"type":"Feature","geometry":{"type":"Point","coordinates":[-104.931716,39.762864]}},{"properties":{"zip":"80207","geo_score":0.732,"id":"a67gs15xjghw","address":"5010 E 33rd Ave","geo_precision":"range"},"type":"Feature","geometry":{"type":"Point","coordinates":[-104.929281,39.76378]}},{"properties":{"zip":"80207","geo_score":0.805,"id":"a67gs13unppd","address":"3540 Dahlia St","geo_precision":"range"},"type":"Feature","geometry":{"type":"Point","coordinates":[-104.93174,39.766353]}},{"properties":{"zip":"80205","geo_score":0.805,"id":"a67gs1ajgj0d","address":"3420 Martin Luther King Blvd","geo_precision":"range"},"type":"Feature","geometry":{"type":"Point","coordinates":[-104.947193,39.761936]}},{"properties":{"zip":"80205","geo_score":0.805,"id":"a67gs18zjp65","address":"3501 Garfield St","geo_precision":"range"},"type":"Feature","geometry":{"type":"Point","coordinates":[-104.944137,39.765799]}},{"properties":{"zip":"80205","geo_score":0.805,"id":"a67gs1gqlgyo","address":"3931 Harrison St","geo_precision":"range"},"type":"Feature","geometry":{"type":"Point","coordinates":[-104.941691,39.77127]}},{"properties":{"zip":"80205","geo_score":0.805,"id":"a67gs1hjpqmf","address":"3700 Milwaukee St","geo_precision":"range"},"type":"Feature","geometry":{"type":"Point","coordinates":[-104.952403,39.768116]}},{"properties":{"zip":"80205","geo_score":0.805,"id":"a67gs14tu9c0","address":"3620 Fillmore St","geo_precision":"range"},"type":"Feature","geometry":{"type":"Point","coordinates":[-104.953639,39.767168]}},{"properties":{"zip":"80205","geo_score":0.805,"id":"a67gs14d1ryx","address":"3446 Milwaukee St","geo_precision":"range"},"type":"Feature","geometry":{"type":"Point","coordinates":[-104.952412,39.765038]}},{"properties":{"zip":"80205","geo_score":0.805,"id":"a67gs1glec9r","address":"3614 Josephine St","geo_precision":"range"},"type":"Feature","geometry":{"type":"Point","coordinates":[-104.958568,39.76711]}},{"properties":{"zip":"80205","geo_score":0.805,"id":"a67gs13ae2di","address":"3030 Williams St","geo_precision":"range"},"type":"Feature","geometry":{"type":"Point","coordinates":[-104.965951,39.759871]}},{"properties":{"zip":"80205","geo_score":0.805,"id":"a67gs17e0nm8","address":"3339 Race St","geo_precision":"range"},"type":"Feature","geometry":{"type":"Point","coordinates":[-104.96344,39.763728]}},{"properties":{"zip":"80207","geo_score":0.805,"id":"a67gs1f0161c","address":"3610 Pontiac St","geo_precision":"range"},"type":"Feature","geometry":{"type":"Point","coordinates":[-104.905833,39.767552]}},{"properties":{"zip":"80205","geo_score":0.805,"id":"a67gs121mq4h","address":"3017 Race St","geo_precision":"range"},"type":"Feature","geometry":{"type":"Point","coordinates":[-104.963443,39.75969]}},{"properties":{"zip":"80205","geo_score":0.496,"id":"a67gs171upsh","address":"2350 Cleveland Pl Unit 815","geo_precision":"street"},"type":"Feature","geometry":{"type":"Point","coordinates":[-104.987416,39.742208]}},{"properties":{"zip":"80205","geo_score":0.805,"id":"a67gs1htusao","address":"3253 Gaylord St","geo_precision":"range"},"type":"Feature","geometry":{"type":"Point","coordinates":[-104.96098,39.762655]}},{"properties":{"zip":"80205","geo_score":0.805,"id":"a67gs1drte11","address":"3420 Race St","geo_precision":"range"},"type":"Feature","geometry":{"type":"Point","coordinates":[-104.963438,39.764752]}},{"properties":{"zip":"80230","geo_score":0.396,"id":"a67gs1cyhv80","address":"8155 E Fairmount Dr Unit 1511","geo_precision":"street"},"type":"Feature","geometry":{"type":"Point","coordinates":[-104.890371,39.705676]}},{"properties":{"zip":"80207","geo_score":0.805,"id":"a67gs16ev7qx","address":"3225 Bellaire St","geo_precision":"range"},"type":"Feature","geometry":{"type":"Point","coordinates":[-104.936851,39.762294]}},{"properties":{"zip":"80249","geo_score":0.526,"id":"a67gs1dske3l","address":"18668 E 40th Pl","geo_precision":"street"},"type":"Feature","geometry":{"type":"Point","coordinates":[-104.761265,39.771644]}},{"properties":{"zip":"80249","geo_score":0.805,"id":"a67gs1b08u25","address":"4069 Argonne St","geo_precision":"range"},"type":"Feature","geometry":{"type":"Point","coordinates":[-104.768839,39.773781]}},{"properties":{"zip":"80249","geo_score":0.537,"id":"a67gs17tcd7w","address":"20374 E 49th Ave","geo_precision":"street"},"type":"Feature","geometry":{"type":"Point","coordinates":[-104.847049,39.786407]}},{"properties":{"zip":"80249","geo_score":0.61,"id":"a67gs143rjgv","address":"21081 Lackland Pl","geo_precision":"street"},"type":"Feature","geometry":{"type":"Point","coordinates":[-104.808329,39.794285]}},{"properties":{"zip":"80239","geo_score":0.692,"id":"a67gs190m33b","address":"12335 E 54th Avenue Dr","geo_precision":"range"},"type":"Feature","geometry":{"type":"Point","coordinates":[-104.844666,39.794033]}},{"properties":{"zip":"80239","geo_score":0.721,"id":"a67gs1eozqay","address":"14725 E 50th Pl","geo_precision":"range"},"type":"Feature","geometry":{"type":"Point","coordinates":[-104.817618,39.783858]}},{"properties":{"zip":"80239","geo_score":0.537,"id":"a67gs1cc2ka6","address":"15630 E 53rd Ave","geo_precision":"street"},"type":"Feature","geometry":{"type":"Point","coordinates":[-104.809753,39.790428]}},{"properties":{"zip":"80239","geo_score":0.634,"id":"a67gs18wvyoe","address":"5192 Fraser St","geo_precision":"street"},"type":"Feature","geometry":{"type":"Point","coordinates":[-104.81147,39.787873]}},{"properties":{"zip":"80239","geo_score":0.732,"id":"a67gs1c1581i","address":"14931 E 53rd Ave","geo_precision":"range"},"type":"Feature","geometry":{"type":"Point","coordinates":[-104.812817,39.790701]}},{"properties":{"zip":"80239","geo_score":0.805,"id":"a67gs12hsjat","address":"5074 Duluth Ct","geo_precision":"range"},"type":"Feature","geometry":{"type":"Point","coordinates":[-104.81969,39.785402]}},{"properties":{"zip":"80239","geo_score":0.805,"id":"a67gs1fsyku0","address":"5135 Crown Blvd","geo_precision":"range"},"type":"Feature","geometry":{"type":"Point","coordinates":[-104.827266,39.789602]}},{"properties":{"zip":"80239","geo_score":0.805,"id":"a67gs1fbaaev","address":"12943 E Elgin Pl","geo_precision":"range"},"type":"Feature","geometry":{"type":"Point","coordinates":[-104.839784,39.783904]}},{"properties":{"zip":"80239","geo_score":0.732,"id":"a67gs1eonhco","address":"12986 E 47th Ave","geo_precision":"range"},"type":"Feature","geometry":{"type":"Point","coordinates":[-104.836046,39.782657]}},{"properties":{"zip":"80239","geo_score":0.732,"id":"a67gs1a1fyw1","address":"12939 E 46th Ave","geo_precision":"range"},"type":"Feature","geometry":{"type":"Point","coordinates":[-104.838693,39.781596]}},{"properties":{"zip":"80239","geo_score":0.805,"id":"a67gs16semqv","address":"5044 Utopia Ct","geo_precision":"range"},"type":"Feature","geometry":{"type":"Point","coordinates":[-104.835752,39.789276]}},{"properties":{"zip":"80239","geo_score":0.805,"id":"a67gs1e2x0en","address":"13295 Andrews Dr","geo_precision":"range"},"type":"Feature","geometry":{"type":"Point","coordinates":[-104.83558,39.786118]}},{"properties":{"zip":"80239","geo_score":0.732,"id":"a67gs1akc6gn","address":"13065 E 55th Ave","geo_precision":"range"},"type":"Feature","geometry":{"type":"Point","coordinates":[-104.836588,39.79323]}},{"properties":{"zip":"80239","geo_score":0.805,"id":"a67gs1cyvjal","address":"12731 Randolph Pl","geo_precision":"range"},"type":"Feature","geometry":{"type":"Point","coordinates":[-104.840279,39.797641]}},{"properties":{"zip":"80239","geo_score":0.805,"id":"a67gs1aq4363","address":"5511 Salem St","geo_precision":"range"},"type":"Feature","geometry":{"type":"Point","coordinates":[-104.841999,39.795416]}},{"properties":{"zip":"80239","geo_score":0.805,"id":"a67gs19ghll8","address":"4963 Quari St","geo_precision":"range"},"type":"Feature","geometry":{"type":"Point","coordinates":[-104.846337,39.786822]}},{"properties":{"zip":"80223","geo_score":0.805,"id":"a67gs11vgw4c","address":"1399 S Raritan St","geo_precision":"range"},"type":"Feature","geometry":{"type":"Point","coordinates":[-105.008746,39.69085]}},{"properties":{"zip":"80223","geo_score":0.805,"id":"a67gs15i42cl","address":"1393 S Wyandot St","geo_precision":"range"},"type":"Feature","geometry":{"type":"Point","coordinates":[-105.014599,39.691013]}},{"properties":{"zip":"80220","geo_score":0.684,"id":"a67gs11zvd9e","address":"1150 Syracuse St Apt 9-152","geo_precision":"range"},"type":"Feature","geometry":{"type":"Point","coordinates":[-104.898765,39.734038]}},{"properties":{"zip":"80220","geo_score":0.805,"id":"a67gs1ck5mzv","address":"1233 Quebec St","geo_precision":"range"},"type":"Feature","geometry":{"type":"Point","coordinates":[-104.903457,39.736162]}},{"properties":{"zip":"80220","geo_score":0.805,"id":"a67gs168dcrm","address":"1275 Pontiac St","geo_precision":"range"},"type":"Feature","geometry":{"type":"Point","coordinates":[-104.90581,39.736865]}},{"properties":{"zip":"80220","geo_score":0.732,"id":"a67gs18cru8o","address":"7127 E 11th Ave","geo_precision":"range"},"type":"Feature","geometry":{"type":"Point","coordinates":[-104.905517,39.732887]}},{"properties":{"zip":"80220","geo_score":0.805,"id":"a67gs128f50f","address":"6611 Richthofen Pkwy","geo_precision":"range"},"type":"Feature","geometry":{"type":"Point","coordinates":[-104.911551,39.73435]}},{"properties":{"zip":"80220","geo_score":0.679,"id":"a67gs1gi8hd1","address":"1121 Albion St Apt 708","geo_precision":"range"},"type":"Feature","geometry":{"type":"Point","coordinates":[-104.939511,39.733244]}},{"properties":{"zip":"80220","geo_score":0.805,"id":"a67gs13v0srf","address":"1201 Krameria St","geo_precision":"range"},"type":"Feature","geometry":{"type":"Point","coordinates":[-104.916153,39.735105]}},{"properties":{"zip":"80220","geo_score":0.805,"id":"a67gs1ed7814","address":"1470 Ivanhoe St","geo_precision":"range"},"type":"Feature","geometry":{"type":"Point","coordinates":[-104.921662,39.739624]}},{"properties":{"zip":"80247","geo_score":0.713,"id":"a67gs18637b9","address":"8300 Fairmount Dr Unit K101","geo_precision":"range"},"type":"Feature","geometry":{"type":"Point","coordinates":[-104.892911,39.711194]}},{"properties":{"zip":"80220","geo_score":0.805,"id":"a67gs15pn0if","address":"1615 Rosemary St","geo_precision":"range"},"type":"Feature","geometry":{"type":"Point","coordinates":[-104.899909,39.742234]}},{"properties":{"zip":"80220","geo_score":0.805,"id":"a67gs17v1d0i","address":"1630 Roslyn St","geo_precision":"range"},"type":"Feature","geometry":{"type":"Point","coordinates":[-104.901092,39.742385]}},{"properties":{"zip":"80220","geo_score":0.805,"id":"a67gs1fs7bq3","address":"1660 Magnolia St","geo_precision":"range"},"type":"Feature","geometry":{"type":"Point","coordinates":[-104.911661,39.742843]}},{"properties":{"zip":"80216","geo_score":0.805,"id":"a67gs1eot01p","address":"4115 Steele St","geo_precision":"range"},"type":"Feature","geometry":{"type":"Point","coordinates":[-104.949807,39.774041]}},{"properties":{"zip":"80216","geo_score":0.805,"id":"a67gs16v7keb","address":"4130 Fillmore St","geo_precision":"range"},"type":"Feature","geometry":{"type":"Point","coordinates":[-104.953043,39.774253]}},{"properties":{"zip":"80216","geo_score":0.805,"id":"a67gs1gzl93n","address":"5181 Steele St","geo_precision":"range"},"type":"Feature","geometry":{"type":"Point","coordinates":[-104.949942,39.790674]}},{"properties":{"zip":"80205","geo_score":0.61,"id":"a67gs1c0m4kw","address":"1777 E 39th Ave Apt 202","geo_precision":"range"},"type":"Feature","geometry":{"type":"Point","coordinates":[-104.966372,39.771329]}},{"properties":{"zip":"80206","geo_score":0.7,"id":"a67gs1btsu3o","address":"2885 E 7th Avenue Pkwy","geo_precision":"range"},"type":"Feature","geometry":{"type":"Point","coordinates":[-104.953061,39.727326]}},{"properties":{"zip":"80206","geo_score":0.805,"id":"a67gs1458ct6","address":"768 Cook St","geo_precision":"range"},"type":"Feature","geometry":{"type":"Point","coordinates":[-104.947298,39.728469]}},{"properties":{"zip":"80206","geo_score":0.7,"id":"a67gs1hly3xd","address":"3430 E 7th Avenue Pkwy","geo_precision":"range"},"type":"Feature","geometry":{"type":"Point","coordinates":[-104.946986,39.727128]}},{"properties":{"zip":"80206","geo_score":0.805,"id":"a67gs16jxw9d","address":"657 Adams St","geo_precision":"range"},"type":"Feature","geometry":{"type":"Point","coordinates":[-104.948401,39.726515]}},{"properties":{"zip":"80206","geo_score":0.61,"id":"a67gs1dv5qjt","address":"774 Saint Paul St","geo_precision":"street"},"type":"Feature","geometry":{"type":"Point","coordinates":[-104.951937,39.86916]}},{"properties":{"zip":"80206","geo_score":0.805,"id":"a67gs1de5fdj","address":"657 Steele St","geo_precision":"range"},"type":"Feature","geometry":{"type":"Point","coordinates":[-104.949504,39.72652]}},{"properties":{"zip":"80220","geo_score":0.805,"id":"a67gs19lmz8q","address":"703 Forest St","geo_precision":"range"},"type":"Feature","geometry":{"type":"Point","coordinates":[-104.927209,39.727301]}},{"properties":{"zip":"80206","geo_score":0.805,"id":"a67gs143wogq","address":"977 Garfield St","geo_precision":"range"},"type":"Feature","geometry":{"type":"Point","coordinates":[-104.943984,39.731728]}},{"properties":{"zip":"80206","geo_score":0.805,"id":"a67gs1eybfzs","address":"921 Detroit St","geo_precision":"range"},"type":"Feature","geometry":{"type":"Point","coordinates":[-104.954046,39.730831]}},{"properties":{"zip":"80206","geo_score":0.805,"id":"a67gs12ze3eq","address":"812 Fillmore St","geo_precision":"range"},"type":"Feature","geometry":{"type":"Point","coordinates":[-104.952885,39.729297]}},{"properties":{"zip":"80206","geo_score":0.732,"id":"a67gs1be7dcu","address":"3138 E 10th Ave","geo_precision":"range"},"type":"Feature","geometry":{"type":"Point","coordinates":[-104.950206,39.732106]}},{"properties":{"zip":"80206","geo_score":0.805,"id":"a67gs13yatuh","address":"838 Milwaukee St","geo_precision":"range"},"type":"Feature","geometry":{"type":"Point","coordinates":[-104.95173,39.729662]}},{"properties":{"zip":"80206","geo_score":0.805,"id":"a67gs1bsl8du","address":"1020 Fillmore St","geo_precision":"range"},"type":"Feature","geometry":{"type":"Point","coordinates":[-104.952892,39.732397]}},{"properties":{"zip":"80206","geo_score":0.805,"id":"a67gs1681nv0","address":"1111 Adams St","geo_precision":"range"},"type":"Feature","geometry":{"type":"Point","coordinates":[-104.948387,39.733819]}},{"properties":{"zip":"80206","geo_score":0.805,"id":"a67gs1fa04lh","address":"1144 Detroit St","geo_precision":"range"},"type":"Feature","geometry":{"type":"Point","coordinates":[-104.954054,39.734349]}},{"properties":{"zip":"80206","geo_score":0.629,"id":"a67gs1i6sqk8","address":"2700 E 12th Ave Apt 1","geo_precision":"range"},"type":"Feature","geometry":{"type":"Point","coordinates":[-104.955126,39.735143]}},{"properties":{"zip":"80206","geo_score":0.805,"id":"a67gs149car2","address":"1180 Detroit St","geo_precision":"range"},"type":"Feature","geometry":{"type":"Point","coordinates":[-104.954056,39.734895]}},{"properties":{"zip":"80206","geo_score":0.707,"id":"a67gs1d7w992","address":"1385 Elizabeth St","geo_precision":"street"},"type":"Feature","geometry":{"type":"Point","coordinates":[-104.956273,39.738122]}},{"properties":{"zip":"80206","geo_score":0.619,"id":"a67gs1artkk0","address":"1901 E 13th Ave Apt 1B","geo_precision":"range"},"type":"Feature","geometry":{"type":"Point","coordinates":[-104.964773,39.73682]}},{"properties":{"zip":"80218","geo_score":0.695,"id":"a67gs19f3m7c","address":"1433 Williams St Apt 506","geo_precision":"range"},"type":"Feature","geometry":{"type":"Point","coordinates":[-104.965995,39.738924]}},{"properties":{"zip":"80223","geo_score":0.805,"id":"a67gs1e3kyam","address":"1215 S Tejon St","geo_precision":"range"},"type":"Feature","geometry":{"type":"Point","coordinates":[-105.012291,39.694725]}},{"properties":{"zip":"80223","geo_score":0.805,"id":"a67gs165cxft","address":"1162 S Vallejo St","geo_precision":"range"},"type":"Feature","geometry":{"type":"Point","coordinates":[-105.014601,39.695659]}},{"properties":{"zip":"80210","geo_score":0.805,"id":"a67gs19rvlh3","address":"1120 S Adams St","geo_precision":"range"},"type":"Feature","geometry":{"type":"Point","coordinates":[-104.948845,39.696202]}},{"properties":{"zip":"80210","geo_score":0.805,"id":"a67gs1cixzfr","address":"1339 S Clayton St","geo_precision":"range"},"type":"Feature","geometry":{"type":"Point","coordinates":[-104.954684,39.692253]}},{"properties":{"zip":"80247","geo_score":0.585,"id":"a67gs18d56hk","address":"8101 E Mississippi Ave","geo_precision":"range"},"type":"Feature","geometry":{"type":"Point","coordinates":[-104.893804,39.696594]}},{"properties":{"zip":"80210","geo_score":0.805,"id":"a67gs1c8hman","address":"1127 S Cook St","geo_precision":"range"},"type":"Feature","geometry":{"type":"Point","coordinates":[-104.947687,39.69609]}},{"properties":{"zip":"80210","geo_score":0.805,"id":"a67gs14s0ikv","address":"1101 S Columbine St","geo_precision":"range"},"type":"Feature","geometry":{"type":"Point","coordinates":[-104.956963,39.696583]}},{"properties":{"zip":"80210","geo_score":0.805,"id":"a67gs13ldwv3","address":"1225 S Vine St","geo_precision":"range"},"type":"Feature","geometry":{"type":"Point","coordinates":[-104.962894,39.694329]}},{"properties":{"zip":"80210","geo_score":0.805,"id":"a67gs1i9jbnd","address":"1233 S Williams St","geo_precision":"range"},"type":"Feature","geometry":{"type":"Point","coordinates":[-104.966368,39.694177]}},{"properties":{"zip":"80210","geo_score":0.805,"id":"a67gs1315n8x","address":"1283 S University Blvd","geo_precision":"range"},"type":"Feature","geometry":{"type":"Point","coordinates":[-104.959341,39.693258]}},{"properties":{"zip":"80210","geo_score":0.805,"id":"a67gs17jfl6k","address":"1235 S York St","geo_precision":"range"},"type":"Feature","geometry":{"type":"Point","coordinates":[-104.960575,39.694144]}},{"properties":{"zip":"80209","geo_score":0.805,"id":"a67gs15lgs3x","address":"860 S Madison St","geo_precision":"range"},"type":"Feature","geometry":{"type":"Point","coordinates":[-104.946619,39.701275]}},{"properties":{"zip":"80209","geo_score":0.805,"id":"a67gs12nth2h","address":"665 S Harrison St","geo_precision":"range"},"type":"Feature","geometry":{"type":"Point","coordinates":[-104.943478,39.704063]}},{"properties":{"zip":"80210","geo_score":0.805,"id":"a67gs19qox63","address":"1200 S York St","geo_precision":"range"},"type":"Feature","geometry":{"type":"Point","coordinates":[-104.960573,39.694772]}},{"properties":{"zip":"80209","geo_score":0.805,"id":"a67gs1g2o3lf","address":"621 S Harrison Ln","geo_precision":"range"},"type":"Feature","geometry":{"type":"Point","coordinates":[-104.942572,39.704679]}},{"properties":{"zip":"80209","geo_score":0.805,"id":"a67gs19vr7mv","address":"942 S Cove Way","geo_precision":"range"},"type":"Feature","geometry":{"type":"Point","coordinates":[-104.953203,39.699778]}},{"properties":{"zip":"80209","geo_score":0.805,"id":"a67gs13h0qr6","address":"975 S Clayton Way","geo_precision":"range"},"type":"Feature","geometry":{"type":"Point","coordinates":[-104.952613,39.699028]}},{"properties":{"zip":"80209","geo_score":0.805,"id":"a67gs147hm8e","address":"3390 E Kentucky Ave","geo_precision":"range"},"type":"Feature","geometry":{"type":"Point","coordinates":[-104.947505,39.698903]}},{"properties":{"zip":"80209","geo_score":0.805,"id":"a67gs17g7uaz","address":"1056 S Adams St","geo_precision":"range"},"type":"Feature","geometry":{"type":"Point","coordinates":[-104.948847,39.697349]}},{"properties":{"zip":"80209","geo_score":0.805,"id":"a67gs155hdzg","address":"925 S Ellipse Way","geo_precision":"range"},"type":"Feature","geometry":{"type":"Point","coordinates":[-104.9551,39.700017]}},{"properties":{"zip":"80209","geo_score":0.805,"id":"a67gs1g24ner","address":"845 S Ellipse Way","geo_precision":"range"},"type":"Feature","geometry":{"type":"Point","coordinates":[-104.95489,39.700737]}},{"properties":{"zip":"80238","geo_score":0.537,"id":"a67gs1go4xyj","address":"8049 E 23rd Ave","geo_precision":"street"},"type":"Feature","geometry":{"type":"Point","coordinates":[-104.898947,39.751086]}},{"properties":{"zip":"80209","geo_score":0.805,"id":"a67gs192r501","address":"910 S Columbine St","geo_precision":"range"},"type":"Feature","geometry":{"type":"Point","coordinates":[-104.957007,39.700036]}},{"properties":{"zip":"80224","geo_score":0.688,"id":"a67gs18do01j","address":"6790 E Cedar Ave Apt 402","geo_precision":"range"},"type":"Feature","geometry":{"type":"Point","coordinates":[-104.910143,39.7144]}},{"properties":{"zip":"80209","geo_score":0.805,"id":"a67gs12a0hv6","address":"1065 S Columbine St","geo_precision":"range"},"type":"Feature","geometry":{"type":"Point","coordinates":[-104.956962,39.697211]}},{"properties":{"zip":"80209","geo_score":0.805,"id":"a67gs1fxc9d1","address":"1018 S Elizabeth St","geo_precision":"range"},"type":"Feature","geometry":{"type":"Point","coordinates":[-104.955818,39.698049]}},{"properties":{"zip":"80210","geo_score":0.805,"id":"a67gs15a50lc","address":"1184 S Williams St","geo_precision":"range"},"type":"Feature","geometry":{"type":"Point","coordinates":[-104.966364,39.695035]}},{"properties":{"zip":"80209","geo_score":0.805,"id":"a67gs11yc2ir","address":"1055 S Race St","geo_precision":"range"},"type":"Feature","geometry":{"type":"Point","coordinates":[-104.964046,39.697399]}},{"properties":{"zip":"80209","geo_score":0.805,"id":"a67gs1d1nwk2","address":"1005 S High St","geo_precision":"range"},"type":"Feature","geometry":{"type":"Point","coordinates":[-104.965204,39.698325]}},{"properties":{"zip":"80209","geo_score":0.805,"id":"a67gs1hlwi20","address":"719 S Race St","geo_precision":"range"},"type":"Feature","geometry":{"type":"Point","coordinates":[-104.96402,39.703524]}},{"properties":{"zip":"80218","geo_score":0.805,"id":"a67gs1e60ra5","address":"1033 Humboldt St","geo_precision":"range"},"type":"Feature","geometry":{"type":"Point","coordinates":[-104.969489,39.732599]}},{"properties":{"zip":"80209","geo_score":0.805,"id":"a67gs12t1dgo","address":"786 S Gilpin St","geo_precision":"range"},"type":"Feature","geometry":{"type":"Point","coordinates":[-104.967486,39.702262]}},{"properties":{"zip":"80209","geo_score":0.805,"id":"a67gs1dboili","address":"689 S Gilpin St","geo_precision":"range"},"type":"Feature","geometry":{"type":"Point","coordinates":[-104.967489,39.704047]}},{"properties":{"zip":"80210","geo_score":0.805,"id":"a67gs1eq9a2u","address":"1130 S Franklin St","geo_precision":"range"},"type":"Feature","geometry":{"type":"Point","coordinates":[-104.968728,39.696033]}},{"properties":{"zip":"80209","geo_score":0.805,"id":"a67gs159cn2j","address":"672 S Gilpin St","geo_precision":"range"},"type":"Feature","geometry":{"type":"Point","coordinates":[-104.967487,39.704343]}},{"properties":{"zip":"80209","geo_score":0.805,"id":"a67gs19srmm9","address":"801 S Gilpin St","geo_precision":"range"},"type":"Feature","geometry":{"type":"Point","coordinates":[-104.967485,39.702039]}},{"properties":{"zip":"80209","geo_score":0.805,"id":"a67gs1b2fhz3","address":"789 S Williams St","geo_precision":"range"},"type":"Feature","geometry":{"type":"Point","coordinates":[-104.966331,39.702227]}},{"properties":{"zip":"80209","geo_score":0.805,"id":"a67gs1i0pzlk","address":"1030 S Gilpin St","geo_precision":"range"},"type":"Feature","geometry":{"type":"Point","coordinates":[-104.967521,39.697847]}},{"properties":{"zip":"80210","geo_score":0.805,"id":"a67gs15wqy31","address":"1101 S Williams St","geo_precision":"range"},"type":"Feature","geometry":{"type":"Point","coordinates":[-104.966362,39.696608]}},{"properties":{"zip":"80209","geo_score":0.805,"id":"a67gs179wce6","address":"411 S Garfield St","geo_precision":"range"},"type":"Feature","geometry":{"type":"Point","coordinates":[-104.946315,39.70932]}},{"properties":{"zip":"80209","geo_score":0.805,"id":"a67gs11wk2j2","address":"13 Polo Field Ln","geo_precision":"range"},"type":"Feature","geometry":{"type":"Point","coordinates":[-104.953222,39.708352]}},{"properties":{"zip":"80209","geo_score":0.805,"id":"a67gs16kzs4w","address":"3501 E Virginia Ave","geo_precision":"range"},"type":"Feature","geometry":{"type":"Point","coordinates":[-104.947526,39.706869]}},{"properties":{"zip":"80209","geo_score":0.805,"id":"a67gs15cxk3f","address":"424 S Franklin St","geo_precision":"range"},"type":"Feature","geometry":{"type":"Point","coordinates":[-104.968701,39.708864]}},{"properties":{"zip":"80218","geo_score":0.677,"id":"a67gs19g5y22","address":"111 Emerson St Apt 1161","geo_precision":"range"},"type":"Feature","geometry":{"type":"Point","coordinates":[-104.977017,39.718575]}},{"properties":{"zip":"80209","geo_score":0.691,"id":"a67gs1h5jvrz","address":"460 S Marion Pkwy Apt 654B","geo_precision":"range"},"type":"Feature","geometry":{"type":"Point","coordinates":[-104.972194,39.708187]}},{"properties":{"zip":"80219","geo_score":0.805,"id":"a67gs12cpnbf","address":"2526 S Xavier St","geo_precision":"range"},"type":"Feature","geometry":{"type":"Point","coordinates":[-105.048954,39.673658]}},{"properties":{"zip":"80210","geo_score":0.679,"id":"a67gs1e5qbf5","address":"1001 E Yale Ave Apt 323","geo_precision":"range"},"type":"Feature","geometry":{"type":"Point","coordinates":[-104.975803,39.667688]}},{"properties":{"zip":"80209","geo_score":0.682,"id":"a67gs12uaofb","address":"460 S Marion Pkwy Apt 1701C","geo_precision":"range"},"type":"Feature","geometry":{"type":"Point","coordinates":[-104.972194,39.708187]}},{"properties":{"zip":"80209","geo_score":0.691,"id":"a67gs1aqfn3v","address":"460 S Marion Pkwy Apt 1453","geo_precision":"range"},"type":"Feature","geometry":{"type":"Point","coordinates":[-104.972194,39.708187]}},{"properties":{"zip":"80209","geo_score":0.691,"id":"a67gs1383gkr","address":"460 S Marion Pkwy Apt 254B","geo_precision":"range"},"type":"Feature","geometry":{"type":"Point","coordinates":[-104.972194,39.708187]}},{"properties":{"zip":"80220","geo_score":0.805,"id":"a67gs16zauwx","address":"1414 Olive St","geo_precision":"range"},"type":"Feature","geometry":{"type":"Point","coordinates":[-104.90695,39.738907]}},{"properties":{"zip":"80223","geo_score":0.805,"id":"a67gs1ajigkq","address":"1424 W Ohio Ave","geo_precision":"range"},"type":"Feature","geometry":{"type":"Point","coordinates":[-105.004062,39.701928]}},{"properties":{"zip":"80223","geo_score":0.805,"id":"a67gs1bzyf17","address":"1656 W Ohio Ave","geo_precision":"range"},"type":"Feature","geometry":{"type":"Point","coordinates":[-105.006876,39.70255]}},{"properties":{"zip":"80206","geo_score":0.702,"id":"a67gs12k5yn2","address":"1135 Elizabeth St Apt 105","geo_precision":"range"},"type":"Feature","geometry":{"type":"Point","coordinates":[-104.95629,39.734198]}},{"properties":{"zip":"80223","geo_score":0.805,"id":"a67gs1f05fbm","address":"1700 W Tennessee Ave","geo_precision":"range"},"type":"Feature","geometry":{"type":"Point","coordinates":[-105.006601,39.698197]}},{"properties":{"zip":"80209","geo_score":0.805,"id":"a67gs18er8fv","address":"3605 E Cedar Ave","geo_precision":"range"},"type":"Feature","geometry":{"type":"Point","coordinates":[-104.944934,39.713069]}},{"properties":{"zip":"80206","geo_score":0.7,"id":"a67gs1amox5o","address":"31 Jackson St Unit H","geo_precision":"range"},"type":"Feature","geometry":{"type":"Point","coordinates":[-104.942543,39.716714]}},{"properties":{"zip":"80209","geo_score":0.805,"id":"a67gs1fyis2h","address":"60 S Monroe St","geo_precision":"range"},"type":"Feature","geometry":{"type":"Point","coordinates":[-104.944965,39.715274]}},{"properties":{"zip":"80206","geo_score":0.659,"id":"a67gs1b9u4qq","address":"2 Adams St Apt 1002","geo_precision":"range"},"type":"Feature","geometry":{"type":"Point","coordinates":[-104.948582,39.716234]}},{"properties":{"zip":"80209","geo_score":0.695,"id":"a67gs12u8npp","address":"3333 E Bayaud Ave Apt 210","geo_precision":"range"},"type":"Feature","geometry":{"type":"Point","coordinates":[-104.948023,39.714656]}},{"properties":{"zip":"80209","geo_score":0.679,"id":"a67gs14u7xxo","address":"44 S Adams St Apt 330","geo_precision":"range"},"type":"Feature","geometry":{"type":"Point","coordinates":[-104.948584,39.715559]}},{"properties":{"zip":"80209","geo_score":0.702,"id":"a67gs1hjxqc3","address":"3100 Cherry Creek South Dr Apt 501","geo_precision":"range"},"type":"Feature","geometry":{"type":"Point","coordinates":[-104.95069,39.713344]}},{"properties":{"zip":"80209","geo_score":0.707,"id":"a67gs199u9om","address":"2400 Cherry Creek South Dr Unit 403","geo_precision":"range"},"type":"Feature","geometry":{"type":"Point","coordinates":[-104.958188,39.715429]}},{"properties":{"zip":"80209","geo_score":0.805,"id":"a67gs1c6dixh","address":"194 S Franklin St","geo_precision":"range"},"type":"Feature","geometry":{"type":"Point","coordinates":[-104.96871,39.713001]}},{"properties":{"zip":"80209","geo_score":0.805,"id":"a67gs17zumg1","address":"258 S Marion Pkwy","geo_precision":"range"},"type":"Feature","geometry":{"type":"Point","coordinates":[-104.972189,39.71185]}},{"properties":{"zip":"80209","geo_score":0.805,"id":"a67gs1ahxskd","address":"239 S Gilpin St","geo_precision":"range"},"type":"Feature","geometry":{"type":"Point","coordinates":[-104.967484,39.712223]}},{"properties":{"zip":"80209","geo_score":0.805,"id":"a67gs1egiwc9","address":"470 S York St","geo_precision":"range"},"type":"Feature","geometry":{"type":"Point","coordinates":[-104.960551,39.708002]}},{"properties":{"zip":"80209","geo_score":0.805,"id":"a67gs1dos5gx","address":"2301 E Alameda Ave","geo_precision":"range"},"type":"Feature","geometry":{"type":"Point","coordinates":[-104.960332,39.7111]}},{"properties":{"zip":"80209","geo_score":0.805,"id":"a67gs1diqxwr","address":"291 S Gilpin St","geo_precision":"range"},"type":"Feature","geometry":{"type":"Point","coordinates":[-104.967479,39.711262]}},{"properties":{"zip":"80206","geo_score":0.805,"id":"a67gs13uu78f","address":"480 Monroe St","geo_precision":"range"},"type":"Feature","geometry":{"type":"Point","coordinates":[-104.944961,39.723827]}},{"properties":{"zip":"80206","geo_score":0.805,"id":"a67gs16jrocd","address":"230 Monroe St","geo_precision":"range"},"type":"Feature","geometry":{"type":"Point","coordinates":[-104.94496,39.719882]}},{"properties":{"zip":"80238","geo_score":0.454,"id":"a67gs1d2pena","address":"2843 Central Park Blvd","geo_precision":"street"},"type":"Feature","geometry":{"type":"Point","coordinates":[-105.005664,39.761805]}},{"properties":{"zip":"80206","geo_score":0.805,"id":"a67gs1epl73d","address":"343 University Blvd","geo_precision":"range"},"type":"Feature","geometry":{"type":"Point","coordinates":[-104.959437,39.721653]}},{"properties":{"zip":"80206","geo_score":0.695,"id":"a67gs13iu1bk","address":"345 Fillmore St Apt 305","geo_precision":"range"},"type":"Feature","geometry":{"type":"Point","coordinates":[-104.953417,39.721681]}},{"properties":{"zip":"80206","geo_score":0.805,"id":"a67gs1durxra","address":"636 Josephine St","geo_precision":"range"},"type":"Feature","geometry":{"type":"Point","coordinates":[-104.959021,39.726175]}},{"properties":{"zip":"80206","geo_score":0.805,"id":"a67gs1huvj5e","address":"636 Vine St","geo_precision":"range"},"type":"Feature","geometry":{"type":"Point","coordinates":[-104.962489,39.726185]}},{"properties":{"zip":"80206","geo_score":0.805,"id":"a67gs12hkay7","address":"610 Josephine St","geo_precision":"range"},"type":"Feature","geometry":{"type":"Point","coordinates":[-104.958975,39.725758]}},{"properties":{"zip":"80206","geo_score":0.805,"id":"a67gs1hapw7r","address":"401 Westwood Dr","geo_precision":"range"},"type":"Feature","geometry":{"type":"Point","coordinates":[-104.960746,39.722523]}},{"properties":{"zip":"80218","geo_score":0.805,"id":"a67gs11zdist","address":"540 Franklin St","geo_precision":"range"},"type":"Feature","geometry":{"type":"Point","coordinates":[-104.96828,39.724504]}},{"properties":{"zip":"80218","geo_score":0.805,"id":"a67gs15gsa4q","address":"515 Williams St","geo_precision":"range"},"type":"Feature","geometry":{"type":"Point","coordinates":[-104.965856,39.724027]}},{"properties":{"zip":"80246","geo_score":0.805,"id":"a67gs197kkbi","address":"185 S Elm St","geo_precision":"range"},"type":"Feature","geometry":{"type":"Point","coordinates":[-104.929321,39.713308]}},{"properties":{"zip":"80206","geo_score":0.805,"id":"a67gs1co5oqg","address":"635 Vine St","geo_precision":"range"},"type":"Feature","geometry":{"type":"Point","coordinates":[-104.962489,39.72613]}},{"properties":{"zip":"80238","geo_score":0.537,"id":"a67gs1dbpqz4","address":"10549 E 28th Ave","geo_precision":"street"},"type":"Feature","geometry":{"type":"Point","coordinates":[-104.908147,39.756589]}},{"properties":{"zip":"80218","geo_score":0.805,"id":"a67gs1b9iohe","address":"601 Williams St","geo_precision":"range"},"type":"Feature","geometry":{"type":"Point","coordinates":[-104.96586,39.725598]}},{"properties":{"zip":"80206","geo_score":0.647,"id":"a67gs1aa72za","address":"1077 Race St Apt 1102","geo_precision":"range"},"type":"Feature","geometry":{"type":"Point","coordinates":[-104.963497,39.733397]}},{"properties":{"zip":"80220","geo_score":0.805,"id":"a67gs1bl8nui","address":"1365 Oneida St","geo_precision":"range"},"type":"Feature","geometry":{"type":"Point","coordinates":[-104.908154,39.738203]}},{"properties":{"zip":"80218","geo_score":0.61,"id":"a67gs16er7d6","address":"1510 E 10th Ave Apt 12W","geo_precision":"range"},"type":"Feature","geometry":{"type":"Point","coordinates":[-104.96932,39.732054]}},{"properties":{"zip":"80206","geo_score":0.688,"id":"a67gs1a7waz5","address":"1070 Race St Apt C","geo_precision":"range"},"type":"Feature","geometry":{"type":"Point","coordinates":[-104.963497,39.733379]}},{"properties":{"zip":"80207","geo_score":0.805,"id":"a67gs1gxpbgf","address":"2820 Ivanhoe St","geo_precision":"range"},"type":"Feature","geometry":{"type":"Point","coordinates":[-104.921116,39.756938]}},{"properties":{"zip":"80218","geo_score":0.7,"id":"a67gs18t1tgb","address":"910 Downing St Apt 3C","geo_precision":"range"},"type":"Feature","geometry":{"type":"Point","coordinates":[-104.97295,39.730616]}},{"properties":{"zip":"80218","geo_score":0.805,"id":"a67gs1h3efns","address":"774 Lafayette St","geo_precision":"range"},"type":"Feature","geometry":{"type":"Point","coordinates":[-104.970615,39.728648]}},{"properties":{"zip":"80218","geo_score":0.702,"id":"a67gs1az5r1s","address":"909 Lafayette St Apt 602","geo_precision":"range"},"type":"Feature","geometry":{"type":"Point","coordinates":[-104.970629,39.7306]}},{"properties":{"zip":"80224","geo_score":0.713,"id":"a67gs191a4ca","address":"1250 S Monaco Pkwy Apt 38","geo_precision":"range"},"type":"Feature","geometry":{"type":"Point","coordinates":[-104.912889,39.693421]}},{"properties":{"zip":"80218","geo_score":0.684,"id":"a67gs1cuyjxc","address":"1250 Humboldt St Apt 1101","geo_precision":"range"},"type":"Feature","geometry":{"type":"Point","coordinates":[-104.969516,39.736039]}},{"properties":{"zip":"80218","geo_score":0.805,"id":"a67gs16hgkog","address":"1275 Franklin St","geo_precision":"range"},"type":"Feature","geometry":{"type":"Point","coordinates":[-104.968045,39.735737]}},{"properties":{"zip":"80206","geo_score":0.659,"id":"a67gs1gizp1a","address":"1133 Race St Unit 7N","geo_precision":"range"},"type":"Feature","geometry":{"type":"Point","coordinates":[-104.963494,39.73398]}},{"properties":{"zip":"80218","geo_score":0.805,"id":"a67gs18xs10e","address":"1001 Ogden St","geo_precision":"range"},"type":"Feature","geometry":{"type":"Point","coordinates":[-104.975257,39.732046]}},{"properties":{"zip":"80218","geo_score":0.805,"id":"a67gs1gtgv68","address":"1206 Downing St","geo_precision":"range"},"type":"Feature","geometry":{"type":"Point","coordinates":[-104.972999,39.735262]}},{"properties":{"zip":"80249","geo_score":0.427,"id":"a67gs1b862uj","address":"20783 E 38th Pl","geo_precision":"street"},"type":"Feature","geometry":{"type":"Point","coordinates":[-104.833009,39.769177]}},{"properties":{"zip":"80249","geo_score":0.427,"id":"a67gs15750rj","address":"20743 E 38th Pl","geo_precision":"street"},"type":"Feature","geometry":{"type":"Point","coordinates":[-104.833009,39.769177]}},{"properties":{"zip":"80210","geo_score":0.805,"id":"a67gs1c4sv3t","address":"3016 S Gaylord St","geo_precision":"range"},"type":"Feature","geometry":{"type":"Point","coordinates":[-104.962149,39.662878]}},{"properties":{"zip":"80210","geo_score":0.805,"id":"a67gs1fyrgho","address":"3017 S Vine St","geo_precision":"range"},"type":"Feature","geometry":{"type":"Point","coordinates":[-104.963192,39.662674]}},{"properties":{"zip":"80210","geo_score":0.805,"id":"a67gs1bk98y2","address":"3021 S Gilpin St","geo_precision":"range"},"type":"Feature","geometry":{"type":"Point","coordinates":[-104.967778,39.662948]}},{"properties":{"zip":"80210","geo_score":0.805,"id":"a67gs19xv4ay","address":"2872 S Race St","geo_precision":"range"},"type":"Feature","geometry":{"type":"Point","coordinates":[-104.964341,39.664879]}},{"properties":{"zip":"80223","geo_score":0.688,"id":"a67gs1fxavr0","address":"103 Inca St Apt C","geo_precision":"range"},"type":"Feature","geometry":{"type":"Point","coordinates":[-104.997542,39.718442]}},{"properties":{"zip":"80210","geo_score":0.721,"id":"a67gs14bo3o4","address":"2565 S University Blvd Apt 710","geo_precision":"range"},"type":"Feature","geometry":{"type":"Point","coordinates":[-104.959391,39.670033]}},{"properties":{"zip":"80210","geo_score":0.805,"id":"a67gs17o9g03","address":"2610 S Vine St","geo_precision":"range"},"type":"Feature","geometry":{"type":"Point","coordinates":[-104.962926,39.669244]}},{"properties":{"zip":"80210","geo_score":0.67,"id":"a67gs1eyafol","address":"2459 S York St Apt 103","geo_precision":"range"},"type":"Feature","geometry":{"type":"Point","coordinates":[-104.960567,39.671963]}},{"properties":{"zip":"80210","geo_score":0.805,"id":"a67gs1bqn5co","address":"2770 S Humboldt St","geo_precision":"range"},"type":"Feature","geometry":{"type":"Point","coordinates":[-104.969975,39.666368]}},{"properties":{"zip":"80210","geo_score":0.805,"id":"a67gs1gtyg55","address":"2732 S Downing Cir","geo_precision":"range"},"type":"Feature","geometry":{"type":"Point","coordinates":[-104.973102,39.666857]}},{"properties":{"zip":"80210","geo_score":0.805,"id":"a67gs13t5nwy","address":"2251 S Gilpin St","geo_precision":"range"},"type":"Feature","geometry":{"type":"Point","coordinates":[-104.967586,39.675745]}},{"properties":{"zip":"80210","geo_score":0.805,"id":"a67gs1eed635","address":"2323 S Corona St","geo_precision":"range"},"type":"Feature","geometry":{"type":"Point","coordinates":[-104.974607,39.674485]}},{"properties":{"zip":"80210","geo_score":0.805,"id":"a67gs159fc67","address":"2673 S Pearl St","geo_precision":"range"},"type":"Feature","geometry":{"type":"Point","coordinates":[-104.980525,39.667963]}},{"properties":{"zip":"80210","geo_score":0.805,"id":"a67gs1a2l3eq","address":"1860 S Fillmore St","geo_precision":"range"},"type":"Feature","geometry":{"type":"Point","coordinates":[-104.953655,39.683199]}},{"properties":{"zip":"80210","geo_score":0.805,"id":"a67gs19u8nl5","address":"1841 S Fillmore St","geo_precision":"range"},"type":"Feature","geometry":{"type":"Point","coordinates":[-104.953656,39.682843]}},{"properties":{"zip":"80210","geo_score":0.805,"id":"a67gs1cxu2te","address":"2550 S Lincoln St","geo_precision":"range"},"type":"Feature","geometry":{"type":"Point","coordinates":[-104.98635,39.670357]}},{"properties":{"zip":"80210","geo_score":0.702,"id":"a67gs1g65oe1","address":"2225 Buchtel Blvd Apt 412","geo_precision":"range"},"type":"Feature","geometry":{"type":"Point","coordinates":[-104.962889,39.68359]}},{"properties":{"zip":"80210","geo_score":0.805,"id":"a67gs14c3lvd","address":"1619 E Asbury Ave","geo_precision":"range"},"type":"Feature","geometry":{"type":"Point","coordinates":[-104.96857,39.680302]}},{"properties":{"zip":"80210","geo_score":0.805,"id":"a67gs15cav4y","address":"2153 S Emerson St","geo_precision":"range"},"type":"Feature","geometry":{"type":"Point","coordinates":[-104.97692,39.677562]}},{"properties":{"zip":"80210","geo_score":0.805,"id":"a67gs1flyb45","address":"2110 S Logan St","geo_precision":"range"},"type":"Feature","geometry":{"type":"Point","coordinates":[-104.982857,39.678378]}},{"properties":{"zip":"80210","geo_score":0.805,"id":"a67gs1ajqv39","address":"2160 S Corona St","geo_precision":"range"},"type":"Feature","geometry":{"type":"Point","coordinates":[-104.974605,39.677406]}},{"properties":{"zip":"80210","geo_score":0.805,"id":"a67gs1hux6ox","address":"1921 S Washington St","geo_precision":"range"},"type":"Feature","geometry":{"type":"Point","coordinates":[-104.979335,39.681789]}},{"properties":{"zip":"80206","geo_score":0.659,"id":"a67gs1fugr2w","address":"1111 Race St Apt PBH","geo_precision":"range"},"type":"Feature","geometry":{"type":"Point","coordinates":[-104.963496,39.733623]}},{"properties":{"zip":"80223","geo_score":0.805,"id":"a67gs15n5mf5","address":"1972 S Fox St","geo_precision":"range"},"type":"Feature","geometry":{"type":"Point","coordinates":[-104.994839,39.680805]}},{"properties":{"zip":"80223","geo_score":0.805,"id":"a67gs1a2ssj2","address":"2391 S Acoma St","geo_precision":"range"},"type":"Feature","geometry":{"type":"Point","coordinates":[-104.988804,39.67323]}},{"properties":{"zip":"80223","geo_score":0.805,"id":"a67gs17k055h","address":"2619 S Bannock St","geo_precision":"range"},"type":"Feature","geometry":{"type":"Point","coordinates":[-104.989971,39.669153]}},{"properties":{"zip":"80210","geo_score":0.805,"id":"a67gs1d6o1sa","address":"1541 S Corona St","geo_precision":"range"},"type":"Feature","geometry":{"type":"Point","coordinates":[-104.974601,39.688722]}},{"properties":{"zip":"80210","geo_score":0.805,"id":"a67gs1f2lz3x","address":"1801 S Corona St","geo_precision":"range"},"type":"Feature","geometry":{"type":"Point","coordinates":[-104.974602,39.683982]}},{"properties":{"zip":"80210","geo_score":0.805,"id":"a67gs1495l25","address":"1803 S Clarkson St","geo_precision":"range"},"type":"Feature","geometry":{"type":"Point","coordinates":[-104.978109,39.683957]}},{"properties":{"zip":"80210","geo_score":0.805,"id":"a67gs12qhwgw","address":"1428 S Washington St","geo_precision":"range"},"type":"Feature","geometry":{"type":"Point","coordinates":[-104.979278,39.690653]}},{"properties":{"zip":"80210","geo_score":0.805,"id":"a67gs1ekeq5t","address":"1608 S Logan St","geo_precision":"range"},"type":"Feature","geometry":{"type":"Point","coordinates":[-104.9828,39.687422]}},{"properties":{"zip":"80249","geo_score":0.805,"id":"a67gs143k5ld","address":"4459 Perth Cir","geo_precision":"range"},"type":"Feature","geometry":{"type":"Point","coordinates":[-104.737376,39.776774]}},{"properties":{"zip":"80249","geo_score":0.805,"id":"a67gs17jbis7","address":"4326 Liverpool St","geo_precision":"range"},"type":"Feature","geometry":{"type":"Point","coordinates":[-104.745054,39.777053]}},{"properties":{"zip":"80123","geo_score":0.688,"id":"a67gs190ypka","address":"6700 W Dorado Dr Unit 45","geo_precision":"range"},"type":"Feature","geometry":{"type":"Point","coordinates":[-105.068799,39.614383]}},{"properties":{"zip":"80123","geo_score":0.805,"id":"a67gs1abo3qg","address":"5480 S Marshall St","geo_precision":"range"},"type":"Feature","geometry":{"type":"Point","coordinates":[-105.06862,39.61615]}},{"properties":{"zip":"80123","geo_score":0.805,"id":"a67gs1g1qom6","address":"6660 W Alamo Dr","geo_precision":"range"},"type":"Feature","geometry":{"type":"Point","coordinates":[-105.070087,39.615679]}},{"properties":{"zip":"80123","geo_score":0.805,"id":"a67gs16dx6hj","address":"5591 S Harlan St","geo_precision":"range"},"type":"Feature","geometry":{"type":"Point","coordinates":[-105.062669,39.616438]}},{"properties":{"zip":"80123","geo_score":0.688,"id":"a67gs11wzo5n","address":"6700 W Dorado Dr Unit 40","geo_precision":"range"},"type":"Feature","geometry":{"type":"Point","coordinates":[-105.068799,39.614383]}},{"properties":{"zip":"80123","geo_score":0.721,"id":"a67gs197h8ui","address":"6900 W Grant Ranch Blvd Unit 36","geo_precision":"range"},"type":"Feature","geometry":{"type":"Point","coordinates":[-105.079398,39.618473]}},{"properties":{"zip":"80123","geo_score":0.721,"id":"a67gs1bmxvmo","address":"6900 W Grant Ranch Blvd Unit 70","geo_precision":"range"},"type":"Feature","geometry":{"type":"Point","coordinates":[-105.079398,39.618473]}},{"properties":{"zip":"80123","geo_score":0.732,"id":"a67gs14cmnkx","address":"7700 W Grant Ranch Blvd Apt 3E","geo_precision":"range"},"type":"Feature","geometry":{"type":"Point","coordinates":[-105.082519,39.618573]}},{"properties":{"zip":"80123","geo_score":0.707,"id":"a67gs16wwf95","address":"7270 W Stetson Pl Apt 37","geo_precision":"range"},"type":"Feature","geometry":{"type":"Point","coordinates":[-105.077415,39.636351]}},{"properties":{"zip":"80123","geo_score":0.688,"id":"a67gs15d93y3","address":"4301 S Pierce St Apt 11C","geo_precision":"range"},"type":"Feature","geometry":{"type":"Point","coordinates":[-105.072255,39.638742]}},{"properties":{"zip":"80123","geo_score":0.805,"id":"a67gs13ncup8","address":"5521 S Gray St","geo_precision":"range"},"type":"Feature","geometry":{"type":"Point","coordinates":[-105.061106,39.617387]}},{"properties":{"zip":"80123","geo_score":0.684,"id":"a67gs1cz7lx2","address":"7900 W Layton Ave Unit 845","geo_precision":"range"},"type":"Feature","geometry":{"type":"Point","coordinates":[-105.084928,39.63007]}},{"properties":{"zip":"80123","geo_score":0.7,"id":"a67gs1232p99","address":"4901 S Ammons St Apt 9A","geo_precision":"range"},"type":"Feature","geometry":{"type":"Point","coordinates":[-105.08689,39.627847]}},{"properties":{"zip":"80123","geo_score":0.684,"id":"a67gs16p6f2m","address":"7925 W Layton Ave Unit 308","geo_precision":"range"},"type":"Feature","geometry":{"type":"Point","coordinates":[-105.08642,39.629448]}},{"properties":{"zip":"80123","geo_score":0.684,"id":"a67gs1cc237w","address":"7925 W Layton Ave Unit 314","geo_precision":"range"},"type":"Feature","geometry":{"type":"Point","coordinates":[-105.08642,39.629448]}},{"properties":{"zip":"80123","geo_score":0.688,"id":"a67gs1g7iu62","address":"8501 W Union Ave Unit 29","geo_precision":"range"},"type":"Feature","geometry":{"type":"Point","coordinates":[-105.094798,39.631322]}},{"properties":{"zip":"80123","geo_score":0.7,"id":"a67gs18t32wb","address":"4720 S Dudley St Apt 52","geo_precision":"range"},"type":"Feature","geometry":{"type":"Point","coordinates":[-105.096126,39.630529]}},{"properties":{"zip":"80123","geo_score":0.7,"id":"a67gs1h2tcy4","address":"4750 S Dudley St Apt 34","geo_precision":"range"},"type":"Feature","geometry":{"type":"Point","coordinates":[-105.096315,39.630133]}},{"properties":{"zip":"80123","geo_score":0.455,"id":"a67gs13crui3","address":"4385 S Balsam St Unit 5-103","geo_precision":"street"},"type":"Feature","geometry":{"type":"Point","coordinates":[-105.089476,39.598842]}},{"properties":{"zip":"80123","geo_score":0.805,"id":"a67gs1217zjo","address":"8784 W Union Ave","geo_precision":"range"},"type":"Feature","geometry":{"type":"Point","coordinates":[-105.096005,39.631834]}},{"properties":{"zip":"80123","geo_score":0.805,"id":"a67gs14ts1lc","address":"3820 W Saratoga Ave","geo_precision":"range"},"type":"Feature","geometry":{"type":"Point","coordinates":[-105.037588,39.629691]}},{"properties":{"zip":"80123","geo_score":0.805,"id":"a67gs163avv2","address":"4361 W Bellewood Dr","geo_precision":"range"},"type":"Feature","geometry":{"type":"Point","coordinates":[-105.042715,39.628342]}},{"properties":{"zip":"80123","geo_score":0.805,"id":"a67gs1i62fsc","address":"5007 S Perry St","geo_precision":"range"},"type":"Feature","geometry":{"type":"Point","coordinates":[-105.041562,39.628067]}},{"properties":{"zip":"80236","geo_score":0.805,"id":"a67gs13tyfaw","address":"3800 W Union Ave","geo_precision":"range"},"type":"Feature","geometry":{"type":"Point","coordinates":[-105.039834,39.631863]}},{"properties":{"zip":"80236","geo_score":0.805,"id":"a67gs1fx7z0s","address":"4402 W Rice Pl","geo_precision":"range"},"type":"Feature","geometry":{"type":"Point","coordinates":[-105.044179,39.635846]}},{"properties":{"zip":"80236","geo_score":0.805,"id":"a67gs1g2r83o","address":"4407 S Utica St","geo_precision":"range"},"type":"Feature","geometry":{"type":"Point","coordinates":[-105.045316,39.635931]}},{"properties":{"zip":"80236","geo_score":0.805,"id":"a67gs164hhmj","address":"4851 W Oxford Ave","geo_precision":"range"},"type":"Feature","geometry":{"type":"Point","coordinates":[-105.049859,39.643142]}},{"properties":{"zip":"80236","geo_score":0.805,"id":"a67gs1eed1wv","address":"4222 S Zenobia St","geo_precision":"range"},"type":"Feature","geometry":{"type":"Point","coordinates":[-105.049902,39.639887]}},{"properties":{"zip":"80236","geo_score":0.805,"id":"a67gs1absjsk","address":"3673 W Union Ave","geo_precision":"range"},"type":"Feature","geometry":{"type":"Point","coordinates":[-105.038034,39.631857]}},{"properties":{"zip":"80235","geo_score":0.712,"id":"a67gs122zjzl","address":"6000 W Mansfield Ave Unit 15","geo_precision":"range"},"type":"Feature","geometry":{"type":"Point","coordinates":[-105.061975,39.643952]}},{"properties":{"zip":"80235","geo_score":0.712,"id":"a67gs12v1g7n","address":"6500 W Mansfield Ave Unit 18","geo_precision":"range"},"type":"Feature","geometry":{"type":"Point","coordinates":[-105.067485,39.643057]}},{"properties":{"zip":"80235","geo_score":0.702,"id":"a67gs1an0avv","address":"6325 W Mansfield Ave Unit 210","geo_precision":"range"},"type":"Feature","geometry":{"type":"Point","coordinates":[-105.067925,39.643034]}},{"properties":{"zip":"80235","geo_score":0.712,"id":"a67gs14xcp82","address":"6500 W Mansfield Ave Unit 52","geo_precision":"range"},"type":"Feature","geometry":{"type":"Point","coordinates":[-105.067485,39.643057]}},{"properties":{"zip":"80235","geo_score":0.805,"id":"a67gs1a6tj40","address":"3841 S Harlan St","geo_precision":"range"},"type":"Feature","geometry":{"type":"Point","coordinates":[-105.062607,39.648032]}},{"properties":{"zip":"80235","geo_score":0.695,"id":"a67gs148ujvr","address":"5650 W Quincy Ave Unit 10","geo_precision":"range"},"type":"Feature","geometry":{"type":"Point","coordinates":[-105.058637,39.639109]}},{"properties":{"zip":"80235","geo_score":0.736,"id":"a67gs1hznnus","address":"3663 S Sheridan Blvd Apt A9","geo_precision":"range"},"type":"Feature","geometry":{"type":"Point","coordinates":[-105.05312,39.649909]}},{"properties":{"zip":"80235","geo_score":0.805,"id":"a67gs1bkp3kj","address":"3765 S Depew St","geo_precision":"range"},"type":"Feature","geometry":{"type":"Point","coordinates":[-105.057381,39.648553]}},{"properties":{"zip":"80235","geo_score":0.695,"id":"a67gs17s62mj","address":"5901 W Lehigh Ave Unit 19","geo_precision":"range"},"type":"Feature","geometry":{"type":"Point","coordinates":[-105.061308,39.647743]}},{"properties":{"zip":"80235","geo_score":0.518,"id":"a67gs1bu3a5c","address":"3550 Harlan St Apt 16-268","geo_precision":"range"},"type":"Feature","geometry":{"type":"Point","coordinates":[-105.062571,39.652458]}},{"properties":{"zip":"80236","geo_score":0.707,"id":"a67gs12nnhls","address":"3670 W Grambling Dr","geo_precision":"street"},"type":"Feature","geometry":{"type":"Point","coordinates":[-105.035612,39.658673]}},{"properties":{"zip":"80236","geo_score":0.805,"id":"a67gs18rcs12","address":"3458 S Patton Way","geo_precision":"range"},"type":"Feature","geometry":{"type":"Point","coordinates":[-105.039482,39.655325]}},{"properties":{"zip":"80236","geo_score":0.805,"id":"a67gs1dardac","address":"4005 W Floyd Ave","geo_precision":"range"},"type":"Feature","geometry":{"type":"Point","coordinates":[-105.039538,39.658117]}},{"properties":{"zip":"80236","geo_score":0.805,"id":"a67gs196s94e","address":"2990 S Perry Way","geo_precision":"range"},"type":"Feature","geometry":{"type":"Point","coordinates":[-105.042528,39.660664]}},{"properties":{"zip":"80236","geo_score":0.805,"id":"a67gs12wrf7x","address":"3325 S Raleigh St","geo_precision":"range"},"type":"Feature","geometry":{"type":"Point","coordinates":[-105.041779,39.656236]}},{"properties":{"zip":"80236","geo_score":0.805,"id":"a67gs16dwai0","address":"3151 S Utica St","geo_precision":"range"},"type":"Feature","geometry":{"type":"Point","coordinates":[-105.044861,39.657885]}},{"properties":{"zip":"80236","geo_score":0.805,"id":"a67gs1dgrbrj","address":"3222 S Vrain St","geo_precision":"range"},"type":"Feature","geometry":{"type":"Point","coordinates":[-105.045222,39.656746]}},{"properties":{"zip":"80236","geo_score":0.805,"id":"a67gs177gtqu","address":"3096 S Zenobia St","geo_precision":"range"},"type":"Feature","geometry":{"type":"Point","coordinates":[-105.04978,39.656787]}},{"properties":{"zip":"80227","geo_score":0.805,"id":"a67gs18obmsd","address":"3080 S Harlan St","geo_precision":"range"},"type":"Feature","geometry":{"type":"Point","coordinates":[-105.062776,39.658051]}},{"properties":{"zip":"80227","geo_score":0.805,"id":"a67gs1cjuw81","address":"3080 S Golden Way","geo_precision":"range"},"type":"Feature","geometry":{"type":"Point","coordinates":[-105.058625,39.657059]}},{"properties":{"zip":"80227","geo_score":0.805,"id":"a67gs14pdd9t","address":"2985 S Ingalls Way","geo_precision":"range"},"type":"Feature","geometry":{"type":"Point","coordinates":[-105.063994,39.660382]}},{"properties":{"zip":"80227","geo_score":0.677,"id":"a67gs1a89wvd","address":"6000 W Floyd Ave Unit 313","geo_precision":"range"},"type":"Feature","geometry":{"type":"Point","coordinates":[-105.063809,39.655536]}},{"properties":{"zip":"80227","geo_score":0.805,"id":"a67gs1a1p6bv","address":"6265 W Floyd Ave","geo_precision":"range"},"type":"Feature","geometry":{"type":"Point","coordinates":[-105.066319,39.656454]}},{"properties":{"zip":"80236","geo_score":0.805,"id":"a67gs1h2gblk","address":"2875 W Amherst Ave","geo_precision":"range"},"type":"Feature","geometry":{"type":"Point","coordinates":[-105.02356,39.665335]}},{"properties":{"zip":"80236","geo_score":0.707,"id":"a67gs14yglh4","address":"2880 S Federal Blvd Apt 209","geo_precision":"range"},"type":"Feature","geometry":{"type":"Point","coordinates":[-105.025135,39.663963]}},{"properties":{"zip":"80236","geo_score":0.805,"id":"a67gs1fh7ed1","address":"2710 W Bates Ave","geo_precision":"range"},"type":"Feature","geometry":{"type":"Point","coordinates":[-105.020259,39.663728]}},{"properties":{"zip":"80236","geo_score":0.721,"id":"a67gs166kjyh","address":"2724 S Decatur St Apt E","geo_precision":"range"},"type":"Feature","geometry":{"type":"Point","coordinates":[-105.022774,39.666547]}},{"properties":{"zip":"80236","geo_score":0.805,"id":"a67gs147pmbz","address":"2880 S Perry St","geo_precision":"range"},"type":"Feature","geometry":{"type":"Point","coordinates":[-105.041673,39.662831]}},{"properties":{"zip":"80236","geo_score":0.805,"id":"a67gs1ho6i88","address":"2851 S Yates St","geo_precision":"range"},"type":"Feature","geometry":{"type":"Point","coordinates":[-105.050165,39.664018]}},{"properties":{"zip":"80236","geo_score":0.805,"id":"a67gs1ft92bd","address":"2738 S Xavier St","geo_precision":"range"},"type":"Feature","geometry":{"type":"Point","coordinates":[-105.048805,39.667074]}},{"properties":{"zip":"80236","geo_score":0.805,"id":"a67gs15lnhb0","address":"2754 S Zurich Ct","geo_precision":"range"},"type":"Feature","geometry":{"type":"Point","coordinates":[-105.052059,39.666564]}},{"properties":{"zip":"80227","geo_score":0.659,"id":"a67gs1epl52o","address":"7505 W Yale Ave Unit 1503","geo_precision":"range"},"type":"Feature","geometry":{"type":"Point","coordinates":[-105.081037,39.667743]}},{"properties":{"zip":"80227","geo_score":0.805,"id":"a67gs12vpts8","address":"2859 S Depew St","geo_precision":"range"},"type":"Feature","geometry":{"type":"Point","coordinates":[-105.054692,39.663482]}},{"properties":{"zip":"80227","geo_score":0.805,"id":"a67gs1fy3z68","address":"2712 S Depew St","geo_precision":"range"},"type":"Feature","geometry":{"type":"Point","coordinates":[-105.057725,39.66674]}},{"properties":{"zip":"80227","geo_score":0.805,"id":"a67gs1b8u3jm","address":"2702 S Depew St","geo_precision":"range"},"type":"Feature","geometry":{"type":"Point","coordinates":[-105.057811,39.666818]}},{"properties":{"zip":"80227","geo_score":0.805,"id":"a67gs14hshuy","address":"2825 S Eaton Way","geo_precision":"range"},"type":"Feature","geometry":{"type":"Point","coordinates":[-105.05613,39.663791]}},{"properties":{"zip":"80227","geo_score":0.805,"id":"a67gs1c0gm0k","address":"2755 S Ingalls Way","geo_precision":"range"},"type":"Feature","geometry":{"type":"Point","coordinates":[-105.061732,39.665048]}},{"properties":{"zip":"80227","geo_score":0.805,"id":"a67gs1hdkoxl","address":"2930 S Jay St","geo_precision":"range"},"type":"Feature","geometry":{"type":"Point","coordinates":[-105.06614,39.661452]}},{"properties":{"zip":"80227","geo_score":0.805,"id":"a67gs19biyge","address":"2796 S Lamar St","geo_precision":"range"},"type":"Feature","geometry":{"type":"Point","coordinates":[-105.067292,39.665052]}},{"properties":{"zip":"80227","geo_score":0.805,"id":"a67gs1e7w03j","address":"2703 S Knoxville Way","geo_precision":"range"},"type":"Feature","geometry":{"type":"Point","coordinates":[-105.065111,39.667723]}},{"properties":{"zip":"80227","geo_score":0.805,"id":"a67gs12k83c9","address":"6864 W Cornell Ave","geo_precision":"range"},"type":"Feature","geometry":{"type":"Point","coordinates":[-105.073547,39.662444]}},{"properties":{"zip":"80227","geo_score":0.805,"id":"a67gs163cg3u","address":"2724 S Teller St","geo_precision":"range"},"type":"Feature","geometry":{"type":"Point","coordinates":[-105.075576,39.666515]}},{"properties":{"zip":"80227","geo_score":0.805,"id":"a67gs17mjt2y","address":"2906 S Upham St","geo_precision":"range"},"type":"Feature","geometry":{"type":"Point","coordinates":[-105.077218,39.664331]}},{"properties":{"zip":"80227","geo_score":0.805,"id":"a67gs147ls4c","address":"2996 S Upham St","geo_precision":"range"},"type":"Feature","geometry":{"type":"Point","coordinates":[-105.07775,39.66339]}},{"properties":{"zip":"80227","geo_score":0.805,"id":"a67gs17sb13i","address":"2800 S Reed St","geo_precision":"range"},"type":"Feature","geometry":{"type":"Point","coordinates":[-105.073585,39.665423]}},{"properties":{"zip":"80227","geo_score":0.805,"id":"a67gs12zpwlf","address":"2967 S Quay Way","geo_precision":"range"},"type":"Feature","geometry":{"type":"Point","coordinates":[-105.073573,39.662838]}},{"properties":{"zip":"80227","geo_score":0.805,"id":"a67gs17i2r7n","address":"2865 S Pierce St","geo_precision":"range"},"type":"Feature","geometry":{"type":"Point","coordinates":[-105.071994,39.663836]}},{"properties":{"zip":"80227","geo_score":0.805,"id":"a67gs1adydb9","address":"2883 S Otis St","geo_precision":"range"},"type":"Feature","geometry":{"type":"Point","coordinates":[-105.071181,39.663347]}},{"properties":{"zip":"80227","geo_score":0.805,"id":"a67gs1ecgb0e","address":"2746 S Newland St","geo_precision":"range"},"type":"Feature","geometry":{"type":"Point","coordinates":[-105.069599,39.665855]}},{"properties":{"zip":"80227","geo_score":0.546,"id":"a67gs13fw1iw","address":"7101 W Yale Ave Unit 804","geo_precision":"range"},"type":"Feature","geometry":{"type":"Point","coordinates":[-105.073941,39.667761]}},{"properties":{"zip":"80227","geo_score":0.498,"id":"a67gs17lahcg","address":"6301 W Hampden Ave Apt 9-201","geo_precision":"street"},"type":"Feature","geometry":{"type":"Point","coordinates":[-105.06697,39.653493]}},{"properties":{"zip":"80227","geo_score":0.805,"id":"a67gs178b41d","address":"7031 W Linvale Pl","geo_precision":"range"},"type":"Feature","geometry":{"type":"Point","coordinates":[-105.07381,39.666874]}},{"properties":{"zip":"80219","geo_score":0.805,"id":"a67gs1ezlowt","address":"2525 S Irving St","geo_precision":"range"},"type":"Feature","geometry":{"type":"Point","coordinates":[-105.029839,39.672282]}},{"properties":{"zip":"80219","geo_score":0.805,"id":"a67gs16n68z7","address":"2675 S Julian St","geo_precision":"range"},"type":"Feature","geometry":{"type":"Point","coordinates":[-105.030902,39.668345]}},{"properties":{"zip":"80219","geo_score":0.805,"id":"a67gs1hwe8sr","address":"2565 S Lowell Blvd","geo_precision":"range"},"type":"Feature","geometry":{"type":"Point","coordinates":[-105.034935,39.671008]}},{"properties":{"zip":"80219","geo_score":0.805,"id":"a67gs197uyw2","address":"2516 S Stuart St","geo_precision":"range"},"type":"Feature","geometry":{"type":"Point","coordinates":[-105.042784,39.672888]}},{"properties":{"zip":"80219","geo_score":0.805,"id":"a67gs1g4c9bz","address":"2511 S Vrain St","geo_precision":"range"},"type":"Feature","geometry":{"type":"Point","coordinates":[-105.045879,39.673573]}},{"properties":{"zip":"80219","geo_score":0.805,"id":"a67gs1i6wrhs","address":"2675 S Winona Ct","geo_precision":"range"},"type":"Feature","geometry":{"type":"Point","coordinates":[-105.045527,39.667893]}},{"properties":{"zip":"80219","geo_score":0.805,"id":"a67gs1i385c1","address":"2545 W College Ave","geo_precision":"range"},"type":"Feature","geometry":{"type":"Point","coordinates":[-105.017538,39.668548]}},{"properties":{"zip":"80219","geo_score":0.805,"id":"a67gs1cofsj0","address":"2068 S Raleigh St","geo_precision":"range"},"type":"Feature","geometry":{"type":"Point","coordinates":[-105.042272,39.68019]}},{"properties":{"zip":"80219","geo_score":0.805,"id":"a67gs18xxugo","address":"2020 S Lowell Blvd","geo_precision":"range"},"type":"Feature","geometry":{"type":"Point","coordinates":[-105.034361,39.68002]}},{"properties":{"zip":"80219","geo_score":0.805,"id":"a67gs1d5qpzg","address":"2050 S Julian Cir","geo_precision":"range"},"type":"Feature","geometry":{"type":"Point","coordinates":[-105.03099,39.679187]}},{"properties":{"zip":"80219","geo_score":0.805,"id":"a67gs1fu803i","address":"2001 S Julian Cir","geo_precision":"range"},"type":"Feature","geometry":{"type":"Point","coordinates":[-105.030991,39.680209]}},{"properties":{"zip":"80227","geo_score":0.805,"id":"a67gs1hhfxvc","address":"2881 S Golden Way","geo_precision":"range"},"type":"Feature","geometry":{"type":"Point","coordinates":[-105.057877,39.662735]}},{"properties":{"zip":"80219","geo_score":0.805,"id":"a67gs17qd1pu","address":"3965 W Evans Ave","geo_precision":"range"},"type":"Feature","geometry":{"type":"Point","coordinates":[-105.039392,39.679511]}},{"properties":{"zip":"80219","geo_score":0.805,"id":"a67gs1cca0v7","address":"2507 S Zenobia St","geo_precision":"range"},"type":"Feature","geometry":{"type":"Point","coordinates":[-105.051044,39.674214]}},{"properties":{"zip":"80219","geo_score":0.805,"id":"a67gs15iy4yy","address":"2386 S Zenobia St","geo_precision":"range"},"type":"Feature","geometry":{"type":"Point","coordinates":[-105.051034,39.674907]}},{"properties":{"zip":"80219","geo_score":0.805,"id":"a67gs1hpjs9y","address":"2223 S Xavier St","geo_precision":"range"},"type":"Feature","geometry":{"type":"Point","coordinates":[-105.049407,39.676421]}},{"properties":{"zip":"80219","geo_score":0.805,"id":"a67gs14c49ie","address":"2203 S Xavier St","geo_precision":"range"},"type":"Feature","geometry":{"type":"Point","coordinates":[-105.049482,39.676562]}},{"properties":{"zip":"80219","geo_score":0.805,"id":"a67gs14odimt","address":"2541 S Wolff St","geo_precision":"range"},"type":"Feature","geometry":{"type":"Point","coordinates":[-105.048092,39.673093]}},{"properties":{"zip":"80219","geo_score":0.805,"id":"a67gs13yk7lw","address":"1905 S Xavier St","geo_precision":"range"},"type":"Feature","geometry":{"type":"Point","coordinates":[-105.050025,39.682206]}},{"properties":{"zip":"80219","geo_score":0.805,"id":"a67gs1b6y8zt","address":"1976 S Vrain St","geo_precision":"range"},"type":"Feature","geometry":{"type":"Point","coordinates":[-105.04615,39.681102]}},{"properties":{"zip":"80219","geo_score":0.805,"id":"a67gs1em8cuc","address":"1907 S Yates St","geo_precision":"range"},"type":"Feature","geometry":{"type":"Point","coordinates":[-105.051067,39.682182]}},{"properties":{"zip":"80227","geo_score":0.805,"id":"a67gs1hs88fb","address":"5900 W Warren Ave","geo_precision":"range"},"type":"Feature","geometry":{"type":"Point","coordinates":[-105.061388,39.675414]}},{"properties":{"zip":"80227","geo_score":0.805,"id":"a67gs12y0dqt","address":"2101 S Harlan St","geo_precision":"range"},"type":"Feature","geometry":{"type":"Point","coordinates":[-105.062086,39.679062]}},{"properties":{"zip":"80236","geo_score":0.805,"id":"a67gs1dahcu6","address":"2815 S Raleigh St","geo_precision":"range"},"type":"Feature","geometry":{"type":"Point","coordinates":[-105.043704,39.663886]}},{"properties":{"zip":"80219","geo_score":0.805,"id":"a67gs1hclwup","address":"1540 S Dale Ct","geo_precision":"range"},"type":"Feature","geometry":{"type":"Point","coordinates":[-105.021394,39.688781]}},{"properties":{"zip":"80219","geo_score":0.719,"id":"a67gs1fb3mlp","address":"2645 W Colorado Ave Unit 6","geo_precision":"range"},"type":"Feature","geometry":{"type":"Point","coordinates":[-105.018683,39.68411]}},{"properties":{"zip":"80219","geo_score":0.805,"id":"a67gs1azju4d","address":"1848 S Eliot St","geo_precision":"range"},"type":"Feature","geometry":{"type":"Point","coordinates":[-105.023744,39.683193]}},{"properties":{"zip":"80219","geo_score":0.805,"id":"a67gs1f9w32w","address":"1725 S Dale Ct","geo_precision":"range"},"type":"Feature","geometry":{"type":"Point","coordinates":[-105.02154,39.685483]}},{"properties":{"zip":"80219","geo_score":0.805,"id":"a67gs14dd8il","address":"3190 W Mexico Ave","geo_precision":"range"},"type":"Feature","geometry":{"type":"Point","coordinates":[-105.027209,39.685867]}},{"properties":{"zip":"80219","geo_score":0.805,"id":"a67gs16is7nv","address":"1809 S Clay St","geo_precision":"range"},"type":"Feature","geometry":{"type":"Point","coordinates":[-105.02037,39.683954]}},{"properties":{"zip":"80219","geo_score":0.805,"id":"a67gs12xu0c6","address":"1601 S Perry St","geo_precision":"range"},"type":"Feature","geometry":{"type":"Point","coordinates":[-105.040108,39.687663]}},{"properties":{"zip":"80219","geo_score":0.805,"id":"a67gs1ac0z0z","address":"1830 S Newton St","geo_precision":"range"},"type":"Feature","geometry":{"type":"Point","coordinates":[-105.037964,39.683854]}},{"properties":{"zip":"80219","geo_score":0.805,"id":"a67gs15deiic","address":"1690 S Perry St","geo_precision":"range"},"type":"Feature","geometry":{"type":"Point","coordinates":[-105.040086,39.685453]}},{"properties":{"zip":"80219","geo_score":0.805,"id":"a67gs1daqdl7","address":"1671 S Perry St","geo_precision":"range"},"type":"Feature","geometry":{"type":"Point","coordinates":[-105.04012,39.685935]}},{"properties":{"zip":"80219","geo_score":0.805,"id":"a67gs1i8odhs","address":"1851 S Perry Way","geo_precision":"range"},"type":"Feature","geometry":{"type":"Point","coordinates":[-105.039759,39.683036]}},{"properties":{"zip":"80219","geo_score":0.805,"id":"a67gs180djxf","address":"4401 W Colorado Ave","geo_precision":"range"},"type":"Feature","geometry":{"type":"Point","coordinates":[-105.044258,39.684712]}},{"properties":{"zip":"80219","geo_score":0.805,"id":"a67gs1exzdgx","address":"1847 S Utica St","geo_precision":"range"},"type":"Feature","geometry":{"type":"Point","coordinates":[-105.045216,39.683572]}},{"properties":{"zip":"80219","geo_score":0.805,"id":"a67gs12vm8rw","address":"1837 S Stuart St","geo_precision":"range"},"type":"Feature","geometry":{"type":"Point","coordinates":[-105.043002,39.683446]}},{"properties":{"zip":"80219","geo_score":0.805,"id":"a67gs1i8j302","address":"1821 S Wolff St","geo_precision":"range"},"type":"Feature","geometry":{"type":"Point","coordinates":[-105.047988,39.683709]}},{"properties":{"zip":"80219","geo_score":0.805,"id":"a67gs1frfl4d","address":"1510 S Zenobia St","geo_precision":"range"},"type":"Feature","geometry":{"type":"Point","coordinates":[-105.052093,39.689376]}},{"properties":{"zip":"80219","geo_score":0.805,"id":"a67gs12sw677","address":"1681 S Stuart St","geo_precision":"range"},"type":"Feature","geometry":{"type":"Point","coordinates":[-105.043213,39.685942]}},{"properties":{"zip":"80219","geo_score":0.805,"id":"a67gs1d0avfc","address":"1645 S Raleigh St","geo_precision":"range"},"type":"Feature","geometry":{"type":"Point","coordinates":[-105.042177,39.687012]}},{"properties":{"zip":"80219","geo_score":0.805,"id":"a67gs1b8msaz","address":"1659 S Winona Ct","geo_precision":"range"},"type":"Feature","geometry":{"type":"Point","coordinates":[-105.047058,39.686182]}},{"properties":{"zip":"80219","geo_score":0.805,"id":"a67gs128cdm8","address":"1577 S Stuart St","geo_precision":"range"},"type":"Feature","geometry":{"type":"Point","coordinates":[-105.043194,39.688495]}},{"properties":{"zip":"80219","geo_score":0.805,"id":"a67gs1c7h4ku","address":"1601 S Yates St","geo_precision":"range"},"type":"Feature","geometry":{"type":"Point","coordinates":[-105.05106,39.687885]}},{"properties":{"zip":"80203","geo_score":0.707,"id":"a67gs12m5wdr","address":"669 Washington St Apt 502","geo_precision":"range"},"type":"Feature","geometry":{"type":"Point","coordinates":[-104.978772,39.72676]}},{"properties":{"zip":"80218","geo_score":0.805,"id":"a67gs1aq59at","address":"615 Emerson St","geo_precision":"range"},"type":"Feature","geometry":{"type":"Point","coordinates":[-104.976395,39.725841]}},{"properties":{"zip":"80218","geo_score":0.679,"id":"a67gs1gt1k7h","address":"1050 Corona St Apt 102","geo_precision":"range"},"type":"Feature","geometry":{"type":"Point","coordinates":[-104.974106,39.73289]}},{"properties":{"zip":"80218","geo_score":0.67,"id":"a67gs137hxzm","address":"800 Ogden St Apt 302","geo_precision":"range"},"type":"Feature","geometry":{"type":"Point","coordinates":[-104.97525,39.729065]}},{"properties":{"zip":"80218","geo_score":0.688,"id":"a67gs134j8nh","address":"969 Downing St Apt 407","geo_precision":"range"},"type":"Feature","geometry":{"type":"Point","coordinates":[-104.972965,39.73156]}},{"properties":{"zip":"80218","geo_score":0.732,"id":"a67gs14zw2to","address":"919 E 10th Ave","geo_precision":"range"},"type":"Feature","geometry":{"type":"Point","coordinates":[-104.976269,39.732037]}},{"properties":{"zip":"80206","geo_score":0.805,"id":"a67gs1evcsoe","address":"1134 Milwaukee St","geo_precision":"range"},"type":"Feature","geometry":{"type":"Point","coordinates":[-104.951742,39.734119]}},{"properties":{"zip":"80203","geo_score":0.805,"id":"a67gs196nfq4","address":"930 Pennsylvania St","geo_precision":"range"},"type":"Feature","geometry":{"type":"Point","coordinates":[-104.981021,39.73089]}},{"properties":{"zip":"80218","geo_score":0.695,"id":"a67gs193qqka","address":"937 Clarkson St Apt 601","geo_precision":"range"},"type":"Feature","geometry":{"type":"Point","coordinates":[-104.977585,39.731021]}},{"properties":{"zip":"80203","geo_score":0.67,"id":"a67gs1g83757","address":"990 Logan St Apt 207","geo_precision":"range"},"type":"Feature","geometry":{"type":"Point","coordinates":[-104.982255,39.731899]}},{"properties":{"zip":"80203","geo_score":0.683,"id":"a67gs1ghi45u","address":"909 Logan St Apt PH","geo_precision":"range"},"type":"Feature","geometry":{"type":"Point","coordinates":[-104.982267,39.730521]}},{"properties":{"zip":"80203","geo_score":0.61,"id":"a67gs1f7vhv3","address":"550 E 12th Ave Apt 306","geo_precision":"range"},"type":"Feature","geometry":{"type":"Point","coordinates":[-104.980538,39.735152]}},{"properties":{"zip":"80218","geo_score":0.679,"id":"a67gs1a52ozg","address":"1445 Corona St Apt 113","geo_precision":"range"},"type":"Feature","geometry":{"type":"Point","coordinates":[-104.974138,39.739138]}},{"properties":{"zip":"80203","geo_score":0.67,"id":"a67gs14st0o2","address":"1235 Grant St Apt 316","geo_precision":"range"},"type":"Feature","geometry":{"type":"Point","coordinates":[-104.983601,39.735816]}},{"properties":{"zip":"80203","geo_score":0.74,"id":"a67gs18un7ei","address":"1261 Pennsylvania St Apt 6","geo_precision":"range"},"type":"Feature","geometry":{"type":"Point","coordinates":[-104.981066,39.736215]}},{"properties":{"zip":"80203","geo_score":0.67,"id":"a67gs1a1zxkz","address":"1235 Grant St Apt 306","geo_precision":"range"},"type":"Feature","geometry":{"type":"Point","coordinates":[-104.983601,39.735816]}},{"properties":{"zip":"80204","geo_score":0.684,"id":"a67gs1esc8fs","address":"1100 Cherokee St Unit 503","geo_precision":"range"},"type":"Feature","geometry":{"type":"Point","coordinates":[-104.991649,39.733859]}},{"properties":{"zip":"80204","geo_score":0.61,"id":"a67gs19cn0gk","address":"601 W 11th Ave Apt 514","geo_precision":"range"},"type":"Feature","geometry":{"type":"Point","coordinates":[-104.995145,39.733673]}},{"properties":{"zip":"80202","geo_score":0.695,"id":"a67gs1b7m4dz","address":"1825 Arapahoe St Apt 507","geo_precision":"range"},"type":"Feature","geometry":{"type":"Point","coordinates":[-104.992954,39.749959]}},{"properties":{"zip":"80202","geo_score":0.684,"id":"a67gs18l8qvm","address":"1825 Arapahoe St Apt 1107","geo_precision":"range"},"type":"Feature","geometry":{"type":"Point","coordinates":[-104.992954,39.749959]}},{"properties":{"zip":"80202","geo_score":0.684,"id":"a67gs15yykeu","address":"1955 Arapahoe St Apt 1108","geo_precision":"range"},"type":"Feature","geometry":{"type":"Point","coordinates":[-104.991469,39.751175]}},{"properties":{"zip":"80205","geo_score":0.496,"id":"a67gs16kxn07","address":"2350 Cleveland Pl Unit 308","geo_precision":"street"},"type":"Feature","geometry":{"type":"Point","coordinates":[-104.987416,39.742208]}},{"properties":{"zip":"80202","geo_score":0.677,"id":"a67gs1ezkxei","address":"1777 Larimer St Apt 2108","geo_precision":"range"},"type":"Feature","geometry":{"type":"Point","coordinates":[-104.995447,39.750874]}},{"properties":{"zip":"80202","geo_score":0.677,"id":"a67gs1cbqvyd","address":"1551 Larimer St Apt 3103","geo_precision":"range"},"type":"Feature","geometry":{"type":"Point","coordinates":[-104.998108,39.748755]}},{"properties":{"zip":"80202","geo_score":0.677,"id":"a67gs17blsqr","address":"1777 Larimer St Apt 1310","geo_precision":"range"},"type":"Feature","geometry":{"type":"Point","coordinates":[-104.995447,39.750874]}},{"properties":{"zip":"80210","geo_score":0.688,"id":"a67gs19dml39","address":"2020 S Monroe St Apt 619","geo_precision":"range"},"type":"Feature","geometry":{"type":"Point","coordinates":[-104.945187,39.679856]}},{"properties":{"zip":"80202","geo_score":0.677,"id":"a67gs1d0qbdu","address":"1777 Larimer St Apt 1110","geo_precision":"range"},"type":"Feature","geometry":{"type":"Point","coordinates":[-104.995447,39.750874]}},{"properties":{"zip":"80202","geo_score":0.629,"id":"a67gs13v67jl","address":"1020 15th St Apt 11C","geo_precision":"range"},"type":"Feature","geometry":{"type":"Point","coordinates":[-104.996199,39.746383]}},{"properties":{"zip":"80204","geo_score":0.707,"id":"a67gs19rurti","address":"1350 Lawrence St Apt 2I","geo_precision":"range"},"type":"Feature","geometry":{"type":"Point","coordinates":[-105.000077,39.745823]}},{"properties":{"zip":"80237","geo_score":0.805,"id":"a67gs1bo8op6","address":"4088 S Wisteria Way","geo_precision":"range"},"type":"Feature","geometry":{"type":"Point","coordinates":[-104.887292,39.640625]}},{"properties":{"zip":"80216","geo_score":0.805,"id":"a67gs1euuf6d","address":"4787 Grant St","geo_precision":"range"},"type":"Feature","geometry":{"type":"Point","coordinates":[-104.983536,39.78357]}},{"properties":{"zip":"80216","geo_score":0.805,"id":"a67gs1hbpbi5","address":"4672 Logan St","geo_precision":"range"},"type":"Feature","geometry":{"type":"Point","coordinates":[-104.982308,39.781396]}},{"properties":{"zip":"80216","geo_score":0.805,"id":"a67gs1ap8ea8","address":"4422 Grant St","geo_precision":"range"},"type":"Feature","geometry":{"type":"Point","coordinates":[-104.983577,39.776928]}},{"properties":{"zip":"80209","geo_score":0.805,"id":"a67gs1f0ku1x","address":"925 S Pennsylvania St","geo_precision":"range"},"type":"Feature","geometry":{"type":"Point","coordinates":[-104.981565,39.699821]}},{"properties":{"zip":"80209","geo_score":0.805,"id":"a67gs1ghyijw","address":"663 S Emerson St","geo_precision":"range"},"type":"Feature","geometry":{"type":"Point","coordinates":[-104.976917,39.704526]}},{"properties":{"zip":"80210","geo_score":0.805,"id":"a67gs1f9c0o1","address":"1296 S Fillmore St","geo_precision":"range"},"type":"Feature","geometry":{"type":"Point","coordinates":[-104.953527,39.692992]}},{"properties":{"zip":"80209","geo_score":0.805,"id":"a67gs1av3f85","address":"856 S Ogden St","geo_precision":"range"},"type":"Feature","geometry":{"type":"Point","coordinates":[-104.975755,39.700999]}},{"properties":{"zip":"80210","geo_score":0.805,"id":"a67gs14usfpf","address":"1126 S Columbine St","geo_precision":"range"},"type":"Feature","geometry":{"type":"Point","coordinates":[-104.956964,39.696101]}},{"properties":{"zip":"80209","geo_score":0.805,"id":"a67gs1cz7ouq","address":"501 S Downing St","geo_precision":"range"},"type":"Feature","geometry":{"type":"Point","coordinates":[-104.973374,39.707489]}},{"properties":{"zip":"80222","geo_score":0.805,"id":"a67gs1938e80","address":"1443 S Eudora St","geo_precision":"range"},"type":"Feature","geometry":{"type":"Point","coordinates":[-104.930384,39.690401]}},{"properties":{"zip":"80209","geo_score":0.805,"id":"a67gs1522ca5","address":"490 S Washington St","geo_precision":"range"},"type":"Feature","geometry":{"type":"Point","coordinates":[-104.979219,39.707627]}},{"properties":{"zip":"80209","geo_score":0.805,"id":"a67gs17k4yw6","address":"423 S Clarkson St","geo_precision":"range"},"type":"Feature","geometry":{"type":"Point","coordinates":[-104.978069,39.708881]}},{"properties":{"zip":"80247","geo_score":0.688,"id":"a67gs13vydhd","address":"615 S Alton Way Apt 12D","geo_precision":"range"},"type":"Feature","geometry":{"type":"Point","coordinates":[-104.88327,39.704989]}},{"properties":{"zip":"80209","geo_score":0.805,"id":"a67gs1b95wyi","address":"486 S Pennsylvania St","geo_precision":"range"},"type":"Feature","geometry":{"type":"Point","coordinates":[-104.981516,39.707686]}},{"properties":{"zip":"80209","geo_score":0.805,"id":"a67gs1ak9se9","address":"377 S Grant St","geo_precision":"range"},"type":"Feature","geometry":{"type":"Point","coordinates":[-104.984026,39.709725]}},{"properties":{"zip":"80209","geo_score":0.805,"id":"a67gs1artbmw","address":"138 S Corona St","geo_precision":"range"},"type":"Feature","geometry":{"type":"Point","coordinates":[-104.974573,39.714019]}},{"properties":{"zip":"80209","geo_score":0.805,"id":"a67gs1efcz5t","address":"130 S Corona St","geo_precision":"range"},"type":"Feature","geometry":{"type":"Point","coordinates":[-104.974573,39.714166]}},{"properties":{"zip":"80209","geo_score":0.805,"id":"a67gs1es4rsi","address":"155 S Ogden St","geo_precision":"range"},"type":"Feature","geometry":{"type":"Point","coordinates":[-104.975747,39.713724]}},{"properties":{"zip":"80209","geo_score":0.805,"id":"a67gs12zduek","address":"123 S Logan St","geo_precision":"range"},"type":"Feature","geometry":{"type":"Point","coordinates":[-104.982813,39.714203]}},{"properties":{"zip":"80238","geo_score":0.584,"id":"a67gs1g1hlq2","address":"2947 Florence St","geo_precision":"street"},"type":"Feature","geometry":{"type":"Point","coordinates":[-104.872289,39.654422]}},{"properties":{"zip":"80209","geo_score":0.707,"id":"a67gs1d7as2s","address":"1 S Emerson St Apt PH","geo_precision":"range"},"type":"Feature","geometry":{"type":"Point","coordinates":[-104.976911,39.716529]}},{"properties":{"zip":"80203","geo_score":0.805,"id":"a67gs1e1ul95","address":"57 Pearl St","geo_precision":"range"},"type":"Feature","geometry":{"type":"Point","coordinates":[-104.980288,39.717551]}},{"properties":{"zip":"80204","geo_score":0.732,"id":"a67gs17zqu1n","address":"1308 W 11th Ave","geo_precision":"range"},"type":"Feature","geometry":{"type":"Point","coordinates":[-105.004149,39.733698]}},{"properties":{"zip":"80219","geo_score":0.805,"id":"a67gs13f9yi6","address":"1014 S Grove St","geo_precision":"range"},"type":"Feature","geometry":{"type":"Point","coordinates":[-105.026392,39.698271]}},{"properties":{"zip":"80223","geo_score":0.805,"id":"a67gs1daz3eu","address":"219 Delaware St","geo_precision":"range"},"type":"Feature","geometry":{"type":"Point","coordinates":[-104.992815,39.71964]}},{"properties":{"zip":"80218","geo_score":0.688,"id":"a67gs1aambu1","address":"111 Emerson St Apt 642","geo_precision":"range"},"type":"Feature","geometry":{"type":"Point","coordinates":[-104.977017,39.718575]}},{"properties":{"zip":"80203","geo_score":0.805,"id":"a67gs15beost","address":"301 1/2 Lincoln St","geo_precision":"range"},"type":"Feature","geometry":{"type":"Point","coordinates":[-104.986247,39.71656]}},{"properties":{"zip":"80223","geo_score":0.805,"id":"a67gs1eg7m8d","address":"327 Acoma St","geo_precision":"range"},"type":"Feature","geometry":{"type":"Point","coordinates":[-104.989178,39.721364]}},{"properties":{"zip":"80223","geo_score":0.805,"id":"a67gs1eejlwd","address":"1390 W Gill Pl","geo_precision":"range"},"type":"Feature","geometry":{"type":"Point","coordinates":[-105.00449,39.704879]}},{"properties":{"zip":"80223","geo_score":0.805,"id":"a67gs1eubly1","address":"1331 W Custer Pl","geo_precision":"range"},"type":"Feature","geometry":{"type":"Point","coordinates":[-105.004032,39.706661]}},{"properties":{"zip":"80237","geo_score":0.805,"id":"a67gs15selbi","address":"9061 E Nassau Ave","geo_precision":"range"},"type":"Feature","geometry":{"type":"Point","coordinates":[-104.88245,39.643557]}},{"properties":{"zip":"80237","geo_score":0.721,"id":"a67gs15ql618","address":"7000 E Quincy Ave Apt C408","geo_precision":"range"},"type":"Feature","geometry":{"type":"Point","coordinates":[-104.908021,39.638715]}},{"properties":{"zip":"80237","geo_score":0.695,"id":"a67gs1catend","address":"7200 E Quincy Ave Apt 220","geo_precision":"range"},"type":"Feature","geometry":{"type":"Point","coordinates":[-104.905134,39.638687]}},{"properties":{"zip":"80237","geo_score":0.727,"id":"a67gs18mwyq1","address":"4343 S Syracuse St Apt 7","geo_precision":"range"},"type":"Feature","geometry":{"type":"Point","coordinates":[-104.899291,39.637462]}},{"properties":{"zip":"80237","geo_score":0.695,"id":"a67gs1c2edyz","address":"7420 E Quincy Ave Apt 601","geo_precision":"range"},"type":"Feature","geometry":{"type":"Point","coordinates":[-104.903739,39.63872]}},{"properties":{"zip":"80237","geo_score":0.688,"id":"a67gs1adqmuc","address":"4982 S Ulster St Apt 411","geo_precision":"range"},"type":"Feature","geometry":{"type":"Point","coordinates":[-104.894514,39.625764]}},{"properties":{"zip":"80237","geo_score":0.721,"id":"a67gs1cwtoa2","address":"7000 E Quincy Ave Apt A403","geo_precision":"range"},"type":"Feature","geometry":{"type":"Point","coordinates":[-104.908021,39.638715]}},{"properties":{"zip":"80237","geo_score":0.691,"id":"a67gs1cl44ue","address":"4505 S Yosemite St Unit 112","geo_precision":"range"},"type":"Feature","geometry":{"type":"Point","coordinates":[-104.885172,39.636154]}},{"properties":{"zip":"80237","geo_score":0.691,"id":"a67gs1bk7736","address":"4505 S Yosemite St Unit 347","geo_precision":"range"},"type":"Feature","geometry":{"type":"Point","coordinates":[-104.885172,39.636154]}},{"properties":{"zip":"80237","geo_score":0.805,"id":"a67gs17prt10","address":"8575 E Chenango Ave","geo_precision":"range"},"type":"Feature","geometry":{"type":"Point","coordinates":[-104.888525,39.6277]}},{"properties":{"zip":"80237","geo_score":0.691,"id":"a67gs139l2zu","address":"4675 S Yosemite St Unit 215","geo_precision":"range"},"type":"Feature","geometry":{"type":"Point","coordinates":[-104.8852,39.631864]}},{"properties":{"zip":"80210","geo_score":0.688,"id":"a67gs1cgblje","address":"2020 S Monroe St Apt 817","geo_precision":"range"},"type":"Feature","geometry":{"type":"Point","coordinates":[-104.945187,39.679856]}},{"properties":{"zip":"80231","geo_score":0.684,"id":"a67gs1ha6for","address":"2525 S Dayton Way Apt 2001","geo_precision":"range"},"type":"Feature","geometry":{"type":"Point","coordinates":[-104.875314,39.67167]}},{"properties":{"zip":"80231","geo_score":0.695,"id":"a67gs1baorre","address":"2685 S Dayton Way Apt 221","geo_precision":"range"},"type":"Feature","geometry":{"type":"Point","coordinates":[-104.872828,39.666793]}},{"properties":{"zip":"80231","geo_score":0.695,"id":"a67gs16mx8cb","address":"2685 S Dayton Way Apt 188","geo_precision":"range"},"type":"Feature","geometry":{"type":"Point","coordinates":[-104.872828,39.666793]}},{"properties":{"zip":"80231","geo_score":0.7,"id":"a67gs1d3qz41","address":"2777 S Elmira St Apt 24","geo_precision":"range"},"type":"Feature","geometry":{"type":"Point","coordinates":[-104.873245,39.665423]}},{"properties":{"zip":"80231","geo_score":0.691,"id":"a67gs1grp6y0","address":"8525 E Hampden Ave Apt 1102","geo_precision":"range"},"type":"Feature","geometry":{"type":"Point","coordinates":[-104.888636,39.653079]}},{"properties":{"zip":"80231","geo_score":0.727,"id":"a67gs1gza97z","address":"9725 E Harvard Ave Apt T299","geo_precision":"range"},"type":"Feature","geometry":{"type":"Point","coordinates":[-104.875073,39.671578]}},{"properties":{"zip":"80246","geo_score":0.805,"id":"a67gs1ecwva4","address":"4827 E Kentucky Cir","geo_precision":"range"},"type":"Feature","geometry":{"type":"Point","coordinates":[-104.930293,39.700555]}},{"properties":{"zip":"80231","geo_score":0.715,"id":"a67gs14y0gr6","address":"9888 E Vassar Dr Apt C305","geo_precision":"range"},"type":"Feature","geometry":{"type":"Point","coordinates":[-104.870641,39.669801]}},{"properties":{"zip":"80224","geo_score":0.805,"id":"a67gs157abcr","address":"3352 S Oneida Way","geo_precision":"range"},"type":"Feature","geometry":{"type":"Point","coordinates":[-104.908859,39.655149]}},{"properties":{"zip":"80222","geo_score":0.805,"id":"a67gs1b3sez9","address":"3150 S Holly Pl","geo_precision":"range"},"type":"Feature","geometry":{"type":"Point","coordinates":[-104.919999,39.659328]}},{"properties":{"zip":"80222","geo_score":0.805,"id":"a67gs1h17g5y","address":"3225 S Leyden St","geo_precision":"range"},"type":"Feature","geometry":{"type":"Point","coordinates":[-104.91723,39.657677]}},{"properties":{"zip":"80224","geo_score":0.805,"id":"a67gs1fl8iw5","address":"6678 E Dartmouth Ave","geo_precision":"range"},"type":"Feature","geometry":{"type":"Point","coordinates":[-104.910562,39.659949]}},{"properties":{"zip":"80224","geo_score":0.805,"id":"a67gs1cjz0bm","address":"3215 S Pontiac St","geo_precision":"range"},"type":"Feature","geometry":{"type":"Point","coordinates":[-104.905471,39.658923]}},{"properties":{"zip":"80224","geo_score":0.805,"id":"a67gs1ho70mz","address":"6875 E Floyd Ave","geo_precision":"range"},"type":"Feature","geometry":{"type":"Point","coordinates":[-104.90901,39.656439]}},{"properties":{"zip":"80231","geo_score":0.727,"id":"a67gs18vuksh","address":"7665 E Eastman Ave Apt C202","geo_precision":"range"},"type":"Feature","geometry":{"type":"Point","coordinates":[-104.90011,39.657503]}},{"properties":{"zip":"80224","geo_score":0.695,"id":"a67gs121uzhl","address":"6940 E Girard Ave Apt 303","geo_precision":"range"},"type":"Feature","geometry":{"type":"Point","coordinates":[-104.907024,39.65444]}},{"properties":{"zip":"80231","geo_score":0.702,"id":"a67gs1bkex8j","address":"10200 E Harvard Ave Apt 459","geo_precision":"range"},"type":"Feature","geometry":{"type":"Point","coordinates":[-104.869945,39.671319]}},{"properties":{"zip":"80224","geo_score":0.688,"id":"a67gs15e1ng1","address":"3450 S Poplar St Apt 209","geo_precision":"range"},"type":"Feature","geometry":{"type":"Point","coordinates":[-104.904798,39.653583]}},{"properties":{"zip":"80231","geo_score":0.805,"id":"a67gs188i06m","address":"3368 S Ulster Ct","geo_precision":"range"},"type":"Feature","geometry":{"type":"Point","coordinates":[-104.893638,39.655162]}},{"properties":{"zip":"80231","geo_score":0.805,"id":"a67gs123v3m9","address":"3357 S Willow Ct","geo_precision":"range"},"type":"Feature","geometry":{"type":"Point","coordinates":[-104.888359,39.65577]}},{"properties":{"zip":"80238","geo_score":0.575,"id":"a67gs14uybs9","address":"3615 Akron St","geo_precision":"street"},"type":"Feature","geometry":{"type":"Point","coordinates":[-104.88142,39.65306]}},{"properties":{"zip":"80231","geo_score":0.805,"id":"a67gs17veztp","address":"9271 E Eastman Ave","geo_precision":"range"},"type":"Feature","geometry":{"type":"Point","coordinates":[-104.87999,39.657358]}},{"properties":{"zip":"80231","geo_score":0.805,"id":"a67gs1ctnotu","address":"3302 S Florence Ct","geo_precision":"range"},"type":"Feature","geometry":{"type":"Point","coordinates":[-104.872265,39.658156]}},{"properties":{"zip":"80224","geo_score":0.805,"id":"a67gs1612av1","address":"7061 E Wesley Ave","geo_precision":"range"},"type":"Feature","geometry":{"type":"Point","coordinates":[-104.906141,39.673708]}},{"properties":{"zip":"80123","geo_score":0.684,"id":"a67gs15c7ya0","address":"7925 W Layton Ave Unit 418","geo_precision":"range"},"type":"Feature","geometry":{"type":"Point","coordinates":[-105.08642,39.629448]}},{"properties":{"zip":"80237","geo_score":0.805,"id":"a67gs16uar2i","address":"3754 S Elm St","geo_precision":"range"},"type":"Feature","geometry":{"type":"Point","coordinates":[-104.930642,39.648693]}},{"properties":{"zip":"80237","geo_score":0.805,"id":"a67gs1hk7tgb","address":"3686 S Forest Way","geo_precision":"range"},"type":"Feature","geometry":{"type":"Point","coordinates":[-104.928428,39.650758]}},{"properties":{"zip":"80237","geo_score":0.805,"id":"a67gs18xnnlz","address":"3831 S Hillcrest Dr","geo_precision":"range"},"type":"Feature","geometry":{"type":"Point","coordinates":[-104.915559,39.64581]}},{"properties":{"zip":"80237","geo_score":0.805,"id":"a67gs18i8any","address":"3951 S Hillcrest Dr","geo_precision":"range"},"type":"Feature","geometry":{"type":"Point","coordinates":[-104.91688,39.64352]}},{"properties":{"zip":"80237","geo_score":0.805,"id":"a67gs14xmw50","address":"3618 S Narcissus Way","geo_precision":"range"},"type":"Feature","geometry":{"type":"Point","coordinates":[-104.910655,39.650855]}},{"properties":{"zip":"80237","geo_score":0.805,"id":"a67gs1ard6tw","address":"4053 S Olive St","geo_precision":"range"},"type":"Feature","geometry":{"type":"Point","coordinates":[-104.905114,39.643098]}},{"properties":{"zip":"80211","geo_score":0.805,"id":"a67gs159ow7s","address":"4009 Lowell Blvd","geo_precision":"range"},"type":"Feature","geometry":{"type":"Point","coordinates":[-105.034608,39.772069]}},{"properties":{"zip":"80237","geo_score":0.805,"id":"a67gs1euazp0","address":"6721 E Ithaca Pl","geo_precision":"range"},"type":"Feature","geometry":{"type":"Point","coordinates":[-104.910774,39.651962]}},{"properties":{"zip":"80237","geo_score":0.805,"id":"a67gs1ebv6bn","address":"3750 S Roslyn Way","geo_precision":"range"},"type":"Feature","geometry":{"type":"Point","coordinates":[-104.901473,39.648109]}},{"properties":{"zip":"80237","geo_score":0.805,"id":"a67gs16d5yqv","address":"3772 S Sebring Ct","geo_precision":"range"},"type":"Feature","geometry":{"type":"Point","coordinates":[-104.898954,39.647732]}},{"properties":{"zip":"80237","geo_score":0.805,"id":"a67gs12k66jc","address":"4100 S Spruce St","geo_precision":"range"},"type":"Feature","geometry":{"type":"Point","coordinates":[-104.895455,39.64419]}},{"properties":{"zip":"80237","geo_score":0.695,"id":"a67gs1fbi45h","address":"7455 E Quincy Ave Apt 307","geo_precision":"range"},"type":"Feature","geometry":{"type":"Point","coordinates":[-104.904339,39.638663]}},{"properties":{"zip":"80237","geo_score":0.805,"id":"a67gs1f078se","address":"7966 E Jefferson Pl","geo_precision":"range"},"type":"Feature","geometry":{"type":"Point","coordinates":[-104.895791,39.65103]}},{"properties":{"zip":"80237","geo_score":0.805,"id":"a67gs1a05pof","address":"8467 E Lehigh Dr","geo_precision":"range"},"type":"Feature","geometry":{"type":"Point","coordinates":[-104.892621,39.644735]}},{"properties":{"zip":"80209","geo_score":0.695,"id":"a67gs17ayaqs","address":"136 S Emerson St Apt 303","geo_precision":"range"},"type":"Feature","geometry":{"type":"Point","coordinates":[-104.976915,39.714053]}},{"properties":{"zip":"80249","geo_score":0.612,"id":"a67gs1714d5k","address":"4790 Biscay St","geo_precision":"street"},"type":"Feature","geometry":{"type":"Point","coordinates":[-104.763911,39.781839]}},{"properties":{"zip":"80246","geo_score":0.702,"id":"a67gs1esu2u1","address":"5250 Cherry Creek South Dr Apt 19L","geo_precision":"range"},"type":"Feature","geometry":{"type":"Point","coordinates":[-104.926087,39.698801]}},{"properties":{"zip":"80230","geo_score":0.805,"id":"a67gs15ynxp2","address":"8015 E Byers Ave","geo_precision":"range"},"type":"Feature","geometry":{"type":"Point","coordinates":[-104.895707,39.711557]}},{"properties":{"zip":"80220","geo_score":0.629,"id":"a67gs1g41hdk","address":"5107 E 17th Avenue Pkwy","geo_precision":"range"},"type":"Feature","geometry":{"type":"Point","coordinates":[-104.928293,39.743727]}},{"properties":{"zip":"80209","geo_score":0.805,"id":"a67gs14t14ab","address":"965 S Race St","geo_precision":"range"},"type":"Feature","geometry":{"type":"Point","coordinates":[-104.964046,39.699032]}},{"properties":{"zip":"80224","geo_score":0.805,"id":"a67gs15k7fvb","address":"2582 S Newport St","geo_precision":"range"},"type":"Feature","geometry":{"type":"Point","coordinates":[-104.90994,39.670441]}},{"properties":{"zip":"80211","geo_score":0.732,"id":"a67gs15s24qz","address":"3629 W 29th Ave","geo_precision":"range"},"type":"Feature","geometry":{"type":"Point","coordinates":[-105.035305,39.758511]}},{"properties":{"zip":"80123","geo_score":0.668,"id":"a67gs11wo4l7","address":"5427 S Dover St Unit 104","geo_precision":"range"},"type":"Feature","geometry":{"type":"Point","coordinates":[-105.094244,39.616969]}},{"properties":{"zip":"80246","geo_score":0.805,"id":"a67gs15zb08b","address":"145 S Hudson St","geo_precision":"range"},"type":"Feature","geometry":{"type":"Point","coordinates":[-104.92345,39.713971]}},{"properties":{"zip":"80219","geo_score":0.805,"id":"a67gs1i324f7","address":"2486 S Patton Ct","geo_precision":"range"},"type":"Feature","geometry":{"type":"Point","coordinates":[-105.038651,39.672477]}},{"properties":{"zip":"80239","geo_score":0.39,"id":"a67gs1c6hzeb","address":"16183 53rd Pl","geo_precision":"street"},"type":"Feature","geometry":{"type":"Point","coordinates":[-104.809753,39.790428]}},{"properties":{"zip":"80207","geo_score":0.732,"id":"a67gs1a13kd5","address":"5310 E 33rd Ave","geo_precision":"range"},"type":"Feature","geometry":{"type":"Point","coordinates":[-104.924614,39.763791]}},{"properties":{"zip":"80230","geo_score":0.805,"id":"a67gs1buir4d","address":"177 S Syracuse St","geo_precision":"range"},"type":"Feature","geometry":{"type":"Point","coordinates":[-104.898585,39.713359]}},{"properties":{"zip":"80247","geo_score":0.707,"id":"a67gs183a5n8","address":"9385 E Center Ave Apt 7B","geo_precision":"range"},"type":"Feature","geometry":{"type":"Point","coordinates":[-104.877928,39.706797]}},{"properties":{"zip":"80123","geo_score":0.715,"id":"a67gs1651akr","address":"4899 S Dudley St Apt F3","geo_precision":"range"},"type":"Feature","geometry":{"type":"Point","coordinates":[-105.095339,39.627716]}},{"properties":{"zip":"80210","geo_score":0.805,"id":"a67gs1e91j18","address":"1962 S Sherman St","geo_precision":"range"},"type":"Feature","geometry":{"type":"Point","coordinates":[-104.985203,39.681001]}},{"properties":{"zip":"80219","geo_score":0.805,"id":"a67gs122u1dj","address":"4575 W Lakeridge Rd","geo_precision":"range"},"type":"Feature","geometry":{"type":"Point","coordinates":[-105.046066,39.669182]}},{"properties":{"zip":"80211","geo_score":0.805,"id":"a67gs1d07wd8","address":"3729 Navajo St","geo_precision":"range"},"type":"Feature","geometry":{"type":"Point","coordinates":[-105.00413,39.768406]}},{"properties":{"zip":"80238","geo_score":0.537,"id":"a67gs1hhtfci","address":"9963 E 29th Ave","geo_precision":"street"},"type":"Feature","geometry":{"type":"Point","coordinates":[-104.898973,39.758375]}},{"properties":{"zip":"80206","geo_score":0.659,"id":"a67gs16jlpup","address":"1175 Vine St Apt 305","geo_precision":"range"},"type":"Feature","geometry":{"type":"Point","coordinates":[-104.962257,39.734661]}},{"properties":{"zip":"80224","geo_score":0.805,"id":"a67gs16g4bir","address":"6915 E Colorado Ave","geo_precision":"range"},"type":"Feature","geometry":{"type":"Point","coordinates":[-104.908072,39.68387]}},{"properties":{"zip":"80219","geo_score":0.805,"id":"a67gs176eak5","address":"1092 S Osceola St","geo_precision":"range"},"type":"Feature","geometry":{"type":"Point","coordinates":[-105.037875,39.696869]}},{"properties":{"zip":"80230","geo_score":0.396,"id":"a67gs1fa0mx2","address":"8155 E Fairmount Dr Unit 1316","geo_precision":"street"},"type":"Feature","geometry":{"type":"Point","coordinates":[-104.890371,39.705676]}},{"properties":{"zip":"80231","geo_score":0.715,"id":"a67gs13ft7rs","address":"9888 E Vassar Dr Apt D307","geo_precision":"range"},"type":"Feature","geometry":{"type":"Point","coordinates":[-104.870641,39.669801]}},{"properties":{"zip":"80247","geo_score":0.695,"id":"a67gs1efy8n5","address":"9180 E Center Ave Apt 11A","geo_precision":"range"},"type":"Feature","geometry":{"type":"Point","coordinates":[-104.8801,39.706773]}},{"properties":{"zip":"80123","geo_score":0.736,"id":"a67gs1c1gxz9","address":"8801 W Belleview Ave Apt F108","geo_precision":"range"},"type":"Feature","geometry":{"type":"Point","coordinates":[-105.09475,39.624196]}},{"properties":{"zip":"80206","geo_score":0.805,"id":"a67gs1em2b4d","address":"1359 Steele St","geo_precision":"range"},"type":"Feature","geometry":{"type":"Point","coordinates":[-104.949482,39.737713]}},{"properties":{"zip":"80123","geo_score":0.76,"id":"a67gs1c1u0rx","address":"4471 W Wagon Trail Dr","geo_precision":"range"},"type":"Feature","geometry":{"type":"Point","coordinates":[-105.043294,39.630975]}},{"properties":{"zip":"80211","geo_score":0.732,"id":"a67gs17hmwm7","address":"2832 W 43rd Ave","geo_precision":"range"},"type":"Feature","geometry":{"type":"Point","coordinates":[-105.02252,39.775321]}},{"properties":{"zip":"80220","geo_score":0.602,"id":"a67gs1e79vjs","address":"8000 E 12th Ave Apt 10-33","geo_precision":"range"},"type":"Feature","geometry":{"type":"Point","coordinates":[-104.897557,39.73562]}},{"properties":{"zip":"80239","geo_score":0.805,"id":"a67gs191dmii","address":"15153 Lackland Pl","geo_precision":"range"},"type":"Feature","geometry":{"type":"Point","coordinates":[-104.810843,39.794077]}},{"properties":{"zip":"80231","geo_score":0.695,"id":"a67gs144b8fr","address":"2685 S Dayton Way Apt 292","geo_precision":"range"},"type":"Feature","geometry":{"type":"Point","coordinates":[-104.872828,39.666793]}},{"properties":{"zip":"80204","geo_score":0.732,"id":"a67gs1764ccx","address":"4836 W 11th Ave","geo_precision":"range"},"type":"Feature","geometry":{"type":"Point","coordinates":[-105.049066,39.733993]}},{"properties":{"zip":"80211","geo_score":0.721,"id":"a67gs1hd0fya","address":"2900 Lowell Blvd Apt 6","geo_precision":"range"},"type":"Feature","geometry":{"type":"Point","coordinates":[-105.034613,39.758517]}},{"properties":{"zip":"80206","geo_score":0.805,"id":"a67gs1381z4e","address":"612 Milwaukee St","geo_precision":"range"},"type":"Feature","geometry":{"type":"Point","coordinates":[-104.952071,39.72573]}}],"is_temporal":false,"author":{"url":"","metadata":"","contact_name":"","contact_address":"","source":"","contact_phone":""},"source":"","pagination":{"sort":null,"start":0,"total":830,"limit":1000000},"state":"complete","tags":"","published":"2014-08-10T20:16:50-04:00","id":96289}