{"type":"FeatureCollection","data_type":"Dataset","url_type":null,"permissions":[{"permissions":{"download":true,"view":true},"group_id":"everyone"}],"classification":null,"title":"publiclibraries.com, West Virginia Public Libraries, West Virginia, 1.2008","count":237,"stream_id":963,"contributor":{"url":"http://geocommons.com/users/2","name":"data"},"data_attributes":null,"calculation_params":null,"icon_link":null,"link":"http://geocommons.com/overlays/963.json","extent":[-82.5742,37.263,-77.7564,40.615],"geometry_types":["point"],"unique_name":null,"name":"publiclibraries.com, West Virginia Public Libraries, West Virginia, 1.2008","feature_count":237,"description":"This dataset displays the locations of all the public libraries in the state of West Virginia. The data included is the name of the library, name of the library system, library's address, phone, and lat/lon coordinates. The data came from publiclibraries.com which is a updated directory of all the public libraries throughout the United States.\n","next_feature":null,"is_raster":false,"short_classification":"Y","stats":{"lon":{"max":-77.756368,"mean":-80.7674149620253,"variance":1.31155469776997,"stdev":1.14523128571043,"min":-82.574208,"median":-80.844944},"zip":{"max":26847,"mean":25801.9282700422,"variance":350405.93127369,"stdev":591.950953435916,"min":24701,"median":25818},"lat":{"max":40.614963,"mean":38.7237335864979,"variance":0.580304119205862,"stdev":0.761776948460547,"min":37.263042,"median":38.59877}},"features":[{"properties":{"city":"Moundsville","lon":-80.744952,"zip":26041,"librarysystem":"Moundsville-Marshall County Public Library","phone":"304.845.6911","id":"a63c8rntq4nc","address":"700 Fifth St.","lat":39.920426,"libraryname":"","state":"WV"},"type":"Feature","geometry":{"type":"Point","coordinates":[-80.744952,39.920426]}},{"properties":{"city":"Charleston","lon":-81.639742,"zip":25301,"librarysystem":"Kanawha County Special Libraries","phone":"304.347.3420","id":"a63c8rn09km9","address":"300 Virginia St. E. Room 7400","lat":38.352473,"libraryname":"4th Circuit Satellite Library","state":"WV"},"type":"Feature","geometry":{"type":"Point","coordinates":[-81.639742,38.352473]}},{"properties":{"city":"Alderson","lon":-80.637749,"zip":24910,"librarysystem":"Greenbrier County Public Libraries","phone":"304.445.7221","id":"a63c8rq0dmt6","address":"308 Walnut Ave.","lat":37.727468,"libraryname":"Alderson Public Library","state":"WV"},"type":"Feature","geometry":{"type":"Point","coordinates":[-80.637749,37.727468]}},{"properties":{"city":"Mt. Storm","lon":-79.232267,"zip":26739,"librarysystem":"Grant County Public Libraries","phone":"304.693.7504","id":"a63c8rn651qz","address":"Park Lane","lat":39.245668,"libraryname":"Allegheny Mountain Top Public Library","state":"WV"},"type":"Feature","geometry":{"type":"Point","coordinates":[-79.232267,39.245668]}},{"properties":{"city":"Alum Creek","lon":-81.799797,"zip":25003,"librarysystem":"Lincoln County Public Libraries","phone":"304.756.9211","id":"a63c8ri38azq","address":"PO Box 530","lat":38.267749,"libraryname":"Alum Creek Public Library","state":"WV"},"type":"Feature","geometry":{"type":"Point","coordinates":[-81.799797,38.267749]}},{"properties":{"city":"Buckhannon","lon":-80.221899,"zip":26201,"librarysystem":"West Virginia Wesleyan College","phone":"304.473.8059","id":"a63c8rn5tsms","address":"59 College Ave.","lat":38.98869,"libraryname":"Annie Merner Pfeiffer Library","state":"WV"},"type":"Feature","geometry":{"type":"Point","coordinates":[-80.221899,38.98869]}},{"properties":{"city":"Ansted","lon":-81.097349,"zip":25812,"librarysystem":"Fayette County Public Libraries","phone":"304.658.5472","id":"a63c8rv99vf0","address":"102 Oak Street","lat":38.13527,"libraryname":"Ansted Public Library","state":"WV"},"type":"Feature","geometry":{"type":"Point","coordinates":[-81.097349,38.13527]}},{"properties":{"city":"White Sulphur Springs","lon":-80.286019,"zip":24986,"librarysystem":"Greenbrier County Special Libraries","phone":"304.558.3911","id":"a63c8rlzgn3k","address":"HC 70 Box N","lat":37.80715,"libraryname":"Anthony Correctional Institute Library","state":"WV"},"type":"Feature","geometry":{"type":"Point","coordinates":[-80.286019,37.80715]}},{"properties":{"city":"Charleston","lon":-81.632941,"zip":25301,"librarysystem":"Kanawha County Special Libraries","phone":"800.624.9120","id":"a63c8rhw34p0","address":"1031 Quarrier St.","lat":38.347991,"libraryname":"Appalachian Educational Laboratory","state":"WV"},"type":"Feature","geometry":{"type":"Point","coordinates":[-81.632941,38.347991]}},{"properties":{"city":"Barboursville","lon":-82.294132,"zip":25504,"librarysystem":"Cabell County Public Libraries","phone":"304.736.4621","id":"a63c8rjzluaz","address":"728 Main St.","lat":38.40917,"libraryname":"Barboursville Public Library","state":"WV"},"type":"Feature","geometry":{"type":"Point","coordinates":[-82.294132,38.40917]}},{"properties":{"city":"Barrett","lon":-81.599172,"zip":25208,"librarysystem":"Boone County Public Libraries","phone":"304.247.6530","id":"a63c8rsut3ro","address":"38487 Pond Fork Rd.","lat":37.808461,"libraryname":"Barrett-Wharton Public Library","state":"WV"},"type":"Feature","geometry":{"type":"Point","coordinates":[-81.599172,37.808461]}},{"properties":{"city":"Belington","lon":-79.936489,"zip":26250,"librarysystem":"Barbour County Public Libraries","phone":"304.823.1026","id":"a63c8rlq883p","address":"512 Elliot Avenue","lat":39.02098,"libraryname":"Belington Public Library","state":"WV"},"type":"Feature","geometry":{"type":"Point","coordinates":[-79.936489,39.02098]}},{"properties":{"city":"Salem","lon":-80.558427,"zip":26426,"librarysystem":"Salem International University","phone":"304.782.5390","id":"a63c8ruo2i0a","address":"K.D. Hurley Blvd.","lat":39.282681,"libraryname":"Benedum Library","state":"WV"},"type":"Feature","geometry":{"type":"Point","coordinates":[-80.558427,39.282681]}},{"properties":{"city":"McMechen","lon":-80.729769,"zip":26040,"librarysystem":"Marshall County Public Libraries","phone":"304.232.9720","id":"a63c8ry1xh3x","address":"201 Marshall St.","lat":39.993717,"libraryname":"Benwood-McMechen Public Library","state":"WV"},"type":"Feature","geometry":{"type":"Point","coordinates":[-80.729769,39.993717]}},{"properties":{"city":"Wheeling","lon":-80.690509,"zip":26003,"librarysystem":"Wheeling Jesuit University","phone":"304.243.2226","id":"a63c8rvx42zp","address":"316 Washington Ave","lat":40.068088,"libraryname":"Bishop Hodges Library","state":"WV"},"type":"Feature","geometry":{"type":"Point","coordinates":[-80.690509,40.068088]}},{"properties":{"city":"Bluefield","lon":-81.235326,"zip":24701,"librarysystem":"Mercer County Special Libraries","phone":"304.327.2811","id":"a63c8rp1xv1l","address":"928 Bluefield Ave.","lat":37.265216,"libraryname":"Bluefield Daily Telegraph","state":"WV"},"type":"Feature","geometry":{"type":"Point","coordinates":[-81.235326,37.265216]}},{"properties":{"city":"Harpers Ferry","lon":-77.756368,"zip":25424,"librarysystem":"Jefferson County Public Libraries","phone":"304.535.2301","id":"a63c8rpaucg3","address":"600 Polk St.","lat":39.324192,"libraryname":"Bolivar-Harpers Ferry Public Library","state":"WV"},"type":"Feature","geometry":{"type":"Point","coordinates":[-77.756368,39.324192]}},{"properties":{"city":"Madison","lon":-81.822396,"zip":25130,"librarysystem":"Boone County Public Libraries","phone":"304.369.7842","id":"a63c8rv9h727","address":"375 Main Street","lat":38.064021,"libraryname":"Boone-Madison Public Library","state":"WV"},"type":"Feature","geometry":{"type":"Point","coordinates":[-81.822396,38.064021]}},{"properties":{"city":"Elkins","lon":-79.847298,"zip":26241,"librarysystem":"Davis  Elkins College","phone":"304.637.1200","id":"a63c8rv1pw9r","address":"100 Campus Dr.","lat":38.932138,"libraryname":"Booth Library","state":"WV"},"type":"Feature","geometry":{"type":"Point","coordinates":[-79.847298,38.932138]}},{"properties":{"city":"Bradshaw","lon":-81.798638,"zip":24817,"librarysystem":"McDowell County Public Libraries","phone":"304.967.5140","id":"a63c8rmt55ne","address":"PO Box 498","lat":37.352051,"libraryname":"Bradshaw Public Library","state":"WV"},"type":"Feature","geometry":{"type":"Point","coordinates":[-81.798638,37.352051]}},{"properties":{"city":"Branchland","lon":-82.181957,"zip":25506,"librarysystem":"Lincoln County Public Libraries","phone":"304.778.7315","id":"a63c8rm9iyq7","address":"PO Box 278","lat":38.226797,"libraryname":"Branchland Outpost Library","state":"WV"},"type":"Feature","geometry":{"type":"Point","coordinates":[-82.181957,38.226797]}},{"properties":{"city":"Bridgeport","lon":-80.275583,"zip":26330,"librarysystem":"Harrison County Public Libraries","phone":"304.842.8248","id":"a63c8rqwtvq5","address":"1200 Johnson Avenue","lat":39.302423,"libraryname":"Bridgeport Public Library","state":"WV"},"type":"Feature","geometry":{"type":"Point","coordinates":[-80.275583,39.302423]}},{"properties":{"city":"Wellsburg","lon":-80.612947,"zip":26070,"librarysystem":"Brooke County Public Libraries","phone":"304.737.1551","id":"a63c8ridvpz2","address":"945 Main St.","lat":40.272318,"libraryname":"Brooke County Public Library","state":"WV"},"type":"Feature","geometry":{"type":"Point","coordinates":[-80.612947,40.272318]}},{"properties":{"city":"Man","lon":-81.87513,"zip":25635,"librarysystem":"Logan County Public Libraries","phone":"304.583.7887","id":"a63c8rhkzx8t","address":"511 East MacDonald Avenue","lat":37.735061,"libraryname":"Buffalo Creek Memorial Library","state":"WV"},"type":"Feature","geometry":{"type":"Point","coordinates":[-81.87513,37.735061]}},{"properties":{"city":"Buffalo","lon":-81.954269,"zip":25033,"librarysystem":"Putnam County Public Libraries","phone":"304.937.3538","id":"a63c8rioq44m","address":"PO Box 366","lat":38.615484,"libraryname":"Buffalo Public Library","state":"WV"},"type":"Feature","geometry":{"type":"Point","coordinates":[-81.954269,38.615484]}},{"properties":{"city":"Burlington","lon":-78.91952,"zip":26710,"librarysystem":"Mineral County Public Libraries","phone":"304.289.3690","id":"a63c8rtea0y2","address":"PO Box 61","lat":39.36158,"libraryname":"Burlington Public Library","state":"WV"},"type":"Feature","geometry":{"type":"Point","coordinates":[-78.91952,39.36158]}},{"properties":{"city":"Burnsville","lon":-80.657696,"zip":26335,"librarysystem":"Braxton County Public Libraries","phone":"304.853.2338","id":"a63c8rk8lmik","address":"235 Kanawha St.","lat":38.86155,"libraryname":"Burnsville Public Library","state":"WV"},"type":"Feature","geometry":{"type":"Point","coordinates":[-80.657696,38.86155]}},{"properties":{"city":"Huntington","lon":-82.443787,"zip":25701,"librarysystem":"Cabell County Public Libraries","phone":"304.528.5700","id":"a63c8rsle331","address":"455 9th Street Plaza","lat":38.419962,"libraryname":"Cabell County Public Library","state":"WV"},"type":"Feature","geometry":{"type":"Point","coordinates":[-82.443787,38.419962]}},{"properties":{"city":"Grantsville","lon":-81.094604,"zip":26147,"librarysystem":"Calhoun County Public Libraries","phone":"304.354.6300","id":"a63c8rsdq06u","address":"Mill Street North","lat":38.922795,"libraryname":"Calhoun County Public Library","state":"WV"},"type":"Feature","geometry":{"type":"Point","coordinates":[-81.094604,38.922795]}},{"properties":{"city":"Cameron","lon":-80.568465,"zip":26033,"librarysystem":"Moundsville-Marshall County Public Library","phone":"304.686.2140","id":"a63c8rm8m4ty","address":"44 Main St.","lat":39.826739,"libraryname":"Cameron Public Library","state":"WV"},"type":"Feature","geometry":{"type":"Point","coordinates":[-80.568465,39.826739]}},{"properties":{"city":"Capon Bridge","lon":-78.454629,"zip":26711,"librarysystem":"Hampshire County Public Libraries","phone":"304.856.3777","id":"a63c8ro92ly8","address":"PO Box 88","lat":39.29424,"libraryname":"Capon Bridge Public Library","state":"WV"},"type":"Feature","geometry":{"type":"Point","coordinates":[-78.454629,39.29424]}},{"properties":{"city":"Salem","lon":-80.578899,"zip":26426,"librarysystem":"Doddridge County Public Libraries","phone":"304.782.2461","id":"a63c8rw5vm97","address":"Rt 2.","lat":39.330479,"libraryname":"Center Point Public Library","state":"WV"},"type":"Feature","geometry":{"type":"Point","coordinates":[-80.578899,39.330479]}},{"properties":{"city":"Chapmanville","lon":-82.025424,"zip":25508,"librarysystem":"Logan County Public Libraries","phone":"304.855.3405","id":"a63c8rutq745","address":"299 Vance St.","lat":37.977938,"libraryname":"Chapmanville Public Library","state":"WV"},"type":"Feature","geometry":{"type":"Point","coordinates":[-82.025424,37.977938]}},{"properties":{"city":"Buckhannon","lon":-80.223194,"zip":26201,"librarysystem":"Upshur County Public Libraries","phone":"304.472.2339","id":"a63c8rk21yld","address":"105 East Main St.","lat":38.993026,"libraryname":"Charles W. Gibson Public Library","state":"WV"},"type":"Feature","geometry":{"type":"Point","coordinates":[-80.223194,38.993026]}},{"properties":{"city":"Morgantown","lon":-79.866231,"zip":26508,"librarysystem":"Monongalia County Public Libraries","phone":"304.594.1020","id":"a63c8rog9a1s","address":"121 Crosby Rd.","lat":39.654404,"libraryname":"Cheat Area Public Library","state":"WV"},"type":"Feature","geometry":{"type":"Point","coordinates":[-79.866231,39.654404]}},{"properties":{"city":"Martinsburg","lon":-77.98228,"zip":25401,"librarysystem":"Berkeley County Special Libraries","phone":"304.264.1000ext.1764","id":"a63c8rqlvwb9","address":"2500 Hospital Dr.","lat":39.474303,"libraryname":"City Hospital","state":"WV"},"type":"Feature","geometry":{"type":"Point","coordinates":[-77.98228,39.474303]}},{"properties":{"city":"Clarksburg","lon":-80.340589,"zip":26301,"librarysystem":"Harrison County Public Libraries","phone":"304.627.2236","id":"a63c8rwynmdg","address":"404 West Pike St.","lat":39.280881,"libraryname":"Clarksburg-Harrison County Public Library","state":"WV"},"type":"Feature","geometry":{"type":"Point","coordinates":[-80.340589,39.280881]}},{"properties":{"city":"Clay","lon":-81.077429,"zip":25043,"librarysystem":"Clay County Public Libraries","phone":"304.587.4254","id":"a63c8rs1w9pi","address":"614 Main St.","lat":38.459981,"libraryname":"Clay County Public Library","state":"WV"},"type":"Feature","geometry":{"type":"Point","coordinates":[-81.077429,38.459981]}},{"properties":{"city":"Blacksville","lon":-80.208249,"zip":26521,"librarysystem":"Monongalia County Public Libraries","phone":"304.432.8531","id":"a63c8rol5ak8","address":"Rt. 7 Box 68","lat":39.720034,"libraryname":"Clay-Battelle Public Library","state":"WV"},"type":"Feature","geometry":{"type":"Point","coordinates":[-80.208249,39.720034]}},{"properties":{"city":"Clendenin","lon":-81.349193,"zip":25045,"librarysystem":"Kanawha County Public Libraries","phone":"304.548.6370","id":"a63c8rteuxnf","address":"104 Cardinal St.","lat":38.488375,"libraryname":"Clendenin Public Library","state":"WV"},"type":"Feature","geometry":{"type":"Point","coordinates":[-81.349193,38.488375]}},{"properties":{"city":"Morgantown","lon":-79.934006,"zip":26508,"librarysystem":"Monongalia County Public Libraries","phone":"304.291.0703","id":"a63c8rpu25w3","address":"2005 Grafton Rd.","lat":39.544768,"libraryname":"Clinton District Public Library","state":"WV"},"type":"Feature","geometry":{"type":"Point","coordinates":[-79.934006,39.544768]}},{"properties":{"city":"Racine","lon":-81.658157,"zip":25165,"librarysystem":"Boone County Public Libraries","phone":"304.837.8437","id":"a63c8rmkopva","address":"494 John Slack Circle","lat":38.14728,"libraryname":"Coal River Public Library","state":"WV"},"type":"Feature","geometry":{"type":"Point","coordinates":[-81.658157,38.14728]}},{"properties":{"city":"Cowen","lon":-80.555275,"zip":26206,"librarysystem":"Webster County Public Libraries","phone":"304.226.5332","id":"a63c8rj1zzly","address":"Mill Street","lat":38.408468,"libraryname":"Cowen Public Library","state":"WV"},"type":"Feature","geometry":{"type":"Point","coordinates":[-80.555275,38.408468]}},{"properties":{"city":"Lesage","lon":-82.306919,"zip":25537,"librarysystem":"Cabell County Public Libraries","phone":"304.733.3022","id":"a63c8rka2n6k","address":"6363 Cox Lane","lat":38.4768,"libraryname":"Cox Landing Public Library","state":"WV"},"type":"Feature","geometry":{"type":"Point","coordinates":[-82.306919,38.4768]}},{"properties":{"city":"Bluefield","lon":-81.221105,"zip":24701,"librarysystem":"Mercer County Public Libraries","phone":"304.325.3943","id":"a63c8rt8j17z","address":"600 Commerce St.","lat":37.268698,"libraryname":"Craft Memorial Library","state":"WV"},"type":"Feature","geometry":{"type":"Point","coordinates":[-81.221105,37.268698]}},{"properties":{"city":"Craigsville","lon":-80.646109,"zip":26205,"librarysystem":"Nicholas County Public Libraries","phone":"304.742.3532","id":"a63c8rn3lp9c","address":"63 LIbrary Lane","lat":38.327774,"libraryname":"Craigsville Public Library","state":"WV"},"type":"Feature","geometry":{"type":"Point","coordinates":[-80.646109,38.327774]}},{"properties":{"city":"Cross Lanes","lon":-81.783875,"zip":25313,"librarysystem":"Kanawha County Public Libraries","phone":"304.776.5999","id":"a63c8rr172qm","address":"5449 Big Tyler Rd.","lat":38.427454,"libraryname":"Cross Lanes Public Library","state":"WV"},"type":"Feature","geometry":{"type":"Point","coordinates":[-81.783875,38.427454]}},{"properties":{"city":"Charleston","lon":-81.61284,"zip":25305,"librarysystem":"Kanawha County Special Libraries","phone":"304.558.0230ext.168","id":"a63c8rpv7nvh","address":"1900 Kanawha Blvd. E. Bldg. 9","lat":38.33554,"libraryname":"Culture  History/Archives  History","state":"WV"},"type":"Feature","geometry":{"type":"Point","coordinates":[-81.61284,38.33554]}},{"properties":{"city":"West Union","lon":-80.774396,"zip":26456,"librarysystem":"Doddridge County Public Libraries","phone":"304.873.1941","id":"a63c8rujtvz0","address":"117 Court Street","lat":39.293666,"libraryname":"Doddridge County Public Library","state":"WV"},"type":"Feature","geometry":{"type":"Point","coordinates":[-80.774396,39.293666]}},{"properties":{"city":"Elizabeth","lon":-81.393199,"zip":26143,"librarysystem":"Wirt County Public Libraries","phone":"304.275.4295","id":"a63c8rotc5vz","address":"340 Mulberry St.","lat":39.06346,"libraryname":"Dora B Woodyard Memorial Library","state":"WV"},"type":"Feature","geometry":{"type":"Point","coordinates":[-81.393199,39.06346]}},{"properties":{"city":"Institute","lon":-81.765985,"zip":25112,"librarysystem":"West Virginia State University","phone":"304.766.3117","id":"a63c8robfbxj","address":"PO Box 1002","lat":38.383174,"libraryname":"Drain-Jordan Library","state":"WV"},"type":"Feature","geometry":{"type":"Point","coordinates":[-81.765985,38.383174]}},{"properties":{"city":"Huntington","lon":-82.429926,"zip":25755,"librarysystem":"Marshall University","phone":"304.696.2320","id":"a63c8ribyvtl","address":"1 John Marshall Dr.","lat":38.422347,"libraryname":"Drinko Library","state":"WV"},"type":"Feature","geometry":{"type":"Point","coordinates":[-82.429926,38.422347]}},{"properties":{"city":"Dunbar","lon":-81.739904,"zip":25064,"librarysystem":"Kanawha County Public Libraries","phone":"304.766.7161","id":"a63c8rplcp1o","address":"301 12th St. Mall","lat":38.360045,"libraryname":"Dunbar Public Library","state":"WV"},"type":"Feature","geometry":{"type":"Point","coordinates":[-81.739904,38.360045]}},{"properties":{"city":"Durbin","lon":-79.825454,"zip":26264,"librarysystem":"Pocahontas County Public Libraries","phone":"304.456.3142","id":"a63c8rth06kr","address":"2014 East Main St.","lat":38.545365,"libraryname":"Durbin Public Library","state":"WV"},"type":"Feature","geometry":{"type":"Point","coordinates":[-79.825454,38.545365]}},{"properties":{"city":"Baker","lon":-78.767589,"zip":26801,"librarysystem":"Hardy County Public Libraries","phone":"304.897.5544","id":"a63c8rhmb5w9","address":"PO Box 98","lat":39.08682,"libraryname":"East Hardy County Public Library","state":"WV"},"type":"Feature","geometry":{"type":"Point","coordinates":[-78.767589,39.08682]}},{"properties":{"city":"Eleanor","lon":-81.928439,"zip":25070,"librarysystem":"Putnam County Public Libraries","phone":"304.586.4295","id":"a63c8rud51v8","address":"PO Box 549","lat":38.538209,"libraryname":"Eleanor Public Library","state":"WV"},"type":"Feature","geometry":{"type":"Point","coordinates":[-81.928439,38.538209]}},{"properties":{"city":"Charleston","lon":-81.535928,"zip":25071,"librarysystem":"Kanawha County Public Libraries","phone":"304.965.3636","id":"a63c8rr0pbbd","address":"4636 Pennsylvania Ave.","lat":38.405444,"libraryname":"Elk Valley Public Library","state":"WV"},"type":"Feature","geometry":{"type":"Point","coordinates":[-81.535928,38.405444]}},{"properties":{"city":"Elkins","lon":-79.849333,"zip":26241,"librarysystem":"Randolph County Public Libraries","phone":"304.637.0287","id":"a63c8ruqj6j7","address":"416 Davis Ave.","lat":38.925521,"libraryname":"Elkins-Randolph Public Library","state":"WV"},"type":"Feature","geometry":{"type":"Point","coordinates":[-79.849333,38.925521]}},{"properties":{"city":"Fairview","lon":-80.247285,"zip":26570,"librarysystem":"Marion County Public Libraries","phone":"304.449.1021","id":"a63c8rkkpypa","address":"318 Main St.","lat":39.592457,"libraryname":"Fairview Public Library","state":"WV"},"type":"Feature","geometry":{"type":"Point","coordinates":[-80.247285,39.592457]}},{"properties":{"city":"Oak Hill","lon":-81.142962,"zip":25901,"librarysystem":"Fayette County Public Libraries","phone":"304.465.0121","id":"a63c8rs05nuh","address":"531 Summit St.","lat":37.978145,"libraryname":"Fayette County Public Library","state":"WV"},"type":"Feature","geometry":{"type":"Point","coordinates":[-81.142962,37.978145]}},{"properties":{"city":"Fayetteville","lon":-81.104907,"zip":25840,"librarysystem":"Fayette County Public Libraries","phone":"304.574.0070","id":"a63c8rlic6uc","address":"200 West Maple Ave.","lat":38.051975,"libraryname":"Fayetteville Public Library","state":"WV"},"type":"Feature","geometry":{"type":"Point","coordinates":[-81.104907,38.051975]}},{"properties":{"city":"Parsons","lon":-79.681134,"zip":26287,"librarysystem":"Tucker County Public Libraries","phone":"304.478.3880","id":"a63c8ry3f67j","address":"301 Walnut St.","lat":39.098574,"libraryname":"Five Rivers Public Library","state":"WV"},"type":"Feature","geometry":{"type":"Point","coordinates":[-79.681134,39.098574]}},{"properties":{"city":"Follansbee","lon":-80.595569,"zip":26037,"librarysystem":"Brooke County Public Libraries","phone":"304.527.0860","id":"a63c8ro8fit1","address":"844 Main St.","lat":40.326841,"libraryname":"Follansbee Public Library","state":"WV"},"type":"Feature","geometry":{"type":"Point","coordinates":[-80.595569,40.326841]}},{"properties":{"city":"Fort Ashby","lon":-78.768274,"zip":26719,"librarysystem":"Mineral County Public Libraries","phone":"304.298.4493","id":"a63c8riob8ij","address":"IGA Plaza","lat":39.502825,"libraryname":"Fort Ashby Public Library","state":"WV"},"type":"Feature","geometry":{"type":"Point","coordinates":[-78.768274,39.502825]}},{"properties":{"city":"Fort Gay","lon":-82.563009,"zip":25514,"librarysystem":"Wayne County Public Libraries","phone":"304.648.5338","id":"a63c8rqseplq","address":"8608 Rear Broadway","lat":38.127715,"libraryname":"Fort Gay Public Library","state":"WV"},"type":"Feature","geometry":{"type":"Point","coordinates":[-82.563009,38.127715]}},{"properties":{"city":"Huntington","lon":-82.405798,"zip":25705,"librarysystem":"Cabell County Public Libraries","phone":"304.528.5696","id":"a63c8rphcblx","address":"368 Norway Ave.","lat":38.406868,"libraryname":"Gallaher Villiage Public Library","state":"WV"},"type":"Feature","geometry":{"type":"Point","coordinates":[-82.405798,38.406868]}},{"properties":{"city":"Gassaway","lon":-80.775306,"zip":26624,"librarysystem":"Braxton County Public Libraries","phone":"304.364.8292","id":"a63c8rnesvrt","address":"536 Elk Street","lat":38.672329,"libraryname":"Gassaway Public Library","state":"WV"},"type":"Feature","geometry":{"type":"Point","coordinates":[-80.775306,38.672329]}},{"properties":{"city":"Gauley Bridge","lon":-81.194834,"zip":25085,"librarysystem":"Fayette County Public Libraries","phone":"304.632.2172","id":"a63c8rnp10ht","address":"282 Railroad Street","lat":38.16551,"libraryname":"Gauley Bridge Public Library","state":"WV"},"type":"Feature","geometry":{"type":"Point","coordinates":[-81.194834,38.16551]}},{"properties":{"city":"Left Hand","lon":-81.249989,"zip":25251,"librarysystem":"Roane County Public Libraries","phone":"304.565.4608","id":"a63c8rqynx0w","address":"PO Box 90","lat":38.59877,"libraryname":"Geary Library  Medical Care","state":"WV"},"type":"Feature","geometry":{"type":"Point","coordinates":[-81.249989,38.59877]}},{"properties":{"city":"Morgantown","lon":-79.967299,"zip":26506,"librarysystem":"Monongalia County Special Libraries","phone":"304.293.5300","id":"a63c8rvk0837","address":"One Law Center Dr.","lat":39.64861,"libraryname":"George R. Farmer  Jr. Law Library","state":"WV"},"type":"Feature","geometry":{"type":"Point","coordinates":[-79.967299,39.64861]}},{"properties":{"city":"Gilbert","lon":-81.880601,"zip":25621,"librarysystem":"Mingo County Public Libraries","phone":"304.664.8886","id":"a63c8rt6dc1z","address":"PO Box 266","lat":37.612798,"libraryname":"Gilbert Public Library","state":"WV"},"type":"Feature","geometry":{"type":"Point","coordinates":[-81.880601,37.612798]}},{"properties":{"city":"Glenville","lon":-80.835706,"zip":26351,"librarysystem":"Gilmer County Public Libraries","phone":"304.462.5620","id":"a63c8rqmh1yf","address":"214 Walnut St.","lat":38.936714,"libraryname":"Gilmer County Public Library","state":"WV"},"type":"Feature","geometry":{"type":"Point","coordinates":[-80.835706,38.936714]}},{"properties":{"city":"Glasgow","lon":-81.836348,"zip":25086,"librarysystem":"Kanawha County Public Libraries","phone":"304.595.3131","id":"a63c8rhkjcwg","address":"PO Box 317","lat":38.388714,"libraryname":"Glasgow Public Library","state":"WV"},"type":"Feature","geometry":{"type":"Point","coordinates":[-81.836348,38.388714]}},{"properties":{"city":"Green Bank","lon":-79.807919,"zip":24944,"librarysystem":"Pocahontas County Public Libraries","phone":"304.456.4507","id":"a63c8rt5472r","address":"PO Box 1","lat":38.42438,"libraryname":"Green Bank Public Library","state":"WV"},"type":"Feature","geometry":{"type":"Point","coordinates":[-79.807919,38.42438]}},{"properties":{"city":"Lewisburg","lon":-80.447658,"zip":24901,"librarysystem":"Greenbrier County Public Libraries","phone":"304.647.7568","id":"a63c8rntr9zl","address":"301 Courtney Drive","lat":37.803197,"libraryname":"Greenbrier County Public Library","state":"WV"},"type":"Feature","geometry":{"type":"Point","coordinates":[-80.447658,37.803197]}},{"properties":{"city":"Huntington","lon":-82.387417,"zip":25702,"librarysystem":"Cabell County Public Libraries","phone":"304.528.5697","id":"a63c8rpiq42j","address":"203 Richmond St.","lat":38.429401,"libraryname":"Guyandotte Public Library","state":"WV"},"type":"Feature","geometry":{"type":"Point","coordinates":[-82.387417,38.429401]}},{"properties":{"city":"Horner","lon":-80.381802,"zip":26372,"librarysystem":"Lewis County Special Libraries","phone":"304.269.7091","id":"a63c8rnsl7uf","address":"45 Abbotts Run Rd.","lat":39.001949,"libraryname":"Hacker's Creek Pioneer Descendants Central WV Genealogy  History Library","state":"WV"},"type":"Feature","geometry":{"type":"Point","coordinates":[-80.381802,39.001949]}},{"properties":{"city":"Hamlin","lon":-82.119779,"zip":25523,"librarysystem":"Lincoln County Public Libraries","phone":"304.824.5481","id":"a63c8rxnu3dw","address":"7999 Lynn Avenue","lat":38.278987,"libraryname":"Hamlin-Lincoln County Public Library","state":"WV"},"type":"Feature","geometry":{"type":"Point","coordinates":[-82.119779,38.278987]}},{"properties":{"city":"Romney","lon":-78.758128,"zip":26757,"librarysystem":"Hampshire County Public Libraries","phone":"304.822.3185","id":"a63c8rs0wb7m","address":"153 West Main Street","lat":39.342609,"libraryname":"Hampshire County Public Library","state":"WV"},"type":"Feature","geometry":{"type":"Point","coordinates":[-78.758128,39.342609]}},{"properties":{"city":"Ashton","lon":-82.072592,"zip":25503,"librarysystem":"Mason County Public Libraries","phone":"304.743.6200","id":"a63c8rnqseyq","address":"6760 Ashton Upland Rd.","lat":38.568573,"libraryname":"Hannan Public Library","state":"WV"},"type":"Feature","geometry":{"type":"Point","coordinates":[-82.072592,38.568573]}},{"properties":{"city":"Hanover","lon":-81.797725,"zip":24839,"librarysystem":"Wyoming County Public Libraries","phone":"304.664.5580","id":"a63c8rjcoabe","address":"PO Box 660","lat":37.562451,"libraryname":"Hanover Public Library","state":"WV"},"type":"Feature","geometry":{"type":"Point","coordinates":[-81.797725,37.562451]}},{"properties":{"city":"Bluefield","lon":-81.235724,"zip":24701,"librarysystem":"Bluefield State College","phone":"304.327.4054","id":"a63c8rp5r57x","address":"219 Rock St.","lat":37.268175,"libraryname":"Hardway Library","state":"WV"},"type":"Feature","geometry":{"type":"Point","coordinates":[-81.235724,37.268175]}},{"properties":{"city":"Moorefield","lon":-78.969935,"zip":26836,"librarysystem":"Hardy County Public Libraries","phone":"304.538.6560","id":"a63c8rn9jey1","address":"102 North Main St.","lat":39.062331,"libraryname":"Hardy County Public Library","state":"WV"},"type":"Feature","geometry":{"type":"Point","coordinates":[-78.969935,39.062331]}},{"properties":{"city":"Mount Gay","lon":-82.009796,"zip":25637,"librarysystem":"Southern West Virginia Community  Technical College","phone":"304.792.7098ext.202","id":"a63c8rkrk181","address":"Dempsey Branch Rd.","lat":37.844399,"libraryname":"Harless Library","state":"WV"},"type":"Feature","geometry":{"type":"Point","coordinates":[-82.009796,37.844399]}},{"properties":{"city":"Parkersburg","lon":-81.560059,"zip":26101,"librarysystem":"Camden-Clark Memorial Hospital","phone":"304.421.2450","id":"a63c8rllr5vo","address":"800 Garfield Ave.","lat":39.270366,"libraryname":"Health Sciences Library","state":"WV"},"type":"Feature","geometry":{"type":"Point","coordinates":[-81.560059,39.270366]}},{"properties":{"city":"Helvetia","lon":-80.147506,"zip":26224,"librarysystem":"Randolph County Public Libraries","phone":"304.924.5063","id":"a63c8rshm4js","address":"Main St.","lat":38.76188,"libraryname":"Helvetia Public Library","state":"WV"},"type":"Feature","geometry":{"type":"Point","coordinates":[-80.147506,38.76188]}},{"properties":{"city":"Hillsboro","lon":-80.225938,"zip":24946,"librarysystem":"Pocahontas County Public Libraries","phone":"304.653.4936","id":"a63c8rlpu31r","address":"HC 64 Box 398","lat":38.128938,"libraryname":"Hillsboro Public Library","state":"WV"},"type":"Feature","geometry":{"type":"Point","coordinates":[-80.225938,38.128938]}},{"properties":{"city":"Huntington","lon":-82.448911,"zip":25722,"librarysystem":"Cabell County Special Libraries","phone":"304.691.8417","id":"a63c8rkcq5s5","address":"611 Third Ave.","lat":38.421013,"libraryname":"Huddleston, Bolen LLP Law Library","state":"WV"},"type":"Feature","geometry":{"type":"Point","coordinates":[-82.448911,38.421013]}},{"properties":{"city":"Hundred","lon":-80.468361,"zip":26575,"librarysystem":"Wetzel County Public Libraries","phone":"304.775.5161","id":"a63c8rlugbb8","address":"US Rt. 250","lat":39.691518,"libraryname":"Hundred Public Library","state":"WV"},"type":"Feature","geometry":{"type":"Point","coordinates":[-80.468361,39.691518]}},{"properties":{"city":"Hurricane","lon":-82.019538,"zip":25526,"librarysystem":"Putnam County Public Libraries","phone":"304.562.6711","id":"a63c8rw1x7vt","address":"410 Midland Trail","lat":38.428954,"libraryname":"Hurricane Public Library","state":"WV"},"type":"Feature","geometry":{"type":"Point","coordinates":[-82.019538,38.428954]}},{"properties":{"city":"Huttonsville","lon":-79.974568,"zip":26273,"librarysystem":"Randolph County Special Libraries","phone":"304.335.2297ext.244","id":"a63c8rt0i56y","address":"Rt. 250 South","lat":38.720446,"libraryname":"Huttonsville Correctional Center Library","state":"WV"},"type":"Feature","geometry":{"type":"Point","coordinates":[-79.974568,38.720446]}},{"properties":{"city":"Iaeger","lon":-81.826472,"zip":24844,"librarysystem":"McDowell County Public Libraries","phone":"304.938.3825","id":"a63c8rtaei2u","address":"PO Box 149","lat":37.446644,"libraryname":"Iaeger Public Library","state":"WV"},"type":"Feature","geometry":{"type":"Point","coordinates":[-81.826472,37.446644]}},{"properties":{"city":"Athens","lon":-81.014959,"zip":24712,"librarysystem":"Concord University","phone":"304.384.5371","id":"a63c8rsv18x7","address":"1000 Vermillion St.","lat":37.42333,"libraryname":"J. Frank Marsh Library","state":"WV"},"type":"Feature","geometry":{"type":"Point","coordinates":[-81.014959,37.42333]}},{"properties":{"city":"Charleston","lon":-81.638806,"zip":25322,"librarysystem":"Kanawha County Special Libraries","phone":"304.340.1260","id":"a63c8rpi989k","address":"1600 Laidley Tower","lat":38.350309,"libraryname":"Jackson Kelly PLLC Law Library","state":"WV"},"type":"Feature","geometry":{"type":"Point","coordinates":[-81.638806,38.350309]}},{"properties":{"city":"French Creek","lon":-80.261081,"zip":26218,"librarysystem":"Upshur County Public Libraries","phone":"304.924.6724","id":"a63c8rpq41sn","address":"Rt. 1 Box 135","lat":38.832349,"libraryname":"James Curry Library","state":"WV"},"type":"Feature","geometry":{"type":"Point","coordinates":[-80.261081,38.832349]}},{"properties":{"city":"Huntington","lon":-82.43382,"zip":25701,"librarysystem":"Huntington Museum of Art","phone":"304.529.2701","id":"a63c8ri0hpgf","address":"2033 McCoy Rd.","lat":38.396164,"libraryname":"James D. Francis Library","state":"WV"},"type":"Feature","geometry":{"type":"Point","coordinates":[-82.43382,38.396164]}},{"properties":{"city":"Bradley","lon":-81.193699,"zip":25818,"librarysystem":"Appalachian Bible College","phone":"304.877.6428","id":"a63c8rhzka1g","address":"5701 Robert C. Byrd Dr.","lat":37.866199,"libraryname":"John Van Puffelen Library","state":"WV"},"type":"Feature","geometry":{"type":"Point","coordinates":[-81.193699,37.866199]}},{"properties":{"city":"Charleston","lon":-81.635904,"zip":25301,"librarysystem":"Kanawha County Public Libraries","phone":"304.343.4646","id":"a63c8rnxdnnu","address":"123 Capitol Street","lat":38.349577,"libraryname":"Kanawha County Public Library","state":"WV"},"type":"Feature","geometry":{"type":"Point","coordinates":[-81.635904,38.349577]}},{"properties":{"city":"Nitro","lon":-81.840449,"zip":25143,"librarysystem":"Kanawha County Special Libraries","phone":"Notavailable","id":"a63c8rlhpzd0","address":"21st and 2nd Ave.","lat":38.42198,"libraryname":"Kanawha Valley Genealogical Society","state":"WV"},"type":"Feature","geometry":{"type":"Point","coordinates":[-81.840449,38.42198]}},{"properties":{"city":"Kermit","lon":-82.406926,"zip":25674,"librarysystem":"Mingo County Public Libraries","phone":"304.393.4553","id":"a63c8rv2tf4c","address":"103 Main St.","lat":37.845264,"libraryname":"Kermit Public Library","state":"WV"},"type":"Feature","geometry":{"type":"Point","coordinates":[-82.406926,37.845264]}},{"properties":{"city":"Keyser","lon":-78.974609,"zip":26726,"librarysystem":"Mineral County Public Libraries","phone":"304.788.3222","id":"a63c8rq97sgx","address":"105 North Main St.","lat":39.440352,"libraryname":"Keyser-Mineral County Public Library","state":"WV"},"type":"Feature","geometry":{"type":"Point","coordinates":[-78.974609,39.440352]}},{"properties":{"city":"Kingwood","lon":-79.689531,"zip":26537,"librarysystem":"Preston County Public Libraries","phone":"304.329.1499","id":"a63c8rokp6ew","address":"205 W. Main St.","lat":39.47186,"libraryname":"Kingwood Public Library","state":"WV"},"type":"Feature","geometry":{"type":"Point","coordinates":[-79.689531,39.47186]}},{"properties":{"city":"Wheeling","lon":-80.721825,"zip":26003,"librarysystem":"West Virginia Northern Community College","phone":"304.233.5900ext.4252","id":"a63c8rjolj4e","address":"1704 Market St.","lat":40.063115,"libraryname":"Learning Resource Center","state":"WV"},"type":"Feature","geometry":{"type":"Point","coordinates":[-80.721825,40.063115]}},{"properties":{"city":"Fairmont","lon":-80.158961,"zip":26554,"librarysystem":"Marion County Academic Libraries","phone":"304.367.4733","id":"a63c8roegd9p","address":"1201 Locust Ave.","lat":39.482016,"libraryname":"Libraries of Fairmont State","state":"WV"},"type":"Feature","geometry":{"type":"Point","coordinates":[-80.158961,39.482016]}},{"properties":{"city":"Logan","lon":-82.004124,"zip":25601,"librarysystem":"Logan County Public Libraries","phone":"304.752.6652","id":"a63c8rvjjbll","address":"16 Wildcat Way","lat":37.838734,"libraryname":"Logan Area Public Library","state":"WV"},"type":"Feature","geometry":{"type":"Point","coordinates":[-82.004124,37.838734]}},{"properties":{"city":"Weston","lon":-80.466123,"zip":26452,"librarysystem":"Lewis County Public Libraries","phone":"304.269.5151","id":"a63c8rjf2dhz","address":"148 Court Avenue","lat":39.035878,"libraryname":"Louis Bennett Public Library","state":"WV"},"type":"Feature","geometry":{"type":"Point","coordinates":[-80.466123,39.035878]}},{"properties":{"city":"Shinnston","lon":-80.300885,"zip":26431,"librarysystem":"Harrison County Public Libraries","phone":"304.592.1700","id":"a63c8rleyf4y","address":"40 Bridge St.","lat":39.396373,"libraryname":"Lowe Public Library","state":"WV"},"type":"Feature","geometry":{"type":"Point","coordinates":[-80.300885,39.396373]}},{"properties":{"city":"Chester","lon":-80.560935,"zip":26034,"librarysystem":"Hancock County Public Libraries","phone":"304.387.1010","id":"a63c8rnnyda2","address":"601 Railroad St.","lat":40.614963,"libraryname":"Lynn Murray Memorial Public Library","state":"WV"},"type":"Feature","geometry":{"type":"Point","coordinates":[-80.560935,40.614963]}},{"properties":{"city":"Mannington","lon":-80.344118,"zip":26582,"librarysystem":"Marion County Public Libraries","phone":"304.986.2803","id":"a63c8row4d4z","address":"109 Clarksburg St.","lat":39.530086,"libraryname":"Mannington Public Library","state":"WV"},"type":"Feature","geometry":{"type":"Point","coordinates":[-80.344118,39.530086]}},{"properties":{"city":"Fairmont","lon":-80.144232,"zip":26554,"librarysystem":"Marion County Public Libraries","phone":"304.366.1211","id":"a63c8rpy2qqo","address":"321 Monroe St.","lat":39.48459,"libraryname":"Marion County Public Library","state":"WV"},"type":"Feature","geometry":{"type":"Point","coordinates":[-80.144232,39.48459]}},{"properties":{"city":"Marmet","lon":-81.570751,"zip":25315,"librarysystem":"Kanawha County Public Libraries","phone":"304.949.6628","id":"a63c8rxd4fbt","address":"9303 Oregon Ave.","lat":38.249421,"libraryname":"Marmet Public Library","state":"WV"},"type":"Feature","geometry":{"type":"Point","coordinates":[-81.570751,38.249421]}},{"properties":{"city":"Naoma","lon":-81.509688,"zip":25140,"librarysystem":"Raleigh County Public Libraries","phone":"304.854.2677","id":"a63c8rxpvght","address":"PO Box 70","lat":37.876506,"libraryname":"Marsh Fork Public Library","state":"WV"},"type":"Feature","geometry":{"type":"Point","coordinates":[-81.509688,37.876506]}},{"properties":{"city":"Huntington","lon":-82.445379,"zip":25755,"librarysystem":"Marshall University","phone":"304.696.6647","id":"a63c8rn24of6","address":"118 Smith Music Hall","lat":38.419755,"libraryname":"Marshall University Music Library","state":"WV"},"type":"Feature","geometry":{"type":"Point","coordinates":[-82.445379,38.419755]}},{"properties":{"city":"Martinsburg","lon":-77.912572,"zip":25401,"librarysystem":"Berkeley County Special Libraries","phone":"304.263.0811ext.3826","id":"a63c8rsymowv","address":"510 Butler Ave.","lat":39.414021,"libraryname":"Martinsburg VA Medical Center Medical Library","state":"WV"},"type":"Feature","geometry":{"type":"Point","coordinates":[-77.912572,39.414021]}},{"properties":{"city":"Martinsburg","lon":-77.964145,"zip":25401,"librarysystem":"Berkeley County Public Libraries","phone":"304.267.8933","id":"a63c8rlz81lo","address":"101 W. King St.","lat":39.456176,"libraryname":"Martinsburg-Berkeley County Public Library","state":"WV"},"type":"Feature","geometry":{"type":"Point","coordinates":[-77.964145,39.456176]}},{"properties":{"city":"Keyser","lon":-78.982615,"zip":26726,"librarysystem":"Potomac State College of West Virginia University","phone":"304.788.6901","id":"a63c8rn5ok2v","address":"101 Fort Ave.","lat":39.439813,"libraryname":"Mary F. Shipper Library","state":"WV"},"type":"Feature","geometry":{"type":"Point","coordinates":[-78.982615,39.439813]}},{"properties":{"city":"Weirton","lon":-80.58944,"zip":26062,"librarysystem":"Hancock County Public Libraries","phone":"304.797.8510","id":"a63c8rx4j5pm","address":"3442 Main St.","lat":40.40123,"libraryname":"Mary H. Weir Public Library","state":"WV"},"type":"Feature","geometry":{"type":"Point","coordinates":[-80.58944,40.40123]}},{"properties":{"city":"Mason","lon":-82.028679,"zip":25260,"librarysystem":"Mason County Public Libraries","phone":"304.773.5580","id":"a63c8rr9jsqi","address":"PO Box 609","lat":39.0129,"libraryname":"Mason City Public Library","state":"WV"},"type":"Feature","geometry":{"type":"Point","coordinates":[-82.028679,39.0129]}},{"properties":{"city":"Point Pleasant","lon":-82.137156,"zip":25550,"librarysystem":"Mason County Public Libraries","phone":"304.675.0894","id":"a63c8rs0m5xr","address":"508 Viand St.","lat":38.843594,"libraryname":"Mason County Public Library","state":"WV"},"type":"Feature","geometry":{"type":"Point","coordinates":[-82.137156,38.843594]}},{"properties":{"city":"Matewan","lon":-82.11323,"zip":25678,"librarysystem":"Mingo County Public Libraries","phone":"304.426.6306","id":"a63c8rmcsgwh","address":"PO Box 111","lat":37.62892,"libraryname":"Matewan Public Library","state":"WV"},"type":"Feature","geometry":{"type":"Point","coordinates":[-82.11323,37.62892]}},{"properties":{"city":"Welch","lon":-81.583434,"zip":24801,"librarysystem":"McDowell County Public Libraries","phone":"304.436.3070","id":"a63c8rtbsm81","address":"90 Howard St.","lat":37.43219,"libraryname":"McDowell Public Library","state":"WV"},"type":"Feature","geometry":{"type":"Point","coordinates":[-81.583434,37.43219]}},{"properties":{"city":"Meadow Bridge","lon":-80.844944,"zip":25976,"librarysystem":"Fayette County Public Libraries","phone":"304.484.7942","id":"a63c8rv5zkrr","address":"53 Klute St.","lat":37.87712,"libraryname":"Meadow Bridge Public Library","state":"WV"},"type":"Feature","geometry":{"type":"Point","coordinates":[-80.844944,37.87712]}},{"properties":{"city":"Milton","lon":-82.133202,"zip":25541,"librarysystem":"Cabell County Public Libraries","phone":"304.743.6711","id":"a63c8rova6aw","address":"1140 Smith St.","lat":38.4377,"libraryname":"Milton Public Library","state":"WV"},"type":"Feature","geometry":{"type":"Point","coordinates":[-82.133202,38.4377]}},{"properties":{"city":"Delbarton","lon":-82.184221,"zip":25670,"librarysystem":"Mingo County Public Libraries","phone":"304.475.2749","id":"a63c8rxe9jvp","address":"Helena Ave.","lat":37.711611,"libraryname":"Mingo County Public Library","state":"WV"},"type":"Feature","geometry":{"type":"Point","coordinates":[-82.184221,37.711611]}},{"properties":{"city":"Union","lon":-80.538319,"zip":24983,"librarysystem":"Monroe County Public Libraries","phone":"304.772.3038","id":"a63c8rjauad3","address":"103 South St.","lat":37.590687,"libraryname":"Monroe County Public Library","state":"WV"},"type":"Feature","geometry":{"type":"Point","coordinates":[-80.538319,37.590687]}},{"properties":{"city":"Montgomery","lon":-81.322153,"zip":25136,"librarysystem":"Fayette County Public Libraries","phone":"304.442.5665","id":"a63c8risjonh","address":"507 Ferry St.","lat":38.182234,"libraryname":"Montgomery Public Library","state":"WV"},"type":"Feature","geometry":{"type":"Point","coordinates":[-81.322153,38.182234]}},{"properties":{"city":"Petersburg","lon":-79.125778,"zip":26847,"librarysystem":"Grant County Public Libraries","phone":"304.257.4122","id":"a63c8rhwuvvw","address":"18 Mountain View St.","lat":38.992885,"libraryname":"Moomau-Grant County Public Library","state":"WV"},"type":"Feature","geometry":{"type":"Point","coordinates":[-79.125778,38.992885]}},{"properties":{"city":"Sugar Grove","lon":-79.31546,"zip":26815,"librarysystem":"Naval Security Group Activity","phone":"304.249.6321","id":"a63c8rrxgsio","address":"","lat":38.51013,"libraryname":"Morale  Welfare  Recreation Library","state":"WV"},"type":"Feature","geometry":{"type":"Point","coordinates":[-79.31546,38.51013]}},{"properties":{"city":"Berkeley Springs","lon":-78.225788,"zip":25411,"librarysystem":"Morgan County Public Libraries","phone":"304.258.3350","id":"a63c8royfug0","address":"105 Congress St.","lat":39.626941,"libraryname":"Morgan County Public Library","state":"WV"},"type":"Feature","geometry":{"type":"Point","coordinates":[-78.225788,39.626941]}},{"properties":{"city":"Morgantown","lon":-79.954227,"zip":26505,"librarysystem":"Monongalia County Public Libraries","phone":"304.291.7425","id":"a63c8rnvuuyx","address":"373 Spruce St.","lat":39.630359,"libraryname":"Morgantown Public Library","state":"WV"},"type":"Feature","geometry":{"type":"Point","coordinates":[-79.954227,39.630359]}},{"properties":{"city":"Mount Hope","lon":-81.165918,"zip":25880,"librarysystem":"Fayette County Public Libraries","phone":"304.877.3260","id":"a63c8rl2yu6z","address":"500 Main St.","lat":37.893428,"libraryname":"Mount Hope Public Library","state":"WV"},"type":"Feature","geometry":{"type":"Point","coordinates":[-81.165918,37.893428]}},{"properties":{"city":"Thomas","lon":-79.492263,"zip":26292,"librarysystem":"Tucker County Public Libraries","phone":"304.463.4582","id":"a63c8rxzhlt2","address":"Grant St.","lat":39.152206,"libraryname":"Mountaintop Public Library","state":"WV"},"type":"Feature","geometry":{"type":"Point","coordinates":[-79.492263,39.152206]}},{"properties":{"city":"Mt. Olive","lon":-81.233351,"zip":25185,"librarysystem":"Fayette County Special Libraries","phone":"304.442.7213ext.249","id":"a63c8rrqllpg","address":"One Mountainside Way","lat":38.237778,"libraryname":"Mt. Olive Correctional Complex","state":"WV"},"type":"Feature","geometry":{"type":"Point","coordinates":[-81.233351,38.237778]}},{"properties":{"city":"Mullens","lon":-81.381327,"zip":25882,"librarysystem":"Wyoming County Public Libraries","phone":"304.294.6687","id":"a63c8rkei1gw","address":"102 Fourth St.","lat":37.584999,"libraryname":"Mullens Area Public Library","state":"WV"},"type":"Feature","geometry":{"type":"Point","coordinates":[-81.381327,37.584999]}},{"properties":{"city":"Inwood","lon":-78.03432,"zip":25428,"librarysystem":"Berkeley County Public Libraries","phone":"304.229.2220","id":"a63c8rmlp78m","address":"126 Excellence Way","lat":39.365065,"libraryname":"Musselman-South Berkeley Community Library","state":"WV"},"type":"Feature","geometry":{"type":"Point","coordinates":[-78.03432,39.365065]}},{"properties":{"city":"Morgantown","lon":-79.967195,"zip":26506,"librarysystem":"Monongalia County Special Libraries","phone":"304.285.5886","id":"a63c8rxuxpc5","address":"1095 Willowdale Rd. MS L-1055","lat":39.648548,"libraryname":"National Institute for Occupational Safety and Health Library","state":"WV"},"type":"Feature","geometry":{"type":"Point","coordinates":[-79.967195,39.648548]}},{"properties":{"city":"Beaver","lon":-81.107149,"zip":25813,"librarysystem":"United States Department of Labor","phone":"304.256.3266","id":"a63c8rk3bol2","address":"1301 Airport Rd.","lat":37.765154,"libraryname":"National Mine Health  Safety Academy Technical Information Center  Library","state":"WV"},"type":"Feature","geometry":{"type":"Point","coordinates":[-81.107149,37.765154]}},{"properties":{"city":"Green Bank","lon":-79.807474,"zip":24944,"librarysystem":"Pocahontas County Special Libraries","phone":"304.456.2155","id":"a63c8rt1kbl2","address":"1 Observatory Rd.","lat":38.42344,"libraryname":"National Radio Astronomy Library","state":"WV"},"type":"Feature","geometry":{"type":"Point","coordinates":[-79.807474,38.42344]}},{"properties":{"city":"Sugar Grove","lon":-79.31546,"zip":26815,"librarysystem":"Pendleton County Special Libraries","phone":"304.249.6321","id":"a63c8rrgl18b","address":"","lat":38.51013,"libraryname":"Naval Security Group Activity Morale,  Welfare  Recreation Library","state":"WV"},"type":"Feature","geometry":{"type":"Point","coordinates":[-79.31546,38.51013]}},{"properties":{"city":"Hedgesville","lon":-78.072471,"zip":25427,"librarysystem":"Berkeley County Public Libraries","phone":"304.754.3949","id":"a63c8rk786k9","address":"105 Potato Hill St.","lat":39.544525,"libraryname":"Naylor Memorial Library","state":"WV"},"type":"Feature","geometry":{"type":"Point","coordinates":[-78.072471,39.544525]}},{"properties":{"city":"New Haven","lon":-81.973826,"zip":25265,"librarysystem":"Mason County Public Libraries","phone":"304.882.3252","id":"a63c8rho5o3o","address":"106 Main St.","lat":38.984311,"libraryname":"New Haven Public Library","state":"WV"},"type":"Feature","geometry":{"type":"Point","coordinates":[-81.973826,38.984311]}},{"properties":{"city":"New Martinsville","lon":-80.865154,"zip":26155,"librarysystem":"Wetzel County Public Libraries","phone":"304.455.4545","id":"a63c8ripyd0i","address":"160 Washington St.","lat":39.640156,"libraryname":"New Martinsville Public Library","state":"WV"},"type":"Feature","geometry":{"type":"Point","coordinates":[-80.865154,39.640156]}},{"properties":{"city":"Nitro","lon":-81.846387,"zip":25143,"librarysystem":"Kanawha County Public Libraries","phone":"304.755.4432","id":"a63c8rm5woi9","address":"1700 Park Ave.","lat":38.422191,"libraryname":"Nitro Public Library","state":"WV"},"type":"Feature","geometry":{"type":"Point","coordinates":[-81.846387,38.422191]}},{"properties":{"city":"Falling Waters","lon":-77.843674,"zip":25419,"librarysystem":"Berkeley County Public Libraries","phone":"304.274.3443","id":"a63c8rlxqb86","address":"Broad Lane","lat":39.573436,"libraryname":"North Berkeley Public Library","state":"WV"},"type":"Feature","geometry":{"type":"Point","coordinates":[-77.843674,39.573436]}},{"properties":{"city":"Moundsville","lon":-80.724076,"zip":26041,"librarysystem":"Marshall County Special Libraries","phone":"304.843.4067ext.147","id":"a63c8rlgfy4z","address":"R.D. 2","lat":39.926936,"libraryname":"Northern Correctional Facility Library","state":"WV"},"type":"Feature","geometry":{"type":"Point","coordinates":[-80.724076,39.926936]}},{"properties":{"city":"Northfork","lon":-81.905822,"zip":24862,"librarysystem":"McDowell County Public Libraries","phone":"304.862.4541","id":"a63c8rkwou0p","address":"PO Box 229","lat":37.490829,"libraryname":"Northfork Public Library","state":"WV"},"type":"Feature","geometry":{"type":"Point","coordinates":[-81.905822,37.490829]}},{"properties":{"city":"Nutter Fort","lon":-80.324356,"zip":26301,"librarysystem":"Harrison County Public Libraries","phone":"304.622.7563","id":"a63c8rxorn2g","address":"1300 Buckhannon Pike","lat":39.260212,"libraryname":"Nutter Fort Public Library","state":"WV"},"type":"Feature","geometry":{"type":"Point","coordinates":[-80.324356,39.260212]}},{"properties":{"city":"Oak Hill","lon":-81.149175,"zip":25901,"librarysystem":"Fayette County Public Libraries","phone":"304.469.9890","id":"a63c8rvqjdzv","address":"611 Main Street","lat":37.968746,"libraryname":"Oak Hill Public Library","state":"WV"},"type":"Feature","geometry":{"type":"Point","coordinates":[-81.149175,37.968746]}},{"properties":{"city":"Oceana","lon":-81.620889,"zip":24870,"librarysystem":"Wyoming County Public Libraries","phone":"304.682.6784","id":"a63c8rrilr3e","address":"PO Box 1768","lat":37.696515,"libraryname":"Oceana Public Library","state":"WV"},"type":"Feature","geometry":{"type":"Point","coordinates":[-81.620889,37.696515]}},{"properties":{"city":"Wheeling","lon":-80.720192,"zip":26003,"librarysystem":"Ohio County Public Libraries","phone":"304.232.0244","id":"a63c8rocgvjw","address":"52 16th St.","lat":40.06393,"libraryname":"Ohio County Public Library","state":"WV"},"type":"Feature","geometry":{"type":"Point","coordinates":[-80.720192,40.06393]}},{"properties":{"city":"Vienna","lon":-81.541032,"zip":26105,"librarysystem":"Ohio Valley University","phone":"304.865.6112","id":"a63c8ronmlu7","address":"1 Campus View Dr.","lat":39.326243,"libraryname":"Ohio Valley University Library","state":"WV"},"type":"Feature","geometry":{"type":"Point","coordinates":[-81.541032,39.326243]}},{"properties":{"city":"Princeton","lon":-81.111138,"zip":24740,"librarysystem":"Princeton Community Hospital","phone":"304.487.7246","id":"a63c8rl1ikq3","address":"122 Twelfth St.","lat":37.363233,"libraryname":"PCH Medical Library","state":"WV"},"type":"Feature","geometry":{"type":"Point","coordinates":[-81.111138,37.363233]}},{"properties":{"city":"Paden City","lon":-80.934458,"zip":26159,"librarysystem":"Wetzel County Public Libraries","phone":"304.337.9333","id":"a63c8ru8d8u9","address":"114 S. 4th Ave.","lat":39.603647,"libraryname":"Paden City Public Library","state":"WV"},"type":"Feature","geometry":{"type":"Point","coordinates":[-80.934458,39.603647]}},{"properties":{"city":"Parkersburg","lon":-81.61688,"zip":26101,"librarysystem":"West Virginia University","phone":"304.424.8260","id":"a63c8rmhdjyb","address":"300 Campus Dr.","lat":39.242059,"libraryname":"Parkersburg Library","state":"WV"},"type":"Feature","geometry":{"type":"Point","coordinates":[-81.61688,39.242059]}},{"properties":{"city":"Parkersburg","lon":-81.538249,"zip":26104,"librarysystem":"Wood County Public Libraries","phone":"304.420.4587","id":"a63c8rlzeg2c","address":"3100 Emerson Ave.","lat":39.285712,"libraryname":"Parkersburg and Wood County Public Library","state":"WV"},"type":"Feature","geometry":{"type":"Point","coordinates":[-81.538249,39.285712]}},{"properties":{"city":"West Liberty","lon":-80.599139,"zip":26074,"librarysystem":"West Liberty State College","phone":"304.336.8035","id":"a63c8rratyn6","address":"PO Box 135","lat":40.16925,"libraryname":"Paul N. Elbin Library","state":"WV"},"type":"Feature","geometry":{"type":"Point","coordinates":[-80.599139,40.16925]}},{"properties":{"city":"Paw Paw","lon":-78.454387,"zip":25436,"librarysystem":"Morgan County Public Libraries","phone":"304.947.7013","id":"a63c8rpp380y","address":"250 Moser Avenue","lat":39.528228,"libraryname":"Paw Paw Public Library","state":"WV"},"type":"Feature","geometry":{"type":"Point","coordinates":[-78.454387,39.528228]}},{"properties":{"city":"Franklin","lon":-79.331639,"zip":26807,"librarysystem":"Pendleton County Public Libraries","phone":"304.358.7038","id":"a63c8rldo4h5","address":"504 Main St.","lat":38.63952,"libraryname":"Pendleton County Library","state":"WV"},"type":"Feature","geometry":{"type":"Point","coordinates":[-79.331639,38.63952]}},{"properties":{"city":"Franklin","lon":-79.331639,"zip":26807,"librarysystem":"Pendleton County Public Libraries","phone":"304.358.7038","id":"a63c8rotmjm4","address":"504 Main St.","lat":38.63952,"libraryname":"Pendleton County Library","state":"WV"},"type":"Feature","geometry":{"type":"Point","coordinates":[-79.331639,38.63952]}},{"properties":{"city":"Pennsboro","lon":-80.967549,"zip":26415,"librarysystem":"Ritchie County Public Libraries","phone":"304.659.2197","id":"a63c8rw8x4zz","address":"411 Main St.","lat":39.285425,"libraryname":"Pennsboro Public Library","state":"WV"},"type":"Feature","geometry":{"type":"Point","coordinates":[-80.967549,39.285425]}},{"properties":{"city":"Peterstown","lon":-80.791924,"zip":24963,"librarysystem":"Monroe County Public Libraries","phone":"304.753.9568","id":"a63c8ri0acqt","address":"23 College Ave.","lat":37.400725,"libraryname":"Peterstown Public Library","state":"WV"},"type":"Feature","geometry":{"type":"Point","coordinates":[-80.791924,37.400725]}},{"properties":{"city":"Philippi","lon":-80.037213,"zip":26416,"librarysystem":"Barbour County Public Libraries","phone":"304.457.3495","id":"a63c8rxig0z7","address":"102 South Main Street","lat":39.150929,"libraryname":"Philippi Public Library","state":"WV"},"type":"Feature","geometry":{"type":"Point","coordinates":[-80.037213,39.150929]}},{"properties":{"city":"Philippi","lon":-80.041039,"zip":26416,"librarysystem":"Alderson-Broaddus College","phone":"304.457.6229","id":"a63c8rte6d3q","address":"PO Box LIB","lat":39.153085,"libraryname":"Picket Library","state":"WV"},"type":"Feature","geometry":{"type":"Point","coordinates":[-80.041039,39.153085]}},{"properties":{"city":"Piedmont","lon":-79.047137,"zip":26750,"librarysystem":"Mineral County Public Libraries","phone":"304.355.2757","id":"a63c8rp2n42j","address":"1 Childs Ave.","lat":39.480853,"libraryname":"Piedmont Public Library","state":"WV"},"type":"Feature","geometry":{"type":"Point","coordinates":[-79.047137,39.480853]}},{"properties":{"city":"Pine Grove","lon":-80.679517,"zip":26419,"librarysystem":"Wetzel County Public Libraries","phone":"304-889-3288","id":"a63c8rirj34q","address":"PO Box 416 Main St.","lat":39.565538,"libraryname":"Pine Grove Public Library","state":"WV"},"type":"Feature","geometry":{"type":"Point","coordinates":[-80.679517,39.565538]}},{"properties":{"city":"Harman","lon":-79.526857,"zip":26270,"librarysystem":"Randolph County Public Libraries","phone":"304.227.4788","id":"a63c8rpg6342","address":"Rt. 33","lat":38.918949,"libraryname":"Pioneer Memorial Public Library","state":"WV"},"type":"Feature","geometry":{"type":"Point","coordinates":[-79.526857,38.918949]}},{"properties":{"city":"St. Marys","lon":-81.208506,"zip":26170,"librarysystem":"Pleasants County Public Libraries","phone":"304.684.7494","id":"a63c8rtobva1","address":"101 Lafayette St.","lat":39.389982,"libraryname":"Pleasants County Public Library","state":"WV"},"type":"Feature","geometry":{"type":"Point","coordinates":[-81.208506,39.389982]}},{"properties":{"city":"Poca","lon":-81.814849,"zip":25159,"librarysystem":"Putnam County Public Libraries","phone":"304.755.3241","id":"a63c8rr13bqo","address":"PO Box 606","lat":38.47682,"libraryname":"Poca Public Library","state":"WV"},"type":"Feature","geometry":{"type":"Point","coordinates":[-81.814849,38.47682]}},{"properties":{"city":"Marlinton","lon":-80.087809,"zip":24954,"librarysystem":"Pocahontas County Public Libraries","phone":"304.799.6000","id":"a63c8rq3tcbi","address":"500 Eighth St.","lat":38.219402,"libraryname":"Pocahontas County Free Libraries","state":"WV"},"type":"Feature","geometry":{"type":"Point","coordinates":[-80.087809,38.219402]}},{"properties":{"city":"Princeton","lon":-81.099577,"zip":24740,"librarysystem":"Mercer County Public Libraries","phone":"304.487.5045","id":"a63c8rnkxe3e","address":"205 Center St.","lat":37.369796,"libraryname":"Princeton Public Library","state":"WV"},"type":"Feature","geometry":{"type":"Point","coordinates":[-81.099577,37.369796]}},{"properties":{"city":"Hurricane","lon":-81.933643,"zip":25526,"librarysystem":"Putnam County Public Libraries","phone":"304.757.7308","id":"a63c8rot29s1","address":"4219 State Rt. 34","lat":38.459824,"libraryname":"Putnam County Public Library","state":"WV"},"type":"Feature","geometry":{"type":"Point","coordinates":[-81.933643,38.459824]}},{"properties":{"city":"Rainelle","lon":-80.762017,"zip":25962,"librarysystem":"Greenbrier County Public Libraries","phone":"304.438.3008","id":"a63c8rwogs6d","address":"312 Seventh St.","lat":37.970668,"libraryname":"Rainelle Public Library","state":"WV"},"type":"Feature","geometry":{"type":"Point","coordinates":[-80.762017,37.970668]}},{"properties":{"city":"Beckley","lon":-81.187882,"zip":25801,"librarysystem":"Raleigh County Public Libraries","phone":"304.255.0511","id":"a63c8rsdr772","address":"221 N. Kanawha St.","lat":37.779206,"libraryname":"Raleigh County Public Library","state":"WV"},"type":"Feature","geometry":{"type":"Point","coordinates":[-81.187882,37.779206]}},{"properties":{"city":"Richwood","lon":-80.530886,"zip":26261,"librarysystem":"Nicholas County Public Libraries","phone":"304-846-6099","id":"a63c8rxxl0jw","address":"8 White Ave.","lat":38.224169,"libraryname":"Richwood Public Library","state":"WV"},"type":"Feature","geometry":{"type":"Point","coordinates":[-80.530886,38.224169]}},{"properties":{"city":"Harrisville","lon":-81.051959,"zip":26362,"librarysystem":"Ritchie County Public Libraries","phone":"304.643.2717","id":"a63c8rux43hg","address":"130 North Court St.","lat":39.211532,"libraryname":"Ritchie County Public Library","state":"WV"},"type":"Feature","geometry":{"type":"Point","coordinates":[-81.051959,39.211532]}},{"properties":{"city":"Belle","lon":-81.566629,"zip":25015,"librarysystem":"Kanawha County Public Libraries","phone":"304.949.2400","id":"a63c8rpwdx5x","address":"R.H.S. - 1 Warrior Way","lat":38.26571,"libraryname":"Riverside Library","state":"WV"},"type":"Feature","geometry":{"type":"Point","coordinates":[-81.566629,38.26571]}},{"properties":{"city":"Spencer","lon":-81.339981,"zip":25276,"librarysystem":"Roane County Public Libraries","phone":"304.927.1130","id":"a63c8rxz0r9q","address":"110 Parking Plaza","lat":38.796948,"libraryname":"Roane County Public Library","state":"WV"},"type":"Feature","geometry":{"type":"Point","coordinates":[-81.339981,38.796948]}},{"properties":{"city":"Beckley","lon":-81.187607,"zip":25802,"librarysystem":"Mountain State University","phone":"304.929.1368","id":"a63c8ry1uv5o","address":"PO Box 9003","lat":37.777601,"libraryname":"Robert C. Byrd Library","state":"WV"},"type":"Feature","geometry":{"type":"Point","coordinates":[-81.187607,37.777601]}},{"properties":{"city":"Wheeling","lon":-80.690509,"zip":26003,"librarysystem":"Wheeling Jesuit University","phone":"304.243.2440","id":"a63c8rr1ic5h","address":"316 Washington Ave.","lat":40.068088,"libraryname":"Robert C. Byrd National Technology Center","state":"WV"},"type":"Feature","geometry":{"type":"Point","coordinates":[-80.690509,40.068088]}},{"properties":{"city":"Glenville","lon":-80.833278,"zip":26351,"librarysystem":"Glenville State College","phone":"304.462.4109","id":"a63c8rvios8b","address":"100 High St.","lat":38.934368,"libraryname":"Robert F. Kidd Library","state":"WV"},"type":"Feature","geometry":{"type":"Point","coordinates":[-80.833278,38.934368]}},{"properties":{"city":"Ronceverte","lon":-80.469164,"zip":24970,"librarysystem":"Greenbrier County Public Libraries","phone":"304.647.7400","id":"a63c8rv1l4xd","address":"712 West Main St.","lat":37.747636,"libraryname":"Ronceverte Public Library","state":"WV"},"type":"Feature","geometry":{"type":"Point","coordinates":[-80.469164,37.747636]}},{"properties":{"city":"Rupert","lon":-80.688358,"zip":25984,"librarysystem":"Greenbrier County Public Libraries","phone":"304.392.6158","id":"a63c8rvs6lx6","address":"602 Nicholas St.","lat":37.963151,"libraryname":"Rupert Public Library","state":"WV"},"type":"Feature","geometry":{"type":"Point","coordinates":[-80.688358,37.963151]}},{"properties":{"city":"Shepherdstown","lon":-77.79508,"zip":25443,"librarysystem":"Shepherd University","phone":"304.876.5321","id":"a63c8rwmqxmy","address":"PO Box 3210","lat":39.428921,"libraryname":"Ruth Scarborough Library","state":"WV"},"type":"Feature","geometry":{"type":"Point","coordinates":[-77.79508,39.428921]}},{"properties":{"city":"Salt Rock","lon":-82.218482,"zip":25559,"librarysystem":"Cabell County Public Libraries","phone":"304.733.2186","id":"a63c8rvrwp6v","address":"822 Madison Creek Rd.","lat":38.310072,"libraryname":"Salt Rock Public Library","state":"WV"},"type":"Feature","geometry":{"type":"Point","coordinates":[-82.218482,38.310072]}},{"properties":{"city":"Charleston","lon":-81.618328,"zip":25304,"librarysystem":"University of Charleston","phone":"304.357.4780","id":"a63c8rmdvxpe","address":"2300 MacCorkle Ave.","lat":38.332495,"libraryname":"Schoenbaum Library","state":"WV"},"type":"Feature","geometry":{"type":"Point","coordinates":[-81.618328,38.332495]}},{"properties":{"city":"Shady Spring","lon":-81.076797,"zip":25918,"librarysystem":"Raleigh County Public Libraries","phone":"304.763.2681","id":"a63c8rmde2wd","address":"PO Box 1299","lat":37.710801,"libraryname":"Shady Spring Public Library","state":"WV"},"type":"Feature","geometry":{"type":"Point","coordinates":[-81.076797,37.710801]}},{"properties":{"city":"Shepherdstown","lon":-77.805039,"zip":25443,"librarysystem":"Jefferson County Public Libraries","phone":"304.876.2783","id":"a63c8rx2saz8","address":"German  King Sts.","lat":39.430585,"libraryname":"Shepherdstown Public Library","state":"WV"},"type":"Feature","geometry":{"type":"Point","coordinates":[-77.805039,39.430585]}},{"properties":{"city":"Sissonville","lon":-81.670275,"zip":25312,"librarysystem":"Kanawha County Public Libraries","phone":"304.984.2244","id":"a63c8rms8acj","address":"1 Tinney Lane","lat":38.479597,"libraryname":"Sissonville Public Library","state":"WV"},"type":"Feature","geometry":{"type":"Point","coordinates":[-81.670275,38.479597]}},{"properties":{"city":"Sistersville","lon":-80.994235,"zip":26175,"librarysystem":"Tyler County Public Libraries","phone":"304.652.6701","id":"a63c8rqhnwhj","address":"518 Wells St.","lat":39.56524,"libraryname":"Sistersville Public Library","state":"WV"},"type":"Feature","geometry":{"type":"Point","coordinates":[-80.994235,39.56524]}},{"properties":{"city":"Sophia","lon":-81.253479,"zip":25921,"librarysystem":"Raleigh County Public Libraries","phone":"304.683.5990","id":"a63c8rtag1yz","address":"103 First St.","lat":37.70835,"libraryname":"Sophia Public Library","state":"WV"},"type":"Feature","geometry":{"type":"Point","coordinates":[-81.253479,37.70835]}},{"properties":{"city":"South Charleston","lon":-81.694165,"zip":25303,"librarysystem":"Kanawha County Public Libraries","phone":"304.744.6561","id":"a63c8rpodn03","address":"312 Fourth Avenue","lat":38.366294,"libraryname":"South Charleston Public Library","state":"WV"},"type":"Feature","geometry":{"type":"Point","coordinates":[-81.694165,38.366294]}},{"properties":{"city":"Summit Point","lon":-77.955507,"zip":25446,"librarysystem":"Jefferson County Public Libraries","phone":"304.725.6227","id":"a63c8rx9ak18","address":"49 Church St.","lat":39.241573,"libraryname":"South Jefferson Public Library","state":"WV"},"type":"Feature","geometry":{"type":"Point","coordinates":[-77.955507,39.241573]}},{"properties":{"city":"Parkersburg","lon":-81.55174,"zip":26101,"librarysystem":"Wood County Public Libraries","phone":"304.428.7041","id":"a63c8rt82zyf","address":"1713 Blizzard Dr.","lat":39.243981,"libraryname":"South Parkersburg Public Library","state":"WV"},"type":"Feature","geometry":{"type":"Point","coordinates":[-81.55174,39.243981]}},{"properties":{"city":"Lost Creek","lon":-80.412005,"zip":26385,"librarysystem":"Harrison County Public Libraries","phone":"304.745.4865","id":"a63c8rxt8v7t","address":"Main Street","lat":39.203706,"libraryname":"Southern Area Public Library","state":"WV"},"type":"Feature","geometry":{"type":"Point","coordinates":[-80.412005,39.203706]}},{"properties":{"city":"Huntington","lon":-82.387241,"zip":25705,"librarysystem":"Special Metals Corporation Homepage","phone":"304.526.5433","id":"a63c8rsfs77r","address":"3200 Riverside Dr.","lat":38.414063,"libraryname":"Special Metals Corporation Homepage","state":"WV"},"type":"Feature","geometry":{"type":"Point","coordinates":[-82.387241,38.414063]}},{"properties":{"city":"St. Albans","lon":-81.833761,"zip":25177,"librarysystem":"Kanawha County Public Libraries","phone":"304.722.4244","id":"a63c8ri1clms","address":"602 4th St.","lat":38.385762,"libraryname":"St. Albans Public Library","state":"WV"},"type":"Feature","geometry":{"type":"Point","coordinates":[-81.833761,38.385762]}},{"properties":{"city":"Hinton","lon":-80.891004,"zip":25951,"librarysystem":"Summers County Public Libraries","phone":"304.466.4490","id":"a63c8rx9bjq3","address":"201 Temple St.","lat":37.67394,"libraryname":"Summers County Public Library","state":"WV"},"type":"Feature","geometry":{"type":"Point","coordinates":[-80.891004,37.67394]}},{"properties":{"city":"Summersville","lon":-80.831201,"zip":26651,"librarysystem":"Nicholas County Public Libraries","phone":"304.872.0844","id":"a63c8rlgzjk0","address":"6201 Webster Rd.","lat":38.310959,"libraryname":"Summersville Public Library","state":"WV"},"type":"Feature","geometry":{"type":"Point","coordinates":[-80.831201,38.310959]}},{"properties":{"city":"Sutton","lon":-80.707693,"zip":26601,"librarysystem":"Braxton County Public Libraries","phone":"304.765.7224","id":"a63c8rkvysyp","address":"450 4th St. #C","lat":38.664098,"libraryname":"Sutton Public Library","state":"WV"},"type":"Feature","geometry":{"type":"Point","coordinates":[-80.707693,38.664098]}},{"properties":{"city":"New Cumberland","lon":-80.607899,"zip":26047,"librarysystem":"Hancock County Public Libraries","phone":"304.564.3471","id":"a63c8ri0tmmr","address":"100 Court Street","lat":40.49808,"libraryname":"Swaney Memorial Library","state":"WV"},"type":"Feature","geometry":{"type":"Point","coordinates":[-80.607899,40.49808]}},{"properties":{"city":"Bethany","lon":-80.557799,"zip":26032,"librarysystem":"Bethany College","phone":"304.829.7321","id":"a63c8rvgxg1f","address":"300 Main St.","lat":40.2051,"libraryname":"T. W. Phillips Memorial Library","state":"WV"},"type":"Feature","geometry":{"type":"Point","coordinates":[-80.557799,40.2051]}},{"properties":{"city":"Grafton","lon":-80.025317,"zip":26354,"librarysystem":"Taylor County Public Libraries","phone":"304.265.6121","id":"a63c8rid7agg","address":"200 Beech St.","lat":39.336703,"libraryname":"Taylor County Public Library","state":"WV"},"type":"Feature","geometry":{"type":"Point","coordinates":[-80.025317,39.336703]}},{"properties":{"city":"Terra Alta","lon":-79.540495,"zip":26764,"librarysystem":"Preston County Public Libraries","phone":"304-789-2724","id":"a63c8rrq7j86","address":"701B East State Ave.","lat":39.443679,"libraryname":"Terra Alta Public Library","state":"WV"},"type":"Feature","geometry":{"type":"Point","coordinates":[-79.540495,39.443679]}},{"properties":{"city":"Mill Creek","lon":-79.969789,"zip":26280,"librarysystem":"Randolph County Public Libraries","phone":"304.335.6277","id":"a63c8rt742dz","address":"Route 219/250","lat":38.731945,"libraryname":"Tygart Valley Community Library","state":"WV"},"type":"Feature","geometry":{"type":"Point","coordinates":[-79.969789,38.731945]}},{"properties":{"city":"Middlebourne","lon":-80.902864,"zip":26149,"librarysystem":"Tyler County Public Libraries","phone":"304.758.4304","id":"a63c8rxaefoo","address":"Main  Broad Sts.","lat":39.493635,"libraryname":"Tyler County Public Library","state":"WV"},"type":"Feature","geometry":{"type":"Point","coordinates":[-80.902864,39.493635]}},{"properties":{"city":"Shepherdstown","lon":-77.81622,"zip":25443,"librarysystem":"Jefferson County Special Libraries","phone":"304.876.7339","id":"a63c8rs3jwft","address":"698 Conservation Way","lat":39.420748,"libraryname":"US Fish and Wildlife Service National Conservation Training Center Conservation Library","state":"WV"},"type":"Feature","geometry":{"type":"Point","coordinates":[-77.81622,39.420748]}},{"properties":{"city":"Kearneysville","lon":-77.933139,"zip":25430,"librarysystem":"Jefferson County Special Libraries","phone":"304.724.4447","id":"a63c8rkjqby1","address":"11649 Leetown Rd.","lat":39.34855,"libraryname":"US Geological Survey Leetown Science Center Library","state":"WV"},"type":"Feature","geometry":{"type":"Point","coordinates":[-77.933139,39.34855]}},{"properties":{"city":"Clarksburg","lon":-80.340119,"zip":26302,"librarysystem":"Harrison County Special Libraries","phone":"304.624.2230","id":"a63c8rvw9rap","address":"#3 Hospital Plaza","lat":39.27942,"libraryname":"United Hospital Health Sciences Library","state":"WV"},"type":"Feature","geometry":{"type":"Point","coordinates":[-80.340119,39.27942]}},{"properties":{"city":"Buckhannon","lon":-80.230365,"zip":26201,"librarysystem":"Upshur County Public Libraries","phone":"304.473.4219FAX304.473.4221","id":"a63c8rwb1o0r","address":"Rt. 6 Box 480","lat":39.036453,"libraryname":"Upshur County Public Library","state":"WV"},"type":"Feature","geometry":{"type":"Point","coordinates":[-80.230365,39.036453]}},{"properties":{"city":"Valley Head","lon":-80.056163,"zip":26294,"librarysystem":"Randolph County Public Libraries","phone":"304.339.6071","id":"a63c8rtiht1q","address":"US Route 219 South","lat":38.494302,"libraryname":"Valley Head Public Library","state":"WV"},"type":"Feature","geometry":{"type":"Point","coordinates":[-80.056163,38.494302]}},{"properties":{"city":"Vienna","lon":-81.553696,"zip":26105,"librarysystem":"Wood County Public Libraries","phone":"304.295.7771","id":"a63c8rtx5frd","address":"2300 River Rd.","lat":39.322214,"libraryname":"Vienna Public Library","state":"WV"},"type":"Feature","geometry":{"type":"Point","coordinates":[-81.553696,39.322214]}},{"properties":{"city":"Montgomery","lon":-81.32615,"zip":25136,"librarysystem":"West Virginia University Institute of Technology","phone":"304.442.3401","id":"a63c8rhw69zj","address":"405 Fayette Pike","lat":38.17967,"libraryname":"Vining Library","state":"WV"},"type":"Feature","geometry":{"type":"Point","coordinates":[-81.32615,38.17967]}},{"properties":{"city":"Institute","lon":-81.765985,"zip":25112,"librarysystem":"Kanawha County Special Libraries","phone":"304.766.4644","id":"a63c8rux5ifr","address":"Rehabilitation Center Rd.","lat":38.383174,"libraryname":"WV Rehabilitation Center Library","state":"WV"},"type":"Feature","geometry":{"type":"Point","coordinates":[-81.765985,38.383174]}},{"properties":{"city":"Romney","lon":-78.75264,"zip":26757,"librarysystem":"Hampshire County Special Libraries","phone":"304.822.4894","id":"a63c8rnwiyq0","address":"301 E. Main Street","lat":39.340556,"libraryname":"WV Schools for the Deaf and the Blind Library","state":"WV"},"type":"Feature","geometry":{"type":"Point","coordinates":[-78.75264,39.340556]}},{"properties":{"city":"E. Charleston","lon":-81.61284,"zip":25305,"librarysystem":"Kanawha County Special Libraries","phone":"304.558.2607","id":"a63c8rjdxuy1","address":"1900 Kanawha Blvd.","lat":38.33554,"libraryname":"WV Supreme Court of Appeals State Law Library","state":"WV"},"type":"Feature","geometry":{"type":"Point","coordinates":[-81.61284,38.33554]}},{"properties":{"city":"Charleston","lon":-81.61284,"zip":25305,"librarysystem":"Kanawha County Special Libraries","phone":"304.558.2045","id":"a63c8ri8q5xr","address":"1900 Kanawha Blvd. E. Bldg. 9","lat":38.33554,"libraryname":"WVLC Reference Library","state":"WV"},"type":"Feature","geometry":{"type":"Point","coordinates":[-81.61284,38.33554]}},{"properties":{"city":"Charleston","lon":-81.61284,"zip":25305,"librarysystem":"Kanawha County Special Libraries","phone":"304.558.4061","id":"a63c8rvtrub0","address":"1900 Kanawha Blvd. E. Bldg. 9","lat":38.33554,"libraryname":"WVLC Special Services","state":"WV"},"type":"Feature","geometry":{"type":"Point","coordinates":[-81.61284,38.33554]}},{"properties":{"city":"Morgantown","lon":-79.963766,"zip":26506,"librarysystem":"Monongalia County Special Libraries","phone":"304.293.2113","id":"a63c8rvwrls1","address":"Medical Center Dr. Room 2022","lat":39.651163,"libraryname":"WVU Health Sciences Library","state":"WV"},"type":"Feature","geometry":{"type":"Point","coordinates":[-79.963766,39.651163]}},{"properties":{"city":"Morgantown","lon":-79.967299,"zip":26506,"librarysystem":"Monongalia County Special Libraries","phone":"304.293.6011","id":"a63c8rncgia5","address":"Hunt St.","lat":39.64861,"libraryname":"WVU Math Library","state":"WV"},"type":"Feature","geometry":{"type":"Point","coordinates":[-79.967299,39.64861]}},{"properties":{"city":"Morgantown","lon":-79.955153,"zip":26506,"librarysystem":"Monongalia County Special Libraries","phone":"304.293.3536","id":"a63c8rw7sv0a","address":"1549 University Ave.","lat":39.633976,"libraryname":"WVU WV and Regional History Collection","state":"WV"},"type":"Feature","geometry":{"type":"Point","coordinates":[-79.955153,39.633976]}},{"properties":{"city":"Walton","lon":-81.400607,"zip":25286,"librarysystem":"Roane County Public Libraries","phone":"304.577.6071","id":"a63c8rq5g0h2","address":"2 Cunningham Lane","lat":38.638089,"libraryname":"Walton Public Library","state":"WV"},"type":"Feature","geometry":{"type":"Point","coordinates":[-81.400607,38.638089]}},{"properties":{"city":"War","lon":-81.708333,"zip":24892,"librarysystem":"McDowell County Public Libraries","phone":"304.875.4622","id":"a63c8rq2ovu5","address":"Berwind Lake Rd.","lat":37.263042,"libraryname":"War Public Library","state":"WV"},"type":"Feature","geometry":{"type":"Point","coordinates":[-81.708333,37.263042]}},{"properties":{"city":"Waverly","lon":-81.369415,"zip":26184,"librarysystem":"Wood County Public Libraries","phone":"304.464.5668","id":"a63c8rve8a19","address":"Rt. 1 Box 287","lat":39.335955,"libraryname":"Waverly Public Library","state":"WV"},"type":"Feature","geometry":{"type":"Point","coordinates":[-81.369415,39.335955]}},{"properties":{"city":"Kenova","lon":-82.574208,"zip":25530,"librarysystem":"Wayne County Public Libraries","phone":"304.453.2462","id":"a63c8rtgn1vx","address":"1200 Oak St.","lat":38.39993,"libraryname":"Wayne County Public Library","state":"WV"},"type":"Feature","geometry":{"type":"Point","coordinates":[-82.574208,38.39993]}},{"properties":{"city":"Wayne","lon":-82.438039,"zip":25570,"librarysystem":"Wayne County Public Libraries","phone":"304.272.3756","id":"a63c8ri4acax","address":"PO Box 567","lat":38.229021,"libraryname":"Wayne Public Library","state":"WV"},"type":"Feature","geometry":{"type":"Point","coordinates":[-82.438039,38.229021]}},{"properties":{"city":"Webster Springs","lon":-80.409974,"zip":26288,"librarysystem":"Webster County Public Libraries","phone":"304.847.5764","id":"a63c8rijszff","address":"331 South Main St.","lat":38.47538,"libraryname":"Webster-Addison Public Library","state":"WV"},"type":"Feature","geometry":{"type":"Point","coordinates":[-80.409974,38.47538]}},{"properties":{"city":"Huntington","lon":-82.478088,"zip":25704,"librarysystem":"Cabell County Public Libraries","phone":"304.528.5697","id":"a63c8rslzk80","address":"901 14th St. W.","lat":38.408161,"libraryname":"West Huntington Public Library","state":"WV"},"type":"Feature","geometry":{"type":"Point","coordinates":[-82.478088,38.408161]}},{"properties":{"city":"Lewisburg","lon":-80.437256,"zip":24901,"librarysystem":"Greenbrier County Academic Libraries","phone":"304.647.6261","id":"a63c8rxetcu9","address":"400 North Lee St.","lat":37.805832,"libraryname":"West Virginia School of Osteopathic Medicine Library","state":"WV"},"type":"Feature","geometry":{"type":"Point","coordinates":[-80.437256,37.805832]}},{"properties":{"city":"Morgantown","lon":-79.967299,"zip":26506,"librarysystem":"Universtiy Libraries","phone":"304.293.4040","id":"a63c8rkmtkth","address":"PO Box 6069","lat":39.64861,"libraryname":"West Virginia University","state":"WV"},"type":"Feature","geometry":{"type":"Point","coordinates":[-79.967299,39.64861]}},{"properties":{"city":"Wheeling","lon":-80.695779,"zip":26003,"librarysystem":"Robert C. Byrd National Technology Center Resource Center","phone":"304.243.3308","id":"a63c8rrucd69","address":"1 Medical Park","lat":40.066502,"libraryname":"Wheeling Hospital Henry G. Jepson Memorial Library","state":"WV"},"type":"Feature","geometry":{"type":"Point","coordinates":[-80.695779,40.066502]}},{"properties":{"city":"White Sulphur Springs","lon":-80.303546,"zip":24986,"librarysystem":"Greenbrier County Public Libraries","phone":"304.536.1171","id":"a63c8rtlahnz","address":"203 West Main St.","lat":37.788681,"libraryname":"White Sulphur Springs Public Library","state":"WV"},"type":"Feature","geometry":{"type":"Point","coordinates":[-80.303546,37.788681]}},{"properties":{"city":"Whitesville","lon":-81.533099,"zip":25209,"librarysystem":"Boone County Public Libraries","phone":"304.854.0196","id":"a63c8rofhmds","address":"38175 Coal River Rd.","lat":37.96993,"libraryname":"Whitesville Branch Library","state":"WV"},"type":"Feature","geometry":{"type":"Point","coordinates":[-81.533099,37.96993]}},{"properties":{"city":"Weston","lon":-80.48876,"zip":26452,"librarysystem":"Lewis County Special Libraries","phone":"304.269.1210ext.399","id":"a63c8rkucnpw","address":"936 Sharpe Hospital Rd.","lat":39.040945,"libraryname":"William R. Sharpe Jr. Hospital Patient Library","state":"WV"},"type":"Feature","geometry":{"type":"Point","coordinates":[-80.48876,39.040945]}},{"properties":{"city":"Williamson","lon":-82.293306,"zip":25661,"librarysystem":"Mingo County Academic Libraries","phone":"304.235.6064ext.353","id":"a63c8ri0cox3","address":"1601 Armory Dr.","lat":37.677406,"libraryname":"Williamson Library","state":"WV"},"type":"Feature","geometry":{"type":"Point","coordinates":[-82.293306,37.677406]}},{"properties":{"city":"Williamson","lon":-82.2764,"zip":25661,"librarysystem":"Mingo County Public Libraries","phone":"304.235.6029","id":"a63c8rpqypxr","address":"101 Logan St.","lat":37.673286,"libraryname":"Williamson Public Library","state":"WV"},"type":"Feature","geometry":{"type":"Point","coordinates":[-82.2764,37.673286]}},{"properties":{"city":"Williamstown","lon":-81.451363,"zip":26187,"librarysystem":"Wood County Public Libraries","phone":"304.375.6052","id":"a63c8rq3txko","address":"201 West 5th St.","lat":39.400677,"libraryname":"Williamstown Public Library","state":"WV"},"type":"Feature","geometry":{"type":"Point","coordinates":[-81.451363,39.400677]}},{"properties":{"city":"Pineville","lon":-81.538764,"zip":24874,"librarysystem":"Wyoming County Public Libraries","phone":"304.732.6228","id":"a63c8rqf06k3","address":"Castle Rock Ave.","lat":37.582835,"libraryname":"Wyoming County Public Library","state":"WV"},"type":"Feature","geometry":{"type":"Point","coordinates":[-81.538764,37.582835]}}],"is_temporal":false,"author":{"url":"http://www.publiclibraries.com/westvirginia.htm","metadata":"","contact_name":"","contact_address":"","source":"publiclibraries.com","contact_phone":""},"source":"http://www.publiclibraries.com/westvirginia.htm","pagination":{"sort":null,"start":0,"total":237,"limit":1000000},"state":"complete","tags":"books,education,libraries,library,public,virginia,west","published":"2008-05-09T12:00:00Z","id":963}