{"type":"FeatureCollection","data_type":"Dataset","url_type":null,"permissions":[{"permissions":{"download":true,"view":true},"group_id":"everyone"}],"classification":null,"title":"publiclibraries.com, Wyoming Public Libraries, Wyoming, 1.2008","count":74,"stream_id":965,"contributor":{"url":"http://geocommons.com/users/2","name":"data"},"data_attributes":null,"calculation_params":null,"icon_link":null,"link":"http://geocommons.com/overlays/965.json","extent":[-111.109,41.0356,-104.068,44.9694],"geometry_types":["point"],"unique_name":null,"name":"publiclibraries.com, Wyoming Public Libraries, Wyoming, 1.2008","feature_count":74,"description":"This dataset displays the locations of all the public libraries in the state of Wyoming. The data included is the name of the library, name of the library system, library's address, phone, and lat/lon coordinates. The data came from publiclibraries.com which is a updated directory of all the public libraries throughout the United States.\n","next_feature":null,"is_raster":false,"short_classification":"Y","stats":{"lon":{"max":-104.068003,"mean":-107.397542837838,"variance":4.10702987460537,"stdev":2.02658083347429,"min":-111.108829,"median":-107.160843},"zip":{"max":83422,"mean":82586.3648648649,"variance":103001.303406146,"stdev":320.938161342876,"min":82001,"median":82601},"lat":{"max":44.96938,"mean":42.8597026891892,"variance":1.58144485290819,"stdev":1.25755510929271,"min":41.03557,"median":42.760988}},"features":[{"properties":{"city":"Afton","lon":-110.933069,"zip":83110,"librarysystem":"Lincoln County Library System","id":"a62v9cjoxlf0","address":"261 Washington","lat":42.735317,"libraryname":"Star Valley Branch Library","state":"WY"},"type":"Feature","geometry":{"type":"Point","coordinates":[-110.933069,42.735317]}},{"properties":{"city":"Laramie","lon":-105.587245,"zip":82070,"librarysystem":"Albany County Library System","id":"a62v9c9lh6z5","address":"310 South 8th Street","lat":41.310447,"libraryname":"Albany County Public Library","state":"WY"},"type":"Feature","geometry":{"type":"Point","coordinates":[-105.587245,41.310447]}},{"properties":{"city":"Alta","lon":-111.108829,"zip":83422,"librarysystem":"Teton County Library","id":"a62v9cjvwsd2","address":"Alta Elementary School","lat":43.71946,"libraryname":"Alta Branch Library","state":"WY"},"type":"Feature","geometry":{"type":"Point","coordinates":[-111.108829,43.71946]}},{"properties":{"city":"Bairoil","lon":-107.559664,"zip":82322,"librarysystem":"Sweetwater County Library System","id":"a62v9ciam3ey","address":"501 Indian Paintbrush St.","lat":42.235038,"libraryname":"Bairoil Branch Library","state":"WY"},"type":"Feature","geometry":{"type":"Point","coordinates":[-107.559664,42.235038]}},{"properties":{"city":"Basin","lon":-108.039475,"zip":82410,"librarysystem":"Big Horn County Library System","id":"a62v9caq5yfa","address":"430 West C Street","lat":44.381298,"libraryname":"Big Horn County Library System","state":"WY"},"type":"Feature","geometry":{"type":"Point","coordinates":[-108.039475,44.381298]}},{"properties":{"city":"Burns","lon":-104.359232,"zip":82053,"librarysystem":"Laramie County Library System","id":"a62v9ccbj2ka","address":"112 Main Street","lat":41.192482,"libraryname":"Burns Branch Library","state":"WY"},"type":"Feature","geometry":{"type":"Point","coordinates":[-104.359232,41.192482]}},{"properties":{"city":"Gillette","lon":-105.509581,"zip":82718,"librarysystem":"Campbell County Public Library","id":"a62v9c8suduv","address":"2101 South 4J Road","lat":44.271371,"libraryname":"Campbell County Public Library","state":"WY"},"type":"Feature","geometry":{"type":"Point","coordinates":[-105.509581,44.271371]}},{"properties":{"city":"Rawlins","lon":-107.237171,"zip":82301,"librarysystem":"Carbon County Library System","id":"a62v9cgaouts","address":"215 W Buffalo Street","lat":41.789431,"libraryname":"Carbon County Library System","state":"WY"},"type":"Feature","geometry":{"type":"Point","coordinates":[-107.237171,41.789431]}},{"properties":{"city":"Centennial","lon":-106.177269,"zip":82055,"librarysystem":"Albany County Library System","id":"a62v9c6cn8qp","address":"Po Box 188","lat":41.300157,"libraryname":"Centennial Library Branch","state":"WY"},"type":"Feature","geometry":{"type":"Point","coordinates":[-106.177269,41.300157]}},{"properties":{"city":"Chugwater","lon":-104.822311,"zip":82210,"librarysystem":"Platte County Library System","id":"a62v9ca73boe","address":"301 Second Street","lat":41.757122,"libraryname":"Chugwater Branch Library","state":"WY"},"type":"Feature","geometry":{"type":"Point","coordinates":[-104.822311,41.757122]}},{"properties":{"city":"Clearmont","lon":-106.432488,"zip":82835,"librarysystem":"Sheridan County Library System","id":"a62v9c4g9kbm","address":"PO Box 26","lat":44.715371,"libraryname":"Clearmont Branch Library","state":"WY"},"type":"Feature","geometry":{"type":"Point","coordinates":[-106.432488,44.715371]}},{"properties":{"city":"Cokeville","lon":-110.953174,"zip":83114,"librarysystem":"Lincoln County Library System","id":"a62v9c3mo0e2","address":"240 E. Main","lat":42.085505,"libraryname":"Cokeville Branch Library","state":"WY"},"type":"Feature","geometry":{"type":"Point","coordinates":[-110.953174,42.085505]}},{"properties":{"city":"Douglas","lon":-105.383927,"zip":82633,"librarysystem":"Converse County Library System","id":"a62v9ciuo5gh","address":"300 Walnut","lat":42.760988,"libraryname":"Converse County Library System","state":"WY"},"type":"Feature","geometry":{"type":"Point","coordinates":[-105.383927,42.760988]}},{"properties":{"city":"Sundance","lon":-104.383279,"zip":82729,"librarysystem":"Crook County Library System","id":"a62v9c5uxgdx","address":"414 Main Street","lat":44.40459,"libraryname":"Crook County Library System","state":"WY"},"type":"Feature","geometry":{"type":"Point","coordinates":[-104.383279,44.40459]}},{"properties":{"city":"Deaver","lon":-108.597337,"zip":82421,"librarysystem":"Big Horn County Library System","id":"a62v9c5q3go1","address":"180 W First","lat":44.891018,"libraryname":"Deaver Branch Library","state":"WY"},"type":"Feature","geometry":{"type":"Point","coordinates":[-108.597337,44.891018]}},{"properties":{"city":"Dubois","lon":-108.58281,"zip":82515,"librarysystem":"Fremont County Library System","id":"a62v9cioqsna","address":"PO Box 787","lat":42.904291,"libraryname":"Dubois Branch Library","state":"WY"},"type":"Feature","geometry":{"type":"Point","coordinates":[-108.58281,42.904291]}},{"properties":{"city":"Elk Mountain","lon":-106.413644,"zip":82324,"librarysystem":"Carbon County Library System","id":"a62v9chafxc1","address":"105 Bridge Street","lat":41.686029,"libraryname":"Elk Mountain Branch Library","state":"WY"},"type":"Feature","geometry":{"type":"Point","coordinates":[-106.413644,41.686029]}},{"properties":{"city":"Encampment","lon":-106.793129,"zip":82325,"librarysystem":"Carbon County Library System","id":"a62v9ch3752n","address":"202 Rankin Street","lat":41.20858,"libraryname":"Encampment Branch Library","state":"WY"},"type":"Feature","geometry":{"type":"Point","coordinates":[-106.793129,41.20858]}},{"properties":{"city":"Farson","lon":-109.444053,"zip":82932,"librarysystem":"Sweetwater County Library System","id":"a62v9c77vjep","address":"30 Hwy 28","lat":42.110626,"libraryname":"Farson Branch Library","state":"WY"},"type":"Feature","geometry":{"type":"Point","coordinates":[-109.444053,42.110626]}},{"properties":{"city":"Frannie","lon":-108.617438,"zip":82423,"librarysystem":"Big Horn County Library System","id":"a62v9c3ls0yo","address":"311 4th Street","lat":44.96938,"libraryname":"Frannie Branch Library","state":"WY"},"type":"Feature","geometry":{"type":"Point","coordinates":[-108.617438,44.96938]}},{"properties":{"city":"Lander","lon":-108.727917,"zip":82520,"librarysystem":"Fremont County Library System","id":"a62v9cj2v37d","address":"451 North 2nd Street","lat":42.836356,"libraryname":"Fremont County Lander Library","state":"WY"},"type":"Feature","geometry":{"type":"Point","coordinates":[-108.727917,42.836356]}},{"properties":{"city":"Glendo","lon":-105.026623,"zip":82213,"librarysystem":"Platte County Library System","id":"a62v9cg1bcmn","address":"213 Second Street","lat":42.503559,"libraryname":"Glendo Branch Library","state":"WY"},"type":"Feature","geometry":{"type":"Point","coordinates":[-105.026623,42.503559]}},{"properties":{"city":"Glenrock","lon":-105.871933,"zip":82637,"librarysystem":"Converse County Library System","id":"a62v9cjc8ya5","address":"518 S. 4th","lat":42.857983,"libraryname":"Glenrock Branch Library","state":"WY"},"type":"Feature","geometry":{"type":"Point","coordinates":[-105.871933,42.857983]}},{"properties":{"city":"Torrington","lon":-104.182855,"zip":82240,"librarysystem":"Goshen County Library","id":"a62v9cdladat","address":"2001 East A Street","lat":42.064148,"libraryname":"Goshen County Library","state":"WY"},"type":"Feature","geometry":{"type":"Point","coordinates":[-104.182855,42.064148]}},{"properties":{"city":"Granger","lon":-109.968249,"zip":82934,"librarysystem":"Sweetwater County Library System","id":"a62v9cfkav79","address":"60 Spruce Street","lat":41.58942,"libraryname":"Granger Branch Library","state":"WY"},"type":"Feature","geometry":{"type":"Point","coordinates":[-109.968249,41.58942]}},{"properties":{"city":"Greybull","lon":-108.05156,"zip":82426,"librarysystem":"Big Horn County Library System","id":"a62v9celu6ju","address":"325 Greybull Avenue","lat":44.488745,"libraryname":"Greybull Branch Library","state":"WY"},"type":"Feature","geometry":{"type":"Point","coordinates":[-108.05156,44.488745]}},{"properties":{"city":"Guernsey","lon":-104.741444,"zip":82214,"librarysystem":"Platte County Library System","id":"a62v9cce3xrc","address":"108 South Wyoming Avenue","lat":42.268615,"libraryname":"Guernsey Branch Library","state":"WY"},"type":"Feature","geometry":{"type":"Point","coordinates":[-104.741444,42.268615]}},{"properties":{"city":"Hanna","lon":-106.563229,"zip":82327,"librarysystem":"Carbon County Library System","id":"a62v9c8y3noh","address":"303 3rd Street","lat":41.87198,"libraryname":"Hanna Branch Library","state":"WY"},"type":"Feature","geometry":{"type":"Point","coordinates":[-106.563229,41.87198]}},{"properties":{"city":"Thermopolis","lon":-108.207458,"zip":82443,"librarysystem":"Hot Springs County Library","id":"a62v9cf5ju4l","address":"344 Arapahoe Street","lat":43.647364,"libraryname":"Hot Springs County Library","state":"WY"},"type":"Feature","geometry":{"type":"Point","coordinates":[-108.207458,43.647364]}},{"properties":{"city":"Hulett","lon":-104.601544,"zip":82720,"librarysystem":"Crook County Library System","id":"a62v9cgsvi2t","address":"401 Sager Street","lat":44.684045,"libraryname":"Hulett Branch Library","state":"WY"},"type":"Feature","geometry":{"type":"Point","coordinates":[-104.601544,44.684045]}},{"properties":{"city":"Hyattville","lon":-107.602834,"zip":82426,"librarysystem":"Big Horn County Library System","id":"a62v9c6cgh91","address":"119 North Main","lat":44.248985,"libraryname":"Hyattville Branch Library","state":"WY"},"type":"Feature","geometry":{"type":"Point","coordinates":[-107.602834,44.248985]}},{"properties":{"city":"Buffalo","lon":-106.700294,"zip":82834,"librarysystem":"Johnson County Library System","id":"a62v9c5fnhtl","address":"171 North Adams","lat":44.349113,"libraryname":"Johnson County Library System","state":"WY"},"type":"Feature","geometry":{"type":"Point","coordinates":[-106.700294,44.349113]}},{"properties":{"city":"Kaycee","lon":-106.637594,"zip":82639,"librarysystem":"Johnson County Library System","id":"a62v9cd8icma","address":"231 Ritter Ave.","lat":43.713132,"libraryname":"Kaycee Branch Library","state":"WY"},"type":"Feature","geometry":{"type":"Point","coordinates":[-106.637594,43.713132]}},{"properties":{"city":"Labarge","lon":-110.194521,"zip":83123,"librarysystem":"Lincoln County Library System","id":"a62v9chpnq5y","address":"262 Main Street","lat":42.269441,"libraryname":"Labarge Branch Library","state":"WY"},"type":"Feature","geometry":{"type":"Point","coordinates":[-110.194521,42.269441]}},{"properties":{"city":"Cheyenne","lon":-104.821302,"zip":82001,"librarysystem":"Laramie County Library System","id":"a62v9cjf1xd0","address":"2800 Central Ave","lat":41.143836,"libraryname":"Laramie County Library System","state":"WY"},"type":"Feature","geometry":{"type":"Point","coordinates":[-104.821302,41.143836]}},{"properties":{"city":"Linch","lon":-106.200399,"zip":82640,"librarysystem":"Johnson County Library System","id":"a62v9c7uugg1","address":"PO Box 160","lat":43.607202,"libraryname":"Linch Branch Library","state":"WY"},"type":"Feature","geometry":{"type":"Point","coordinates":[-106.200399,43.607202]}},{"properties":{"city":"Kemmerer","lon":-110.541683,"zip":83101,"librarysystem":"Lincoln County Library System","id":"a62v9cbvopqe","address":"519 Emerald","lat":41.794829,"libraryname":"Lincoln County Library System","state":"WY"},"type":"Feature","geometry":{"type":"Point","coordinates":[-110.541683,41.794829]}},{"properties":{"city":"Baggs","lon":-107.652444,"zip":82321,"librarysystem":"Carbon County Library System","id":"a62v9cdiw23c","address":"105 2nd Street","lat":41.03557,"libraryname":"Little Snake River Valley","state":"WY"},"type":"Feature","geometry":{"type":"Point","coordinates":[-107.652444,41.03557]}},{"properties":{"city":"Lovell","lon":-108.3874,"zip":82431,"librarysystem":"Big Horn County Library System","id":"a62v9cgj8scm","address":"300 Oregon Ave.","lat":44.838862,"libraryname":"Lovell Branch Library","state":"WY"},"type":"Feature","geometry":{"type":"Point","coordinates":[-108.3874,44.838862]}},{"properties":{"city":"Lyman","lon":-110.318319,"zip":82937,"librarysystem":"Uinta County Library System","id":"a62v9ccei9pz","address":"PO Box 839","lat":41.341669,"libraryname":"Lyman Branch Library","state":"WY"},"type":"Feature","geometry":{"type":"Point","coordinates":[-110.318319,41.341669]}},{"properties":{"city":"Edgerton","lon":-106.247853,"zip":82635,"librarysystem":"Natrona County Library System","id":"a62v9c54w1hi","address":"935 Cottonwood","lat":43.413219,"libraryname":"Mark J. Davis Branch Library","state":"WY"},"type":"Feature","geometry":{"type":"Point","coordinates":[-106.247853,43.413219]}},{"properties":{"city":"Medicine Bow","lon":-106.176592,"zip":82329,"librarysystem":"Carbon County Library System","id":"a62v9cf91op7","address":"302 Sage Street","lat":41.983981,"libraryname":"Medicine Bow Branch Library","state":"WY"},"type":"Feature","geometry":{"type":"Point","coordinates":[-106.176592,41.983981]}},{"properties":{"city":"Meeteetse","lon":-108.874649,"zip":82433,"librarysystem":"Park County Library System","id":"a62v9cj2fbya","address":"2107 Idaho Street","lat":44.154603,"libraryname":"Meeteetse Branch Library","state":"WY"},"type":"Feature","geometry":{"type":"Point","coordinates":[-108.874649,44.154603]}},{"properties":{"city":"Mills","lon":-106.371266,"zip":82644,"librarysystem":"Natrona County Library System","id":"a62v9cd4t8q4","address":"425 Morgan Ave.","lat":42.840823,"libraryname":"Mills Public Library","state":"WY"},"type":"Feature","geometry":{"type":"Point","coordinates":[-106.371266,42.840823]}},{"properties":{"city":"Moorcroft","lon":-104.951511,"zip":82721,"librarysystem":"Crook County Library System","id":"a62v9c82hq22","address":"105 East Converse","lat":44.263378,"libraryname":"Moorcroft Branch Library","state":"WY"},"type":"Feature","geometry":{"type":"Point","coordinates":[-104.951511,44.263378]}},{"properties":{"city":"Mountain View","lon":-110.335961,"zip":82939,"librarysystem":"Uinta County Library System","id":"a62v9cgfr4jh","address":"PO Box 530","lat":41.271401,"libraryname":"Mountain View Branch Library","state":"WY"},"type":"Feature","geometry":{"type":"Point","coordinates":[-110.335961,41.271401]}},{"properties":{"city":"Casper","lon":-106.322139,"zip":82601,"librarysystem":"Natrona County Library System","id":"a62v9c9j2j71","address":"307 East 2nd","lat":42.848579,"libraryname":"Natrona County Library System","state":"WY"},"type":"Feature","geometry":{"type":"Point","coordinates":[-106.322139,42.848579]}},{"properties":{"city":"Lusk","lon":-104.45189,"zip":82225,"librarysystem":"Niobrara County Library","id":"a62v9c8kuk8v","address":"425 South Main Street","lat":42.760955,"libraryname":"Niobrara County Library","state":"WY"},"type":"Feature","geometry":{"type":"Point","coordinates":[-104.45189,42.760955]}},{"properties":{"city":"Cody","lon":-109.066741,"zip":82414,"librarysystem":"Park County Library System","id":"a62v9c6qy61j","address":"1057 Sheridan Ave.","lat":44.526269,"libraryname":"Park County Library System","state":"WY"},"type":"Feature","geometry":{"type":"Point","coordinates":[-109.066741,44.526269]}},{"properties":{"city":"Pine Bluffs","lon":-104.068003,"zip":82082,"librarysystem":"Laramie County Library System","id":"a62v9c7z83tx","address":"110 E. 2nd Street","lat":41.182761,"libraryname":"Pine Bluffs Branch Library","state":"WY"},"type":"Feature","geometry":{"type":"Point","coordinates":[-104.068003,41.182761]}},{"properties":{"city":"Piney","lon":-110.109539,"zip":83113,"librarysystem":"Sublette County Library System","id":"a62v9cfh1axg","address":"PO Box 768","lat":42.555395,"libraryname":"Piney Branch Library","state":"WY"},"type":"Feature","geometry":{"type":"Point","coordinates":[-110.109539,42.555395]}},{"properties":{"city":"Wheatland","lon":-104.953116,"zip":82201,"librarysystem":"Platte County Library System","id":"a62v9c5dywft","address":"904 9th Street","lat":42.056345,"libraryname":"Platte County Public Library","state":"WY"},"type":"Feature","geometry":{"type":"Point","coordinates":[-104.953116,42.056345]}},{"properties":{"city":"Powell","lon":-108.757222,"zip":82435,"librarysystem":"Park County Library System","id":"a62v9chj3auj","address":"217 East 3rd Street","lat":44.755627,"libraryname":"Powell Branch Library","state":"WY"},"type":"Feature","geometry":{"type":"Point","coordinates":[-108.757222,44.755627]}},{"properties":{"city":"Reliance","lon":-109.193521,"zip":82943,"librarysystem":"Sweetwater County Library System","id":"a62v9ci3scx2","address":"1329 Main","lat":41.670519,"libraryname":"Reliance Branch Library","state":"WY"},"type":"Feature","geometry":{"type":"Point","coordinates":[-109.193521,41.670519]}},{"properties":{"city":"Riverton","lon":-108.408866,"zip":82501,"librarysystem":"Fremont County Library System","id":"a62v9c74gj17","address":"1330 West Park","lat":43.026729,"libraryname":"Riverton Branch Library","state":"WY"},"type":"Feature","geometry":{"type":"Point","coordinates":[-108.408866,43.026729]}},{"properties":{"city":"Rock River","lon":-105.979728,"zip":82083,"librarysystem":"Albany County Library System","id":"a62v9cjrckrs","address":"PO Box 213","lat":41.737267,"libraryname":"Rock River Branch Library","state":"WY"},"type":"Feature","geometry":{"type":"Point","coordinates":[-105.979728,41.737267]}},{"properties":{"city":"Rock Springs","lon":-109.218693,"zip":82901,"librarysystem":"Sweetwater County Library System","id":"a62v9c8xsbgn","address":"400 C Street","lat":41.583514,"libraryname":"Rock Springs Branch Library","state":"WY"},"type":"Feature","geometry":{"type":"Point","coordinates":[-109.218693,41.583514]}},{"properties":{"city":"Saratoga","lon":-106.824329,"zip":82331,"librarysystem":"Carbon County Library System","id":"a62v9c899kc8","address":"503 West Elm Street","lat":41.45289,"libraryname":"Saratoga Branch Library","state":"WY"},"type":"Feature","geometry":{"type":"Point","coordinates":[-106.824329,41.45289]}},{"properties":{"city":"Sheridan","lon":-106.958164,"zip":82801,"librarysystem":"Sheridan County Library System","id":"a62v9c5qi0sk","address":"335 W. Alger Street","lat":44.801416,"libraryname":"Sheridan County Fulmer Public Library","state":"WY"},"type":"Feature","geometry":{"type":"Point","coordinates":[-106.958164,44.801416]}},{"properties":{"city":"Sinclair","lon":-107.117989,"zip":82334,"librarysystem":"Carbon County Library System","id":"a62v9c6avzzq","address":"7th and Lincoln","lat":41.77906,"libraryname":"Sinclair Branch Library","state":"WY"},"type":"Feature","geometry":{"type":"Point","coordinates":[-107.117989,41.77906]}},{"properties":{"city":"Story","lon":-106.893801,"zip":82842,"librarysystem":"Sheridan County Library System","id":"a62v9c42d64x","address":"20 N. Piney","lat":44.576782,"libraryname":"Story Branch Library","state":"WY"},"type":"Feature","geometry":{"type":"Point","coordinates":[-106.893801,44.576782]}},{"properties":{"city":"Pinedale","lon":-109.861123,"zip":82941,"librarysystem":"Sublette County Library System","id":"a62v9cbz5in0","address":"155 S. Tyler Ave.","lat":42.86246,"libraryname":"Sublette County Library","state":"WY"},"type":"Feature","geometry":{"type":"Point","coordinates":[-109.861123,42.86246]}},{"properties":{"city":"Superior","lon":-108.967998,"zip":82945,"librarysystem":"Sweetwater County Library System","id":"a62v9cbc622l","address":"3 North Main","lat":41.763343,"libraryname":"Superior Branch Library","state":"WY"},"type":"Feature","geometry":{"type":"Point","coordinates":[-108.967998,41.763343]}},{"properties":{"city":"Green River","lon":-109.464608,"zip":82935,"librarysystem":"Sweetwater County Library System","id":"a62v9c3wv75z","address":"300N 1st E","lat":41.530195,"libraryname":"Sweetwater County Library","state":"WY"},"type":"Feature","geometry":{"type":"Point","coordinates":[-109.464608,41.530195]}},{"properties":{"city":"Ten Sleep","lon":-107.448654,"zip":82442,"librarysystem":"Washakie County Library System","id":"a62v9c7119wo","address":"401 Fir Street","lat":44.035166,"libraryname":"Ten Sleep Branch Library","state":"WY"},"type":"Feature","geometry":{"type":"Point","coordinates":[-107.448654,44.035166]}},{"properties":{"city":"Jackson","lon":-110.747614,"zip":83001,"librarysystem":"Teton County Library","id":"a62v9chdtn8z","address":"PO Box 1629","lat":43.478519,"libraryname":"Teton County Library","state":"WY"},"type":"Feature","geometry":{"type":"Point","coordinates":[-110.747614,43.478519]}},{"properties":{"city":"Ranchester","lon":-107.160843,"zip":82839,"librarysystem":"Sheridan County Library System","id":"a62v9cacl315","address":"145 Coffeen Street","lat":44.909323,"libraryname":"Tongue River Branch Library","state":"WY"},"type":"Feature","geometry":{"type":"Point","coordinates":[-107.160843,44.909323]}},{"properties":{"city":"Evanston","lon":-110.963101,"zip":82930,"librarysystem":"Uinta County Library System","id":"a62v9c93534s","address":"701 Main Street","lat":41.265602,"libraryname":"Uinta County Library","state":"WY"},"type":"Feature","geometry":{"type":"Point","coordinates":[-110.963101,41.265602]}},{"properties":{"city":"Upton","lon":-104.624589,"zip":82730,"librarysystem":"Weston County Library System","id":"a62v9citd7ct","address":"722 4th Street","lat":44.100805,"libraryname":"Upton Branch Library","state":"WY"},"type":"Feature","geometry":{"type":"Point","coordinates":[-104.624589,44.100805]}},{"properties":{"city":"Wamsutter","lon":-108.040471,"zip":82336,"librarysystem":"Sweetwater County Library System","id":"a62v9c57fsdg","address":"PO Box 189","lat":41.642102,"libraryname":"Wamsutter Branch Library","state":"WY"},"type":"Feature","geometry":{"type":"Point","coordinates":[-108.040471,41.642102]}},{"properties":{"city":"Worland","lon":-107.955409,"zip":82401,"librarysystem":"Washakie County Library System","id":"a62v9c7kto4m","address":"1019 Coburn Ave.","lat":44.015947,"libraryname":"Washakie County Library","state":"WY"},"type":"Feature","geometry":{"type":"Point","coordinates":[-107.955409,44.015947]}},{"properties":{"city":"Newcastle","lon":-104.202422,"zip":82701,"librarysystem":"Weston County Library System","id":"a62v9ciw71wo","address":"23 West Main St.","lat":43.855714,"libraryname":"Weston County Library","state":"WY"},"type":"Feature","geometry":{"type":"Point","coordinates":[-104.202422,43.855714]}},{"properties":{"city":"Rock","lon":-109.271323,"zip":82901,"librarysystem":"Sweetwater County Library System","id":"a62v9c66s6jm","address":"2935 Sweetwater Drive","lat":41.583008,"libraryname":"White Mountain Branch Library","state":"WY"},"type":"Feature","geometry":{"type":"Point","coordinates":[-109.271323,41.583008]}},{"properties":{"city":"Wright","lon":-105.493715,"zip":82732,"librarysystem":"Campbell County Public Library","id":"a62v9cip66zj","address":"305 Wright Boulevard","lat":43.750947,"libraryname":"Wright Branch Library","state":"WY"},"type":"Feature","geometry":{"type":"Point","coordinates":[-105.493715,43.750947]}}],"is_temporal":false,"author":{"url":"http://www.publiclibraries.com/wyoming.htm","metadata":"","contact_name":"","contact_address":"","source":"publiclibraries.com","contact_phone":""},"source":"http://www.publiclibraries.com/wyoming.htm","pagination":{"sort":null,"start":0,"total":74,"limit":1000000},"state":"complete","tags":"books,education,libraries,library,public,wyoming","published":"2008-05-09T12:00:00Z","id":965}