{"type":"FeatureCollection","data_type":"Dataset","url_type":null,"permissions":[{"permissions":{"download":true,"view":true},"group_id":"everyone"}],"classification":null,"title":"CND 4-6 Interactions 2010-2011March1","count":33,"stream_id":96802,"contributor":{"url":"http://geocommons.com/users/14142","name":"sdevries"},"data_attributes":null,"calculation_params":null,"icon_link":null,"link":"http://geocommons.com/overlays/96802.json","extent":[0.0,0.0,0.0,0.0],"geometry_types":null,"unique_name":null,"name":"CND 4-6 Interactions 2010-2011March1","feature_count":33,"description":"","next_feature":null,"is_raster":false,"short_classification":"Y","stats":{"total":{"max":6,"mean":4.60606060606061,"variance":0.621212121212121,"stdev":0.788170109311512,"min":4,"median":4},"church number":{"max":9999,"mean":4236.15151515152,"variance":10635203.6325758,"stdev":3261.16599279702,"min":146,"median":5502},"# 2010 interactions":{"max":6,"mean":3.63636363636364,"variance":1.61363636363636,"stdev":1.27028987386201,"min":2,"median":4},"# 2011 interactions":{"max":4,"mean":0.96969696969697,"variance":1.28030303030303,"stdev":1.13150476371204,"min":0,"median":1}},"features":[{"properties":{"city":"Burlington","total":4,"church name":"Living Mosaic","church number":146,"# 2010 interactions":4,"street":"1450 Headon Rd","id":"a6d87zai28dw","# 2011 interactions":0,"zip postal":"L7M 4A3"},"type":"Feature","geometry":null},{"properties":{"city":"Wingham","total":4,"church name":"Maitland River Community Church","church number":159,"# 2010 interactions":4,"street":"PO Box 939","id":"a6d87z44eb6b","# 2011 interactions":0,"zip postal":"N0G 2W0"},"type":"Feature","geometry":null},{"properties":{"city":"London","total":4,"church name":"Connections Community Church","church number":256,"# 2010 interactions":4,"street":"531 Talbot St","id":"a6d87zbturrp","# 2011 interactions":0,"zip postal":"N6A 2S5"},"type":"Feature","geometry":null},{"properties":{"city":"Barrhead","total":4,"church name":"Barrhead","church number":307,"# 2010 interactions":2,"street":"4704  52nd Ave","id":"a6d87yy8lv0p","# 2011 interactions":2,"zip postal":"T7N 1H3"},"type":"Feature","geometry":null},{"properties":{"city":"Calgary","total":4,"church name":"New Hope","church number":616,"# 2010 interactions":4,"street":"PO Box 61168 Kensington Post Outlet","id":"a6d87z4gmuim","# 2011 interactions":0,"zip postal":"T2N 4S6"},"type":"Feature","geometry":null},{"properties":{"city":"Williams Lake","total":4,"church name":"Cariboo Community","church number":1084,"# 2010 interactions":4,"street":"PO Box 4625","id":"a6d87z7kk98n","# 2011 interactions":0,"zip postal":"V2G 2V6"},"type":"Feature","geometry":null},{"properties":{"city":"Sarnia","total":4,"church name":"Redeemer","church number":2143,"# 2010 interactions":2,"street":"5834 Blackwell Side Rd","id":"a6d87yynsrmg","# 2011 interactions":2,"zip postal":"N7W 1A1"},"type":"Feature","geometry":null},{"properties":{"city":"Athens","total":4,"church name":"Athens","church number":3002,"# 2010 interactions":4,"street":"14 Wellington St","id":"a6d87z055s0l","# 2011 interactions":0,"zip postal":"K0E 1B0"},"type":"Feature","geometry":null},{"properties":{"city":"Kemptville","total":4,"church name":"First","church number":3042,"# 2010 interactions":4,"street":"RR 5","id":"a6d87z5gxxs1","# 2011 interactions":0,"zip postal":"K0G 1J0"},"type":"Feature","geometry":null},{"properties":{"city":"Truro","total":4,"church name":"John Calvin","church number":3092,"# 2010 interactions":4,"street":"PO Box 711","id":"a6d87zddxyr9","# 2011 interactions":0,"zip postal":"B2N 5E5"},"type":"Feature","geometry":null},{"properties":{"city":"Acton","total":4,"church name":"Bethel","church number":5502,"# 2010 interactions":4,"street":"Box 369","id":"a6d87z22vdj8","# 2011 interactions":0,"zip postal":"L7J 2M6"},"type":"Feature","geometry":null},{"properties":{"city":"Drayton","total":4,"church name":"Drayton","church number":5518,"# 2010 interactions":4,"street":"88 Main St East","id":"a6d87z2n7f4z","# 2011 interactions":0,"zip postal":"N0G 1P0"},"type":"Feature","geometry":null},{"properties":{"city":"Orangeville","total":4,"church name":"Orangeville","church number":5546,"# 2010 interactions":2,"street":"50 Blind Line","id":"a6d87z9hi355","# 2011 interactions":2,"zip postal":"L9W 3A5"},"type":"Feature","geometry":null},{"properties":{"city":"Wellandport","total":4,"church name":"Riverside","church number":7189,"# 2010 interactions":4,"street":"RR 1 PO Box 25","id":"a6d87zb087nu","# 2011 interactions":0,"zip postal":"L0R 2J0"},"type":"Feature","geometry":null},{"properties":{"city":"Brighton","total":4,"church name":"Fellowship","church number":8216,"# 2010 interactions":2,"street":"Box 699","id":"a6d87z178j7h","# 2011 interactions":2,"zip postal":"K0K 1H0"},"type":"Feature","geometry":null},{"properties":{"city":"Whitby","total":4,"church name":"Hebron","church number":8230,"# 2010 interactions":2,"street":"4240 Anderson St","id":"a6d87zcqv5eh","# 2011 interactions":2,"zip postal":"L1R 2W1"},"type":"Feature","geometry":null},{"properties":{"city":"Peterborough","total":4,"church name":"Cephas","church number":8238,"# 2010 interactions":2,"street":"220 Goodfellow Rd","id":"a6d87z3n38aq","# 2011 interactions":2,"zip postal":"K9J 5X3"},"type":"Feature","geometry":null},{"properties":{"city":"Brampton","total":4,"church name":"CrossPoint","church number":9018,"# 2010 interactions":2,"street":"444 Steeles Ave W","id":"a6d87z2s15q7","# 2011 interactions":2,"zip postal":"L6Y 0J3"},"type":"Feature","geometry":null},{"properties":{"city":"Bowmanville","total":4,"church name":"Discovery Church","church number":9999,"# 2010 interactions":4,"street":"140 Queen St","id":"a6d87z8abapr","# 2011 interactions":0,"zip postal":"L1C 1M9"},"type":"Feature","geometry":null},{"properties":{"city":"Rimbey","total":5,"church name":"Rimbey","church number":394,"# 2010 interactions":4,"street":"Box 994","id":"a6d87z679h06","# 2011 interactions":1,"zip postal":"T0C 2J0"},"type":"Feature","geometry":null},{"properties":{"city":"Prince George","total":5,"church name":"Prince George","church number":936,"# 2010 interactions":4,"street":"Box 1906","id":"a6d87z5n3w1j","# 2011 interactions":1,"zip postal":"V2L 5E3"},"type":"Feature","geometry":null},{"properties":{"city":"Windsor","total":5,"church name":"Ambassador Community","church number":2152,"# 2010 interactions":4,"street":"3033 Rivard Ave","id":"a6d87zdw0tau","# 2011 interactions":1,"zip postal":"N8T 2J1"},"type":"Feature","geometry":null},{"properties":{"city":"Kitchener","total":5,"church name":"Community","church number":5534,"# 2010 interactions":4,"street":"1275 Bleams Rd","id":"a6d87z8isvuf","# 2011 interactions":1,"zip postal":"N2E 3X6"},"type":"Feature","geometry":null},{"properties":{"city":"Lucknow","total":5,"church name":"Lucknow Community","church number":5542,"# 2010 interactions":4,"street":"Box 338","id":"a6d87z1rxpem","# 2011 interactions":1,"zip postal":"N0G 2H0"},"type":"Feature","geometry":null},{"properties":{"city":"Thunder Bay","total":5,"church name":"Bethlehem","church number":6365,"# 2010 interactions":2,"street":"75 Walkover St","id":"a6d87z4ccpvi","# 2011 interactions":3,"zip postal":"P7B 6V1"},"type":"Feature","geometry":null},{"properties":{"city":"Kingston","total":5,"church name":"Westside Fellowship","church number":8224,"# 2010 interactions":2,"street":"1021 Woodbine Rd","id":"a6d87z4ntnla","# 2011 interactions":3,"zip postal":"K7P 2V9"},"type":"Feature","geometry":null},{"properties":{"city":"Oakville","total":5,"church name":"ClearView","church number":9020,"# 2010 interactions":4,"street":"2300 Sheridan Garden Dr","id":"a6d87z5tji8f","# 2011 interactions":1,"zip postal":"L6J 7R2"},"type":"Feature","geometry":null},{"properties":{"city":"Thorold","total":6,"church name":"The Village Church","church number":198,"# 2010 interactions":6,"street":"PO Box 47","id":"a6d87yy3fcls","# 2011 interactions":0,"zip postal":"L2V 3Y7"},"type":"Feature","geometry":null},{"properties":{"city":"Vancouver","total":6,"church name":"First","church number":954,"# 2010 interactions":4,"street":"2670 Victoria Dr","id":"a6d87z464jpz","# 2011 interactions":2,"zip postal":"V5N 4L2"},"type":"Feature","geometry":null},{"properties":{"city":"Vancouver","total":6,"church name":"Faith in Action Vietnamese","church number":959,"# 2010 interactions":2,"street":"2670 Victoria Dr","id":"a6d87z567f9m","# 2011 interactions":4,"zip postal":"V5N 4L2"},"type":"Feature","geometry":null},{"properties":{"city":"Cambridge","total":6,"church name":"River City","church number":5511,"# 2010 interactions":6,"street":"55 Fleming Dr Ste #22","id":"a6d87yzrevhb","# 2011 interactions":0,"zip postal":"N1T 2A9"},"type":"Feature","geometry":null},{"properties":{"city":"Cambridge","total":6,"church name":"Maranatha","church number":5526,"# 2010 interactions":6,"street":"94 Elgin St South","id":"a6d87z2kstyn","# 2011 interactions":0,"zip postal":"N1R 5G5"},"type":"Feature","geometry":null},{"properties":{"city":"Smithville","total":6,"church name":"Smithville","church number":7175,"# 2010 interactions":6,"street":"PO Box 422","id":"a6d87z0cfa39","# 2011 interactions":0,"zip postal":"L0R 2A0"},"type":"Feature","geometry":null}],"is_temporal":false,"author":{"url":"","metadata":"","contact_name":"Shirley De Vries","contact_address":"","source":"CRCNA's CORE db plus Salesforce in conjunction with a Canada city province dataset","contact_phone":""},"source":"","pagination":{"sort":null,"start":0,"total":33,"limit":1000000},"state":"complete","tags":"","published":"2011-03-01T19:11:26Z","id":96802}