{"type":"FeatureCollection","data_type":"Dataset","url_type":null,"permissions":[{"permissions":{"download":true,"view":true},"group_id":"everyone"}],"classification":null,"title":"CND 1-3 Interactions 2010-2011March1","count":124,"stream_id":96801,"contributor":{"url":"http://geocommons.com/users/14142","name":"sdevries"},"data_attributes":null,"calculation_params":null,"icon_link":null,"link":"http://geocommons.com/overlays/96801.json","extent":[0.0,0.0,0.0,0.0],"geometry_types":null,"unique_name":null,"name":"CND 1-3 Interactions 2010-2011March1","feature_count":124,"description":"","next_feature":null,"is_raster":false,"short_classification":"Y","stats":{"total":{"max":3,"mean":2.05645161290323,"variance":0.297600314712824,"stdev":0.545527556327656,"min":1,"median":2},"church number":{"max":9079,"mean":4172.79032258064,"variance":8543280.08575924,"stdev":2922.88899648263,"min":102,"median":4802},"# 2010 interactions":{"max":2,"mean":1.70967741935484,"variance":0.500393391030682,"stdev":0.707384895958828,"min":0,"median":2},"# 2011 interactions":{"max":3,"mean":0.346774193548387,"variance":0.309664306320482,"stdev":0.556474892803334,"min":0,"median":0}},"features":[{"properties":{"city":"Kelowna","total":1,"church name":"The Well","church number":185,"# 2010 interactions":0,"street":"Plaza 33","id":"a62b9fnncn22","# 2011 interactions":1,"zip postal":"V1X 7K7"},"type":"Feature","geometry":null},{"properties":{"city":"Edmonton","total":1,"church name":"The River Community","church number":325,"# 2010 interactions":0,"street":"3935 114th St","id":"a62b9fljmvp0","# 2011 interactions":1,"zip postal":"T6J 1M3"},"type":"Feature","geometry":null},{"properties":{"city":"Edmonton","total":1,"church name":"West End","church number":335,"# 2010 interactions":0,"street":"10015 149 St NW","id":"a62b9fuknvb1","# 2011 interactions":1,"zip postal":"T5P 4Y4"},"type":"Feature","geometry":null},{"properties":{"city":"St. Albert","total":1,"church name":"St. Albert","church number":397,"# 2010 interactions":0,"street":"12 Gate Ave","id":"a62b9fo374tm","# 2011 interactions":1,"zip postal":"T8N 5W1"},"type":"Feature","geometry":null},{"properties":{"city":"Port Alberni","total":1,"church name":"Alberni Valley","church number":933,"# 2010 interactions":0,"street":"5033 Roger St","id":"a62b9fgtovqq","# 2011 interactions":1,"zip postal":"V9Y 3Y9"},"type":"Feature","geometry":null},{"properties":{"city":"Terrace","total":1,"church name":"Terrace","church number":951,"# 2010 interactions":0,"street":"3602 Sparks St","id":"a62b9fsx02fx","# 2011 interactions":1,"zip postal":"V8G 2V6"},"type":"Feature","geometry":null},{"properties":{"city":"Agassiz","total":1,"church name":"Agassiz","church number":1029,"# 2010 interactions":0,"street":"Box 48","id":"a62b9fprox9g","# 2011 interactions":1,"zip postal":"V0M 1A0"},"type":"Feature","geometry":null},{"properties":{"city":"Kelowna","total":1,"church name":"Kelowna","church number":1053,"# 2010 interactions":0,"street":"239 Snowsell St","id":"a62b9ftvd7yy","# 2011 interactions":1,"zip postal":"V1V 2E4"},"type":"Feature","geometry":null},{"properties":{"city":"Langley","total":1,"church name":"Bridge Community","church number":1057,"# 2010 interactions":0,"street":"Box 56115","id":"a62b9fsxc3ny","# 2011 interactions":1,"zip postal":"V3A 8B3"},"type":"Feature","geometry":null},{"properties":{"city":"Abbotsford","total":1,"church name":"New Life","church number":1063,"# 2010 interactions":0,"street":"35270 Delair Road","id":"a62b9fuwnz32","# 2011 interactions":1,"zip postal":"V3G 2E2"},"type":"Feature","geometry":null},{"properties":{"city":"Surrey","total":1,"church name":"Fleetwood","church number":1077,"# 2010 interactions":0,"street":"9165 160 St","id":"a62b9fhm1s87","# 2011 interactions":1,"zip postal":"V4N 2X7"},"type":"Feature","geometry":null},{"properties":{"city":"Brandon","total":1,"church name":"First","church number":6312,"# 2010 interactions":0,"street":"1509 Victoria Ave","id":"a62b9fp5z2ka","# 2011 interactions":1,"zip postal":"R7A 1B7"},"type":"Feature","geometry":null},{"properties":{"city":"Port Perry","total":1,"church name":"Hope","church number":8240,"# 2010 interactions":0,"street":"PO Box 1169","id":"a62b9figm1zh","# 2011 interactions":1,"zip postal":"L9L 1A9"},"type":"Feature","geometry":null},{"properties":{"city":"Toronto","total":1,"church name":"All Nations Christian Fellowship","church number":9002,"# 2010 interactions":0,"street":"20 Bloor St E","id":"a62b9fgfi4d2","# 2011 interactions":1,"zip postal":"M4W 3T3"},"type":"Feature","geometry":null},{"properties":{"city":"Woodbridge","total":1,"church name":"Woodbridge-Maranatha","church number":9079,"# 2010 interactions":0,"street":"4561 Langstaff Rd","id":"a62b9fsr5vk3","# 2011 interactions":1,"zip postal":"L4L 2B2"},"type":"Feature","geometry":null},{"properties":{"city":"Lacombe","total":2,"church name":"Wolf Creek Community","church number":102,"# 2010 interactions":2,"street":"Box 5072","id":"a62b9ff4zlpf","# 2011 interactions":0,"zip postal":"T4L 1W7"},"type":"Feature","geometry":null},{"properties":{"city":"Surrey","total":2,"church name":"The Good Shepherd","church number":263,"# 2010 interactions":2,"street":"188 10077 156 St","id":"a62b9fgd5pue","# 2011 interactions":0,"zip postal":"V3R 4L6"},"type":"Feature","geometry":null},{"properties":{"city":"Edmonton","total":2,"church name":"Maranatha","church number":328,"# 2010 interactions":2,"street":"PO Box 20008  RPO Beverly","id":"a62b9fj4mu5k","# 2011 interactions":0,"zip postal":"T5W 5E6"},"type":"Feature","geometry":null},{"properties":{"city":"Stony Plain","total":2,"church name":"Hope","church number":398,"# 2010 interactions":2,"street":"PO Box 2479","id":"a62b9fnw0xm1","# 2011 interactions":0,"zip postal":"T7Z 1X9"},"type":"Feature","geometry":null},{"properties":{"city":"Calgary","total":2,"church name":"Emmanuel","church number":618,"# 2010 interactions":2,"street":"3020 51 St SW","id":"a62b9fsb66tr","# 2011 interactions":0,"zip postal":"T3E 6S7"},"type":"Feature","geometry":null},{"properties":{"city":"Calgary","total":2,"church name":"Maranatha","church number":619,"# 2010 interactions":2,"street":"2111 52nd St NW","id":"a62b9fg8nzzv","# 2011 interactions":0,"zip postal":"T3B 1C3"},"type":"Feature","geometry":null},{"properties":{"city":"Lethbridge","total":2,"church name":"First","church number":630,"# 2010 interactions":2,"street":"1402  8 Ave North","id":"a62b9fgyimhb","# 2011 interactions":0,"zip postal":"T1H 1A9"},"type":"Feature","geometry":null},{"properties":{"city":"Nobleford","total":2,"church name":"Nobleford","church number":636,"# 2010 interactions":2,"street":"Box 179","id":"a62b9fonpn5z","# 2011 interactions":0,"zip postal":"T0L 1S0"},"type":"Feature","geometry":null},{"properties":{"city":"Burnaby","total":2,"church name":"New Westminster","church number":930,"# 2010 interactions":2,"street":"8255 13th Ave","id":"a62b9fg0ct4j","# 2011 interactions":0,"zip postal":"V3N 2G6"},"type":"Feature","geometry":null},{"properties":{"city":"Telkwa","total":2,"church name":"Telkwa","church number":948,"# 2010 interactions":2,"street":"Box 410","id":"a62b9fjflzex","# 2011 interactions":0,"zip postal":"V0J 2X0"},"type":"Feature","geometry":null},{"properties":{"city":"Victoria","total":2,"church name":"Christ Community","church number":965,"# 2010 interactions":2,"street":"3897 Holland Ave","id":"a62b9ffzg1qv","# 2011 interactions":0,"zip postal":"V8Z 5K2"},"type":"Feature","geometry":null},{"properties":{"city":"Delta","total":2,"church name":"Ladner","church number":1041,"# 2010 interactions":0,"street":"4594 54 A St","id":"a62b9fmvvd2d","# 2011 interactions":2,"zip postal":"V4K 2Z8"},"type":"Feature","geometry":null},{"properties":{"city":"Delta","total":2,"church name":"WestCoast Community Church","church number":1045,"# 2010 interactions":2,"street":"967 Walalee Drive","id":"a62b9fmvedsc","# 2011 interactions":0,"zip postal":"V4M 2L9"},"type":"Feature","geometry":null},{"properties":{"city":"Kamloops","total":2,"church name":"Sahali Fellowship","church number":1047,"# 2010 interactions":2,"street":"1565 Summit Dr","id":"a62b9fv0by6l","# 2011 interactions":0,"zip postal":"V2E 1E9"},"type":"Feature","geometry":null},{"properties":{"city":"Mission","total":2,"church name":"Mission Hills Community Church","church number":1064,"# 2010 interactions":2,"street":"PO Box 20018","id":"a62b9ff6hki1","# 2011 interactions":0,"zip postal":"V2V 7P8"},"type":"Feature","geometry":null},{"properties":{"city":"Blenheim","total":2,"church name":"Blenheim","church number":2106,"# 2010 interactions":2,"street":"RR 2","id":"a62b9fn1x6jn","# 2011 interactions":0,"zip postal":"N0P 1A0"},"type":"Feature","geometry":null},{"properties":{"city":"Chatham","total":2,"church name":"First","church number":2112,"# 2010 interactions":2,"street":"PO Box 1200","id":"a62b9fnf7g11","# 2011 interactions":0,"zip postal":"N7M 5L8"},"type":"Feature","geometry":null},{"properties":{"city":"Chatham","total":2,"church name":"Grace","church number":2113,"# 2010 interactions":2,"street":"Box 337","id":"a62b9fh7nb3e","# 2011 interactions":0,"zip postal":"N7M 5K4"},"type":"Feature","geometry":null},{"properties":{"city":"Dresden","total":2,"church name":"Dresden","church number":2118,"# 2010 interactions":2,"street":"956 Mooney St","id":"a62b9fo9ycw8","# 2011 interactions":0,"zip postal":"N0P 1M0"},"type":"Feature","geometry":null},{"properties":{"city":"Essex","total":2,"church name":"Essex","church number":2121,"# 2010 interactions":2,"street":"276 Talbot St S","id":"a62b9ffznpc5","# 2011 interactions":0,"zip postal":"N8M 1B8"},"type":"Feature","geometry":null},{"properties":{"city":"London","total":2,"church name":"Forest City Community","church number":2133,"# 2010 interactions":2,"street":"3725 Bostwick Rd","id":"a62b9fuzva36","# 2011 interactions":0,"zip postal":"N6P 1G9"},"type":"Feature","geometry":null},{"properties":{"city":"London","total":2,"church name":"First","church number":2136,"# 2010 interactions":2,"street":"531 Talbot St","id":"a62b9fjb1znw","# 2011 interactions":0,"zip postal":"N6A 2S5"},"type":"Feature","geometry":null},{"properties":{"city":"Mount Brydges","total":2,"church name":"Hope Community","church number":2137,"# 2010 interactions":2,"street":"22638 Adelaide Rd","id":"a62b9fgld2uc","# 2011 interactions":0,"zip postal":"N0L 1W0"},"type":"Feature","geometry":null},{"properties":{"city":"Sarnia","total":2,"church name":"Living Hope","church number":2142,"# 2010 interactions":2,"street":"1281 Exmouth St","id":"a62b9fl0y4j5","# 2011 interactions":0,"zip postal":"N7S 1W9"},"type":"Feature","geometry":null},{"properties":{"city":"Strathroy","total":2,"church name":"Westmount","church number":2146,"# 2010 interactions":2,"street":"405 Drury Lane","id":"a62b9fpe71pa","# 2011 interactions":0,"zip postal":"N7G 3G2"},"type":"Feature","geometry":null},{"properties":{"city":"St. Thomas","total":2,"church name":"First","church number":2148,"# 2010 interactions":2,"street":"320 Elm St","id":"a62b9fj8lfju","# 2011 interactions":0,"zip postal":"N5R 1J7"},"type":"Feature","geometry":null},{"properties":{"city":"Tillsonburg","total":2,"church name":"Tillsonburg","church number":2149,"# 2010 interactions":2,"street":"PO Box 102","id":"a62b9fm44n42","# 2011 interactions":0,"zip postal":"N4G 4H3"},"type":"Feature","geometry":null},{"properties":{"city":"Woodstock","total":2,"church name":"Maranatha","church number":2154,"# 2010 interactions":2,"street":"735 Frontenac Crescent","id":"a62b9frbmbkg","# 2011 interactions":0,"zip postal":"N4V OB1"},"type":"Feature","geometry":null},{"properties":{"city":"Wyoming","total":2,"church name":"Wyoming","church number":2157,"# 2010 interactions":2,"street":"PO Box 68","id":"a62b9fhdnuc5","# 2011 interactions":0,"zip postal":"N0N 1T0"},"type":"Feature","geometry":null},{"properties":{"city":"Vanier","total":2,"church name":"Eglise Chretienne Reformee St. Paul","church number":3000,"# 2010 interactions":2,"street":"B P 7174","id":"a62b9fh0jmzf","# 2011 interactions":0,"zip postal":"K1L 8E3"},"type":"Feature","geometry":null},{"properties":{"city":"Brinston","total":2,"church name":"Community","church number":3032,"# 2010 interactions":2,"street":"PO Box 77","id":"a62b9ftiam78","# 2011 interactions":0,"zip postal":"K0E 1C0"},"type":"Feature","geometry":null},{"properties":{"city":"Halifax","total":2,"church name":"All Nations","church number":3038,"# 2010 interactions":2,"street":"2535 Robie St","id":"a62b9fu2n2g8","# 2011 interactions":0,"zip postal":"B3K 4N3"},"type":"Feature","geometry":null},{"properties":{"city":"Dollard des Ormeaux","total":2,"church name":"First","church number":3058,"# 2010 interactions":2,"street":"PO Box 48504","id":"a62b9fod3pwe","# 2011 interactions":0,"zip postal":"H8Y 3P4"},"type":"Feature","geometry":null},{"properties":{"city":"Ottawa","total":2,"church name":"Calvary","church number":3062,"# 2010 interactions":2,"street":"3782 Russell Rd","id":"a62b9fv0f346","# 2011 interactions":0,"zip postal":"K1G 3N2"},"type":"Feature","geometry":null},{"properties":{"city":"Nepean","total":2,"church name":"Barrhaven Fellowship","church number":3064,"# 2010 interactions":2,"street":"PO Box 34092","id":"a62b9fg5sfu2","# 2011 interactions":0,"zip postal":"K2J 5B1"},"type":"Feature","geometry":null},{"properties":{"city":"Pembroke","total":2,"church name":"Zion","church number":3078,"# 2010 interactions":2,"street":"PO Box 664","id":"a62b9fh90ccl","# 2011 interactions":0,"zip postal":"K8A 6X9"},"type":"Feature","geometry":null},{"properties":{"city":"Renfrew","total":2,"church name":"Hebron","church number":3086,"# 2010 interactions":2,"street":"431 Albert St","id":"a62b9fqe4ayp","# 2011 interactions":0,"zip postal":"K7V 1V8"},"type":"Feature","geometry":null},{"properties":{"city":"Williamsburg","total":2,"church name":"Williamsburg","church number":3096,"# 2010 interactions":2,"street":"PO Box 298","id":"a62b9fgrqfm7","# 2011 interactions":0,"zip postal":"K0C 2H0"},"type":"Feature","geometry":null},{"properties":{"city":"Ancaster","total":2,"church name":"Ancaster","church number":4802,"# 2010 interactions":2,"street":"PO Box 81151","id":"a62b9flpbenh","# 2011 interactions":0,"zip postal":"L9G 4X2"},"type":"Feature","geometry":null},{"properties":{"city":"Ancaster","total":2,"church name":"Meadowlands Fellowship","church number":4803,"# 2010 interactions":2,"street":"211 Stonehenge Dr","id":"a62b9fjp6cob","# 2011 interactions":0,"zip postal":"L9K 1R4"},"type":"Feature","geometry":null},{"properties":{"city":"Waterdown","total":2,"church name":"Bethel","church number":4806,"# 2010 interactions":2,"street":"PO Box 795","id":"a62b9fu8qdgo","# 2011 interactions":0,"zip postal":"L0R 2H0"},"type":"Feature","geometry":null},{"properties":{"city":"Brantford","total":2,"church name":"Hope","church number":4807,"# 2010 interactions":2,"street":"64 Buchanan Crescent","id":"a62b9frpd1o9","# 2011 interactions":0,"zip postal":"N3P 2A5"},"type":"Feature","geometry":null},{"properties":{"city":"Burlington","total":2,"church name":"Burlington","church number":4808,"# 2010 interactions":2,"street":"3422 New St","id":"a62b9fomeczm","# 2011 interactions":0,"zip postal":"L7N 1N3"},"type":"Feature","geometry":null},{"properties":{"city":"Burlington","total":2,"church name":"Faith","church number":4810,"# 2010 interactions":2,"street":"2265 Mountainside Dr","id":"a62b9frqu8h6","# 2011 interactions":0,"zip postal":"L7P 1B6"},"type":"Feature","geometry":null},{"properties":{"city":"Millgrove","total":2,"church name":"Calvin","church number":4816,"# 2010 interactions":2,"street":"Box 129","id":"a62b9fnnyw45","# 2011 interactions":0,"zip postal":"L0R 1V0"},"type":"Feature","geometry":null},{"properties":{"city":"Dundas","total":2,"church name":"Calvary","church number":4823,"# 2010 interactions":2,"street":"265 Middletown Rd RR#1","id":"a62b9fksxb47","# 2011 interactions":0,"zip postal":"L9H 5E1"},"type":"Feature","geometry":null},{"properties":{"city":"Hamilton","total":2,"church name":"First","church number":4840,"# 2010 interactions":2,"street":"195 Charlton Ave W","id":"a62b9fh6vg60","# 2011 interactions":0,"zip postal":"L8P 2C9"},"type":"Feature","geometry":null},{"properties":{"city":"Hamilton","total":2,"church name":"Mount Hamilton","church number":4848,"# 2010 interactions":2,"street":"1411 Upper Wellington St","id":"a62b9fjwu3nc","# 2011 interactions":0,"zip postal":"L9A 3S9"},"type":"Feature","geometry":null},{"properties":{"city":"Hagersville","total":2,"church name":"Hagersville Community","church number":4855,"# 2010 interactions":2,"street":"Box 267","id":"a62b9fomenyj","# 2011 interactions":0,"zip postal":"N0A 1H0"},"type":"Feature","geometry":null},{"properties":{"city":"Simcoe","total":2,"church name":"Immanuel Christian Ref. Church","church number":4873,"# 2010 interactions":2,"street":"95 Oak St","id":"a62b9fsdkon8","# 2011 interactions":0,"zip postal":"N3Y 3K1"},"type":"Feature","geometry":null},{"properties":{"city":"Caledonia","total":2,"church name":"Maranatha","church number":4893,"# 2010 interactions":2,"street":"PO Box 2093","id":"a62b9fhk22dc","# 2011 interactions":0,"zip postal":"N3W 2G6"},"type":"Feature","geometry":null},{"properties":{"city":"Clinton","total":2,"church name":"Clinton","church number":5510,"# 2010 interactions":2,"street":"PO Box 697","id":"a62b9fnp4rc6","# 2011 interactions":0,"zip postal":"N0M 1L0"},"type":"Feature","geometry":null},{"properties":{"city":"Collingwood","total":2,"church name":"Collingwood","church number":5514,"# 2010 interactions":2,"street":"PO Box 304","id":"a62b9fmcdmcy","# 2011 interactions":0,"zip postal":"L9Y 3Z7"},"type":"Feature","geometry":null},{"properties":{"city":"Exeter","total":2,"church name":"Exeter","church number":5522,"# 2010 interactions":2,"street":"332 Huron St West","id":"a62b9ftcg9qr","# 2011 interactions":0,"zip postal":"N0M 1S2"},"type":"Feature","geometry":null},{"properties":{"city":"Goderich","total":2,"church name":"Trinity","church number":5528,"# 2010 interactions":2,"street":"321 Suncoast Dr E","id":"a62b9fmxrc22","# 2011 interactions":0,"zip postal":"N7A 4H8"},"type":"Feature","geometry":null},{"properties":{"city":"Guelph","total":2,"church name":"New Life","church number":5529,"# 2010 interactions":2,"street":"400 Victoria Rd N","id":"a62b9ft1hdig","# 2011 interactions":0,"zip postal":"N1E 5J7"},"type":"Feature","geometry":null},{"properties":{"city":"Guelph","total":2,"church name":"First","church number":5530,"# 2010 interactions":2,"street":"287 Water St","id":"a62b9fukj9sq","# 2011 interactions":0,"zip postal":"N1G 1B6"},"type":"Feature","geometry":null},{"properties":{"city":"Owen Sound","total":2,"church name":"First","church number":5550,"# 2010 interactions":2,"street":"PO Box 131","id":"a62b9fftjquj","# 2011 interactions":0,"zip postal":"N4K 5P1"},"type":"Feature","geometry":null},{"properties":{"city":"Palmerston","total":2,"church name":"Palmerston","church number":5552,"# 2010 interactions":2,"street":"PO Box 688","id":"a62b9frikpwv","# 2011 interactions":0,"zip postal":"N0G 2P0"},"type":"Feature","geometry":null},{"properties":{"city":"Stratford","total":2,"church name":"Stratford","church number":5554,"# 2010 interactions":2,"street":"190 Athlone Crescent","id":"a62b9fia8h5h","# 2011 interactions":0,"zip postal":"N4Z 1H9"},"type":"Feature","geometry":null},{"properties":{"city":"Waterloo","total":2,"church name":"Waterloo","church number":5564,"# 2010 interactions":2,"street":"209 Bearinger Rd","id":"a62b9ftcmatk","# 2011 interactions":0,"zip postal":"N2L 4H5"},"type":"Feature","geometry":null},{"properties":{"city":"Thunder Bay","total":2,"church name":"First","church number":6336,"# 2010 interactions":2,"street":"1101 W Arthur St","id":"a62b9fmxe0nq","# 2011 interactions":0,"zip postal":"P7E 6V5"},"type":"Feature","geometry":null},{"properties":{"city":"Winnipeg","total":2,"church name":"Covenant","church number":6378,"# 2010 interactions":2,"street":"653 Knowles Ave","id":"a62b9fl0gzre","# 2011 interactions":0,"zip postal":"R2G 2K3"},"type":"Feature","geometry":null},{"properties":{"city":"Beamsville","total":2,"church name":"Providence","church number":7103,"# 2010 interactions":2,"street":"Box 533","id":"a62b9ffkdxlw","# 2011 interactions":0,"zip postal":"L0R 1B0"},"type":"Feature","geometry":null},{"properties":{"city":"Dunnville","total":2,"church name":"Bethel","church number":7120,"# 2010 interactions":2,"street":"PO Box 96","id":"a62b9fsgio9a","# 2011 interactions":0,"zip postal":"N1A 2X1"},"type":"Feature","geometry":null},{"properties":{"city":"Fenwick","total":2,"church name":"Bethany","church number":7122,"# 2010 interactions":2,"street":"Box 61","id":"a62b9ft8wcys","# 2011 interactions":0,"zip postal":"L0S 1C0"},"type":"Feature","geometry":null},{"properties":{"city":"Grimsby","total":2,"church name":"Mountainview","church number":7132,"# 2010 interactions":0,"street":"290 Main St E","id":"a62b9flbkeej","# 2011 interactions":2,"zip postal":"L3M 1P8"},"type":"Feature","geometry":null},{"properties":{"city":"Niagara Falls","total":2,"church name":"Rehoboth","church number":7169,"# 2010 interactions":2,"street":"4878 Jepson St","id":"a62b9ffvf9lq","# 2011 interactions":0,"zip postal":"L2E 1K1"},"type":"Feature","geometry":null},{"properties":{"city":"St. Catharines","total":2,"church name":"Covenant","church number":7176,"# 2010 interactions":2,"street":"PO Box 20100 Grantham Postal Outlet","id":"a62b9fft9cle","# 2011 interactions":0,"zip postal":"L2M 7W7"},"type":"Feature","geometry":null},{"properties":{"city":"St. Catharines","total":2,"church name":"Maranatha","church number":7177,"# 2010 interactions":2,"street":"301 Scott St","id":"a62b9fs7uvau","# 2011 interactions":0,"zip postal":"L2N 1J4"},"type":"Feature","geometry":null},{"properties":{"city":"Welland","total":2,"church name":"Grace","church number":7185,"# 2010 interactions":2,"street":"660 S Pelham St","id":"a62b9fuf2wzk","# 2011 interactions":0,"zip postal":"L3C 3C8"},"type":"Feature","geometry":null},{"properties":{"city":"Belleville","total":2,"church name":"Maranatha","church number":8202,"# 2010 interactions":2,"street":"100 College St W","id":"a62b9fez81pb","# 2011 interactions":0,"zip postal":"K8P 2G5"},"type":"Feature","geometry":null},{"properties":{"city":"Frankford","total":2,"church name":"Community","church number":8220,"# 2010 interactions":2,"street":"Box 520","id":"a62b9fih16vo","# 2011 interactions":0,"zip postal":"K0K 2C0"},"type":"Feature","geometry":null},{"properties":{"city":"Kingston","total":2,"church name":"First","church number":8222,"# 2010 interactions":2,"street":"310 Kingscourt Ave","id":"a62b9frrqjx2","# 2011 interactions":0,"zip postal":"K7K 4R3"},"type":"Feature","geometry":null},{"properties":{"city":"Lindsay","total":2,"church name":"Lindsay","church number":8226,"# 2010 interactions":2,"street":"206 Angeline St N","id":"a62b9fotyphd","# 2011 interactions":0,"zip postal":"K9V 4Y4"},"type":"Feature","geometry":null},{"properties":{"city":"Courtice","total":2,"church name":"Hope Fellowship","church number":8232,"# 2010 interactions":2,"street":"1685 Bloor St","id":"a62b9ftoh7rs","# 2011 interactions":0,"zip postal":"L1E 2N1"},"type":"Feature","geometry":null},{"properties":{"city":"Oshawa","total":2,"church name":"Zion","church number":8234,"# 2010 interactions":2,"street":"409 Adelaide Ave E","id":"a62b9foog62b","# 2011 interactions":0,"zip postal":"L1G 2A2"},"type":"Feature","geometry":null},{"properties":{"city":"Peterborough","total":2,"church name":"Living Hope","church number":8239,"# 2010 interactions":2,"street":"1 Consumers Place","id":"a62b9fk8ys01","# 2011 interactions":0,"zip postal":"K9J 6X9"},"type":"Feature","geometry":null},{"properties":{"city":"Trenton","total":2,"church name":"Ebenezer","church number":8242,"# 2010 interactions":2,"street":"18 Fourth Ave","id":"a62b9fqp37pp","# 2011 interactions":0,"zip postal":"K8V 5N3"},"type":"Feature","geometry":null},{"properties":{"city":"Barrie","total":2,"church name":"Covenant","church number":9010,"# 2010 interactions":2,"street":"101 Ardagh Rd","id":"a62b9foomo9e","# 2011 interactions":0,"zip postal":"L4N 4B7"},"type":"Feature","geometry":null},{"properties":{"city":"Barrie","total":2,"church name":"First","church number":9012,"# 2010 interactions":2,"street":"PO Box 875","id":"a62b9fnx36vw","# 2011 interactions":0,"zip postal":"L4M 4Y6"},"type":"Feature","geometry":null},{"properties":{"city":"Caledon","total":2,"church name":"Immanuel","church number":9016,"# 2010 interactions":2,"street":"2626 Mayfield Rd","id":"a62b9fse5t3u","# 2011 interactions":0,"zip postal":"L7C 3K7"},"type":"Feature","geometry":null},{"properties":{"city":"Georgetown","total":2,"church name":"Georgetown","church number":9032,"# 2010 interactions":2,"street":"PO Box 45","id":"a62b9fonyuy9","# 2011 interactions":0,"zip postal":"L7G 4T1"},"type":"Feature","geometry":null},{"properties":{"city":"Newmarket","total":2,"church name":"Holland Marsh","church number":9036,"# 2010 interactions":2,"street":"18935 Dufferin St","id":"a62b9fm4pj28","# 2011 interactions":0,"zip postal":"L3Y 4V9"},"type":"Feature","geometry":null},{"properties":{"city":"Mississauga","total":2,"church name":"Community CRC of Meadowvale","church number":9038,"# 2010 interactions":2,"street":"2630 Inlake Court","id":"a62b9fsi6qqs","# 2011 interactions":0,"zip postal":"L5N 2A7"},"type":"Feature","geometry":null},{"properties":{"city":"Newmarket","total":2,"church name":"Bethel","church number":9045,"# 2010 interactions":2,"street":"333 Davis Dr","id":"a62b9fkvms7n","# 2011 interactions":0,"zip postal":"L3Y 2N6"},"type":"Feature","geometry":null},{"properties":{"city":"Willowdale","total":2,"church name":"Willowdale","church number":9077,"# 2010 interactions":2,"street":"70 Hilda Ave","id":"a62b9fpm79uy","# 2011 interactions":0,"zip postal":"M2M 1V5"},"type":"Feature","geometry":null},{"properties":{"city":"Edmonton","total":3,"church name":"Centrepointe Community","church number":310,"# 2010 interactions":2,"street":"5940 159 Ave","id":"a62b9fiet3zd","# 2011 interactions":1,"zip postal":"T5Y 0J5"},"type":"Feature","geometry":null},{"properties":{"city":"Edmonton","total":3,"church name":"Bethel Community","church number":312,"# 2010 interactions":2,"street":"14204 25 St","id":"a62b9fv3pnqs","# 2011 interactions":1,"zip postal":"T5Y 1G5"},"type":"Feature","geometry":null},{"properties":{"city":"Calgary","total":3,"church name":"River Park","church number":615,"# 2010 interactions":0,"street":"3818 14A St SW","id":"a62b9ffc7anl","# 2011 interactions":3,"zip postal":"T2T 3Y2"},"type":"Feature","geometry":null},{"properties":{"city":"Calgary","total":3,"church name":"Covenant","church number":617,"# 2010 interactions":2,"street":"50 Millrise Blvd SW","id":"a62b9fkd9wns","# 2011 interactions":1,"zip postal":"T2Y 2E7"},"type":"Feature","geometry":null},{"properties":{"city":"Regina","total":3,"church name":"Sonlight","church number":639,"# 2010 interactions":2,"street":"139 Cannon St","id":"a62b9fs93jka","# 2011 interactions":1,"zip postal":"S4N 4L3"},"type":"Feature","geometry":null},{"properties":{"city":"Aylmer","total":3,"church name":"Aylmer","church number":2103,"# 2010 interactions":2,"street":"194 South Street W","id":"a62b9fv2eq67","# 2011 interactions":1,"zip postal":"N5H 1S3"},"type":"Feature","geometry":null},{"properties":{"city":"Ingersoll","total":3,"church name":"Ingersoll","church number":2130,"# 2010 interactions":2,"street":"429 King St West","id":"a62b9ff3m7xa","# 2011 interactions":1,"zip postal":"N5C 3J7"},"type":"Feature","geometry":null},{"properties":{"city":"London","total":3,"church name":"Bethel","church number":2134,"# 2010 interactions":2,"street":"716 Classic Dr","id":"a62b9fqal03d","# 2011 interactions":1,"zip postal":"N5W 5V6"},"type":"Feature","geometry":null},{"properties":{"city":"Sarnia","total":3,"church name":"First","church number":2139,"# 2010 interactions":2,"street":"1105 Exmouth St","id":"a62b9flrqlt9","# 2011 interactions":1,"zip postal":"N7S 1W5"},"type":"Feature","geometry":null},{"properties":{"city":"St. Thomas","total":3,"church name":"Fellowship","church number":2147,"# 2010 interactions":2,"street":"641 Elm St","id":"a62b9ff1kb8b","# 2011 interactions":1,"zip postal":"N5R 1K9"},"type":"Feature","geometry":null},{"properties":{"city":"Woodstock","total":3,"church name":"Covenant","church number":2153,"# 2010 interactions":2,"street":"410 Lansdowne Ave","id":"a62b9fh5ob7f","# 2011 interactions":1,"zip postal":"N4T 1J2"},"type":"Feature","geometry":null},{"properties":{"city":"Kanata","total":3,"church name":"Kanata Community","church number":3040,"# 2010 interactions":2,"street":"46 Castlefrank Rd","id":"a62b9fv05ikx","# 2011 interactions":1,"zip postal":"K2L 4B4"},"type":"Feature","geometry":null},{"properties":{"city":"Milford","total":3,"church name":"Faith Community","church number":3090,"# 2010 interactions":2,"street":"29 Hwy #14","id":"a62b9fijfuvz","# 2011 interactions":1,"zip postal":"B0N 1Y0"},"type":"Feature","geometry":null},{"properties":{"city":"Hamilton","total":3,"church name":"Immanuel","church number":4844,"# 2010 interactions":2,"street":"61 Mohawk Rd W","id":"a62b9ffsnvk6","# 2011 interactions":1,"zip postal":"L9C 1V9"},"type":"Feature","geometry":null},{"properties":{"city":"Jarvis","total":3,"church name":"Ebenezer","church number":4853,"# 2010 interactions":2,"street":"PO Box 239","id":"a62b9fiod297","# 2011 interactions":1,"zip postal":"N0A 1J0"},"type":"Feature","geometry":null},{"properties":{"city":"Kitchener","total":3,"church name":"The Journey","church number":5524,"# 2010 interactions":2,"street":"162 Victoria St S","id":"a62b9fr7y01l","# 2011 interactions":1,"zip postal":"N2G 2B5"},"type":"Feature","geometry":null},{"properties":{"city":"Listowel","total":3,"church name":"Bethel","church number":5538,"# 2010 interactions":2,"street":"345 Elizabeth St E","id":"a62b9flf2ui2","# 2011 interactions":1,"zip postal":"N4W 2P7"},"type":"Feature","geometry":null},{"properties":{"city":"Thunder Bay","total":3,"church name":"Hope","church number":6367,"# 2010 interactions":2,"street":"572 Arthur St W","id":"a62b9fiyriz9","# 2011 interactions":1,"zip postal":"P7E 0A1"},"type":"Feature","geometry":null},{"properties":{"city":"Bloomfield","total":3,"church name":"Bethany","church number":8206,"# 2010 interactions":2,"street":"PO Box 309","id":"a62b9fhgce33","# 2011 interactions":1,"zip postal":"K0K 1G0"},"type":"Feature","geometry":null},{"properties":{"city":"Bowmanville","total":3,"church name":"Maranatha","church number":8210,"# 2010 interactions":2,"street":"2805 Highway #2 East","id":"a62b9furyub7","# 2011 interactions":1,"zip postal":"L1C 3K5"},"type":"Feature","geometry":null},{"properties":{"city":"Cobourg","total":3,"church name":"Grace CRC of Cobourg","church number":8218,"# 2010 interactions":2,"street":"440 King St E","id":"a62b9fp2cvxn","# 2011 interactions":1,"zip postal":"K9A 1M6"},"type":"Feature","geometry":null},{"properties":{"city":"Bradford","total":3,"church name":"Springdale","church number":9061,"# 2010 interactions":2,"street":"RR#4 1351 River Rd","id":"a62b9fhke0nv","# 2011 interactions":1,"zip postal":"L3Z 2A6"},"type":"Feature","geometry":null}],"is_temporal":false,"author":{"url":"","metadata":"","contact_name":"Shirley De Vries","contact_address":"","source":"CRCNA's Core db plus Salesforce plus a dataset of Canadian cities and provinces","contact_phone":""},"source":"","pagination":{"sort":null,"start":0,"total":124,"limit":1000000},"state":"complete","tags":"","published":"2011-03-01T19:14:24Z","id":96801}