{"type":"FeatureCollection","data_type":"Dataset","url_type":null,"permissions":[{"permissions":{"download":true,"view":true},"group_id":"everyone"}],"classification":null,"title":"mmm","count":160,"stream_id":96902,"contributor":{"url":"http://geocommons.com/users/22774","name":"mcleodm02"},"data_attributes":null,"calculation_params":null,"icon_link":null,"link":"http://geocommons.com/overlays/96902.json","extent":[-85.7594,36.75,-68.8789,45.0617],"geometry_types":["point"],"unique_name":null,"name":"mmm","feature_count":160,"description":"","next_feature":null,"is_raster":false,"short_classification":"Y","stats":{},"features":[{"properties":{"city":"NewYork","name":"Verizon Communications","geo_score":0.857,"id":"a6fug1wuzscb","geo_precision":"city","state":"NY"},"type":"Feature","geometry":{"type":"Point","coordinates":[-74.005973,40.714269]}},{"properties":{"city":"Somers","name":"Pepsi Bottling Group (1)(2)","geo_score":0.857,"id":"a6fug1o99ly1","geo_precision":"city","state":"NY"},"type":"Feature","geometry":{"type":"Point","coordinates":[-73.693685,41.326544]}},{"properties":{"city":"Waltham","name":"National Grid Service Co &amp; Operating Cos.","geo_score":0.857,"id":"a6fug1zur2yp","geo_precision":"city","state":"MA"},"type":"Feature","geometry":{"type":"Point","coordinates":[-71.2398,42.388938]}},{"properties":{"city":"Hartford","name":"United Technologies &amp; Opetating Co ?.","geo_score":0.857,"id":"a6fug21oay2e","geo_precision":"city","state":"CT"},"type":"Feature","geometry":{"type":"Point","coordinates":[-72.685093,41.763711]}},{"properties":{"city":"Greenwich","name":"United Rentals","geo_score":0.857,"id":"a6fug1uv565k","geo_precision":"city","state":"CT"},"type":"Feature","geometry":{"type":"Point","coordinates":[-73.62617,41.042746]}},{"properties":{"city":"Long Island City","name":"Consolidated Edison Co. of New York, Inc.","geo_score":0.857,"id":"a6fug1s0gv7i","geo_precision":"city","state":"NY"},"type":"Feature","geometry":{"type":"Point","coordinates":[-73.948749,40.744824]}},{"properties":{"city":"Bethpage","name":"Cablevision System Corp. &amp; Operating Cos.","geo_score":0.857,"id":"a6fug1q3vtco","geo_precision":"city","state":"NY"},"type":"Feature","geometry":{"type":"Point","coordinates":[-73.495369,40.728449]}},{"properties":{"city":"Wilmington","name":"UniFirst Corp.","geo_score":0.857,"id":"a6fug1w0exez","geo_precision":"city","state":"MA"},"type":"Feature","geometry":{"type":"Point","coordinates":[-71.173888,42.561782]}},{"properties":{"city":"Meiville","name":"PETRO,Inc.","geo_score":0.821,"id":"a6fug211bpz2","geo_precision":"city","state":"NY"},"type":"Feature","geometry":{"type":"Point","coordinates":[-79.370911,42.23716]}},{"properties":{"city":"Framingham","name":"Staples &amp; Opetaring Cos.","geo_score":0.804,"id":"a6fug1y0922t","geo_precision":"city","state":"MA"},"type":"Feature","geometry":{"type":"Point","coordinates":[-71.437006,42.297318]}},{"properties":{"city":"West Henrietta","name":"Lewis Tree Service, Inc.","geo_score":0.813,"id":"a6fug1yk4qd7","geo_precision":"city","state":"NY"},"type":"Feature","geometry":{"type":"Point","coordinates":[-77.558902,43.058863]}},{"properties":{"city":"Hartford","name":"Northeast Utilities Service Co.","geo_score":0.857,"id":"a6fug1ods9ci","geo_precision":"city","state":"CT"},"type":"Feature","geometry":{"type":"Point","coordinates":[-72.685093,41.763711]}},{"properties":{"city":"Tonawanda","name":"Praxair &amp; Operating Cos.","geo_score":0.764,"id":"a6fug20mbtf6","geo_precision":"city","state":"NY"},"type":"Feature","geometry":{"type":"Point","coordinates":[-78.444978,43.068413]}},{"properties":{"city":"Williamsvile","name":"Sodexho, Inc.","geo_score":0.846,"id":"a6fug1mrtbeg","geo_precision":"city","state":"NY"},"type":"Feature","geometry":{"type":"Point","coordinates":[-78.737809,42.963947]}},{"properties":{"city":"Boston","name":"Iron Mountain Information Management, Inc.","geo_score":0.857,"id":"a6fug1z1e5x5","geo_precision":"city","state":"MA"},"type":"Feature","geometry":{"type":"Point","coordinates":[-71.059773,42.358431]}},{"properties":{"city":"Rutland","name":"Casella Waste Systems, Inc.","geo_score":0.857,"id":"a6fug1vf3von","geo_precision":"city","state":"VT"},"type":"Feature","geometry":{"type":"Point","coordinates":[-72.93586,43.630346]}},{"properties":{"city":"Cheshire","name":"The Lane Construction Corp.","geo_score":0.857,"id":"a6fug1vxg9cr","geo_precision":"city","state":"CT"},"type":"Feature","geometry":{"type":"Point","coordinates":[-72.927507,41.365709]}},{"properties":{"city":"Norton","name":"Autoparts Inlcmational, Inc.","geo_score":0.857,"id":"a6fug1qcxvw7","geo_precision":"city","state":"MA"},"type":"Feature","geometry":{"type":"Point","coordinates":[-71.180393,41.959149]}},{"properties":{"city":"New Gloucester","name":"Energy East Corp./IBERDROLA","geo_score":0.857,"id":"a6fug1xjy9u1","geo_precision":"city","state":"ME"},"type":"Feature","geometry":{"type":"Point","coordinates":[-70.299687,43.967474]}},{"properties":{"city":"Woburn","name":"Sylvania Lighting Sen;ce. Corp.","geo_score":0.857,"id":"a6fug1yiz01l","geo_precision":"city","state":"MA"},"type":"Feature","geometry":{"type":"Point","coordinates":[-71.157271,42.488595]}},{"properties":{"city":"Buffalo","name":"National Fuel Gas Co.","geo_score":0.857,"id":"a6fug1xd2x1p","geo_precision":"city","state":"NY"},"type":"Feature","geometry":{"type":"Point","coordinates":[-78.878369,42.886447]}},{"properties":{"city":"Peabody","name":"Beacon Roofing Supply &amp; AffiliatC8","geo_score":0.857,"id":"a6fug1qff5qe","geo_precision":"city","state":"MA"},"type":"Feature","geometry":{"type":"Point","coordinates":[-70.973646,42.536996]}},{"properties":{"city":"North Haven","name":"AholdUSA","geo_score":0.857,"id":"a6fug1x7xegi","geo_precision":"city","state":"CT"},"type":"Feature","geometry":{"type":"Point","coordinates":[-72.862644,41.384381]}},{"properties":{"city":"Poughkeepsie","name":"CH Energy Group, Inc. &amp; Operatin Cos.","geo_score":0.857,"id":"a6fug1pghl2h","geo_precision":"city","state":"NY"},"type":"Feature","geometry":{"type":"Point","coordinates":[-73.896164,41.695839]}},{"properties":{"city":"Norwel","name":"Oem Harbors Environmental Services, Inc.","geo_score":0.837,"id":"a6fug1nh2gw1","geo_precision":"city","state":"MA"},"type":"Feature","geometry":{"type":"Point","coordinates":[-70.823035,42.154145]}},{"properties":{"city":"Stamford","name":"Bartlett Tree Experts","geo_score":0.857,"id":"a6fug1t6932j","geo_precision":"city","state":"CT"},"type":"Feature","geometry":{"type":"Point","coordinates":[-73.538734,41.05343]}},{"properties":{"city":"Torrington","name":"O&amp;G Industries, Inc.","geo_score":0.857,"id":"a6fug1u1y7tu","geo_precision":"city","state":"CT"},"type":"Feature","geometry":{"type":"Point","coordinates":[-73.126763,41.87484]}},{"properties":{"city":"Buffalo","name":"Osmose Utilities Services, Inc.","geo_score":0.857,"id":"a6fug1tum58c","geo_precision":"city","state":"NY"},"type":"Feature","geometry":{"type":"Point","coordinates":[-78.878369,42.886447]}},{"properties":{"city":"Westwood","name":"NSTAR Electric &amp; Gas Corp.","geo_score":0.857,"id":"a6fug1xjuddg","geo_precision":"city","state":"MA"},"type":"Feature","geometry":{"type":"Point","coordinates":[-71.199238,42.220548]}},{"properties":{"city":"Victor","name":"O'Connell Electric Co., Inc.","geo_score":0.837,"id":"a6fug1waofeh","geo_precision":"city","state":"NY"},"type":"Feature","geometry":{"type":"Point","coordinates":[-73.591758,43.091857]}},{"properties":{"city":"Dayville","name":"United Natural Foods, Inc.","geo_score":0.857,"id":"a6fug1qv6f9z","geo_precision":"city","state":"CT"},"type":"Feature","geometry":{"type":"Point","coordinates":[-71.858826,41.854975]}},{"properties":{"city":"Liverpool","name":"Raymour &amp; Flanigan Furniture","geo_score":0.857,"id":"a6fug1zihgas","geo_precision":"city","state":"NY"},"type":"Feature","geometry":{"type":"Point","coordinates":[-76.207867,43.124866]}},{"properties":{"city":"Uniondale","name":"Long Island Lighting Co,/UPA","geo_score":0.857,"id":"a6fug21qcnm4","geo_precision":"city","state":"NY"},"type":"Feature","geometry":{"type":"Point","coordinates":[-73.591421,40.705868]}},{"properties":{"city":"Stratham","name":"HPHoodLLC","geo_score":0.857,"id":"a6fug1zt6hnj","geo_precision":"city","state":"NH"},"type":"Feature","geometry":{"type":"Point","coordinates":[-70.882134,43.01295]}},{"properties":{"city":"Bangor","name":"Webber Energy Fuels","geo_score":0.857,"id":"a6fug1ocuczf","geo_precision":"city","state":"ME"},"type":"Feature","geometry":{"type":"Point","coordinates":[-68.878893,45.061744]}},{"properties":{"city":"Brockton","name":"WBMasonCo.","geo_score":0.857,"id":"a6fug1tlwjcj","geo_precision":"city","state":"MA"},"type":"Feature","geometry":{"type":"Point","coordinates":[-71.018379,42.083434]}},{"properties":{"city":"Bangor","name":"Dead River Co.","geo_score":0.857,"id":"a6fug1xcox05","geo_precision":"city","state":"ME"},"type":"Feature","geometry":{"type":"Point","coordinates":[-68.878893,45.061744]}},{"properties":{"city":"Canton","name":"Dunkin Brands, Inc.","geo_score":0.857,"id":"a6fug1xonylr","geo_precision":"city","state":"MA"},"type":"Feature","geometry":{"type":"Point","coordinates":[-71.121185,42.179146]}},{"properties":{"city":"Princeton","name":"Tyeo International (US), Inc.","geo_score":0.806,"id":"a6fug1ugdkuk","geo_precision":"city","state":"NJ"},"type":"Feature","geometry":{"type":"Point","coordinates":[-74.64795,40.363882]}},{"properties":{"city":"Willow Grove","name":"Asplundh","geo_score":0.779,"id":"a6fug1w9xinv","geo_precision":"city","state":"PA"},"type":"Feature","geometry":{"type":"Point","coordinates":[-75.634658,40.00483]}},{"properties":{"city":"King of Prussia","name":"AmeriGas Propane LP","geo_score":0.758,"id":"a6fug1npm2sz","geo_precision":"city","state":"PA"},"type":"Feature","geometry":{"type":"Point","coordinates":[-78.464182,40.243966]}},{"properties":{"city":"Philadelphia","name":"ARAMARK","geo_score":0.857,"id":"a6fug1y6wl8m","geo_precision":"city","state":"PA"},"type":"Feature","geometry":{"type":"Point","coordinates":[-75.163789,39.952335]}},{"properties":{"city":"Herndon","name":"Lafarge &amp; Operating Cos.","geo_score":0.786,"id":"a6fug1vk3bpi","geo_precision":"city","state":"VA"},"type":"Feature","geometry":{"type":"Point","coordinates":[-77.398598,38.979832]}},{"properties":{"city":"Newport News","name":"Ferguson Enterprises, Inc.","geo_score":0.857,"id":"a6fug1ode2vw","geo_precision":"city","state":"VA"},"type":"Feature","geometry":{"type":"Point","coordinates":[-76.428003,36.978759]}},{"properties":{"city":"Blue Bell","name":"Henkels &amp; McCoy,Inc.","geo_score":0.768,"id":"a6fug1q4nnoj","geo_precision":"city","state":"PA"},"type":"Feature","geometry":{"type":"Point","coordinates":[-79.577547,41.050063]}},{"properties":{"city":"Gaithersburg","name":"The Brickman Group, Ltd.","geo_score":0.857,"id":"a6fug1uis7hd","geo_precision":"city","state":"MD"},"type":"Feature","geometry":{"type":"Point","coordinates":[-77.201371,39.143441]}},{"properties":{"city":"Horsham","name":"Bimbo Bakeries USA &amp; Operating Co ?.","geo_score":0.857,"id":"a6fug1qg9dlk","geo_precision":"city","state":"PA"},"type":"Feature","geometry":{"type":"Point","coordinates":[-75.150577,40.191808]}},{"properties":{"city":"Edison","name":"Public Service Electric &amp; Gas","geo_score":0.857,"id":"a6fug1za8m8m","geo_precision":"city","state":"NJ"},"type":"Feature","geometry":{"type":"Point","coordinates":[-74.412095,40.518715]}},{"properties":{"city":"Rockville","name":"Aggregate Industries &amp; Operating Cos.","geo_score":0.857,"id":"a6fug1t9cwj9","geo_precision":"city","state":"MD"},"type":"Feature","geometry":{"type":"Point","coordinates":[-77.152758,39.083997]}},{"properties":{"city":"Richmond","name":"Petformance Food Group","geo_score":0.857,"id":"a6fug20g88ul","geo_precision":"city","state":"VA"},"type":"Feature","geometry":{"type":"Point","coordinates":[-77.460262,37.553758]}},{"properties":{"city":"Whippany","name":"Suburban Propane, LP","geo_score":0.857,"id":"a6fug1rzpb1j","geo_precision":"city","state":"NJ"},"type":"Feature","geometry":{"type":"Point","coordinates":[-74.419097,40.823899]}},{"properties":{"city":"Reading","name":"J C Ehrlich Co., [nc.","geo_score":0.857,"id":"a6fug1t4xtip","geo_precision":"city","state":"PA"},"type":"Feature","geometry":{"type":"Point","coordinates":[-75.940153,40.357242]}},{"properties":{"city":"Washington","name":"Pepco Holdings &amp; Operatin~ Cos.","geo_score":0.857,"id":"a6fug1w7wktn","geo_precision":"city","state":"DC"},"type":"Feature","geometry":{"type":"Point","coordinates":[-77.036366,38.895112]}},{"properties":{"city":"Alexandria","name":"The Salvation Army National Headquarters","geo_score":0.857,"id":"a6fug1p75q30","geo_precision":"city","state":"VA"},"type":"Feature","geometry":{"type":"Point","coordinates":[-77.046921,38.804836]}},{"properties":{"city":"Park Ridge","name":"Hertz Equipment Rental Corp./HERe","geo_score":0.857,"id":"a6fug1ujc7y4","geo_precision":"city","state":"NJ"},"type":"Feature","geometry":{"type":"Point","coordinates":[-74.042164,41.035073]}},{"properties":{"city":"Hazleton","name":"DeAngelo Brothers, Inc./DBI Services","geo_score":0.857,"id":"a6fug1lcjk0f","geo_precision":"city","state":"PA"},"type":"Feature","geometry":{"type":"Point","coordinates":[-75.972337,40.950407]}},{"properties":{"city":"Indiana","name":"Superior Well Services, Ltd.","geo_score":0.857,"id":"a6fug1orjevv","geo_precision":"city","state":"PA"},"type":"Feature","geometry":{"type":"Point","coordinates":[-79.080422,40.621272]}},{"properties":{"city":"New Enterprise","name":"New Enterprise Stone &amp; Lime &amp; Subsidiaries","geo_score":0.824,"id":"a6fug1pqhuz2","geo_precision":"city","state":"PA"},"type":"Feature","geometry":{"type":"Point","coordinates":[-80.038947,41.164227]}},{"properties":{"city":"Pittsburgh","name":"EQTCorp.","geo_score":0.857,"id":"a6fug1ovpbib","geo_precision":"city","state":"PA"},"type":"Feature","geometry":{"type":"Point","coordinates":[-79.995886,40.440625]}},{"properties":{"city":"Philaddphia","name":"Pep Boys","geo_score":0.0,"id":"a6fug1lfp2df","geo_precision":"unmatched","state":"PA"},"type":"Feature","geometry":null},{"properties":{"city":"Murray Hill","name":"Linde Group/Linde, Inc.","geo_score":0.857,"id":"a6fug1r4dump","geo_precision":"city","state":"NJ"},"type":"Feature","geometry":{"type":"Point","coordinates":[-74.400985,40.695379]}},{"properties":{"city":"Murray Hill","name":"Lucent Technologies","geo_score":0.857,"id":"a6fug1u6jhsf","geo_precision":"city","state":"NJ"},"type":"Feature","geometry":{"type":"Point","coordinates":[-74.400985,40.695379]}},{"properties":{"city":"Allentown","name":"PPLCorp.","geo_score":0.857,"id":"a6fug1pmp8ri","geo_precision":"city","state":"PA"},"type":"Feature","geometry":{"type":"Point","coordinates":[-75.490183,40.608431]}},{"properties":{"city":"Avenel","name":"Bradco Supply Corp.","geo_score":0.857,"id":"a6fug1om1r8t","geo_precision":"city","state":"NJ"},"type":"Feature","geometry":{"type":"Point","coordinates":[-74.27524,40.582845]}},{"properties":{"city":"Basking Ridge","name":"Matheson Tri Gas &amp; Operating Divisions","geo_score":0.857,"id":"a6fug20gmmh1","geo_precision":"city","state":"NJ"},"type":"Feature","geometry":{"type":"Point","coordinates":[-74.573001,40.682651]}},{"properties":{"city":"Smithfield","name":"Smithfield Foods, Inc.","geo_score":0.857,"id":"a6fug1o1c75j","geo_precision":"city","state":"VA"},"type":"Feature","geometry":{"type":"Point","coordinates":[-76.661123,36.990826]}},{"properties":{"city":"Hanover","name":"UTZ Quality Foods, Inc.","geo_score":0.857,"id":"a6fug1vccgxj","geo_precision":"city","state":"PA"},"type":"Feature","geometry":{"type":"Point","coordinates":[-75.412404,40.661764]}},{"properties":{"city":"Meadville","name":"Universal Well Services, Inc.","geo_score":0.794,"id":"a6fug1nqe9mw","geo_precision":"city","state":"PA"},"type":"Feature","geometry":{"type":"Point","coordinates":[-75.863251,41.267026]}},{"properties":{"city":"Salisbury","name":"Perdue, Inc.","geo_score":0.857,"id":"a6fug1wau1p2","geo_precision":"city","state":"MD"},"type":"Feature","geometry":{"type":"Point","coordinates":[-75.633621,38.382445]}},{"properties":{"city":"Butler","name":"Griffin Industries, Inc.","geo_score":0.857,"id":"a6fug1zb9bdr","geo_precision":"city","state":"KY"},"type":"Feature","geometry":{"type":"Point","coordinates":[-84.392841,38.739446]}},{"properties":{"city":"Roanoke","name":"Davis H EUiot Co., Inc.","geo_score":0.857,"id":"a6fug1vhuups","geo_precision":"city","state":"VA"},"type":"Feature","geometry":{"type":"Point","coordinates":[-79.941427,37.27097]}},{"properties":{"city":"Bensalem","name":"Roadsafc Traffic Systems LP","geo_score":0.857,"id":"a6fug1r6ot7q","geo_precision":"city","state":"PA"},"type":"Feature","geometry":{"type":"Point","coordinates":[-74.994262,40.125609]}},{"properties":{"city":"York","name":"Kinsley Construction, Inc.","geo_score":0.857,"id":"a6fug1v9qndt","geo_precision":"city","state":"PA"},"type":"Feature","geometry":{"type":"Point","coordinates":[-76.727139,39.962998]}},{"properties":{"city":"Williamsport","name":"Allegheny Energy Co. &amp; Operating Cos.","geo_score":0.857,"id":"a6fug1tcif5k","geo_precision":"city","state":"MD"},"type":"Feature","geometry":{"type":"Point","coordinates":[-77.826258,39.589123]}},{"properties":{"city":"Lyon Station","name":"East Penn Manufacturing Co.","geo_score":0.857,"id":"a6fug1zaos7u","geo_precision":"city","state":"PA"},"type":"Feature","geometry":{"type":"Point","coordinates":[-75.741859,40.521756]}},{"properties":{"city":"Allentown","name":"Air Products &amp; Cbemicals, Inc.","geo_score":0.857,"id":"a6fug1scxi7q","geo_precision":"city","state":"PA"},"type":"Feature","geometry":{"type":"Point","coordinates":[-75.490183,40.608431]}},{"properties":{"city":"Hanover","name":"Snyder's of Hanover, Inc.","geo_score":0.857,"id":"a6fug1slp7dd","geo_precision":"city","state":"PA"},"type":"Feature","geometry":{"type":"Point","coordinates":[-75.412404,40.661764]}},{"properties":{"city":"Jackson","name":"Oayton Companies","geo_score":0.798,"id":"a6fug1ul8pj0","geo_precision":"city","state":"NJ"},"type":"Feature","geometry":{"type":"Point","coordinates":[-74.329872,40.952598]}},{"properties":{"city":"Richmond","name":"Southern States Cooperative, Inc.","geo_score":0.857,"id":"a6fug21qedn8","geo_precision":"city","state":"VA"},"type":"Feature","geometry":{"type":"Point","coordinates":[-77.460262,37.553758]}},{"properties":{"city":"Reaading","name":"Brenntag - North America &amp; Operating Cos.","geo_score":0.839,"id":"a6fug1qk6oyu","geo_precision":"city","state":"PA"},"type":"Feature","geometry":{"type":"Point","coordinates":[-75.940153,40.357242]}},{"properties":{"city":"Scotsdale","name":"Penn Une Service, Inc.","geo_score":0.0,"id":"a6fug1rweyk3","geo_precision":"unmatched","state":"PA"},"type":"Feature","geometry":null},{"properties":{"city":"Richmond","name":"Dominion Resources, Inc. &amp; Operating Cos.","geo_score":0.857,"id":"a6fug1px9cuv","geo_precision":"city","state":"VA"},"type":"Feature","geometry":{"type":"Point","coordinates":[-77.460262,37.553758]}},{"properties":{"city":"Winchester","name":"Valley Proteins/Carolina By-Produers","geo_score":0.857,"id":"a6fug1vqj2by","geo_precision":"city","state":"VA"},"type":"Feature","geometry":{"type":"Point","coordinates":[-78.16856,39.169668]}},{"properties":{"city":"Murray","name":"NESRentals","geo_score":0.762,"id":"a6fug21sp64p","geo_precision":"city","state":"KY"},"type":"Feature","geometry":{"type":"Point","coordinates":[-82.504317,37.718987]}},{"properties":{"city":"Richmond","name":"Colonial Mechanical Corp.","geo_score":0.857,"id":"a6fug1m5jycp","geo_precision":"city","state":"VA"},"type":"Feature","geometry":{"type":"Point","coordinates":[-77.460262,37.553758]}},{"properties":{"city":"Rockville","name":"Shred-It USA, Inc.","geo_score":0.857,"id":"a6fug1qjtsr6","geo_precision":"city","state":"MD"},"type":"Feature","geometry":{"type":"Point","coordinates":[-77.152758,39.083997]}},{"properties":{"city":"Covington","name":"Ashland, Inc./ Ashland Distribution","geo_score":0.857,"id":"a6fug1smah67","geo_precision":"city","state":"KY"},"type":"Feature","geometry":{"type":"Point","coordinates":[-84.508554,39.083671]}},{"properties":{"city":"Hyattsville","name":"Washington Suburban Sanitary Conunission","geo_score":0.857,"id":"a6fug1x01s6h","geo_precision":"city","state":"MD"},"type":"Feature","geometry":{"type":"Point","coordinates":[-76.94553,38.955944]}},{"properties":{"city":"Ardmore","name":"Hajoca Corp.","geo_score":0.805,"id":"a6fug1m3oqki","geo_precision":"city","state":"PA"},"type":"Feature","geometry":{"type":"Point","coordinates":[-75.297408,39.994001]}},{"properties":{"city":"Pittsburgh","name":"PPG Industries, Inc.","geo_score":0.857,"id":"a6fug1lg0elr","geo_precision":"city","state":"PA"},"type":"Feature","geometry":{"type":"Point","coordinates":[-79.995886,40.440625]}},{"properties":{"city":"Washington","name":"American Red Cross","geo_score":0.857,"id":"a6fug1ryapn0","geo_precision":"city","state":"DC"},"type":"Feature","geometry":{"type":"Point","coordinates":[-77.036366,38.895112]}},{"properties":{"city":"Baltimore","name":"Constellation Energy/Baltimore Gas &amp; Electric","geo_score":0.857,"id":"a6fug1q3wylr","geo_precision":"city","state":"MD"},"type":"Feature","geometry":{"type":"Point","coordinates":[-76.612189,39.290385]}},{"properties":{"city":"Baltimore","name":"Williams Scotsman, Inc.","geo_score":0.857,"id":"a6fug1qkot0k","geo_precision":"city","state":"MD"},"type":"Feature","geometry":{"type":"Point","coordinates":[-76.612189,39.290385]}},{"properties":{"city":"Chester","name":"C WWrigbt Construction Co., Inc.","geo_score":0.857,"id":"a6fug1x82zk7","geo_precision":"city","state":"VA"},"type":"Feature","geometry":{"type":"Point","coordinates":[-77.454311,37.320744]}},{"properties":{"city":"Breinigsville","name":"Buckeye Pipe Une Co., LP","geo_score":0.857,"id":"a6fug1m8rmzv","geo_precision":"city","state":"PA"},"type":"Feature","geometry":{"type":"Point","coordinates":[-75.540673,40.550733]}},{"properties":{"city":"Fairfax","name":"Exxon Mobil Corp.","geo_score":0.857,"id":"a6fug1lk8c88","geo_precision":"city","state":"VA"},"type":"Feature","geometry":{"type":"Point","coordinates":[-77.305097,38.853231]}},{"properties":{"city":"Farmingdale","name":"New Jersey Natural Gas Co.","geo_score":0.857,"id":"a6fug20jp3x3","geo_precision":"city","state":"NJ"},"type":"Feature","geometry":{"type":"Point","coordinates":[-74.161571,40.285211]}},{"properties":{"city":"Hackensack","name":"J Fletcher Creamer &amp; Son, Inc.","geo_score":0.857,"id":"a6fug1ve4t9j","geo_precision":"city","state":"NJ"},"type":"Feature","geometry":{"type":"Point","coordinates":[-74.001623,40.913482]}},{"properties":{"city":"Bellefonte","name":"Glenn 0 Hawbaker, Ine./GOH llC","geo_score":0.857,"id":"a6fug1mvwl13","geo_precision":"city","state":"PA"},"type":"Feature","geometry":{"type":"Point","coordinates":[-77.773188,40.897823]}},{"properties":{"city":"Wilmington","name":"Sentinel Trptn./DuPont &amp; ConocoPhilips","geo_score":0.857,"id":"a6fug1wgbh2a","geo_precision":"city","state":"DE"},"type":"Feature","geometry":{"type":"Point","coordinates":[-75.546589,39.745947]}},{"properties":{"city":"Mechanicsville","name":"Owens &amp; Minor, Inc.","geo_score":0.857,"id":"a6fug1qvau23","geo_precision":"city","state":"VA"},"type":"Feature","geometry":{"type":"Point","coordinates":[-78.7878,38.667895]}},{"properties":{"city":"Pittsburgh","name":"WESCO Distribution, Inc.","geo_score":0.857,"id":"a6fug1yeuk7a","geo_precision":"city","state":"PA"},"type":"Feature","geometry":{"type":"Point","coordinates":[-79.995886,40.440625]}},{"properties":{"city":"Elizabeth","name":"Wakefern Food Corp.","geo_score":0.857,"id":"a6fug1w08z61","geo_precision":"city","state":"NJ"},"type":"Feature","geometry":{"type":"Point","coordinates":[-74.210701,40.663992]}},{"properties":{"city":"Hackensack","name":"United Water of New Jersey","geo_score":0.857,"id":"a6fug21fqjsm","geo_precision":"city","state":"NJ"},"type":"Feature","geometry":{"type":"Point","coordinates":[-74.001623,40.913482]}},{"properties":{"city":"Fairfax","name":"Cart Business Services Corp.","geo_score":0.857,"id":"a6fug1mqdrsp","geo_precision":"city","state":"VA"},"type":"Feature","geometry":{"type":"Point","coordinates":[-77.305097,38.853231]}},{"properties":{"city":"Harrisburg","name":"Protection Services, Inc.","geo_score":0.857,"id":"a6fug21fsqnk","geo_precision":"city","state":"PA"},"type":"Feature","geometry":{"type":"Point","coordinates":[-76.884418,40.2737]}},{"properties":{"city":"Louisville","name":"E.ON US","geo_score":0.857,"id":"a6fug1wcmbxm","geo_precision":"city","state":"KY"},"type":"Feature","geometry":{"type":"Point","coordinates":[-85.759407,38.254238]}},{"properties":{"city":"Louisville","name":"Insight Communications Co., Inc.","geo_score":0.857,"id":"a6fug1oj5smg","geo_precision":"city","state":"KY"},"type":"Feature","geometry":{"type":"Point","coordinates":[-85.759407,38.254238]}},{"properties":{"city":"Reston","name":"Gate Gourmet, Inc.","geo_score":0.857,"id":"a6fug1q2sr55","geo_precision":"city","state":"VA"},"type":"Feature","geometry":{"type":"Point","coordinates":[-77.3418,38.96146]}},{"properties":{"city":"Swissvale","name":"CVS Caremark Corp./CVS Transportation, Inc.","geo_score":0.857,"id":"a6fug1xd2inv","geo_precision":"city","state":"PA"},"type":"Feature","geometry":{"type":"Point","coordinates":[-79.882828,40.42368]}},{"properties":{"city":"Richmond","name":"McKesson Medical Surgical, Inc.","geo_score":0.857,"id":"a6fug1rd5ze5","geo_precision":"city","state":"VA"},"type":"Feature","geometry":{"type":"Point","coordinates":[-77.460262,37.553758]}},{"properties":{"city":"Charleston","name":"Mcjunkin Red Man Corp.","geo_score":0.857,"id":"a6fug1wtl2t7","geo_precision":"city","state":"WV"},"type":"Feature","geometry":{"type":"Point","coordinates":[-81.632624,38.34982]}},{"properties":{"city":"Sunbury","name":"Butter Krust Baking Co., Inc.","geo_score":0.857,"id":"a6fug1p5j8xs","geo_precision":"city","state":"PA"},"type":"Feature","geometry":{"type":"Point","coordinates":[-76.735577,40.869766]}},{"properties":{"city":"Roanoke","name":"Adams Construction Co.) Inc.","geo_score":0.857,"id":"a6fug1xal88k","geo_precision":"city","state":"VA"},"type":"Feature","geometry":{"type":"Point","coordinates":[-79.941427,37.27097]}},{"properties":{"city":"Richmond","name":"Overnite Transportation","geo_score":0.857,"id":"a6fug1pprci0","geo_precision":"city","state":"VA"},"type":"Feature","geometry":{"type":"Point","coordinates":[-77.460262,37.553758]}},{"properties":{"city":"Reading","name":"Penske Logistics","geo_score":0.857,"id":"a6fug1o6pzgc","geo_precision":"city","state":"PA"},"type":"Feature","geometry":{"type":"Point","coordinates":[-75.940153,40.357242]}},{"properties":{"city":"Richmond","name":"Estes Express Lines","geo_score":0.857,"id":"a6fug1qnx5mn","geo_precision":"city","state":"VA"},"type":"Feature","geometry":{"type":"Point","coordinates":[-77.460262,37.553758]}},{"properties":{"city":"Elizabeth","name":"NEMF","geo_score":0.857,"id":"a6fug1xoeb7r","geo_precision":"city","state":"NJ"},"type":"Feature","geometry":{"type":"Point","coordinates":[-74.210701,40.663992]}},{"properties":{"city":"Lebanon","name":"New Penn Motor Express","geo_score":0.857,"id":"a6fug1tjt628","geo_precision":"city","state":"PA"},"type":"Feature","geometry":{"type":"Point","coordinates":[-76.397634,40.331594]}},{"properties":{"city":"Silver Spring","name":"Roberts Express","geo_score":0.857,"id":"a6fug1z3k322","geo_precision":"city","state":"MD"},"type":"Feature","geometry":{"type":"Point","coordinates":[-77.026088,38.990666]}},{"properties":{"city":"Lousville","name":"Mercer Transportation","geo_score":0.843,"id":"a6fug1zk5pr4","geo_precision":"city","state":"KY"},"type":"Feature","geometry":{"type":"Point","coordinates":[-85.759407,38.254238]}},{"properties":{"city":"North Bergen","name":"APA Transport","geo_score":0.792,"id":"a6fug1ttqc96","geo_precision":"city","state":"NJ"},"type":"Feature","geometry":{"type":"Point","coordinates":[-74.065697,40.729269]}},{"properties":{"city":"Pittsburg","name":"Pitt Ohio","geo_score":0.843,"id":"a6fug1onnwbw","geo_precision":"city","state":"PA"},"type":"Feature","geometry":{"type":"Point","coordinates":[-79.995886,40.440625]}},{"properties":{"city":"Richmond","name":"GI Trucking","geo_score":0.857,"id":"a6fug21szmvs","geo_precision":"city","state":"VA"},"type":"Feature","geometry":{"type":"Point","coordinates":[-77.460262,37.553758]}},{"properties":{"city":"Fisherville","name":"Wilson Trucking","geo_score":0.0,"id":"a6fug1yx0pvj","geo_precision":"unmatched","state":"VA"},"type":"Feature","geometry":null},{"properties":{"city":"Murray","name":"Pascall Truck Lines","geo_score":0.762,"id":"a6fug1psnmft","geo_precision":"city","state":"KY"},"type":"Feature","geometry":{"type":"Point","coordinates":[-82.504317,37.718987]}},{"properties":{"city":"Pittson","name":"Transcontinental","geo_score":0.0,"id":"a6fug1w3kisy","geo_precision":"unmatched","state":"PA"},"type":"Feature","geometry":null},{"properties":{"city":"Altoona","name":"Ward Trucking","geo_score":0.776,"id":"a6fug1rmv1yg","geo_precision":"city","state":"PA"},"type":"Feature","geometry":{"type":"Point","coordinates":[-76.012424,41.182027]}},{"properties":{"city":"Carlisle","name":"Daily Express","geo_score":0.79,"id":"a6fug1si7yd5","geo_precision":"city","state":"PA"},"type":"Feature","geometry":{"type":"Point","coordinates":[-77.164425,40.27092]}},{"properties":{"city":"Chesapeake","name":"Givens Trucking Co","geo_score":0.857,"id":"a6fug1m933dj","geo_precision":"city","state":"VA"},"type":"Feature","geometry":{"type":"Point","coordinates":[-76.218759,36.749991]}},{"properties":{"city":"North Brunswick","name":"Ghermann Services","geo_score":0.75,"id":"a6fug1sixvad","geo_precision":"city","state":"NJ"},"type":"Feature","geometry":{"type":"Point","coordinates":[-74.336259,40.390663]}},{"properties":{"city":"New Kingstown","name":"Shaffer Trucking","geo_score":0.81,"id":"a6fug1n1nytv","geo_precision":"city","state":"PA"},"type":"Feature","geometry":{"type":"Point","coordinates":[-79.341147,40.292015]}},{"properties":{"city":"Cherry Hill/Vineland","name":"National Freight Inc.","geo_score":0.0,"id":"a6fug1mx7yri","geo_precision":"unmatched","state":"NJ"},"type":"Feature","geometry":null},{"properties":{"city":null,"name":"Fed-Ex Ground","id":"a6fug1xje6q3","state":null},"type":"Feature","geometry":null},{"properties":{"city":null,"name":"Fed-Ex Freight","id":"a6fug1lqj0py","state":null},"type":"Feature","geometry":null},{"properties":{"city":null,"name":"RPS","id":"a6fug1zveq1f","state":null},"type":"Feature","geometry":null},{"properties":{"city":null,"name":"Allied Systems, LTD","id":"a6fug1qlkfww","state":null},"type":"Feature","geometry":null},{"properties":{"city":null,"name":"MS Carriers","id":"a6fug1p8oghg","state":null},"type":"Feature","geometry":null},{"properties":{"city":null,"name":"TNT Logistics","id":"a6fug1oqbofv","state":null},"type":"Feature","geometry":null},{"properties":{"city":null,"name":"Carriers","id":"a6fug1z5fbkp","state":null},"type":"Feature","geometry":null},{"properties":{"city":null,"name":"Vitran Express","id":"a6fug1lu5oix","state":null},"type":"Feature","geometry":null},{"properties":{"city":null,"name":"CTI","id":"a6fug1qyw1e3","state":null},"type":"Feature","geometry":null},{"properties":{"city":null,"name":"Landstar Inway","id":"a6fug1n42gkk","state":null},"type":"Feature","geometry":null},{"properties":{"city":null,"name":"Quality Carriers","id":"a6fug1vi78iw","state":null},"type":"Feature","geometry":null},{"properties":{"city":null,"name":"Trism","id":"a6fug1oiyy1d","state":null},"type":"Feature","geometry":null},{"properties":{"city":null,"name":"Celadon","id":"a6fug1xu6x76","state":null},"type":"Feature","geometry":null},{"properties":{"city":null,"name":"Dart Transit/Fleetline","id":"a6fug1m4wogh","state":null},"type":"Feature","geometry":null},{"properties":{"city":null,"name":"Matlack","id":"a6fug1uhhcy2","state":null},"type":"Feature","geometry":null},{"properties":{"city":"Japan","name":null,"geo_score":0.0,"id":"a6fug1vd3mfg","geo_precision":"unmatched","state":null},"type":"Feature","geometry":null},{"properties":{"city":"CLOSED","name":"USF Red Star Inc","geo_score":0.0,"id":"a6fug1t5bpju","geo_precision":"unmatched","state":null},"type":"Feature","geometry":null},{"properties":{"city":"CLOSED","name":"USF Dugan","geo_score":0.0,"id":"a6fug2158cvt","geo_precision":"unmatched","state":null},"type":"Feature","geometry":null},{"properties":{"city":"CLOSED","name":"USF Bestway","geo_score":0.0,"id":"a6fug1x9v3ix","geo_precision":"unmatched","state":null},"type":"Feature","geometry":null},{"properties":{"city":null,"name":"A Duie Pyle","id":"a6fug1osmovi","state":null},"type":"Feature","geometry":null},{"properties":{"city":null,"name":"Bullet Freight Systems","id":"a6fug1s61n7s","state":null},"type":"Feature","geometry":null},{"properties":{"city":"CLOSED","name":"Jevic Transporation","geo_score":0.0,"id":"a6fug1otabrf","geo_precision":"unmatched","state":null},"type":"Feature","geometry":null},{"properties":{"city":"Dallas","name":"Dynamex, Inc.","geo_score":0.0,"id":"a6fug1qoh81d","geo_precision":"unmatched","state":null},"type":"Feature","geometry":null},{"properties":{"city":null,"name":"New England Motor Freight","id":"a6fug1v667o5","state":null},"type":"Feature","geometry":null},{"properties":{"city":null,"name":"Gainey Transportation Services","id":"a6fug1msalnn","state":null},"type":"Feature","geometry":null},{"properties":{"city":null,"name":"Arrow Trucking CO","id":"a6fug1lz8atm","state":null},"type":"Feature","geometry":null},{"properties":{"city":"CLOSED","name":"Roberson Transportation","geo_score":0.0,"id":"a6fug1tf41zm","geo_precision":"unmatched","state":null},"type":"Feature","geometry":null}],"is_temporal":false,"author":{"url":"","metadata":"","contact_name":"","contact_address":"","source":"","contact_phone":""},"source":"","pagination":{"sort":null,"start":0,"total":160,"limit":1000000},"state":"complete","tags":"","published":"2014-08-10T21:19:09-04:00","id":96902}