{"type":"FeatureCollection","data_type":"Dataset","url_type":null,"permissions":[{"permissions":{"download":true,"view":true},"group_id":"everyone"}],"classification":null,"title":"PA Raw Milk Producers 2010","count":128,"stream_id":97784,"contributor":{"url":"http://geocommons.com/users/14197","name":"pollinatethis"},"data_attributes":null,"calculation_params":null,"icon_link":null,"link":"http://geocommons.com/overlays/97784.json","extent":[-80.3526,39.754,-74.9009,41.9504],"geometry_types":["point"],"unique_name":null,"name":"PA Raw Milk Producers 2010","feature_count":128,"description":"LIST OF PA PRODUCERS WITH FLUID RAW MILK &amp; MANUFACTURED RAW MILK CHEESE AGED 60 DAYS PERMITS (Revised 01-20-2010)","next_feature":null,"is_raster":false,"short_classification":"Y","stats":{},"features":[{"properties":{"city":"KIRKWOOD","zip":"17536","region":"6","company name":"AARON S &amp; RACHEL ESH","county":"Lancaster","street2":null,"products":"Cow Milk","geo_score":0.817,"street":"383 COOPER DRIVE","id":"a62n4a58d0ae","phone number":"717-529-2273","telephone number":"717-529-2273","geo_precision":"range","state":"PA"},"type":"Feature","geometry":{"type":"Point","coordinates":[-76.047916,39.853413]}},{"properties":{"city":"CHRISTIANA","zip":"17509","region":"6","company name":"AARON STOLTZFUS","county":"Lancaster","street2":null,"products":"Cow Milk","geo_score":0.7,"street":"235 QWUAKE CHURCH ROAD","id":"a62n4afbzev0","phone number":null,"telephone number":"717-529-2465","geo_precision":"range","state":"PA"},"type":"Feature","geometry":{"type":"Point","coordinates":[-76.234645,40.235605]}},{"properties":{"city":"MOHNTON","zip":"19540","region":"7","company name":"ALLEGHENY VALLEY","county":"Berks","street2":null,"products":"Cow/Cheese Aged 60 Days","geo_score":0.625,"street":"595 MAPLE GROVE ROAD","id":"a62n4a8b9h5v","phone number":"610-856-7654","telephone number":"610-856-7654","geo_precision":"street","state":"PA"},"type":"Feature","geometry":{"type":"Point","coordinates":[-75.960165,40.246385]}},{"properties":{"city":"LOYSVILLE","zip":"17047","region":"6","company name":"ALL-STEAD FARM","county":"Perry","street2":null,"products":"Cow Milk","geo_score":0.61,"street":"590 COUCHTOWN ROAD","id":"a62n4ajk9mv3","phone number":"717-536-0189","telephone number":"717-789-9373","geo_precision":"street","state":"PA"},"type":"Feature","geometry":{"type":"Point","coordinates":[-77.466203,40.324487]}},{"properties":{"city":"PARADISE","zip":"17562","region":"6","company name":"ALVIN J STOLTZFUS","county":"Lancaster","street2":null,"products":"Cow Milk","geo_score":0.72,"street":"694 COUNTRY LANE","id":"a62n4a9mmdxt","phone number":"717-442-9208","telephone number":"717-442-9208","geo_precision":"street","state":"PA"},"type":"Feature","geometry":{"type":"Point","coordinates":[-76.054319,39.962816]}},{"properties":{"city":"NARVON","zip":"17555","region":"6","company name":"AMOS T EBERSOL","county":"Lancaster","street2":null,"products":"Cow Milk","geo_score":0.812,"street":"590 RED HILL ROAD","id":"a62n4ajqta5g","phone number":"717-768-3652","telephone number":"717-768-3652","geo_precision":"range","state":"PA"},"type":"Feature","geometry":{"type":"Point","coordinates":[-75.976004,40.074402]}},{"properties":{"city":"UPPER BLACK ED","zip":"18972","region":"7","company name":"APITTEHIKAN FARM","county":"Bucks","street2":null,"products":"Goat Milk","geo_score":0.767,"street":"61 CAFFERTY ROAD","id":"a62n4ai8uooy","phone number":"610-817-8533","telephone number":"610-817-8533","geo_precision":"range","state":"PA"},"type":"Feature","geometry":{"type":"Point","coordinates":[-75.105502,40.485288]}},{"properties":{"city":"RICHFIELD","zip":"17086","region":"5","company name":"APPLE TREE GOAT DAIRY","county":"Juniata","street2":null,"products":"Goat/Cheese Aged 60 Days","geo_score":0.357,"street":"129  N. NENIX HILL ROAD","id":"a62n4a9kkqz5","phone number":"717-694-0146","telephone number":"717-694-0146","geo_precision":"street","state":"PA"},"type":"Feature","geometry":{"type":"Point","coordinates":[-77.030389,40.393795]}},{"properties":{"city":"EAST BERLIN","zip":"17316","region":"6","company name":"APPLE VALLEY CREAMERY","county":"Adams","street2":null,"products":"Cow Milk","geo_score":0.815,"street":"540 GERMANY ROAD","id":"a62n4a8zgcjd","phone number":"717-259-8348","telephone number":"717-259-8348","geo_precision":"range","state":"PA"},"type":"Feature","geometry":{"type":"Point","coordinates":[-77.051967,39.967064]}},{"properties":{"city":"CHAMBERSBURG","zip":"17202","region":"6","company name":"B M B FARM","county":"Franklin","street2":null,"products":"Cow Milk","geo_score":0.0,"street":"2490 ST THOMAS EDENSVILLE ROAD","id":"a62n4a8jfz5c","phone number":"717-369-3843","telephone number":"717-369-3843","geo_precision":"unmatched","state":"PA"},"type":"Feature","geometry":null},{"properties":{"city":"BOALSBURG","zip":"16827","region":"5","company name":"BEAR MEADOW FARM","county":"Centre","street2":null,"products":"Cow Milk","geo_score":0.512,"street":"265 BEAR MEADOW ROAD","id":"a62n4a9zlctp","phone number":null,"telephone number":"814-466-7720","geo_precision":"street","state":"PA"},"type":"Feature","geometry":{"type":"Point","coordinates":[-78.47644,40.993052]}},{"properties":{"city":"SPRING MILLS","zip":"16875","region":"5","company name":"BEILER FAMILY FARM CO","county":"Centre","street2":null,"products":"Cow Milk","geo_score":0.846,"street":"225 ROSS HILL ROAD","id":"a62n4ajorn5m","phone number":"814-422-8930","telephone number":"814-422-8930","geo_precision":"range","state":"PA"},"type":"Feature","geometry":{"type":"Point","coordinates":[-77.604345,40.849925]}},{"properties":{"city":"BIRD IN HAND","zip":"17505","region":"6","company name":"BEN K . STOLTZFUS","county":"Lancaster","street2":null,"products":"Cow Milk","geo_score":0.752,"street":"2457 STUMPTOWN","id":"a62n4a66rwc2","phone number":null,"telephone number":"717-656-1251","geo_precision":"range","state":"PA"},"type":"Feature","geometry":{"type":"Point","coordinates":[-76.199433,40.053941]}},{"properties":{"city":"BERNVILLE","zip":"19506","region":"7","company name":"BERKSHIRE FARMSTEAD CREAMERY LLC","county":"Berks","street2":null,"products":"Cow/Cheese Aged 60 Days","geo_score":0.831,"street":"7660 BERNVILLE ROAD","id":"a62n4aihje73","phone number":"610-488-7632","telephone number":"610-488-7632","geo_precision":"range","state":"PA"},"type":"Feature","geometry":{"type":"Point","coordinates":[-76.140992,40.45559]}},{"properties":{"city":"JONESTOWN","zip":"17038","region":"6","company name":"BEULAH LAND JERSEYS","county":"Lebanon","street2":null,"products":"Cow Milk","geo_score":0.499,"street":"34 LINCOLN SCHOOL ROAD","id":"a62n4a9gxlyq","phone number":"717-865-7158","telephone number":"717-865-7158","geo_precision":"street","state":"PA"},"type":"Feature","geometry":{"type":"Point","coordinates":[-76.535012,40.402964]}},{"properties":{"city":"CHESTER SPRING","zip":"19425","region":"7","company name":"BIRCHRUN HILLS FARM","county":"Chester","street2":null,"products":"Cow/Cheese Aged 60 Days","geo_score":0.82,"street":"2573 HORSESHOE TRAIL","id":"a62n4a88oafz","phone number":null,"telephone number":"610-827-1603","geo_precision":"range","state":"PA"},"type":"Feature","geometry":{"type":"Point","coordinates":[-75.663743,40.119884]}},{"properties":{"city":"NEWTOWN","zip":"18940","region":"7","company name":"BIRCHWOOD FARMS","county":"Bucks","street2":null,"products":"Cow Milk","geo_score":0.821,"street":"428 BROWNSBURG ROAD","id":"a62n4a84v1y6","phone number":"215-598-8633","telephone number":"215-598-8633","geo_precision":"range","state":"PA"},"type":"Feature","geometry":{"type":"Point","coordinates":[-74.964799,40.286105]}},{"properties":{"city":"ELIZABETHTOWN","zip":"17022","region":"6","company name":"BLACK WALNUT DAIRY","county":"Lancaster","street2":null,"products":"Cow Milk","geo_score":0.82,"street":"2062 BOSSLER ROAD","id":"a62n4aks499c","phone number":null,"telephone number":"717-367-5299","geo_precision":"range","state":"PA"},"type":"Feature","geometry":{"type":"Point","coordinates":[-76.611746,40.100415]}},{"properties":{"city":"BEAVER FALLS","zip":"15010","region":"4","company name":"BROADRUN DAIRY","county":"Beaver","street2":"C/O/ ROND CALDWELL","products":"Cow Milk","geo_score":0.578,"street":"399 CONCORD CIRCLE ROAD","id":"a62n4aha3tb2","phone number":null,"telephone number":"412-419-5822","geo_precision":"street","state":"PA"},"type":"Feature","geometry":{"type":"Point","coordinates":[-80.275052,40.771824]}},{"properties":{"city":"NEW TRIPOLI","zip":"18066","region":"7","company name":"BYLER DAIRY","county":"Lehigh","street2":null,"products":"Cow Milk","geo_score":0.82,"street":"8023 ALLEMAENGEL ROAD","id":"a62n4af8r6w0","phone number":"610-298-8035","telephone number":"610-298-8035","geo_precision":"range","state":"PA"},"type":"Feature","geometry":{"type":"Point","coordinates":[-75.800237,40.672398]}},{"properties":{"city":"BELLEVILLE","zip":"17004","region":"5","company name":"BYLER GOAT DAIRY","county":"Mifflin","street2":null,"products":"Goat Milk/Pasteurized Soft Cheese","geo_score":0.761,"street":"360 GRAVER ROAD","id":"a62n4afnamfy","phone number":null,"telephone number":"717-667-9047","geo_precision":"range","state":"PA"},"type":"Feature","geometry":{"type":"Point","coordinates":[-77.685189,40.651639]}},{"properties":{"city":"HONESDALE","zip":"18431","region":"3","company name":"CALKINS CREAMERY LLC","county":"Wayne","street2":null,"products":"Cow/Cheese Aged 60 Days","geo_score":0.507,"street":"288 CALKING ROAD","id":"a62n4aazinm4","phone number":"570-729-1358","telephone number":"570-729-8103","geo_precision":"zip","state":"PA"},"type":"Feature","geometry":{"type":"Point","coordinates":[-75.28101,41.577588]}},{"properties":{"city":"KIMBERTON","zip":"19442","region":"7","company name":"CAMPHILL VILLAGE","county":"Chester","street2":"KIMBERTON VILLAGE","products":"Cow Milk","geo_score":0.347,"street":"BOX 1045","id":"a62n4aja2w69","phone number":"610-935-0305","telephone number":"610-935-0305","geo_precision":"street","state":"PA"},"type":"Feature","geometry":{"type":"Point","coordinates":[-75.646121,40.249131]}},{"properties":{"city":"GETTYSBURG","zip":"17325","region":"6","company name":"CAPRINE DELIGHT","county":"Adams","street2":null,"products":"Goat Milk/Cheese aged 60 days","geo_score":0.815,"street":"1778 CHAMBERSBURG ROAD","id":"a62n4a7g8h6s","phone number":"717-334-3263","telephone number":"717-334-3263","geo_precision":"range","state":"PA"},"type":"Feature","geometry":{"type":"Point","coordinates":[-77.289856,39.85499]}},{"properties":{"city":"MILL HALL","zip":"17751","region":"2","company name":"CEDAR HOLLOW FARM","county":"Clinton","street2":null,"products":"Cow Milk","geo_score":0.732,"street":"122 NATE LN 32","id":"a62n4ackhjv2","phone number":null,"telephone number":"570-726-0066","geo_precision":"range","state":"PA"},"type":"Feature","geometry":{"type":"Point","coordinates":[-77.473355,41.070115]}},{"properties":{"city":"NOTTINGHAM","zip":"19062","region":"7","company name":"CHRRIKNOLL FARMS","county":"Chester","street2":"C/O ELMER ESH","products":"Cow Milk","geo_score":0.0,"street":"167 STONEY LANE","id":"a62n4ahga6rq","phone number":null,"telephone number":"610-932-9352","geo_precision":"unmatched","state":"PA"},"type":"Feature","geometry":null},{"properties":{"city":"WILLIAMSBURG","zip":"16693","region":"5","company name":"CLOVER CREEK CHEESE CELLAR LLC","county":"Blair","street2":"C/O DAVID RICE","products":"Cow Milk/Cheese Aged 60 days","geo_score":0.375,"street":"5161 CLOVER CREEK ROAD","id":"a62n4adboe5x","phone number":"814-832-3755","telephone number":"814-832-3755","geo_precision":"street","state":"PA"},"type":"Feature","geometry":{"type":"Point","coordinates":[-78.274588,40.497043]}},{"properties":{"city":"GORDONVILLE","zip":"17529","region":"6","company name":"COLONIAL GOAT DAIRY","county":"Lancaster","street2":"C/O LD STOLTZFUS","products":"Goat Milk","geo_score":0.902,"street":"39 COLONIAL ROAD","id":"a62n4a9wqebd","phone number":"717-768-7492","telephone number":"717-768-7492","geo_precision":"range","state":"PA"},"type":"Feature","geometry":{"type":"Point","coordinates":[-76.082337,40.04135]}},{"properties":{"city":"ELVERSON","zip":"19520","region":"7","company name":"CONEIBELLA FARM","county":"Chester","street2":null,"products":"Cow Milk","geo_score":0.816,"street":"337 CHESTNUT TREE ROAD","id":"a62n4add98op","phone number":"610-286-2967","telephone number":"610-286-2967","geo_precision":"range","state":"PA"},"type":"Feature","geometry":{"type":"Point","coordinates":[-75.841478,40.129182]}},{"properties":{"city":"EPHRATA","zip":"17522","region":"6","company name":"CONESTOGA VALLEY DAIRY FARM","county":"Lancaster","street2":null,"products":"Cow Milk","geo_score":0.627,"street":"947 MARTINDALE ROAD","id":"a62n4afh709e","phone number":"717-445-6757","telephone number":"717-445-4305","geo_precision":"street","state":"PA"},"type":"Feature","geometry":{"type":"Point","coordinates":[-76.0836,40.153845]}},{"properties":{"city":"PARADISE","zip":"17562","region":"6","company name":"COUNTRY SIDE DAIRY","county":"Lancaster","street2":null,"products":"Cow Milk","geo_score":0.817,"street":"503A STRASBURG ROAD","id":"a62n4ad54ix5","phone number":"717-687-6565","telephone number":"717-687-6565","geo_precision":"range","state":"PA"},"type":"Feature","geometry":{"type":"Point","coordinates":[-76.128636,39.983505]}},{"properties":{"city":"MYERSTOWN","zip":"17067","region":"6","company name":"COUNTRY SUNRISE CREAMERY","county":"Lebanon","street2":"C/O NELSON H MARTIN","products":"Cow Milk/Cheese Aged 60 days","geo_score":0.783,"street":"48 MOUNTAIN VIEW ROAD","id":"a62n4abvs5mn","phone number":"717-866-9112","telephone number":"717-866-9112","geo_precision":"range","state":"PA"},"type":"Feature","geometry":{"type":"Point","coordinates":[-76.32095,40.400989]}},{"properties":{"city":"DELTA","zip":"17314","region":"6","company name":"CREEK HILL DAIRY","county":"York","street2":null,"products":"Cow Milk","geo_score":0.834,"street":"299 AUBEL ROAD","id":"a62n4absrknu","phone number":"717-456-5184","telephone number":"717-456-5184","geo_precision":"range","state":"PA"},"type":"Feature","geometry":{"type":"Point","coordinates":[-76.383897,39.753965]}},{"properties":{"city":"NEW ENTERPRISE","zip":"16664","region":"5","company name":"CURVIN M &amp; WILMA N RISSLER","county":"Bedford","street2":null,"products":"Cow Milk","geo_score":0.722,"street":"1309 LAFAYETTE ROAD","id":"a62n4a4uie35","phone number":"814-766-2168","telephone number":"814-766-2168","geo_precision":"street","state":"PA"},"type":"Feature","geometry":{"type":"Point","coordinates":[-78.419282,40.272111]}},{"properties":{"city":"GLENMOORE","zip":"19343","region":"7","company name":"BETHANY FARM","county":"Chester","street2":"D B MESSNER","products":"Cow Milk/Goat Milk","geo_score":0.818,"street":"71 FAIRVIEW ROAD","id":"a62n4a53mw2z","phone number":"610-942-4004","telephone number":"610-942-4004","geo_precision":"range","state":"PA"},"type":"Feature","geometry":{"type":"Point","coordinates":[-75.808848,40.09215]}},{"properties":{"city":"CORAPOLIS","zip":"15108","region":"4","company name":"DACK'S INC","county":"Allegheny","street2":null,"products":"Sheep/Cheese Aged 60 Days","geo_score":0.302,"street":"1136 A2 THORN ROAD","id":"a62n4agm2q6i","phone number":"412-269-7475","telephone number":"412-269-7475","geo_precision":"street","state":"PA"},"type":"Feature","geometry":{"type":"Point","coordinates":[-80.172378,40.525771]}},{"properties":{"city":"KEMPTON","zip":"19529","region":"7","company name":"DAVID RICE-BAD FARMS","county":"Berks","street2":null,"products":"Cow Milk","geo_score":0.741,"street":"86 WEIDER ROAD","id":"a62n4ah9dch1","phone number":null,"telephone number":"610-756-6574","geo_precision":"range","state":"PA"},"type":"Feature","geometry":{"type":"Point","coordinates":[-75.876564,40.62887]}},{"properties":{"city":"NEW CASTLE","zip":"16101","region":"4","company name":"DEAN FARMS","county":"Lawrence","street2":"C/O ADAM DEAN","products":"Cow Milk/Cheese Aged 60 days","geo_score":0.35,"street":"571 COW PATH LANE","id":"a62n4afoftga","phone number":"724-944-7894","telephone number":"724-944-7894","geo_precision":"street","state":"PA"},"type":"Feature","geometry":{"type":"Point","coordinates":[-80.341263,40.891625]}},{"properties":{"city":"STOUCHSBURG","zip":"19567","region":"7","company name":"DEBBIE'S CHEESE BOARD","county":"Berks","street2":null,"products":"Cow/Cheese Aged 60 Days","geo_score":0.902,"street":"113 MAIN STREET","id":"a62n4aemmq3l","phone number":"610-586-5876","telephone number":"610-589-5876","geo_precision":"range","state":"PA"},"type":"Feature","geometry":{"type":"Point","coordinates":[-76.232761,40.380526]}},{"properties":{"city":"HEGINS","zip":"17938","region":"7","company name":"DEEP CREEK DAIRY","county":"Schuykill","street2":null,"products":"Cow Milk","geo_score":0.623,"street":"740 DEEP CREEK ROAD","id":"a62n4a5lz1ws","phone number":null,"telephone number":"717-443-7781","geo_precision":"street","state":"PA"},"type":"Feature","geometry":{"type":"Point","coordinates":[-76.449117,40.690457]}},{"properties":{"city":"POLK","zip":"16342","region":"1","company name":"DIANNA HERSMAN","county":"Venango","street2":null,"products":"Cow Milk","geo_score":0.816,"street":"3469 GEORGETOWN ROAD","id":"a62n4aevf9gr","phone number":"814-437-1296","telephone number":"814-437-1296","geo_precision":"range","state":"PA"},"type":"Feature","geometry":{"type":"Point","coordinates":[-79.987369,41.256457]}},{"properties":{"city":"BERNVILLE","zip":"19506","region":"7","company name":"DOVE SONG DAIRY","county":"Berks","street2":null,"products":"Goat Milk/Cheese aged 60 days","geo_score":0.724,"street":"108 SIEGFREID ROAD","id":"a62n4a90bcws","phone number":"610-488-6060","telephone number":"610-488-6060","geo_precision":"range","state":"PA"},"type":"Feature","geometry":{"type":"Point","coordinates":[-76.202986,40.464358]}},{"properties":{"city":"AARONSBURG","zip":"16820","region":"5","company name":"ELEMR Z AND MARTHA B KING","county":"Centre","street2":null,"products":"Cow Milk","geo_score":0.532,"street":"5799 PENNS VALLEY ROAD","id":"a62n4a811gps","phone number":"814-349-4890","telephone number":"no telephone","geo_precision":"street","state":"PA"},"type":"Feature","geometry":{"type":"Point","coordinates":[-77.504746,40.884493]}},{"properties":{"city":"NEWTOWN","zip":"18940","region":"7","company name":"ELY FARM PRODUCTS","county":"Bucks","street2":null,"products":"Cow/Cheese Aged 60 Days","geo_score":0.821,"street":"401 WOODHILL ROAD","id":"a62n4aj655ed","phone number":"215-860-4299","telephone number":"215-860-4299","geo_precision":"range","state":"PA"},"type":"Feature","geometry":{"type":"Point","coordinates":[-74.900917,40.295581]}},{"properties":{"city":"TYLER HILL","zip":"18469","region":"3","company name":"FALLSDALE FARM","county":"Wayne","street2":null,"products":"Goat/Cheese Aged 60 Days","geo_score":0.496,"street":"1 FALLSDALE FARM DRIVE","id":"a62n4a62hhab","phone number":"570-729-0401","telephone number":"570-729-0401","geo_precision":"zip","state":"PA"},"type":"Feature","geometry":{"type":"Point","coordinates":[-75.171283,41.700089]}},{"properties":{"city":"TYLER HILL","zip":"18469","region":"3","company name":"FALLSDALE FARM","county":"Wayne","street2":null,"products":"Cow/Cheese Aged 60 Days","geo_score":0.496,"street":"1 FALLSDALE FARM DRIVE","id":"a62n4afii79c","phone number":"570-729-0401","telephone number":"570-729-0401","geo_precision":"zip","state":"PA"},"type":"Feature","geometry":{"type":"Point","coordinates":[-75.171283,41.700089]}},{"properties":{"city":"MYERSTOWN","zip":"17067","region":"6","company name":"FERTILE VALLEY FARM","county":"Lebanon","street2":null,"products":"Cow Milk","geo_score":0.615,"street":"1960 PRESCOTT ROAD","id":"a62n4abz663l","phone number":"717-949-2935","telephone number":"570-729-0401","geo_precision":"street","state":"PA"},"type":"Feature","geometry":{"type":"Point","coordinates":[-76.32836,40.305078]}},{"properties":{"city":"COOPERSBURG","zip":"18036","region":"7","company name":"FLINT HILL FARM","county":"Lehigh","street2":null,"products":"Goat Milk/Cheese aged 60 days","geo_score":0.813,"street":"1922 FLINT HILL ROAD","id":"a62n4a968nlk","phone number":"610-838-2928","telephone number":"717-949-2935","geo_precision":"range","state":"PA"},"type":"Feature","geometry":{"type":"Point","coordinates":[-75.348038,40.531713]}},{"properties":{"city":"MIFFLINBURG","zip":"17004","region":"2","company name":"FOUR ZIM DAIRY PLUS","county":"Union","street2":"C/O TODD ZIMMERMAN","products":"Goat Milk","geo_score":0.611,"street":"246 BEAVER ROAD","id":"a62n4aiy042z","phone number":null,"telephone number":"570-966-9380","geo_precision":"street","state":"PA"},"type":"Feature","geometry":{"type":"Point","coordinates":[-76.912517,40.223924]}},{"properties":{"city":"MONONGAHELA","zip":"15063","region":"4","company name":"FRANK WHITE","county":"Allegheny","street2":null,"products":"Cow Milk","geo_score":0.812,"street":"659 MAGNOLIA LANE","id":"a62n4ahba076","phone number":"724-258-6564","telephone number":"610-838-2928","geo_precision":"range","state":"PA"},"type":"Feature","geometry":{"type":"Point","coordinates":[-79.882013,40.207883]}},{"properties":{"city":"GAP","zip":"17527","region":"6","company name":"FRIENDLY FARM","county":"Lancaster","street2":null,"products":"Cow Milk","geo_score":0.805,"street":"5809 LIMEVILLE ROAD","id":"a62n4aeyab7t","phone number":"717-442-8745","telephone number":"724-258-6564","geo_precision":"range","state":"PA"},"type":"Feature","geometry":{"type":"Point","coordinates":[-75.979841,40.001872]}},{"properties":{"city":"ELIZABETHTOWN","zip":"17022","region":"6","company name":"GLENN WISE","county":"Lancaster","street2":null,"products":"Cow Milk/Cheese Aged 60 days","geo_score":0.474,"street":"8514 ELIZABETH   ROAD","id":"a62n4ak6bb3v","phone number":null,"telephone number":"717-361-1640","geo_precision":"street","state":"PA"},"type":"Feature","geometry":{"type":"Point","coordinates":[-76.568587,40.128271]}},{"properties":{"city":"ULYSSES","zip":"16948","region":"2","company name":"GOD'S COUNTRY CREAMERY","county":"Tioga","street2":null,"products":"Cow/Cheese aged 60 days","geo_score":0.568,"street":"439 PUSHER SIDING ROAG","id":"a62n4a63n4bm","phone number":null,"telephone number":"814-848-7262","geo_precision":"street","state":"PA"},"type":"Feature","geometry":{"type":"Point","coordinates":[-77.812289,41.93841]}},{"properties":{"city":"LEBANON","zip":"17042","region":"6","company name":"GREEN ACRES JERSEY FARM","county":"Lebanon","street2":null,"products":"Cow Milk","geo_score":0.841,"street":"725 PRESCOTT ROAD","id":"a62n4a99ijlt","phone number":"717-949-3555","telephone number":"717-949-3555","geo_precision":"range","state":"PA"},"type":"Feature","geometry":{"type":"Point","coordinates":[-76.352794,40.346685]}},{"properties":{"city":"DANVILLE","zip":"17821","region":"2","company name":"GREEN MEADOWS DAIRY","county":"Montour","street2":null,"products":"Cow Milk","geo_score":0.637,"street":"507 PRESERVE ROAD","id":"a62n4a9qtgk2","phone number":null,"telephone number":"570-437-2990","geo_precision":"street","state":"PA"},"type":"Feature","geometry":{"type":"Point","coordinates":[-76.628782,41.096215]}},{"properties":{"city":"MIDDLEBURG","zip":"17482","region":"2","company name":"GREENFIELD DAIRY","county":"Snyder","street2":null,"products":"Cow Milk/Cheese Aged 60 days","geo_score":0.0,"street":"1450 TITLE ROAD","id":"a62n4a51y3mk","phone number":null,"telephone number":"570-837-1260","geo_precision":"unmatched","state":"PA"},"type":"Feature","geometry":null},{"properties":{"city":"QUARRYVILLE","zip":"17566","region":"6","company name":"GREENHILLS FARM","county":"Lancaster","street2":"C/O JOHN ESH","products":"Cow Milk","geo_score":0.814,"street":"243 SUMMIT HILL ROAD","id":"a62n4ac1g2af","phone number":"717-786-8093","telephone number":"717-786-8093","geo_precision":"range","state":"PA"},"type":"Feature","geometry":{"type":"Point","coordinates":[-76.129883,39.941253]}},{"properties":{"city":"SPARTANSBURG","zip":"16434","region":"1","company name":"HATCHTOWN ROAD CHEESE","county":"Crawford","street2":null,"products":"Cow/Cheese aged 60 days","geo_score":0.821,"street":"20550 HATCHTOWN ROAD","id":"a62n4ae33e1n","phone number":null,"telephone number":"814-654-7657","geo_precision":"range","state":"PA"},"type":"Feature","geometry":{"type":"Point","coordinates":[-79.650339,41.763877]}},{"properties":{"city":"TELEFORD","zip":"18969","region":"7","company name":"HENDRICKS FARM","county":"Montgomery","street2":null,"products":"Cow Milk/Cheese Aged 60 days","geo_score":0.829,"street":"202 GREEN HILL ROAD","id":"a62n4ahsinap","phone number":"267-382-0556","telephone number":"267-718-0219","geo_precision":"range","state":"PA"},"type":"Feature","geometry":{"type":"Point","coordinates":[-75.371031,40.332861]}},{"properties":{"city":"EVERETT","zip":"15537","region":"5","company name":"HIDDEN HILLS DAIRY LLC","county":"Bedford","street2":null,"products":"Cow Milk/Cheese Aged 60 Days","geo_score":0.815,"street":"1980 RITCHEY ROAD","id":"a62n4a6148xo","phone number":"814-652-2775","telephone number":"814-652-2775","geo_precision":"range","state":"PA"},"type":"Feature","geometry":{"type":"Point","coordinates":[-78.330376,39.992419]}},{"properties":{"city":"PEACH BOTTOM","zip":"17563","region":"6","company name":"HILLACRES PRIDE","county":"Lancaster","street2":null,"products":"Cow Milk/Cheese Aged 60 days","geo_score":0.769,"street":"194 ARCADIA TRACE ROAD","id":"a62n4aiax5l4","phone number":"717-548-2664","telephone number":"717-548-2664","geo_precision":"range","state":"PA"},"type":"Feature","geometry":{"type":"Point","coordinates":[-76.199142,39.764766]}},{"properties":{"city":"PINE GROVE","zip":"17963","region":"7","company name":"HILLTOP MEADOW FARM","county":"Schuylkill","street2":null,"products":"Cow/Cheese Aged 60 days","geo_score":0.54,"street":"153 MARTIN ROAD","id":"a62n4aj4cbrd","phone number":"570-345-3305","telephone number":"570-345-3305","geo_precision":"street","state":"PA"},"type":"Feature","geometry":{"type":"Point","coordinates":[-76.404455,40.636227]}},{"properties":{"city":"EAST EARL","zip":"17519","region":"6","company name":"HOPE SPRINGS FARM","county":"Lancaster","street2":"C/O LOREN AND ANNA WEAVER","products":"Cow Milk/Cheese Aged 60 Days","geo_score":0.834,"street":"1543 UNION GROVE ROAD","id":"a62n4akwrybu","phone number":"717-445-0281","telephone number":"717-445-0281","geo_precision":"range","state":"PA"},"type":"Feature","geometry":{"type":"Point","coordinates":[-76.014046,40.151998]}},{"properties":{"city":"BENTON","zip":"17814","region":"2","company name":"JACKIE STASH-EVERVIEW FARM","county":"Columbia","street2":null,"products":"Goat/Cheese aged 60 Days","geo_score":0.805,"street":"410 KLINGER HILL ROAD","id":"a62n4a6icnax","phone number":"570-925-2611","telephone number":"570-925-2611","geo_precision":"range","state":"PA"},"type":"Feature","geometry":{"type":"Point","coordinates":[-76.386632,41.250862]}},{"properties":{"city":"FREDONIA","zip":"16124","region":"1","company name":"JOHN KOLLER AND SONS","county":"Mercer","street2":null,"products":"Cow/Cheese aged 60 Days","geo_score":0.805,"street":"1734 PERRY HIGHWAY","id":"a62n4a9xjjfq","phone number":"724-475-4154","telephone number":"724-475-4154","geo_precision":"range","state":"PA"},"type":"Feature","geometry":{"type":"Point","coordinates":[-80.22733,41.339334]}},{"properties":{"city":"HOWARD","zip":"16841","region":"5","company name":"JOHN L ESH JR OR ANNA MARY ESH","county":"Centre","street2":null,"products":"Cow/Cheese aged 60 Days","geo_score":0.62,"street":"351 WISE ROAD","id":"a62n4ak01dh0","phone number":"814-383-0180","telephone number":"814-383-0180","geo_precision":"street","state":"PA"},"type":"Feature","geometry":{"type":"Point","coordinates":[-77.59003,40.97783]}},{"properties":{"city":"EPHRATA","zip":"17522","region":"6","company name":"JOHN M &amp; ERLA Z LEID","county":"Lancaster","street2":null,"products":"Cow Milk","geo_score":0.821,"street":"950 SENSENIG ROAD","id":"a62n4aghtaif","phone number":"717-445-7522","telephone number":"717-445-7522","geo_precision":"range","state":"PA"},"type":"Feature","geometry":{"type":"Point","coordinates":[-76.076375,40.163415]}},{"properties":{"city":"COUDERSPORT","zip":"16915","region":"2","company name":"K CARL TORREY","county":"Snyder","street2":null,"products":"Cow/Cheese Aged 60 Days","geo_score":0.504,"street":"34 CONEVILLE ROAD","id":"a62n4a5i9t0r","phone number":null,"telephone number":"814-698-2425","geo_precision":"zip","state":"PA"},"type":"Feature","geometry":{"type":"Point","coordinates":[-77.950279,41.756455]}},{"properties":{"city":"NORTHAMPTON","zip":"18067","region":"7","company name":"KEEPSAKE FARM &amp; DAIRY","county":"Northampton","street2":null,"products":"Cow Milk/Cheese Aged 60 days","geo_score":0.805,"street":"3286 PHEASANT DRIVE","id":"a62n4a8d726y","phone number":"610-248-8379","telephone number":"610-248-8379","geo_precision":"range","state":"PA"},"type":"Feature","geometry":{"type":"Point","coordinates":[-75.462194,40.743507]}},{"properties":{"city":"NEWBURG","zip":"17240","region":"6","company name":"KESWICK CREAMERY","county":"Cumberland","street2":null,"products":"Cow/Cheese aged 60 days","geo_score":0.902,"street":"114 LESHER ROAD","id":"a62n4acahrqg","phone number":"717-423-6758","telephone number":"717-423-6071","geo_precision":"range","state":"PA"},"type":"Feature","geometry":{"type":"Point","coordinates":[-77.53459,40.161953]}},{"properties":{"city":"ELIZABETHTOWN","zip":"17022","region":"6","company name":"KING FISHER DAIRY FARM","county":"Lancaster","street2":null,"products":"Cow Milk","geo_score":0.625,"street":"8969 ELIZABETHTOWN ROAD","id":"a62n4ajs76vg","phone number":"717-361-0009","telephone number":"717-361-0903","geo_precision":"street","state":"PA"},"type":"Feature","geometry":{"type":"Point","coordinates":[-76.504415,40.184081]}},{"properties":{"city":"EASTON","zip":"18040","region":"7","company name":"KLEIN FARMS DAIRY &amp; CREAMERY","county":"Northampton","street2":null,"products":"Cow Milk/Cheese Aged 60 days","geo_score":0.902,"street":"410 KLEIN ROAD","id":"a62n4a5k05n2","phone number":"610-252-0961","telephone number":"610-252-0961","geo_precision":"range","state":"PA"},"type":"Feature","geometry":{"type":"Point","coordinates":[-75.226928,40.763837]}},{"properties":{"city":"WORTHINGTON","zip":"16262","region":"4","company name":"LE-ARA FARMS LCC.","county":"Armstrong","street2":"C/O LARA SHIELDS","products":"Cow Milk","geo_score":0.583,"street":"1787 WINFIELD RD","id":"a62n4acvojpm","phone number":"724-545-6433","telephone number":"724-545-6433","geo_precision":"street","state":"PA"},"type":"Feature","geometry":{"type":"Point","coordinates":[-79.643807,40.76778]}},{"properties":{"city":"BETHEL","zip":"19507","region":"7","company name":"LEONARD MARTIN FARM","county":"Berks","street2":null,"products":"Cow Milk","geo_score":0.817,"street":"9400 Old 22","id":"a62n4ahi5700","phone number":null,"telephone number":"717-933-8870","geo_precision":"range","state":"PA"},"type":"Feature","geometry":{"type":"Point","coordinates":[-76.274506,40.476219]}},{"properties":{"city":"RONKS","zip":"17522","region":"6","company name":"LINDENDALE FARM","county":"Lancaster","street2":null,"products":"Goat/Cheese aged 60 Days","geo_score":0.805,"street":"127 HERR ROAD","id":"a62n4aja46h3","phone number":null,"telephone number":"717-687-8008","geo_precision":"range","state":"PA"},"type":"Feature","geometry":{"type":"Point","coordinates":[-76.162593,40.000816]}},{"properties":{"city":"BLAIN","zip":"17006","region":"6","company name":"LINDFORD NOLT","county":"Perry","street2":null,"products":"Cow Milk","geo_score":0.436,"street":"300 BOERNER LANE","id":"a62n4a7q55hn","phone number":null,"telephone number":"717-320-45989","geo_precision":"street","state":"PA"},"type":"Feature","geometry":{"type":"Point","coordinates":[-76.724158,40.266657]}},{"properties":{"city":"TITUSVILLE","zip":"16354","region":"1","company name":"LYNNWOOD &amp; MARY ANN HEAGY","county":"Crawford","street2":null,"products":"Cow Milk","geo_score":0.758,"street":"14940 STATE HIGHWAY 89","id":"a62n4a4sswzt","phone number":"N/A","telephone number":"No telephone","geo_precision":"range","state":"PA"},"type":"Feature","geometry":{"type":"Point","coordinates":[-79.665242,41.684421]}},{"properties":{"city":"HAMBURG","zip":"19526","region":"7","company name":"M &amp; B FARVIEW FARM","county":"Berks","street2":null,"products":"Goat Milk","geo_score":0.812,"street":"229 FARVIEW ROAD","id":"a62n4afde5yz","phone number":"610-562-4912","telephone number":"610-562-4912","geo_precision":"range","state":"PA"},"type":"Feature","geometry":{"type":"Point","coordinates":[-75.894322,40.525529]}},{"properties":{"city":"HAMBURG","zip":"19526","region":"7","company name":"M &amp; B FARVIEW FARM","county":"Berks","street2":null,"products":"Cow Milk","geo_score":0.812,"street":"229 FARVIEW ROAD","id":"a62n4a5o0lx4","phone number":"610-562-4912","telephone number":"610-562-4912","geo_precision":"range","state":"PA"},"type":"Feature","geometry":{"type":"Point","coordinates":[-75.894322,40.525529]}},{"properties":{"city":"MILL HALL","zip":"17751","region":"2","company name":"MARK J STOLTZFUS","county":"Clinton","street2":null,"products":"Cow/Cheese aged 60 days","geo_score":0.612,"street":"1865 EAST END MOUNTAIN ROAD","id":"a62n4a88f4ca","phone number":"570-726-7799","telephone number":"570-726-7799","geo_precision":"street","state":"PA"},"type":"Feature","geometry":{"type":"Point","coordinates":[-77.384655,41.092924]}},{"properties":{"city":"LEOLA","zip":"17540","region":"6","company name":"MEADOW VIEW FARM","county":"Lancaster","street2":null,"products":"Cow Milk","geo_score":0.821,"street":"172 SOUTH  FARMERSVILLE ROAD","id":"a62n4ahm8wcv","phone number":null,"telephone number":"717-656-2261","geo_precision":"range","state":"PA"},"type":"Feature","geometry":{"type":"Point","coordinates":[-76.155054,40.10037]}},{"properties":{"city":"CHRISTIANA","zip":"17509","region":"6","company name":"MELVIN F STOLTZFUS","county":"Lancaster","street2":null,"products":"Cow Milk","geo_score":0.834,"street":"199 BRICK MILL ROAD","id":"a62n4a8k1gd7","phone number":"N/A","telephone number":"No telephone","geo_precision":"range","state":"PA"},"type":"Feature","geometry":{"type":"Point","coordinates":[-75.999207,39.909227]}},{"properties":{"city":"DARRAGH","zip":"15625","region":"4","company name":"MELVIN FRANICOLA","county":"Westmoreland","street2":null,"products":"Cow Milk","geo_score":0.347,"street":"BOX 24","id":"a62n4a6byfs6","phone number":"724-446-5860","telephone number":"724-446-5860","geo_precision":"street","state":"PA"},"type":"Feature","geometry":{"type":"Point","coordinates":[-79.616219,40.479642]}},{"properties":{"city":"LEOLA","zip":"17540","region":"6","company name":"MISTY CREEK GOAT DAIRY","county":"Lancaster","street2":null,"products":"Goat Milk","geo_score":0.821,"street":"43 WEST EBY ROAD","id":"a62n4a58qr6x","phone number":"717-656-1345","telephone number":"717-656-1345","geo_precision":"range","state":"PA"},"type":"Feature","geometry":{"type":"Point","coordinates":[-76.174968,40.069734]}},{"properties":{"city":"BERNVILLE","zip":"19506","region":"7","company name":"MISTY MEADOW FARM LLC","county":"Berks","street2":null,"products":"Cow Milk","geo_score":0.815,"street":"67 NEW SCHAFFERSTOWN ROAD","id":"a62n4a4myi5q","phone number":"610-488-0164","telephone number":"610-488-0614","geo_precision":"range","state":"PA"},"type":"Feature","geometry":{"type":"Point","coordinates":[-76.22084,40.453468]}},{"properties":{"city":"REINHOLDS","zip":"17569","region":"6","company name":"MISTY MEADOWS GOAT DAIRY","county":"Lancaster","street2":null,"products":"Goat Milk","geo_score":0.806,"street":"750 SWARTZVILLE ROAD","id":"a62n4ad3o8ii","phone number":"717-484-0870","telephone number":"717-484-0870","geo_precision":"range","state":"PA"},"type":"Feature","geometry":{"type":"Point","coordinates":[-76.089295,40.256494]}},{"properties":{"city":"RICHFIELD","zip":"17086","region":"5","company name":"MOUNTAIN MEADOWS FARM","county":"Juniata","street2":null,"products":"Cow/Cheese Aged 60 Days","geo_score":0.45,"street":"2383 QUAKER RUN ROAD","id":"a62n4afbh5y3","phone number":"717-694-3999","telephone number":"717-694-3999","geo_precision":"street","state":"PA"},"type":"Feature","geometry":{"type":"Point","coordinates":[-77.319155,40.241585]}},{"properties":{"city":"MIFFLINBURG","zip":"17844","region":"2","company name":"MOUNTAINVIEW FARMS","county":"Union","street2":null,"products":"Goat Milk/Cheese aged 60 days","geo_score":0.496,"street":"371 BOOP ROAD","id":"a62n4a5r1fya","phone number":"570-966-5952","telephone number":"570-966-5952","geo_precision":"zip","state":"PA"},"type":"Feature","geometry":{"type":"Point","coordinates":[-77.087753,40.883136]}},{"properties":{"city":"COLUMBIA CR RD","zip":"16914","region":"3","company name":"MT GLEN FARM","county":"Bradford","street2":null,"products":"Cow Milk","geo_score":0.286,"street":"RR2 BOX 241","id":"a62n4aangag1","phone number":"570-297-2838","telephone number":"570-297-2838","geo_precision":"street","state":"PA"},"type":"Feature","geometry":{"type":"Point","coordinates":[-77.292679,41.748806]}},{"properties":{"city":"NEW PARK","zip":"17352","region":"6","company name":"NORMA J WARNER","county":"York","street2":null,"products":"Goat Milk","geo_score":0.812,"street":"15917 HOPEWELL CENTER ROAD","id":"a62n4afo0t2l","phone number":"717-993-2919","telephone number":"717-993-2919","geo_precision":"range","state":"PA"},"type":"Feature","geometry":{"type":"Point","coordinates":[-76.506432,39.798299]}},{"properties":{"city":"KUTZTOWN","zip":"19530","region":"7","company name":"NORMAN Z OR EDITH B SAUDER","county":"Berks","street2":null,"products":"Cow Milk","geo_score":0.805,"street":"276 QUARRY ROAD","id":"a62n4ajax9oq","phone number":"610-683-3561","telephone number":"610-683-3561","geo_precision":"range","state":"PA"},"type":"Feature","geometry":{"type":"Point","coordinates":[-75.732065,40.521059]}},{"properties":{"city":"KIRKWOOD","zip":"17536","region":"6","company name":"OAK SHADE CHEESE LLC","county":"Lancaster","street2":"C/O IRSAEL KINSINGER","products":"Cow/Cheese Aged 60 Days","geo_score":0.817,"street":"286 REATH ROAD","id":"a62n4ad2musq","phone number":"717-207-2920","telephone number":"717-207-2920","geo_precision":"range","state":"PA"},"type":"Feature","geometry":{"type":"Point","coordinates":[-76.099291,39.825595]}},{"properties":{"city":"ROCKTON","zip":"15856","region":"5","company name":"ORNER FARMS INC","county":"Clearfield","street2":null,"products":"Cow Milk","geo_score":0.61,"street":"3532 HOME CAMP ROAD","id":"a62n4ab6fkpy","phone number":"814-583-7864","telephone number":"814-583-7864","geo_precision":"street","state":"PA"},"type":"Feature","geometry":{"type":"Point","coordinates":[-78.63888,41.086866]}},{"properties":{"city":"NEWBURG","zip":"17240","region":"6","company name":"OTTERBEIN ACRES","county":"Franklin","street2":"C/O JOHN A FISHER","products":"Cow-Sheep cheese aged 60 days","geo_score":0.902,"street":"10071 OTTERBEIN CHURCH ROAD","id":"a62n4a7suol2","phone number":"717-423-6689","telephone number":"717-423-6689","geo_precision":"range","state":"PA"},"type":"Feature","geometry":{"type":"Point","coordinates":[-77.609176,40.129802]}},{"properties":{"city":"RICHFIELD","zip":"17086","region":"5","company name":"PASTURE PURE DAIRY","county":"Juniata","street2":null,"products":"Cow Milk","geo_score":0.537,"street":"2447 SAND VALLEY ROAD","id":"a62n4acjzh6o","phone number":"717-694-3268","telephone number":"717-694-3268","geo_precision":"street","state":"PA"},"type":"Feature","geometry":{"type":"Point","coordinates":[-76.641821,40.253496]}},{"properties":{"city":"GREENCASTLE","zip":"17225","region":"6","company name":"PIPE DREAMS GOAT DAIRY","county":"Franklin","street2":"BRAD PARKER &amp; JENNIFER GREENLEE","products":"Goat/Cheese Aged 60 Days","geo_score":0.814,"street":"2589 SHANKS CHURCH ROAD","id":"a62n4a9gecj6","phone number":"717-597-1877","telephone number":"717-597-1877","geo_precision":"range","state":"PA"},"type":"Feature","geometry":{"type":"Point","coordinates":[-77.760906,39.770905]}},{"properties":{"city":"BEAR LAKE","zip":"16402","region":"1","company name":"POT O GOLD DAIRY SPECIALTIES INC","county":"Warren","street2":"C/O RANDALL MESSINGER","products":"Cow Milk","geo_score":0.532,"street":"117 MESSINGER HILL ROAD","id":"a62n4ak9g3v5","phone number":"814-663-0921","telephone number":"814-663-0921","geo_precision":"street","state":"PA"},"type":"Feature","geometry":{"type":"Point","coordinates":[-80.352622,41.950382]}},{"properties":{"city":"QUAKERTOWN","zip":"18951","region":"7","company name":"RABBIT'S RUN FARM","county":"Bucks","street2":"C/O  DAN TORRISON","products":"Goat/Cheese aged 60 days","geo_score":0.805,"street":"88 SOUTH MINE ROAD","id":"a62n4a7d7nx8","phone number":null,"telephone number":"215-536-1161","geo_precision":"range","state":"PA"},"type":"Feature","geometry":{"type":"Point","coordinates":[-75.360213,40.470079]}},{"properties":{"city":"SHIPPENSBURG","zip":"17257","region":"6","company name":"ROCKVIEW DAIRY","county":"Cumberland","street2":"C/O CHRISS EBERSOLE","products":"Cow Milk","geo_score":0.813,"street":"44 KLINE ROAD","id":"a62n4a5slokn","phone number":null,"telephone number":"727-532-3957","geo_precision":"range","state":"PA"},"type":"Feature","geometry":{"type":"Point","coordinates":[-77.458948,40.085374]}},{"properties":{"city":"BANGOR","zip":"18013","region":"7","company name":"SAL-LEE FARM","county":"Northampton","street2":null,"products":"Cow Milk","geo_score":0.863,"street":"725 RICHMOND ROAD","id":"a62n4aafu4sl","phone number":"610-588-2226","telephone number":"610-588-2226","geo_precision":"range","state":"PA"},"type":"Feature","geometry":{"type":"Point","coordinates":[-75.188492,40.857859]}},{"properties":{"city":"SPRING BROOK T","zip":"18444","region":"3","company name":"SCHLITTLER FARM INC","county":"Lackawanna","street2":null,"products":"Cow Milk","geo_score":0.488,"street":"31 SCHLITTLER FARM RD","id":"a62n4akj9e9r","phone number":"570-842-1743","telephone number":"570-842-1743","geo_precision":"zip","state":"PA"},"type":"Feature","geometry":{"type":"Point","coordinates":[-75.554632,41.29675]}},{"properties":{"city":"WEST CHESTER","zip":"19380","region":"7","company name":"SHELLBARK HOLLOW FARM","county":"Chester","street2":null,"products":"Goat Milk/Cheese aged 60 days","geo_score":0.849,"street":"942 CORNWALLIS DRIVE","id":"a62n4af65um1","phone number":"610-831-0786","telephone number":"610-831-0786","geo_precision":"range","state":"PA"},"type":"Feature","geometry":{"type":"Point","coordinates":[-75.550368,39.998349]}},{"properties":{"city":"LOINBORO","zip":"16412","region":"1","company name":"SHOWMAN FARMS","county":"Eire","street2":"C/O LAURIE L SHOWMAN","products":"Cow Milk","geo_score":0.827,"street":"2951 CRANE ROAD","id":"a62n4ab89hx3","phone number":null,"telephone number":"814-734-4673","geo_precision":"range","state":"PA"},"type":"Feature","geometry":{"type":"Point","coordinates":[-80.076738,41.902268]}},{"properties":{"city":"SPRING RUN","zip":"17262","region":"6","company name":"SON RISE FARM","county":"Franklin","street2":null,"products":"Cow Milk","geo_score":0.507,"street":"19183 AMERSON ROAD","id":"a62n4aj37qg9","phone number":null,"telephone number":"71`7-372-2195","geo_precision":"zip","state":"PA"},"type":"Feature","geometry":{"type":"Point","coordinates":[-77.804439,40.128141]}},{"properties":{"city":"REBERSBURG","zip":"18940","region":"5","company name":"SPRING BANK ACRES","county":"Centre","street2":null,"products":"Cow Milk/Cheese Aged 60 days","geo_score":0.549,"street":"531 MILLEHEIM NARROWS","id":"a62n4a6jxoiy","phone number":"N/A","telephone number":"No telephone","geo_precision":"range","state":"PA"},"type":"Feature","geometry":{"type":"Point","coordinates":[-75.095679,40.282409]}},{"properties":{"city":"WERNERSVILLE","zip":"19565","region":"7","company name":"SPRING CREEK FARMS","county":"Berks","street2":"C/O FORREST STRICKER","products":"Cow Milk","geo_score":0.584,"street":"3880 N CHURCH STREET","id":"a62n4a7vw9j4","phone number":"610-678-7629","telephone number":"610-678-7629","geo_precision":"street","state":"PA"},"type":"Feature","geometry":{"type":"Point","coordinates":[-76.089326,40.355098]}},{"properties":{"city":"PAXINOS","zip":"17860","region":"2","company name":"STEVEN GLICK","county":"Northumberland","street2":null,"products":"Cow Milk","geo_score":0.477,"street":"2406 ROUTE 890","id":"a62n4a4qcup6","phone number":null,"telephone number":"570-988-0214","geo_precision":"street","state":"PA"},"type":"Feature","geometry":{"type":"Point","coordinates":[-76.725625,40.790633]}},{"properties":{"city":"LANCASTER","zip":"17602","region":"6","company name":"STEVIE AND SUSIE KING","county":"Lancaster","street2":null,"products":"Cow Milk","geo_score":0.812,"street":"897 ESHELMAND MILL ROAD","id":"a62n4acg1595","phone number":null,"telephone number":"717-295-4844","geo_precision":"range","state":"PA"},"type":"Feature","geometry":{"type":"Point","coordinates":[-76.277261,40.007045]}},{"properties":{"city":"WOODWARD","zip":"16882","region":"5","company name":"STONE MEADOW FARM","county":"Centre","street2":"C/O BRIAN FUTHEY","products":"Cow/Cheese Aged 60 Days","geo_score":0.805,"street":"190 QUARRY ROAD","id":"a62n4afco6xa","phone number":"814-349-8841","telephone number":"814-349-8841","geo_precision":"range","state":"PA"},"type":"Feature","geometry":{"type":"Point","coordinates":[-77.392548,40.887062]}},{"properties":{"city":"MAGUNGIE","zip":"18062","region":"7","company name":"STONECROFT FARM","county":"Berks","street2":null,"products":"Goat Milk","geo_score":0.819,"street":"271 WETZEL ROAD","id":"a62n4a8cy30o","phone number":"610-845-8050","telephone number":"717-375-4035","geo_precision":"range","state":"PA"},"type":"Feature","geometry":{"type":"Point","coordinates":[-75.590339,40.481283]}},{"properties":{"city":"CHAMBERSBURG","zip":"17201","region":"6","company name":"STONEY RIDGE FARM","county":"Franklin","street2":"RICHARD MARTIN &amp; RACHEAL MARTIN","products":"Cow Milk","geo_score":0.521,"street":"930 SWAMP FOX ROAD","id":"a62n4ajpt1j4","phone number":"717-375-4035","telephone number":"610-845-8050","geo_precision":"street","state":"PA"},"type":"Feature","geometry":{"type":"Point","coordinates":[-77.681546,39.854976]}},{"properties":{"city":"COCHRANVILLE","zip":"19330","region":"7","company name":"SUNSET VIEW PASTURES","county":"Chester","street2":null,"products":"Cow Milk","geo_score":0.846,"street":"751 SAWMILL ROAD","id":"a62n4ajvtqx4","phone number":"610-593-3038","telephone number":"610-593-3038","geo_precision":"range","state":"PA"},"type":"Feature","geometry":{"type":"Point","coordinates":[-75.958056,39.86049]}},{"properties":{"city":"BERLIN","zip":"15530","region":"5","company name":"SWAMP CREST JERSEYS LLC","county":"Somerset","street2":null,"products":"Cow Milk/Cheese Aged 60 days","geo_score":0.821,"street":"795 WILLKOW ROAD","id":"a62n4aaqaa60","phone number":"814-267-9932","telephone number":"814-267-9932","geo_precision":"range","state":"PA"},"type":"Feature","geometry":{"type":"Point","coordinates":[-78.922034,39.968051]}},{"properties":{"city":"LYKENS","zip":"17048","region":"6","company name":"SWISS VILLA DAIRY","county":"Dauphin","street2":null,"products":"Cow Milk","geo_score":0.829,"street":"200 FIELD ROAD","id":"a62n4a7lroie","phone number":"717-365-7116","telephone number":"717-365-7116","geo_precision":"range","state":"PA"},"type":"Feature","geometry":{"type":"Point","coordinates":[-76.768792,40.593742]}},{"properties":{"city":"TALMAGE","zip":"17580","region":"6","company name":"TALMAGE FARM DAIRY","county":"Lancaster","street2":null,"products":"Cow Milk","geo_score":0.805,"street":"35 STOLTZFUS AVENUE","id":"a62n4ad2ayw6","phone number":"717-656-0708","telephone number":"717- 656-0708","geo_precision":"range","state":"PA"},"type":"Feature","geometry":{"type":"Point","coordinates":[-76.215913,40.114301]}},{"properties":{"city":"CHAMBERSBURG","zip":"17202","region":"6","company name":"THE FAMILY COW LLC","county":"Franklin","street2":null,"products":"Cow Milk","geo_score":0.0,"street":"3854  OLDE SCOTLAND ROAD","id":"a62n4aav5lv5","phone number":null,"telephone number":"717-729-9730","geo_precision":"unmatched","state":"PA"},"type":"Feature","geometry":null},{"properties":{"city":"HALLSTEAD","zip":"18822","region":"3","company name":"DBA ARDITH MAE FARM","county":"Susquehanna","street2":"TODD &amp; SHEREEN WILCOX","products":"Goat/Cheese aged 60 Days","geo_score":0.424,"street":"582 STONE CROP ROAD","id":"a62n4afsc6d1","phone number":null,"telephone number":"570-967-0908","geo_precision":"street","state":"PA"},"type":"Feature","geometry":{"type":"Point","coordinates":[-75.68497,41.85196]}},{"properties":{"city":"WILLIAMSPORT","zip":"17701","region":"2","company name":"TOY COW CREAMERY","county":"Lycoming","street2":null,"products":"Cow Milk","geo_score":0.672,"street":"7859 ROUTE 654","id":"a62n4a854j9j","phone number":"570-745-2391","telephone number":"570-745-2391","geo_precision":"range","state":"PA"},"type":"Feature","geometry":{"type":"Point","coordinates":[-77.147696,41.156005]}},{"properties":{"city":"MILLERSBURG","zip":"17061","region":"6","company name":"TWIN MAPLE GOAT DAIRY","county":"Dauphin","street2":"C/O JONATHAN ZEISET","products":"Goat Milk/Cheese aged 60 days","geo_score":0.823,"street":"319 MINNICH ROAD","id":"a62n4adnbxm0","phone number":"717-362-2021","telephone number":"717-362-2021","geo_precision":"range","state":"PA"},"type":"Feature","geometry":{"type":"Point","coordinates":[-76.854295,40.588527]}},{"properties":{"city":"PARADISE","zip":"17562","region":"6","company name":"VERDANT VIEW  FARM","county":"Lancaster","street2":null,"products":"Cow Milk","geo_score":0.817,"street":"429 STRASBURG ROAD","id":"a62n4a4wstal","phone number":null,"telephone number":"717-687-7353","geo_precision":"range","state":"PA"},"type":"Feature","geometry":{"type":"Point","coordinates":[-76.146031,39.98316]}},{"properties":{"city":"SHIPPENSBURG","zip":"17257","region":"6","company name":"WADEL'S DAIRY","county":"Franklin","street2":null,"products":"Cow Milk","geo_score":0.423,"street":"6734 WHIT CHRUCH RD","id":"a62n4a7b2x69","phone number":null,"telephone number":"717-532-2473","geo_precision":"street","state":"PA"},"type":"Feature","geometry":{"type":"Point","coordinates":[-77.560585,40.066272]}},{"properties":{"city":"WATSONTOWN","zip":"17777","region":"2","company name":"WARRIOR RUN MEADOWS","county":"Northumberland","street2":null,"products":"Cow Milk","geo_score":0.615,"street":"1435 CHURCH ROAD","id":"a62n4aj50z30","phone number":"570-538-5175","telephone number":"570-538-5175","geo_precision":"street","state":"PA"},"type":"Feature","geometry":{"type":"Point","coordinates":[-76.564827,41.179891]}},{"properties":{"city":"NEWPORT","zip":"17074","region":"6","company name":"WAYSIDE ACRES","county":"Perry","street2":null,"products":"Goat Milk/Cheese aged 60 days","geo_score":0.53,"street":"1570 KEYSTONE WAY","id":"a62n4a7kniec","phone number":"717-567-9235","telephone number":"717-567-9235","geo_precision":"street","state":"PA"},"type":"Feature","geometry":{"type":"Point","coordinates":[-76.765594,40.218688]}},{"properties":{"city":"QUARRYVILLE","zip":"17566","region":"6","company name":"WENTWORTH DAIRY","county":"Lancaster","street2":"C/O ROB &amp; BONNIE WENTWORTH","products":"Cow Milk","geo_score":0.73,"street":"1026 RIVER ROAD","id":"a62n4acsamq2","phone number":"717-548-3896","telephone number":"717-548-3896","geo_precision":"range","state":"PA"},"type":"Feature","geometry":{"type":"Point","coordinates":[-76.202704,39.821572]}},{"properties":{"city":"CHAMBERSBURG","zip":"17201","region":"6","company name":"WHISPERING BROOK CHEESE HAUS","county":"Franklin","street2":"C/O EDWARD BRECHBILL","products":"Cow/Cheese Aged 60 Days","geo_score":0.618,"street":"8875 EDENVILLE CHEESETOWN ROAD","id":"a62n4aigc664","phone number":"717-369-2355","telephone number":"717-369-2355","geo_precision":"street","state":"PA"},"type":"Feature","geometry":{"type":"Point","coordinates":[-77.774426,39.964992]}},{"properties":{"city":"DOUGLASSVILLE","zip":"19518","region":"7","company name":"WHOLESOME DAIRY FARMS","county":"Berks","street2":null,"products":"Cow Milk/Cheese Aged 60 days","geo_score":0.82,"street":"136 CAMP ROAD","id":"a62n4ag3ibrq","phone number":"610-621-0508","telephone number":"610-621-0508","geo_precision":"range","state":"PA"},"type":"Feature","geometry":{"type":"Point","coordinates":[-75.737821,40.327846]}},{"properties":{"city":"NEWVILLE","zip":"17241","region":"6","company name":"WIL-AR FARM","county":"Cumberland","street2":null,"products":"Cow/Cheese Aged 60 Days","geo_score":0.805,"street":"76 PARKER ROAD","id":"a62n4aj3tx67","phone number":"717-776-6552","telephone number":"717-776-6552","geo_precision":"range","state":"PA"},"type":"Feature","geometry":{"type":"Point","coordinates":[-77.383845,40.154158]}},{"properties":{"city":"MT PLEASANT","zip":"17853","region":"2","company name":"WILLOW MEADOW FARM","county":"Snyder","street2":null,"products":"Cow Milk","geo_score":0.545,"street":"736 BEIDLER ROAD","id":"a62n4adrh0pm","phone number":"570-539-8346","telephone number":"570-539-8346","geo_precision":"street","state":"PA"},"type":"Feature","geometry":{"type":"Point","coordinates":[-76.504015,41.1853]}}],"is_temporal":false,"author":{"url":"http://www.google.com/url?sa=t&source=web&cd=1&ved=0CBgQFjAA&url=http%3A%2F%2Fwww.pasafarming.org%2Fresource%2FPA%2520Producers%2520with%2520Raw%2520Milk%2520Permits.xls%2520%252001-20-2010.xls&ei=vKBxTdPaO4et8Aa68sT7Aw&usg=AFQjCNFhJ3EEMPtZlssmdGKXEhVuUpe","metadata":"","contact_name":"","contact_address":"","source":"Pennsylvania Association for Sustainable Agriculture","contact_phone":""},"source":"http://www.google.com/url?sa=t&source=web&cd=1&ved=0CBgQFjAA&url=http%3A%2F%2Fwww.pasafarming.org%2Fresource%2FPA%2520Producers%2520with%2520Raw%2520Milk%2520Permits.xls%2520%252001-20-2010.xls&ei=vKBxTdPaO4et8Aa68sT7Aw&usg=AFQjCNFhJ3EEMPtZlssmdGKXEhVuUpe","pagination":{"sort":null,"start":0,"total":128,"limit":1000000},"state":"complete","tags":"cheese,pennsylvania,raw milk","published":"2014-08-10T22:04:00-04:00","id":97784}