{"type":"FeatureCollection","data_type":"Dataset","url_type":null,"permissions":[{"permissions":{"download":true,"view":true},"group_id":"everyone"}],"classification":null,"title":"Test airports","count":26,"stream_id":9788,"contributor":{"url":"http://geocommons.com/users/4785","name":"tkturbofan"},"data_attributes":null,"calculation_params":null,"icon_link":null,"link":"http://geocommons.com/overlays/9788.json","extent":[-122.302,20.6239,-74.0608,47.5297],"geometry_types":["point"],"unique_name":null,"name":"Test airports","feature_count":26,"description":"test airports from an excel csv file","next_feature":null,"is_raster":false,"short_classification":"Y","stats":{"latitude":{"max":47.5297222,"mean":37.2738888807692,"variance":37.8637018563247,"stdev":6.15334883265403,"min":20.6238889,"median":39.4666667},"altitude":{"max":2354,"mean":533.615384615385,"variance":489167.126153846,"stdev":699.404837096403,"min":3,"median":214},"longitude":{"max":-74.0608333,"mean":-95.9222222307693,"variance":200.430002571621,"stdev":14.1573303476192,"min":-122.3019444,"median":-92.55}},"features":[{"properties":{"city":"Queretaro","airport":"MMQT","name":"Queretaro (MMQT)","latitude":20.6238889,"altitude":1969,"desc":"Ingeniero F Espinoza Gutierrez Int'l","longitude":-100.3686111,"id":"a62obap0oodn","state":""},"type":"Feature","geometry":{"type":"Point","coordinates":[-100.3686111,20.6238889]}},{"properties":{"city":"Naples","airport":"kapf","name":"Naples (KAPF)","latitude":26.15,"altitude":3,"desc":"Naples Municipal","longitude":-81.7666667,"id":"a62obah6smil","state":"FL"},"type":"Feature","geometry":{"type":"Point","coordinates":[-81.7666667,26.15]}},{"properties":{"city":"Houston","airport":"khou","name":"Houston (KHOU)","latitude":29.6452778,"altitude":14,"desc":"William P Hobby","longitude":-95.2788889,"id":"a62obanh4s1g","state":"TX"},"type":"Feature","geometry":{"type":"Point","coordinates":[-95.2788889,29.6452778]}},{"properties":{"city":"Jacksonville","airport":"kjax","name":"Jacksonville (KJAX)","latitude":30.4938889,"altitude":9,"desc":"Jacksonville Int'l","longitude":-81.6877778,"id":"a62obah5sv2r","state":"FL"},"type":"Feature","geometry":{"type":"Point","coordinates":[-81.6877778,30.4938889]}},{"properties":{"city":"Tucson","airport":"KTUS","name":"Tucson (KTUS)","latitude":32.1161111,"altitude":806,"desc":"Tucson Int'l","longitude":-110.9413889,"id":"a62obaj8yf36","state":"AZ"},"type":"Feature","geometry":{"type":"Point","coordinates":[-110.9413889,32.1161111]}},{"properties":{"city":"Dallas","airport":"kdal","name":"Dallas (KDAL)","latitude":32.8469444,"altitude":148,"desc":"Dallas Love Field","longitude":-96.8516667,"id":"a62obajq7gnn","state":"TX"},"type":"Feature","geometry":{"type":"Point","coordinates":[-96.8516667,32.8469444]}},{"properties":{"city":"Scottsdale","airport":"KSDL","name":"Scottsdale (KSDL)","latitude":33.6166667,"altitude":447,"desc":"Scottsdale","longitude":-111.9166667,"id":"a62obad1418u","state":"AZ"},"type":"Feature","geometry":{"type":"Point","coordinates":[-111.9166667,33.6166667]}},{"properties":{"city":"Los Angeles","airport":"KLAX","name":"Los Angeles (KLAX)","latitude":33.9425,"altitude":38,"desc":"Los Angeles Int'l","longitude":-118.4080556,"id":"a62oban0nvcr","state":"CA"},"type":"Feature","geometry":{"type":"Point","coordinates":[-118.4080556,33.9425]}},{"properties":{"city":"Wilmington","airport":"KILM","name":"Wilmington (KILM)","latitude":34.2705556,"altitude":10,"desc":"Wilmington Int'l","longitude":-77.9025,"id":"a62obai7du08","state":"NC"},"type":"Feature","geometry":{"type":"Point","coordinates":[-77.9025,34.2705556]}},{"properties":{"city":"Albuquerque","airport":"KABQ","name":"Albuquerque (KABQ)","latitude":35.04,"altitude":1632,"desc":"Albuquerque Int'l","longitude":-106.6091667,"id":"a62obaogabdh","state":"NM"},"type":"Feature","geometry":{"type":"Point","coordinates":[-106.6091667,35.04]}},{"properties":{"city":"Kaiser Lake Ozark","airport":"KAIZ","name":"Kaiser Lake Ozark (KAIZ)","latitude":38.1,"altitude":265,"desc":"Lee C Fine Memorial","longitude":-92.55,"id":"a62obal47v9t","state":"MO"},"type":"Feature","geometry":{"type":"Point","coordinates":[-92.55,38.1]}},{"properties":{"city":"St. Louis","airport":"KSTL","name":"St. Louis (KSTL)","latitude":38.7475,"altitude":184,"desc":"Lambert St Louis Int'l","longitude":-90.3597222,"id":"a62obaeo9k6w","state":"MO"},"type":"Feature","geometry":{"type":"Point","coordinates":[-90.3597222,38.7475]}},{"properties":{"city":"Aspen","airport":"kase","name":"Aspen (KASE)","latitude":39.2333333,"altitude":2354,"desc":"Pitkin County","longitude":-106.8666667,"id":"a62obaq48i3m","state":"CO"},"type":"Feature","geometry":{"type":"Point","coordinates":[-106.8666667,39.2333333]}},{"properties":{"city":"Mattoon/Charleston","airport":"KMTO","name":"Mattoon/Charleston (KMTO)","latitude":39.4666667,"altitude":214,"desc":"Coles County Memorial","longitude":-88.2666667,"id":"a62obapxfoxl","state":"IL"},"type":"Feature","geometry":{"type":"Point","coordinates":[-88.2666667,39.4666667]}},{"properties":{"city":"Reno","airport":"krno","name":"Reno (KRNO)","latitude":39.4983333,"altitude":1345,"desc":"Reno Tahoe Int'l","longitude":-119.7680556,"id":"a62obab7x3mb","state":"NV"},"type":"Feature","geometry":{"type":"Point","coordinates":[-119.7680556,39.4983333]}},{"properties":{"city":"Indianapolis","airport":"KIND","name":"Indianapolis (KIND)","latitude":39.7172222,"altitude":243,"desc":"Indianapolis Int'l","longitude":-86.2941667,"id":"a62obad9ilet","state":"IN"},"type":"Feature","geometry":{"type":"Point","coordinates":[-86.2941667,39.7172222]}},{"properties":{"city":"Denver","airport":"kden","name":"Denver (KDEN)","latitude":39.8583333,"altitude":1655,"desc":"Denver Int'l","longitude":-104.6669444,"id":"a62obadrr8kw","state":"CO"},"type":"Feature","geometry":{"type":"Point","coordinates":[-104.6669444,39.8583333]}},{"properties":{"city":"Champaign/Urbana","airport":"KCMI","name":"Champaign/Urbana (KCMI)","latitude":40.0333333,"altitude":229,"desc":"University of Illinois-Willard","longitude":-88.2666667,"id":"a62obacq7v2r","state":"IL"},"type":"Feature","geometry":{"type":"Point","coordinates":[-88.2666667,40.0333333]}},{"properties":{"city":"Salt Lake City","airport":"kslc","name":"Salt Lake City (KSLC)","latitude":40.7883333,"altitude":1288,"desc":"Salt Lake City Int'l","longitude":-111.9775,"id":"a62obamqau8c","state":"UT"},"type":"Feature","geometry":{"type":"Point","coordinates":[-111.9775,40.7883333]}},{"properties":{"city":"Teterboro","airport":"KTEB","name":"Teterboro (KTEB)","latitude":40.8497222,"altitude":3,"desc":"Teterboro","longitude":-74.0608333,"id":"a62obag6w2g5","state":"NJ"},"type":"Feature","geometry":{"type":"Point","coordinates":[-74.0608333,40.8497222]}},{"properties":{"city":"Chicago","airport":"KMDW","name":"Chicago (KMDW)","latitude":41.7858333,"altitude":189,"desc":"Chicago Midway Int'l","longitude":-87.7522222,"id":"a62obamdcsi5","state":"IL"},"type":"Feature","geometry":{"type":"Point","coordinates":[-87.7522222,41.7858333]}},{"properties":{"city":"Chicago","airport":"KORD","name":"Chicago (KORD)","latitude":41.9794444,"altitude":204,"desc":"Chicago OHare Int'l","longitude":-87.9044444,"id":"a62obakr81ms","state":"IL"},"type":"Feature","geometry":{"type":"Point","coordinates":[-87.9044444,41.9794444]}},{"properties":{"city":"Toronto","airport":"CYYZ","name":"Toronto (CYYZ)","latitude":43.6772222,"altitude":173,"desc":"Lester B Pearson Int'l","longitude":-79.6305556,"id":"a62obael5ivs","state":"ON"},"type":"Feature","geometry":{"type":"Point","coordinates":[-79.6305556,43.6772222]}},{"properties":{"city":"Peterborough","airport":"CYPQ","name":"Peterborough (CYPQ)","latitude":44.23,"altitude":191,"desc":"Peterborough","longitude":-78.3633333,"id":"a62obalhb0n3","state":"ON"},"type":"Feature","geometry":{"type":"Point","coordinates":[-78.3633333,44.23]}},{"properties":{"city":"Minneapolis","airport":"kmsp","name":"Minneapolis (KMSP)","latitude":44.8802778,"altitude":256,"desc":"Minneapolis St Paul Int'l","longitude":-93.2166667,"id":"a62obanmofkb","state":"MN"},"type":"Feature","geometry":{"type":"Point","coordinates":[-93.2166667,44.8802778]}},{"properties":{"city":"Seattle","airport":"KBFI","name":"Seattle (KBFI)","latitude":47.5297222,"altitude":5,"desc":"Boeing Field/King Co Int'l","longitude":-122.3019444,"id":"a62obaju8r1h","state":"WA"},"type":"Feature","geometry":{"type":"Point","coordinates":[-122.3019444,47.5297222]}}],"is_temporal":false,"author":{"url":"","metadata":"","contact_name":"","contact_address":"","source":"","contact_phone":""},"source":"","pagination":{"sort":null,"start":0,"total":26,"limit":1000000},"state":"complete","tags":"airport","published":"2009-02-19T12:00:00Z","id":9788}