{"type":"FeatureCollection","data_type":"Dataset","url_type":null,"permissions":[{"permissions":{"download":true,"view":true},"group_id":"everyone"}],"classification":null,"title":"NCAA Men's Lacrosse Matchup Locations, USA, 2.28.2009 ","count":62,"stream_id":9859,"contributor":{"url":"http://geocommons.com/users/139","name":"Burkey"},"data_attributes":null,"calculation_params":null,"icon_link":null,"link":"http://geocommons.com/overlays/9859.json","extent":[-122.284,34.9852,-70.8423,43.1145],"geometry_types":["point"],"unique_name":null,"name":"NCAA Men's Lacrosse Matchup Locations, USA, 2.28.2009 ","feature_count":62,"description":"&quot;This dataset displays the locations of sites were NCAA Men's Lacrosse matchups will be taking on Saturday, February 28th, 2009.\n\nThe data comes from LaxPower and includes: Matchup, time, location, city, state, lat/lon location &quot;\n","next_feature":null,"is_raster":false,"short_classification":"Y","stats":{"lon":{"max":-70.842253,"mean":-78.4432551935484,"variance":70.309342857384,"stdev":8.38506665789748,"min":-122.28425,"median":-76.183575},"lat":{"max":43.114539,"mean":39.7702085967742,"variance":4.1463829976587,"stdev":2.03626692691766,"min":34.985237,"median":40.051451}},"features":[{"properties":{"city":"Denver","lon":-104.965444,"time":"11:00 AM","matchup":"Air Force vs. Towson","id":"a62runqjoz2r","lat":39.689156,"location":"Denver","state":"CO"},"type":"Feature","geometry":{"type":"Point","coordinates":[-104.965444,39.689156]}},{"properties":{"city":"Wilkes-Barre","lon":-75.860992,"time":"1:00 PM","matchup":"Alfred at King's","id":"a62runujtanp","lat":41.233239,"location":"King's","state":"PA"},"type":"Feature","geometry":{"type":"Point","coordinates":[-75.860992,41.233239]}},{"properties":{"city":"Riverdale","lon":-73.903352,"time":"1:00 PM","matchup":"Alvernia at Mt. St. Vincent","id":"a62runi82j3v","lat":40.913616,"location":"Mt. St. Vincent","state":"NY"},"type":"Feature","geometry":{"type":"Point","coordinates":[-73.903352,40.913616]}},{"properties":{"city":"Brookville","lon":-73.60107,"time":"1:00 PM","matchup":"Assumption at C. W. Post","id":"a62runqr3qh7","lat":40.810211,"location":"C. W. Post","state":"NY"},"type":"Feature","geometry":{"type":"Point","coordinates":[-73.60107,40.810211]}},{"properties":{"city":"Saratoga Springs","lon":-73.788022,"time":"2:00 PM","matchup":"Babson at Skidmore","id":"a62runnqhhf7","lat":43.093971,"location":"Skidmore","state":"NY"},"type":"Feature","geometry":{"type":"Point","coordinates":[-73.788022,43.093971]}},{"properties":{"city":"Lexington","lon":-79.438578,"time":"1:00 PM","matchup":"Bellarmine at VMI","id":"a62runmtabki","lat":37.794699,"location":"VMI","state":"VA"},"type":"Feature","geometry":{"type":"Point","coordinates":[-79.438578,37.794699]}},{"properties":{"city":"Philadelphia","lon":-75.207869,"time":"1:00 PM","matchup":"Binghamton at Drexel","id":"a62runnzip55","lat":39.959769,"location":"Drexel","state":"PA"},"type":"Feature","geometry":{"type":"Point","coordinates":[-75.207869,39.959769]}},{"properties":{"city":"Gwynedd Valley","lon":-75.24043,"time":"12:00 PM","matchup":"Carthage at Gwynedd-Mercy","id":"a62runhy1typ","lat":40.198662,"location":"Gwynedd-Mercy","state":"PA"},"type":"Feature","geometry":{"type":"Point","coordinates":[-75.24043,40.198662]}},{"properties":{"city":"Baltimore","lon":-76.707548,"time":"1:00 PM","matchup":"Colgate at UMBC","id":"a62runq4tssa","lat":39.25052,"location":"UMBC","state":"MD"},"type":"Feature","geometry":{"type":"Point","coordinates":[-76.707548,39.25052]}},{"properties":{"city":"Lexington","lon":-79.444548,"time":"1:00 PM","matchup":"Colorado College at Washington &amp; Lee","id":"a62runlgbrvc","lat":37.788138,"location":"Washington &amp; Lee","state":"VA"},"type":"Feature","geometry":{"type":"Point","coordinates":[-79.444548,37.788138]}},{"properties":{"city":"West Point","lon":-73.964135,"time":"5:00 PM","matchup":"Cornell at Army","id":"a62runpqzvny","lat":41.387548,"location":"Army","state":"NY"},"type":"Feature","geometry":{"type":"Point","coordinates":[-73.964135,41.387548]}},{"properties":{"city":"Notre Dame","lon":-86.228211,"time":"1:00 PM","matchup":"Dartmouth at Notre Dame","id":"a62runonqujj","lat":41.698857,"location":"Notre Dame","state":"IN"},"type":"Feature","geometry":{"type":"Point","coordinates":[-86.228211,41.698857]}},{"properties":{"city":"Ashland","lon":-77.482055,"time":"1:00 PM","matchup":"Denison at Randolph-Macon","id":"a62runtl9fpj","lat":37.762249,"location":"Randolph-Macon","state":"VA"},"type":"Feature","geometry":{"type":"Point","coordinates":[-77.482055,37.762249]}},{"properties":{"city":"Coraopolis","lon":-80.216242,"time":"1:00 PM","matchup":"Detroit vs. Manhattan","id":"a62runlo828e","lat":40.521189,"location":"Robert Morris","state":"PA"},"type":"Feature","geometry":{"type":"Point","coordinates":[-80.216242,40.521189]}},{"properties":{"city":"Potomac","lon":-77.19699,"time":"1:00 PM","matchup":"Dickinson vs. St. Mary's","id":"a62runoq41ok","lat":39.030811,"location":"Bullis School","state":"MD"},"type":"Feature","geometry":{"type":"Point","coordinates":[-77.19699,39.030811]}},{"properties":{"city":"Belmont","lon":-122.28425,"time":"2:00 PM","matchup":"Dominican U. at Notre Dame de Namur","id":"a62runjz9k0j","lat":37.515565,"location":"Notre Dame de Namur","state":"CA"},"type":"Feature","geometry":{"type":"Point","coordinates":[-122.28425,37.515565]}},{"properties":{"city":"Syracuse","lon":-76.08409,"time":"1:00 PM","matchup":"Dowling at Le Moyne","id":"a62runm5d0a4","lat":43.049084,"location":"Le Moyne","state":"NY"},"type":"Feature","geometry":{"type":"Point","coordinates":[-76.08409,43.049084]}},{"properties":{"city":"Baltimore","lon":-76.622699,"time":"2:30 PM","matchup":"Duke vs. Maryland","id":"a62runo39yrv","lat":39.27797,"location":"M&amp;T Bank Stadium","state":"MD"},"type":"Feature","geometry":{"type":"Point","coordinates":[-76.622699,39.27797]}},{"properties":{"city":"Columbus","lon":-83.029291,"time":"12:00 PM","matchup":"Fairfield at Ohio State","id":"a62runrl0te1","lat":40.012652,"location":"Ohio State","state":"OH"},"type":"Feature","geometry":{"type":"Point","coordinates":[-83.029291,40.012652]}},{"properties":{"city":"Salisbury","lon":-80.486284,"time":"7:30 PM","matchup":"Florida Southern at Catawba","id":"a62runmy39uv","lat":35.692286,"location":"Catawba","state":"NC"},"type":"Feature","geometry":{"type":"Point","coordinates":[-80.486284,35.692286]}},{"properties":{"city":"St Louis","lon":-90.462059,"time":"1:00 PM","matchup":"Fontbonne at Missouri Baptist","id":"a62runsia28o","lat":38.639906,"location":"Missouri Baptist","state":"MO"},"type":"Feature","geometry":{"type":"Point","coordinates":[-90.462059,38.639906]}},{"properties":{"city":"Queens","lon":-73.796804,"time":"1:00 PM","matchup":"Georgetown at St. John's","id":"a62runtcwl4x","lat":40.722793,"location":"St. John's","state":"NY"},"type":"Feature","geometry":{"type":"Point","coordinates":[-73.796804,40.722793]}},{"properties":{"city":"Gettysburg","lon":-77.240583,"time":"1:00 PM","matchup":"Hampden-Sydney at Gettysburg","id":"a62runnjgyka","lat":39.834708,"location":"Gettysburg","state":"PA"},"type":"Feature","geometry":{"type":"Point","coordinates":[-77.240583,39.834708]}},{"properties":{"city":"Newark","lon":-75.749538,"time":"1:00 PM","matchup":"Hartford at Delaware","id":"a62runxonm05","lat":39.659258,"location":"Delaware","state":"DE"},"type":"Feature","geometry":{"type":"Point","coordinates":[-75.749538,39.659258]}},{"properties":{"city":"Montclair","lon":-74.201179,"time":"1:00 PM","matchup":"Hartwick at Montclair State","id":"a62runxzyp3k","lat":40.85858,"location":"Montclair State","state":"NJ"},"type":"Feature","geometry":{"type":"Point","coordinates":[-74.201179,40.85858]}},{"properties":{"city":"Stony Brook","lon":-73.124308,"time":"3:00 PM","matchup":"Harvard at Stony Brook","id":"a62runwv4qe7","lat":40.918879,"location":"Stony Brook","state":"NY"},"type":"Feature","geometry":{"type":"Point","coordinates":[-73.124308,40.918879]}},{"properties":{"city":"Wayne","lon":-75.377875,"time":"1:00 PM","matchup":"Haverford at Cabrini","id":"a62runmgritr","lat":40.057151,"location":"Cabrini","state":"PA"},"type":"Feature","geometry":{"type":"Point","coordinates":[-75.377875,40.057151]}},{"properties":{"city":"Providence","lon":-71.432843,"time":"1:00 PM","matchup":"Hobart at Providence","id":"a62runkhtxo9","lat":41.842105,"location":"Providence","state":"RI"},"type":"Feature","geometry":{"type":"Point","coordinates":[-71.432843,41.842105]}},{"properties":{"city":"Providence","lon":-71.395793,"time":"1:00 PM","matchup":"Hofstra at Brown","id":"a62runvtg9kr","lat":41.831814,"location":"Brown","state":"RI"},"type":"Feature","geometry":{"type":"Point","coordinates":[-71.395793,41.831814]}},{"properties":{"city":"Scranton","lon":-75.661012,"time":"1:00 PM","matchup":"Ithaca at Scranton","id":"a62runxl2kqg","lat":41.404816,"location":"Scranton","state":"PA"},"type":"Feature","geometry":{"type":"Point","coordinates":[-75.661012,41.404816]}},{"properties":{"city":"Brooklandville","lon":-76.674691,"time":"1:00 PM","matchup":"Lehigh vs. North Carolina","id":"a62runm02mmh","lat":39.426804,"location":"St. Paul's School","state":"MD"},"type":"Feature","geometry":{"type":"Point","coordinates":[-76.674691,39.426804]}},{"properties":{"city":"College Station","lon":-77.854243,"time":"1:00 PM","matchup":"Loyola at Penn State","id":"a62runy0bkqd","lat":40.805195,"location":"Penn State","state":"PA"},"type":"Feature","geometry":{"type":"Point","coordinates":[-77.854243,40.805195]}},{"properties":{"city":"Throgs Neck","lon":-73.797751,"time":"1:00 PM","matchup":"Lycoming at Maritime","id":"a62runqyh3v0","lat":40.807477,"location":"Maritime","state":"NY"},"type":"Feature","geometry":{"type":"Point","coordinates":[-73.797751,40.807477]}},{"properties":{"city":"Poughkeepsie","lon":-73.904568,"time":"1:00 PM","matchup":"Manhattanville at Vassar","id":"a62runx688bh","lat":41.686689,"location":"Vassar","state":"NY"},"type":"Feature","geometry":{"type":"Point","coordinates":[-73.904568,41.686689]}},{"properties":{"city":"Belmont","lon":-81.038401,"time":"2:00 PM","matchup":"Mars Hill at Belmont Abbey","id":"a62runmk8dtu","lat":35.259829,"location":"Belmont Abbey","state":"NC"},"type":"Feature","geometry":{"type":"Point","coordinates":[-81.038401,35.259829]}},{"properties":{"city":"Newport News","lon":-76.500745,"time":"1:00 PM","matchup":"Mary Washington at Christopher Newport","id":"a62runqzjutn","lat":37.064741,"location":"Christopher Newport","state":"VA"},"type":"Feature","geometry":{"type":"Point","coordinates":[-76.500745,37.064741]}},{"properties":{"city":"Dover","lon":-75.542751,"time":"12:00 PM","matchup":"Marymount at Wesley","id":"a62runprkrle","lat":39.163009,"location":"Wesley","state":"DE"},"type":"Feature","geometry":{"type":"Point","coordinates":[-75.542751,39.163009]}},{"properties":{"city":"Rochester","lon":-77.509963,"time":"1:00 PM","matchup":"Medaille at St. John Fisher","id":"a62runm3o5yj","lat":43.114539,"location":"St. John Fisher","state":"NY"},"type":"Feature","geometry":{"type":"Point","coordinates":[-77.509963,43.114539]}},{"properties":{"city":"Wingate","lon":-80.439493,"time":"2:00 PM","matchup":"Mercyhurst at Wingate","id":"a62runkgj7h4","lat":34.985237,"location":"Wingate","state":"NC"},"type":"Feature","geometry":{"type":"Point","coordinates":[-80.439493,34.985237]}},{"properties":{"city":"Westminster","lon":-77.003658,"time":"12:00 PM","matchup":"Moravian at McDaniel","id":"a62runr3dp3p","lat":39.584867,"location":"McDaniel","state":"MD"},"type":"Feature","geometry":{"type":"Point","coordinates":[-77.003658,39.584867]}},{"properties":{"city":"Lewisburg","lon":-76.885413,"time":"1:00 PM","matchup":"Navy at Bucknell","id":"a62runl5ar6v","lat":40.951861,"location":"Bucknell","state":"PA"},"type":"Feature","geometry":{"type":"Point","coordinates":[-76.885413,40.951861]}},{"properties":{"city":"Lynchburg","lon":-79.183261,"time":"1:00 PM","matchup":"Ohio Wesleyan at Lynchburg","id":"a62runoluezb","lat":37.398391,"location":"Lynchburg","state":"VA"},"type":"Feature","geometry":{"type":"Point","coordinates":[-79.183261,37.398391]}},{"properties":{"city":"Greensboro","lon":-79.885991,"time":"1:00 PM","matchup":"Oneonta at Guilford","id":"a62runqhh2z7","lat":36.091502,"location":"Guilford","state":"NC"},"type":"Feature","geometry":{"type":"Point","coordinates":[-79.885991,36.091502]}},{"properties":{"city":"Villanova","lon":-75.336677,"time":"1:00 PM","matchup":"Penn at Villanova","id":"a62runicugj4","lat":40.032967,"location":"Villanova","state":"PA"},"type":"Feature","geometry":{"type":"Point","coordinates":[-75.336677,40.032967]}},{"properties":{"city":"Baltimore","lon":-76.622699,"time":"12:00 PM","matchup":"Princeton vs. Johns Hopkins","id":"a62runn7iz3q","lat":39.27797,"location":"M&amp;T Bank Stadium","state":"MD"},"type":"Feature","geometry":{"type":"Point","coordinates":[-76.622699,39.27797]}},{"properties":{"city":"Easton","lon":-75.241779,"time":"1:00 PM","matchup":"Quinnipiac at Lafayette","id":"a62runr3rp8q","lat":40.735686,"location":"Lafayette","state":"PA"},"type":"Feature","geometry":{"type":"Point","coordinates":[-75.241779,40.735686]}},{"properties":{"city":"Beverly","lon":-70.842253,"time":"1:00 PM","matchup":"Rensselaer at Endicott","id":"a62runv8e2tz","lat":42.555535,"location":"Endicott","state":"MA"},"type":"Feature","geometry":{"type":"Point","coordinates":[-70.842253,42.555535]}},{"properties":{"city":"Philadelphia","lon":-75.236598,"time":"1:00 PM","matchup":"Rutgers at Saint Joseph's","id":"a62runmp9ur9","lat":39.994637,"location":"Saint Joseph's","state":"PA"},"type":"Feature","geometry":{"type":"Point","coordinates":[-75.236598,39.994637]}},{"properties":{"city":"Denver","lon":-104.965444,"time":"1:30 PM","matchup":"Sacred Heart at Denver","id":"a62runvxjkay","lat":39.689156,"location":"Denver","state":"CO"},"type":"Feature","geometry":{"type":"Point","coordinates":[-104.965444,39.689156]}},{"properties":{"city":"Misenheimer","lon":-80.279092,"time":"12:00 PM","matchup":"Saint Leo at Pfeiffer","id":"a62runpe6j5k","lat":35.486146,"location":"Pfeiffer","state":"NC"},"type":"Feature","geometry":{"type":"Point","coordinates":[-80.279092,35.486146]}},{"properties":{"city":"Gambier","lon":-82.396811,"time":"12:00 PM","matchup":"Sewanee at Kenyon","id":"a62runlwevmq","lat":40.376332,"location":"Kenyon","state":"OH"},"type":"Feature","geometry":{"type":"Point","coordinates":[-82.396811,40.376332]}},{"properties":{"city":"Hoboken","lon":-74.026511,"time":"1:00 PM","matchup":"Stevenson at Stevens","id":"a62runs65os3","lat":40.744354,"location":"Stevens","state":"NJ"},"type":"Feature","geometry":{"type":"Point","coordinates":[-74.026511,40.744354]}},{"properties":{"city":"St. Davids","lon":-75.373251,"time":"1:00 PM","matchup":"Swarthmore at Eastern","id":"a62runsv6hfu","lat":40.051451,"location":"Eastern","state":"PA"},"type":"Feature","geometry":{"type":"Point","coordinates":[-75.373251,40.051451]}},{"properties":{"city":"Poughkeepsie","lon":-73.932798,"time":"1:00 PM","matchup":"Vermont at Marist","id":"a62runj962hu","lat":41.719208,"location":"Marist","state":"NY"},"type":"Feature","geometry":{"type":"Point","coordinates":[-73.932798,41.719208]}},{"properties":{"city":"Smithfield","lon":-71.536923,"time":"1:00 PM","matchup":"Wagner at Bryant","id":"a62runlbgs1x","lat":41.924201,"location":"Bryant","state":"RI"},"type":"Feature","geometry":{"type":"Point","coordinates":[-71.536923,41.924201]}},{"properties":{"city":"Selinsgrove","lon":-76.875946,"time":"1:00 PM","matchup":"Washington &amp; Jefferson at Susquehanna","id":"a62runl0hvrw","lat":40.793895,"location":"Susquehanna","state":"PA"},"type":"Feature","geometry":{"type":"Point","coordinates":[-76.875946,40.793895]}},{"properties":{"city":"Norfolk","lon":-76.183575,"time":"1:00 PM","matchup":"Washington College at Virginia Wesleyan","id":"a62runrq73xp","lat":36.870486,"location":"Virginia Wesleyan","state":"VA"},"type":"Feature","geometry":{"type":"Point","coordinates":[-76.183575,36.870486]}},{"properties":{"city":"Yorktown Heights","lon":-73.803865,"time":"1:00 PM","matchup":"Western New England vs. Cortland","id":"a62runqtglmc","lat":41.290186,"location":"Yorktown","state":"NY"},"type":"Feature","geometry":{"type":"Point","coordinates":[-73.803865,41.290186]}},{"properties":{"city":"Gaffney","lon":-81.643348,"time":"1:00 PM","matchup":"Wheeling Jesuit at Limestone","id":"a62runr33c83","lat":35.055415,"location":"Limestone","state":"SC"},"type":"Feature","geometry":{"type":"Point","coordinates":[-81.643348,35.055415]}},{"properties":{"city":"Salisbury","lon":-75.605106,"time":"3:00 PM","matchup":"Widener at Salisbury","id":"a62runo59xwj","lat":38.343589,"location":"Salisbury","state":"MD"},"type":"Feature","geometry":{"type":"Point","coordinates":[-75.605106,38.343589]}},{"properties":{"city":"Cincinnati","lon":-84.634829,"time":"2:00 PM","matchup":"Wooster at Mount St. Joseph","id":"a62runj6hncd","lat":39.634829,"location":"Mount St. Joseph","state":"OH"},"type":"Feature","geometry":{"type":"Point","coordinates":[-84.634829,39.634829]}},{"properties":{"city":"Amherst","lon":-72.529294,"time":"1:00 PM","matchup":"Yale at Massachusetts","id":"a62runib193z","lat":42.386547,"location":"Massachusetts","state":"MA"},"type":"Feature","geometry":{"type":"Point","coordinates":[-72.529294,42.386547]}}],"is_temporal":true,"author":{"url":"http://www.laxpower.com/calendar/gcalendar.php# ","metadata":"","contact_name":"","contact_address":"","source":"LaxPower ","contact_phone":""},"source":"http://www.laxpower.com/calendar/gcalendar.php# ","pagination":{"sort":null,"start":0,"total":62,"limit":1000000},"state":"complete","tags":"athletics,college,lacrosse,ncaa","published":"2009-02-28T12:00:00Z","id":9859}