{"type":"FeatureCollection","data_type":"Dataset","url_type":null,"permissions":[{"permissions":{"download":true,"view":true},"group_id":"everyone"}],"classification":null,"title":"Home Health Agencies","count":12,"stream_id":9880,"contributor":{"url":"http://geocommons.com/users/4822","name":"dsilver"},"data_attributes":null,"calculation_params":null,"icon_link":null,"link":"http://geocommons.com/overlays/9880.json","extent":[-104.608,37.1682,-102.222,40.6111],"geometry_types":["point"],"unique_name":null,"name":"Home Health Agencies","feature_count":12,"description":"","next_feature":null,"is_raster":false,"short_classification":"Y","stats":{"latitude":{"max":40.611106,"mean":39.041025,"variance":1.62543408001036,"stdev":1.27492512721742,"min":37.168216,"median":39.36158},"zipcode":{"max":81073,"mean":80910.1666666667,"variance":23924.3333333333,"stdev":154.674927940288,"min":80701,"median":81036},"id":{"max":148,"mean":80.25,"variance":1933.29545454545,"stdev":43.9692557879418,"min":20,"median":62},"longitude":{"max":-102.221944,"mean":-103.640903,"variance":0.678123324488184,"stdev":0.823482437267598,"min":-104.608404,"median":-103.624757},"telehealth":{"max":1,"mean":1.0,"variance":0.0,"stdev":0.0,"min":1,"median":1}},"features":[{"properties":{"name":"Southeast Colorado Hospital Home Health Agency","city":"Springfield","latitude":40.611106,"zipcode":81073,"county":"Baca","trauma level":"","id":"a6lq1jub7m8f","longitude":-103.220289,"address":"204 E Tenth Ave","group":"Home Health Agencies","state":"CO","telehealth":""},"type":"Feature","geometry":{"type":"Point","coordinates":[-103.220289,40.611106]}},{"properties":{"name":"Lincoln Community Home Health","city":"Hugo","latitude":40.256433,"zipcode":80821,"county":"Lincoln","trauma level":"","id":"a6lq1jmhxfks","longitude":-103.624757,"address":"111 Sixth St","group":"Home Health Agencies","state":"CO","telehealth":1},"type":"Feature","geometry":{"type":"Point","coordinates":[-103.624757,40.256433]}},{"properties":{"name":"Kit Carson County Memorial Hospital Home Health","city":"Burlington","latitude":40.253804,"zipcode":80807,"county":"Kit Carson","trauma level":"","id":"a6lq1jv90tez","longitude":-103.798042,"address":"182 Sixteenth St","group":"Home Health Agencies","state":"CO","telehealth":1},"type":"Feature","geometry":{"type":"Point","coordinates":[-103.798042,40.253804]}},{"properties":{"name":"Sterling Medcare Home Health","city":"Sterling","latitude":40.117365,"zipcode":80751,"county":"Logan","trauma level":"","id":"a6lq1jugx2k3","longitude":-102.725352,"address":"614 S Tenth Ave","group":"Home Health Agencies","state":"CO","telehealth":""},"type":"Feature","geometry":{"type":"Point","coordinates":[-102.725352,40.117365]}},{"properties":{"name":"Northeast Plains Home Health Care","city":"Sterling","latitude":40.077703,"zipcode":80751,"county":"Logan","trauma level":"","id":"a6lq1ju60rpi","longitude":-102.221944,"address":"228 S Third St","group":"Home Health Agencies","state":"CO","telehealth":""},"type":"Feature","geometry":{"type":"Point","coordinates":[-102.221944,40.077703]}},{"properties":{"name":"Maxim Healthcare Services","city":"La Junta","latitude":39.36158,"zipcode":81050,"county":"Otero","trauma level":"","id":"a6lq1jyez2vw","longitude":-104.598099,"address":"317 W Third St","group":"Home Health Agencies","state":"CO","telehealth":""},"type":"Feature","geometry":{"type":"Point","coordinates":[-104.598099,39.36158]}},{"properties":{"name":"Bent County Nursing Services","city":"Las Animas","latitude":39.360375,"zipcode":81054,"county":"Bent","trauma level":"","id":"a6lq1jrqe8xp","longitude":-104.608404,"address":"701 Park Ave","group":"Home Health Agencies","state":"CO","telehealth":""},"type":"Feature","geometry":{"type":"Point","coordinates":[-104.608404,39.360375]}},{"properties":{"name":"Pioneer Home Care","city":"Rocky Ford","latitude":38.075132,"zipcode":81067,"county":"Otero","trauma level":"","id":"a6lq1jmre8nu","longitude":-102.618404,"address":"208 N Main St","group":"Home Health Agencies","state":"CO","telehealth":""},"type":"Feature","geometry":{"type":"Point","coordinates":[-102.618404,38.075132]}},{"properties":{"name":"Prowers Medical Center Home Health","city":"Lamar","latitude":38.055311,"zipcode":81052,"county":"Prowers","trauma level":"","id":"a6lq1jq0j154","longitude":-103.718093,"address":"206 North St","group":"Home Health Agencies","state":"CO","telehealth":""},"type":"Feature","geometry":{"type":"Point","coordinates":[-103.718093,38.055311]}},{"properties":{"name":"Kiowa Home Health Services","city":"Eads","latitude":37.986062,"zipcode":81036,"county":"Kiowa","trauma level":"","id":"a6lq1jyh7f4i","longitude":-103.547451,"address":"311 W Twelfth St","group":"Home Health Agencies","state":"CO","telehealth":""},"type":"Feature","geometry":{"type":"Point","coordinates":[-103.547451,37.986062]}},{"properties":{"name":"Yuma District Hospital Home Health Care","city":"Yuma","latitude":37.169213,"zipcode":80759,"county":"Yuma","trauma level":"","id":"a6lq1jtiasrc","longitude":-104.504086,"address":"1000 W Eighth Ave","group":"Home Health Agencies","state":"CO","telehealth":1},"type":"Feature","geometry":{"type":"Point","coordinates":[-104.504086,37.169213]}},{"properties":{"name":"Colorado Plains Medical Center Home Care","city":"Fort Morgan","latitude":37.168216,"zipcode":80701,"county":"Morgan","trauma level":"","id":"a6lq1jvlgean","longitude":-104.505915,"address":"1006 Lake St","group":"Home Health Agencies","state":"CO","telehealth":""},"type":"Feature","geometry":{"type":"Point","coordinates":[-104.505915,37.168216]}}],"is_temporal":false,"author":{"url":"","metadata":"","contact_name":"","contact_address":"","source":"","contact_phone":""},"source":"","pagination":{"sort":null,"start":0,"total":12,"limit":1000000},"state":"complete","tags":"","published":"2014-08-11T11:23:44-04:00","id":9880}