{"type":"FeatureCollection","data_type":"Dataset","url_type":null,"permissions":[{"permissions":{"download":true,"view":true},"group_id":"everyone"}],"classification":null,"title":"Hospitals","count":16,"stream_id":9882,"contributor":{"url":"http://geocommons.com/users/4822","name":"dsilver"},"data_attributes":null,"calculation_params":null,"icon_link":null,"link":"http://geocommons.com/overlays/9882.json","extent":[-104.488,37.1729,-102.234,40.9934],"geometry_types":["point"],"unique_name":null,"name":"Hospitals","feature_count":16,"description":"","next_feature":null,"is_raster":false,"short_classification":"Y","stats":{"latitude":{"max":40.993434,"mean":39.36917675,"variance":1.55718017766513,"stdev":1.24787025674352,"min":37.172859,"median":40.075524},"zipcode":{"max":81082,"mean":80851.5625,"variance":21897.7291666667,"stdev":147.978813235769,"min":80701,"median":80807},"id":{"max":142,"mean":65.8125,"variance":2072.02916666667,"stdev":45.5195470832769,"min":2,"median":68},"longitude":{"max":-102.234397,"mean":-102.9351373125,"variance":0.459649153680229,"stdev":0.677974301637038,"min":-104.488308,"median":-102.630424},"telehealth":{"max":1,"mean":0.9375,"variance":0.0625,"stdev":0.25,"min":0,"median":1}},"features":[{"properties":{"name":"Sedgwick County Memorial Hospital","city":"Julesberg","latitude":40.993434,"zipcode":80737,"county":"Sedgwick","trauma level":"IV","id":"a661nt9w07a1","longitude":-102.26878,"address":"900 Cedar St","group":"Hospitals","state":"CO","telehealth":1},"type":"Feature","geometry":{"type":"Point","coordinates":[-102.26878,40.993434]}},{"properties":{"name":"Haxtun Hospital","city":"Haxtun","latitude":40.6415,"zipcode":80731,"county":"Phillips","trauma level":"IV","id":"a661ntmj2ug8","longitude":-102.630424,"address":"235 W Fletcher St","group":"Hospitals","state":"CO","telehealth":1},"type":"Feature","geometry":{"type":"Point","coordinates":[-102.630424,40.6415]}},{"properties":{"name":"Sterling Regional Medcenter","city":"Sterling","latitude":40.613549,"zipcode":80751,"county":"Logan","trauma level":"III","id":"a661ntq4e52v","longitude":-103.220082,"address":"615 Fairhurst St","group":"Hospitals","state":"CO","telehealth":1},"type":"Feature","geometry":{"type":"Point","coordinates":[-103.220082,40.613549]}},{"properties":{"name":"Melissa Memorial Hospital","city":"Holyoke","latitude":40.578567,"zipcode":80734,"county":"Phillips","trauma level":"IV","id":"a661ntei8vcp","longitude":-102.290498,"address":"1001 E Johnson St","group":"Hospitals","state":"CO","telehealth":1},"type":"Feature","geometry":{"type":"Point","coordinates":[-102.290498,40.578567]}},{"properties":{"name":"Colorado Plains Medical Center","city":"Fort Morgan","latitude":40.25946,"zipcode":80701,"county":"Morgan","trauma level":"III","id":"a661ntb9k5o1","longitude":-103.796075,"address":"1000 Lincoln St","group":"Hospitals","state":"CO","telehealth":0},"type":"Feature","geometry":{"type":"Point","coordinates":[-103.796075,40.25946]}},{"properties":{"name":"East Morgan County Hospital","city":"Brush","latitude":40.254653,"zipcode":80723,"county":"Morgan","trauma level":"IV","id":"a661ntp01zn6","longitude":-103.642026,"address":"2400 W Edison St","group":"Hospitals","state":"CO","telehealth":1},"type":"Feature","geometry":{"type":"Point","coordinates":[-103.642026,40.254653]}},{"properties":{"name":"Yuma District Hospital","city":"Yuma","latitude":40.118329,"zipcode":80759,"county":"Yuma","trauma level":"IV","id":"a661ntnwl4tc","longitude":-102.736293,"address":"1000 W Eighth Ave","group":"Hospitals","state":"CO","telehealth":1},"type":"Feature","geometry":{"type":"Point","coordinates":[-102.736293,40.118329]}},{"properties":{"name":"Wray Community District Hospital","city":"Wray","latitude":40.075524,"zipcode":80758,"county":"Yuma","trauma level":"IV","id":"a661ntlvyowx","longitude":-102.234397,"address":"1017 W Seventh St","group":"Hospitals","state":"CO","telehealth":1},"type":"Feature","geometry":{"type":"Point","coordinates":[-102.234397,40.075524]}},{"properties":{"name":"Kit Carson County Memorial Hospital","city":"Burlington","latitude":39.303191,"zipcode":80807,"county":"Kit Carson","trauma level":"IV","id":"a661ntla26s7","longitude":-102.270491,"address":"286 Sixteenth St","group":"Hospitals","state":"CO","telehealth":1},"type":"Feature","geometry":{"type":"Point","coordinates":[-102.270491,39.303191]}},{"properties":{"name":"Lincoln Community Hospital","city":"Hugo","latitude":39.137979,"zipcode":80821,"county":"Lincoln","trauma level":"IV","id":"a661ntq0aapa","longitude":-103.473806,"address":"111 Sixth St","group":"Hospitals","state":"CO","telehealth":1},"type":"Feature","geometry":{"type":"Point","coordinates":[-103.473806,39.137979]}},{"properties":{"name":"Keefe Memorial Hospital","city":"Cheyenne Wells","latitude":38.825656,"zipcode":80810,"county":"Cheyenne","trauma level":"IV","id":"a661ntpui5rc","longitude":-102.355597,"address":"602 N Sixth W St","group":"Hospitals","state":"CO","telehealth":1},"type":"Feature","geometry":{"type":"Point","coordinates":[-102.355597,38.825656]}},{"properties":{"name":"Weisbrod Memorial County Hospital","city":"Eads","latitude":38.480713,"zipcode":81036,"county":"Kiowa","trauma level":"Non-designated","id":"a661nthqwdeg","longitude":-102.784593,"address":"1208 Luther St","group":"Hospitals","state":"CO","telehealth":1},"type":"Feature","geometry":{"type":"Point","coordinates":[-102.784593,38.480713]}},{"properties":{"name":"Prowers Medical Center","city":"Lamar","latitude":38.069561,"zipcode":81052,"county":"Prowers","trauma level":"Non-designated","id":"a661ntfjp7np","longitude":-102.6095,"address":"401 Kendall Dr","group":"Hospitals","state":"CO","telehealth":1},"type":"Feature","geometry":{"type":"Point","coordinates":[-102.6095,38.069561]}},{"properties":{"name":"Arkansas Valley Regional Medical Center","city":"La Junta","latitude":37.977562,"zipcode":81050,"county":"Otero","trauma level":"IV","id":"a661ntawvehb","longitude":-103.548871,"address":"1100 Carson Ave","group":"Hospitals","state":"CO","telehealth":1},"type":"Feature","geometry":{"type":"Point","coordinates":[-103.548871,37.977562]}},{"properties":{"name":"Southeast Colorado Hospital","city":"Springfield","latitude":37.404291,"zipcode":81073,"county":"Baca","trauma level":"Non-designated","id":"a661ntlocz1v","longitude":-102.612456,"address":"373 E Tenth Ave","group":"Hospitals","state":"CO","telehealth":1},"type":"Feature","geometry":{"type":"Point","coordinates":[-102.612456,37.404291]}},{"properties":{"name":"Mt San Rafael Hospital","city":"Trinidad","latitude":37.172859,"zipcode":81082,"county":"Las Animas","trauma level":"IV","id":"a661ntb3cj5m","longitude":-104.488308,"address":"410 Benedicta Ave","group":"Hospitals","state":"CO","telehealth":1},"type":"Feature","geometry":{"type":"Point","coordinates":[-104.488308,37.172859]}}],"is_temporal":false,"author":{"url":"","metadata":"","contact_name":"","contact_address":"","source":"","contact_phone":""},"source":"","pagination":{"sort":null,"start":0,"total":16,"limit":1000000},"state":"complete","tags":"","published":"2014-08-11T11:23:45-04:00","id":9882}