{"type":"FeatureCollection","data_type":"Dataset","url_type":null,"permissions":[{"permissions":{"download":true,"view":true},"group_id":"everyone"}],"classification":null,"title":"Personal Care/Homemaker Services","count":11,"stream_id":9885,"contributor":{"url":"http://geocommons.com/users/4822","name":"dsilver"},"data_attributes":null,"calculation_params":null,"icon_link":null,"link":"http://geocommons.com/overlays/9885.json","extent":[-104.497,37.1651,-102.618,40.642],"geometry_types":["point"],"unique_name":null,"name":"Personal Care/Homemaker Services","feature_count":11,"description":"","next_feature":null,"is_raster":false,"short_classification":"Y","stats":{"latitude":{"max":40.642006,"mean":38.4491588181818,"variance":1.93610535562296,"stdev":1.39144002947413,"min":37.1651,"median":37.986131},"zipcode":{"max":81082,"mean":80977.0,"variance":23119.8,"stdev":152.051964801511,"min":80723,"median":81050},"id":{"max":149,"mean":97.9090909090909,"variance":2812.09090909091,"stdev":53.0291515026491,"min":6,"median":123},"longitude":{"max":-102.617714,"mean":-103.614507909091,"variance":0.434368538568487,"stdev":0.659066414383624,"min":-104.496552,"median":-103.547451}},"features":[{"properties":{"name":"Eastern Colorado Home Care","city":"Sterling","latitude":40.642006,"zipcode":80751,"county":"Logan","trauma level":"","id":"a62rznxz1ljv","longitude":-103.199899,"address":"352 Bannock","group":"Personal Care/Homemaker Services","state":"CO","telehealth":""},"type":"Feature","geometry":{"type":"Point","coordinates":[-103.199899,40.642006]}},{"properties":{"name":"Sterling Medcare Home &amp; Community Based Services","city":"Sterling","latitude":40.621025,"zipcode":80751,"county":"Logan","trauma level":"","id":"a62rznzb3duw","longitude":-103.22712,"address":"614 S Tenth Ave","group":"Personal Care/Homemaker Services","state":"CO","telehealth":""},"type":"Feature","geometry":{"type":"Point","coordinates":[-103.22712,40.621025]}},{"properties":{"name":"Eben Ezer Lutheran Care Center","city":"Brush","latitude":40.253536,"zipcode":80723,"county":"Morgan","trauma level":"","id":"a62rznsz84w5","longitude":-103.641808,"address":"122 Hospital Rd","group":"Personal Care/Homemaker Services","state":"CO","telehealth":""},"type":"Feature","geometry":{"type":"Point","coordinates":[-103.641808,40.253536]}},{"properties":{"name":"Kiowa Home Health Services","city":"Eads","latitude":38.481052,"zipcode":81036,"county":"Kiowa","trauma level":"","id":"a62rznpnglsy","longitude":-102.783347,"address":"210 W Twelfth St","group":"Personal Care/Homemaker Services","state":"CO","telehealth":""},"type":"Feature","geometry":{"type":"Point","coordinates":[-102.783347,38.481052]}},{"properties":{"name":"Pioneer Personal Care Services","city":"Rocky Ford","latitude":38.053267,"zipcode":81067,"county":"Otero","trauma level":"","id":"a62rznrenm1l","longitude":-103.719489,"address":"208 N Main St","group":"Personal Care/Homemaker Services","state":"CO","telehealth":""},"type":"Feature","geometry":{"type":"Point","coordinates":[-103.719489,38.053267]}},{"properties":{"name":"Otero County Nursing Service","city":"La Junta","latitude":37.986131,"zipcode":81050,"county":"Otero","trauma level":"","id":"a62rznz7mv99","longitude":-103.54338,"address":"13 W Third St","group":"Personal Care/Homemaker Services","state":"CO","telehealth":""},"type":"Feature","geometry":{"type":"Point","coordinates":[-103.54338,37.986131]}},{"properties":{"name":"Maxim Healthcare Services","city":"La Junta","latitude":37.986062,"zipcode":81050,"county":"Otero","trauma level":"","id":"a62rzno8fegp","longitude":-103.547451,"address":"317 W Third St","group":"Personal Care/Homemaker Services","state":"CO","telehealth":""},"type":"Feature","geometry":{"type":"Point","coordinates":[-103.547451,37.986062]}},{"properties":{"name":"Baca County Personal Care Agency","city":"Springfield","latitude":37.406837,"zipcode":81073,"county":"Baca","trauma level":"","id":"a62rznvu0m14","longitude":-102.617714,"address":"722 Colorado Ave","group":"Personal Care/Homemaker Services","state":"CO","telehealth":""},"type":"Feature","geometry":{"type":"Point","coordinates":[-102.617714,37.406837]}},{"properties":{"name":"South Central Council of Governments","city":"Trinidad","latitude":37.1741,"zipcode":81082,"county":"Las Animas","trauma level":"","id":"a62rznvceila","longitude":-104.487046,"address":"300 Bonaventure","group":"Personal Care/Homemaker Services","state":"CO","telehealth":""},"type":"Feature","geometry":{"type":"Point","coordinates":[-104.487046,37.1741]}},{"properties":{"name":"Ravenswood-Trinidad","city":"Trinidad","latitude":37.171631,"zipcode":81082,"county":"Las Animas","trauma level":"","id":"a62rznrnlqth","longitude":-104.496552,"address":"904 E Main St","group":"Personal Care/Homemaker Services","state":"CO","telehealth":""},"type":"Feature","geometry":{"type":"Point","coordinates":[-104.496552,37.171631]}},{"properties":{"name":"Seniors Inc","city":"Trinidad","latitude":37.1651,"zipcode":81082,"county":"Las Animas","trauma level":"","id":"a62rznwz4idq","longitude":-104.495781,"address":"103 S Oak St","group":"Personal Care/Homemaker Services","state":"CO","telehealth":""},"type":"Feature","geometry":{"type":"Point","coordinates":[-104.495781,37.1651]}}],"is_temporal":false,"author":{"url":"","metadata":"","contact_name":"","contact_address":"","source":"","contact_phone":""},"source":"","pagination":{"sort":null,"start":0,"total":11,"limit":1000000},"state":"complete","tags":"","published":"2014-08-11T11:23:45-04:00","id":9885}