{"type":"FeatureCollection","data_type":"Dataset","url_type":null,"permissions":[{"permissions":{"download":true,"view":true},"group_id":"everyone"}],"classification":null,"title":"VA Clinics","count":3,"stream_id":9891,"contributor":{"url":"http://geocommons.com/users/4822","name":"dsilver"},"data_attributes":null,"calculation_params":null,"icon_link":null,"link":"http://geocommons.com/overlays/9891.json","extent":[-103.549,37.9776,-102.265,39.3009],"geometry_types":["point"],"unique_name":null,"name":"VA Clinics","feature_count":3,"description":"","next_feature":null,"is_raster":false,"short_classification":"Y","stats":{"latitude":{"max":39.300943,"mean":38.4489653333333,"variance":0.546461935184332,"stdev":0.739230637341508,"min":37.977562,"median":38.068391},"zipcode":{"max":81052,"mean":80969.6666666667,"variance":19846.3333333333,"stdev":140.877014922,"min":80807,"median":81050},"id":{"max":133,"mean":103.666666666667,"variance":901.333333333333,"stdev":30.0222139978605,"min":73,"median":105},"longitude":{"max":-102.264844,"mean":-102.808526666667,"variance":0.44118819253434,"stdev":0.664219988056924,"min":-103.548871,"median":-102.611865},"telehealth":{"max":1,"mean":1.0,"variance":0.0,"stdev":0.0,"min":1,"median":1}},"features":[{"properties":{"name":"VA Outreach Clinic","city":"Burlington","latitude":39.300943,"zipcode":80807,"county":"Kit Carson","trauma level":"","id":"a6l430xly16y","longitude":-102.264844,"address":"1177 Rose Ave","group":"VA Clinics","state":"CO","telehealth":""},"type":"Feature","geometry":{"type":"Point","coordinates":[-102.264844,39.300943]}},{"properties":{"name":"VA Outpatient Clinic - High Plains Community Health Center","city":"Lamar","latitude":38.068391,"zipcode":81052,"county":"Prowers","trauma level":"","id":"a6l430xic92i","longitude":-102.611865,"address":"201 Kendall Dr","group":"VA Clinics","state":"CO","telehealth":1},"type":"Feature","geometry":{"type":"Point","coordinates":[-102.611865,38.068391]}},{"properties":{"name":"VA Outpatient Clinic","city":"La Junta","latitude":37.977562,"zipcode":81050,"county":"Otero","trauma level":"","id":"a6l430zgpap2","longitude":-103.548871,"address":"1100 Carson Ave","group":"VA Clinics","state":"CO","telehealth":1},"type":"Feature","geometry":{"type":"Point","coordinates":[-103.548871,37.977562]}}],"is_temporal":false,"author":{"url":"","metadata":"","contact_name":"","contact_address":"","source":"","contact_phone":""},"source":"","pagination":{"sort":null,"start":0,"total":3,"limit":1000000},"state":"complete","tags":"","published":"2014-08-11T11:23:50-04:00","id":9891}