{"type":"FeatureCollection","data_type":"Dataset","url_type":null,"permissions":[{"permissions":{"download":true,"view":true},"group_id":"everyone"}],"classification":null,"title":"In-N-Out Burgers","count":258,"stream_id":99084,"contributor":{"url":"http://geocommons.com/users/7156","name":"kate"},"data_attributes":null,"calculation_params":null,"icon_link":null,"link":"http://geocommons.com/overlays/99084.json","extent":[-122.725,32.1778,-96.6592,40.925],"geometry_types":["point"],"unique_name":null,"name":"In-N-Out Burgers","feature_count":258,"description":"In-N-Out Burgers ","next_feature":null,"is_raster":false,"short_classification":"Y","stats":{},"features":[{"properties":{"city":"Alhambra","zip":"91801","county":"Los Angeles","geo_score":0.462,"id":"a66weku74pxu","geo_precision":"street","address":"1210 N. Atlantic Blvd."},"type":"Feature","geometry":{"type":"Point","coordinates":[-118.134623,34.091564]}},{"properties":{"city":"Allen","zip":"75002","county":"Collin","geo_score":0.387,"id":"a66weknffffk","geo_precision":"street","address":"190 E. Stacy Rd.*"},"type":"Feature","geometry":{"type":"Point","coordinates":[-96.659197,33.129872]}},{"properties":{"city":"American Fork","zip":"84003","county":"Utah","geo_score":0.821,"id":"a66wekwwx7iu","geo_precision":"range","address":"601 West Main St."},"type":"Feature","geometry":{"type":"Point","coordinates":[-111.814735,40.376857]}},{"properties":{"city":"Anaheim","zip":"92804","county":"Orange","geo_score":0.464,"id":"a66wekvt89m9","geo_precision":"street","address":"600 S. Brookhurst St."},"type":"Feature","geometry":{"type":"Point","coordinates":[-117.958955,33.832527]}},{"properties":{"city":"Anaheim Hills","zip":"92807","county":"Orange","geo_score":0.347,"id":"a66weko87etb","geo_precision":"street","address":"5646 E. La Palma Ave."},"type":"Feature","geometry":{"type":"Point","coordinates":[-117.86172,33.88837]}},{"properties":{"city":"Arcadia","zip":"91006","county":"Los Angeles","geo_score":0.41,"id":"a66wekvlbc2x","geo_precision":"street","address":"420 N. Santa Anita Ave."},"type":"Feature","geometry":{"type":"Point","coordinates":[-118.031424,34.140048]}},{"properties":{"city":"Arroyo Grande","zip":"93420","county":"San Luis Obispo","geo_score":0.357,"id":"a66wekl97fb9","geo_precision":"street","address":"1170 W. Branch St."},"type":"Feature","geometry":{"type":"Point","coordinates":[-120.582325,35.122416]}},{"properties":{"city":"Atascadero","zip":"93422","county":"San Luis Obispo","geo_score":0.814,"id":"a66wekuk0loq","geo_precision":"range","address":"6000 San Anselmo Rd."},"type":"Feature","geometry":{"type":"Point","coordinates":[-120.681941,35.498056]}},{"properties":{"city":"Auburn","zip":"95603","county":"Placer","geo_score":0.821,"id":"a66wekwjdfjj","geo_precision":"range","address":"130 Grass Valley Hwy."},"type":"Feature","geometry":{"type":"Point","coordinates":[-121.075859,38.902316]}},{"properties":{"city":"Avondale","zip":"85323","county":"Maricopa","geo_score":0.87,"id":"a66weklxplt1","geo_precision":"range","address":"1525 Dysart Road"},"type":"Feature","geometry":{"type":"Point","coordinates":[-112.341102,33.44659]}},{"properties":{"city":"Azusa","zip":"91702","county":"Los Angeles","geo_score":0.482,"id":"a66wekna9gbv","geo_precision":"street","address":"324 S. Azusa Ave."},"type":"Feature","geometry":{"type":"Point","coordinates":[-117.9066,34.118434]}},{"properties":{"city":"Bakersfield","zip":"93307","county":"Kern","geo_score":0.902,"id":"a66wekw8bjje","geo_precision":"range","address":"2310 Panama Ln."},"type":"Feature","geometry":{"type":"Point","coordinates":[-118.981433,35.295932]}},{"properties":{"city":"Bakersfield","zip":"93309","county":"Kern","geo_score":0.902,"id":"a66wekkz7o6e","geo_precision":"range","address":"5100 Stockdale Hwy."},"type":"Feature","geometry":{"type":"Point","coordinates":[-119.058356,35.354227]}},{"properties":{"city":"Baldwin Park","zip":"91706","county":"Los Angeles","geo_score":0.84,"id":"a66wektn19z3","geo_precision":"range","address":"13850 Francisquito Ave."},"type":"Feature","geometry":{"type":"Point","coordinates":[-117.973706,34.068226]}},{"properties":{"city":"Barstow","zip":"92311","county":"San Bernardino","geo_score":0.819,"id":"a66wekkm6bn9","geo_precision":"range","address":"2821 Lenwood Rd."},"type":"Feature","geometry":{"type":"Point","coordinates":[-117.088206,34.854536]}},{"properties":{"city":"Brentwood","zip":"94513","county":"Contra Costa","geo_score":0.708,"id":"a66wektmf0of","geo_precision":"street","address":"5581 Lone Tree Way"},"type":"Feature","geometry":{"type":"Point","coordinates":[-121.732346,37.961643]}},{"properties":{"city":"Buena Park","zip":"90620","county":"Orange","geo_score":0.661,"id":"a66wekmkryto","geo_precision":"street","address":"7926 Valley View St."},"type":"Feature","geometry":{"type":"Point","coordinates":[-118.02841,33.84636]}},{"properties":{"city":"Burbank","zip":"91502","county":"Los Angeles","geo_score":0.5,"id":"a66wekqeb0dq","geo_precision":"street","address":"761 N. First St."},"type":"Feature","geometry":{"type":"Point","coordinates":[-118.310002,34.179685]}},{"properties":{"city":"Camarillo","zip":"93010","county":"Ventura","geo_score":0.71,"id":"a66wekscrou9","geo_precision":"range","address":"1316 Ventura Blvd."},"type":"Feature","geometry":{"type":"Point","coordinates":[-119.053728,34.217521]}},{"properties":{"city":"Canoga Park","zip":"91303","county":"Los Angeles","geo_score":0.454,"id":"a66wekocd7by","geo_precision":"street","address":"6841 N. Topanga Canyon Blvd."},"type":"Feature","geometry":{"type":"Point","coordinates":[-118.605811,34.18696]}},{"properties":{"city":"Carlsbad","zip":"92008","county":"San Diego","geo_score":0.902,"id":"a66wekj461rd","geo_precision":"range","address":"5950 Avenida Encinas"},"type":"Feature","geometry":{"type":"Point","coordinates":[-117.324841,33.122968]}},{"properties":{"city":"Carmel Mountain","zip":"92128","county":"San Diego","geo_score":0.805,"id":"a66weko6r579","geo_precision":"range","address":"11880 Carmel Mountain Rd."},"type":"Feature","geometry":{"type":"Point","coordinates":[-117.077201,32.981388]}},{"properties":{"city":"Carson Valley","zip":"89705","county":"Douglas","geo_score":0.671,"id":"a66wekqu3k8s","geo_precision":"street","address":"957 Topsy Lane"},"type":"Feature","geometry":{"type":"Point","coordinates":[-119.773719,39.110399]}},{"properties":{"city":"Casa Grande","zip":"85294","county":"Pinal","geo_score":0.0,"id":"a66wekwns31d","geo_precision":"unmatched","address":"873 N Promenade Pkwy."},"type":"Feature","geometry":null},{"properties":{"city":"Centerville","zip":"84014","county":"Davis","geo_score":0.668,"id":"a66weki2qag5","geo_precision":"range","address":"475 N. 700 West"},"type":"Feature","geometry":{"type":"Point","coordinates":[-111.869411,40.924968]}},{"properties":{"city":"Chandler","zip":"85224","county":"Maricopa","geo_score":0.414,"id":"a66wekoc9e4k","geo_precision":"street","address":"2790 W. Chandler"},"type":"Feature","geometry":{"type":"Point","coordinates":[-111.842745,33.306159]}},{"properties":{"city":"Chandler","zip":"85249","county":"Maricopa","geo_score":0.471,"id":"a66wekqhbhka","geo_precision":"street","address":"2910 E. Germann Rd."},"type":"Feature","geometry":{"type":"Point","coordinates":[-111.841397,33.276604]}},{"properties":{"city":"Chandler","zip":"85226","county":"Maricopa","geo_score":0.5,"id":"a66wektv41lt","geo_precision":"street","address":"7050 W. Ray Road"},"type":"Feature","geometry":{"type":"Point","coordinates":[-111.902499,33.320191]}},{"properties":{"city":"Chico","zip":"95928","county":"Butte","geo_score":0.756,"id":"a66wekuy8r6e","geo_precision":"range","address":"2050 Business Ln."},"type":"Feature","geometry":{"type":"Point","coordinates":[-121.806105,39.725716]}},{"properties":{"city":"Chino","zip":"91710","county":"San Bernardino","geo_score":0.529,"id":"a66wekqxqous","geo_precision":"street","address":"3927 Grand Avenue"},"type":"Feature","geometry":{"type":"Point","coordinates":[-117.698611,34.016115]}},{"properties":{"city":"Chula Vista","zip":"91915","county":"San Diego","geo_score":0.709,"id":"a66wekwrysjj","geo_precision":"street","address":"1725 Eastlake Pkwy."},"type":"Feature","geometry":{"type":"Point","coordinates":[-116.96808,32.621069]}},{"properties":{"city":"City of Industry","zip":"91748","county":"Los Angeles","geo_score":0.306,"id":"a66weknvb1cc","geo_precision":"street","address":"17849 E. Colima Rd."},"type":"Feature","geometry":{"type":"Point","coordinates":[-117.93176,33.990857]}},{"properties":{"city":"City of Industry","zip":"91789","county":"Los Angeles","geo_score":0.826,"id":"a66wekjugfvr","geo_precision":"range","address":"21620 Valley Blvd."},"type":"Feature","geometry":{"type":"Point","coordinates":[-117.835358,34.027472]}},{"properties":{"city":"Clovis","zip":"93612","county":"Fresno","geo_score":0.376,"id":"a66wekmg47tp","geo_precision":"street","address":"382 N. Clovis Ave."},"type":"Feature","geometry":{"type":"Point","coordinates":[-119.699979,36.833912]}},{"properties":{"city":"Corona","zip":"92881","county":"Riverside","geo_score":0.902,"id":"a66wekhbecyt","geo_precision":"range","address":"2305 Compton Ave."},"type":"Feature","geometry":{"type":"Point","coordinates":[-117.53637,33.845026]}},{"properties":{"city":"Corona","zip":"92882","county":"Riverside","geo_score":0.902,"id":"a66wekpqy94k","geo_precision":"range","address":"450 Auto Center Dr."},"type":"Feature","geometry":{"type":"Point","coordinates":[-117.613988,33.884788]}},{"properties":{"city":"Costa Mesa","zip":"92626","county":"Orange","geo_score":0.902,"id":"a66wekwqu6j4","geo_precision":"range","address":"3211 Harbor Blvd."},"type":"Feature","geometry":{"type":"Point","coordinates":[-117.919496,33.68743]}},{"properties":{"city":"Costa Mesa","zip":"92626","county":"Orange","geo_score":0.347,"id":"a66weks94yl1","geo_precision":"street","address":"594 W. 19th St."},"type":"Feature","geometry":{"type":"Point","coordinates":[-117.916714,33.643498]}},{"properties":{"city":"Covina","zip":"91724","county":"Los Angeles","geo_score":0.362,"id":"a66weknrrvcf","geo_precision":"street","address":"1371 N. Grand Ave."},"type":"Feature","geometry":{"type":"Point","coordinates":[-117.872434,34.0847]}},{"properties":{"city":"Culver City","zip":"90292","county":"Los Angeles","geo_score":0.813,"id":"a66wekrj7xwe","geo_precision":"range","address":"13425 Washington Blvd."},"type":"Feature","geometry":{"type":"Point","coordinates":[-118.44485,33.991651]}},{"properties":{"city":"Dallas","zip":"75206","county":"Dallas","geo_score":0.464,"id":"a66wekkcbo26","geo_precision":"street","address":"7940 N. Central Exwy.*"},"type":"Feature","geometry":{"type":"Point","coordinates":[-96.788283,32.81698]}},{"properties":{"city":"Daly City","zip":"94015","county":"San Mateo","geo_score":0.805,"id":"a66wekkt79rg","geo_precision":"range","address":"260 Washington Street"},"type":"Feature","geometry":{"type":"Point","coordinates":[-122.4714,37.687892]}},{"properties":{"city":"Davis","zip":"95616","county":"Yolo","geo_score":0.902,"id":"a66wekkuxs46","geo_precision":"range","address":"1020 Olive Dr."},"type":"Feature","geometry":{"type":"Point","coordinates":[-121.738253,38.541027]}},{"properties":{"city":"Diamond Bar","zip":"91789","county":"Los Angeles","geo_score":0.702,"id":"a66wekjnx76d","geo_precision":"range","address":"21133 Golden Springs Dr."},"type":"Feature","geometry":{"type":"Point","coordinates":[-117.840234,34.000779]}},{"properties":{"city":"Downey","zip":"90241","county":"Los Angeles","geo_score":0.902,"id":"a66wekvk0q40","geo_precision":"range","address":"8767 Firestone Blvd."},"type":"Feature","geometry":{"type":"Point","coordinates":[-118.124702,33.936014]}},{"properties":{"city":"Draper","zip":"84020","county":"Salt Lake","geo_score":0.49,"id":"a66wekvmkm4x","geo_precision":"street","address":"12191 S. State St."},"type":"Feature","geometry":{"type":"Point","coordinates":[-111.890723,40.537015]}},{"properties":{"city":"El Cajon","zip":"92020","county":"San Diego","geo_score":0.339,"id":"a66wekmkiu3v","geo_precision":"street","address":"1541 N. Magnolia Ave."},"type":"Feature","geometry":{"type":"Point","coordinates":[-116.962344,32.794928]}},{"properties":{"city":"El Centro","zip":"92243","county":"Imperial","geo_score":0.375,"id":"a66wekw012kw","geo_precision":"street","address":"2390 S. 4th St."},"type":"Feature","geometry":{"type":"Point","coordinates":[-115.552512,32.792837]}},{"properties":{"city":"Elk Grove","zip":"95624","county":"Sacramento","geo_score":0.337,"id":"a66weknk50ho","geo_precision":"street","address":"9188 E. Stockton Blvd."},"type":"Feature","geometry":{"type":"Point","coordinates":[-121.402677,38.440823]}},{"properties":{"city":"Escondido","zip":"92029","county":"San Diego","geo_score":0.468,"id":"a66wekwg3go0","geo_precision":"street","address":"1260 W. Valley Parkway"},"type":"Feature","geometry":{"type":"Point","coordinates":[-117.099124,33.1154]}},{"properties":{"city":"Fairfield","zip":"94534","county":"Solano","geo_score":0.827,"id":"a66wekl7ucfw","geo_precision":"range","address":"1364 Holiday Ln."},"type":"Feature","geometry":{"type":"Point","coordinates":[-122.065259,38.257131]}},{"properties":{"city":"Folsom","zip":"95630","county":"Sacramento","geo_score":0.621,"id":"a66wektjdya3","geo_precision":"street","address":"225 Placerville Rd."},"type":"Feature","geometry":{"type":"Point","coordinates":[-121.157547,38.670601]}},{"properties":{"city":"Fontana","zip":"92335","county":"San Bernardino","geo_score":0.862,"id":"a66wekv5rgdz","geo_precision":"range","address":"9855 Sierra Ave."},"type":"Feature","geometry":{"type":"Point","coordinates":[-117.435682,34.074782]}},{"properties":{"city":"Foothill Ranch","zip":"92610","county":"Orange","geo_score":0.902,"id":"a66wekr21jkc","geo_precision":"range","address":"26482 Towne Centre Dr."},"type":"Feature","geometry":{"type":"Point","coordinates":[-117.671143,33.683559]}},{"properties":{"city":"Fremont","zip":"94538","county":"Alameda","geo_score":0.571,"id":"a66wekjg68fc","geo_precision":"street","address":"43349 Pacific Commons Blvd."},"type":"Feature","geometry":{"type":"Point","coordinates":[-121.970916,37.535998]}},{"properties":{"city":"Fresno","zip":"93706","county":"Fresno","geo_score":0.378,"id":"a66wekjcn53g","geo_precision":"street","address":"2657 S. Second St."},"type":"Feature","geometry":{"type":"Point","coordinates":[-119.771499,36.706814]}},{"properties":{"city":"Fresno","zip":"93726","county":"Fresno","geo_score":0.459,"id":"a66wekm0bspz","geo_precision":"street","address":"4302 N. Blackstone Ave."},"type":"Feature","geometry":{"type":"Point","coordinates":[-119.790534,36.779599]}},{"properties":{"city":"Fresno","zip":"93722","county":"Fresno","geo_score":0.482,"id":"a66wekwznzsc","geo_precision":"street","address":"5106 W. Shaw Ave."},"type":"Feature","geometry":{"type":"Point","coordinates":[-119.862612,36.808267]}},{"properties":{"city":"Fresno","zip":"93720","county":"Fresno","geo_score":0.462,"id":"a66wekuefqqg","geo_precision":"street","address":"8010 N. Blackstone Ave."},"type":"Feature","geometry":{"type":"Point","coordinates":[-119.790952,36.85186]}},{"properties":{"city":"Frisco","zip":"75034","county":"Collin","geo_score":0.821,"id":"a66weklozhmu","geo_precision":"range","address":"2800 Preston Rd.*"},"type":"Feature","geometry":{"type":"Point","coordinates":[-96.805401,33.101595]}},{"properties":{"city":"Fullerton","zip":"92832","county":"Orange","geo_score":0.468,"id":"a66wekusqkm1","geo_precision":"street","address":"1180 S. Harbor Blvd."},"type":"Feature","geometry":{"type":"Point","coordinates":[-117.92423,33.87035]}},{"properties":{"city":"Garden Grove","zip":"92844","county":"Orange","geo_score":0.902,"id":"a66wekubse2k","geo_precision":"range","address":"9032 Trask Ave."},"type":"Feature","geometry":{"type":"Point","coordinates":[-117.971498,33.766679]}},{"properties":{"city":"Gilbert","zip":"85296","county":"Maricopa","geo_score":0.329,"id":"a66wekldfzff","geo_precision":"street","address":"2449 S. Market St."},"type":"Feature","geometry":{"type":"Point","coordinates":[-111.883417,33.28176]}},{"properties":{"city":"Gilroy","zip":"95020","county":"Santa Clara","geo_score":0.805,"id":"a66wekkc4dj4","geo_precision":"range","address":"641 Leavesley Rd."},"type":"Feature","geometry":{"type":"Point","coordinates":[-121.56464,37.023056]}},{"properties":{"city":"Glendale","zip":"91204","county":"Los Angeles","geo_score":0.873,"id":"a66wekou69fs","geo_precision":"range","address":"119 Brand Blvd."},"type":"Feature","geometry":{"type":"Point","coordinates":[-118.255051,34.145907]}},{"properties":{"city":"Glendale","zip":"91206","county":"Los Angeles","geo_score":0.429,"id":"a66wekjnx51k","geo_precision":"street","address":"310 N. Harvey Drive"},"type":"Feature","geometry":{"type":"Point","coordinates":[-118.227924,34.148837]}},{"properties":{"city":"Glendora","zip":"91741","county":"Los Angeles","geo_score":0.464,"id":"a66wekviveoq","geo_precision":"street","address":"1261 S. Lone Hill"},"type":"Feature","geometry":{"type":"Point","coordinates":[-117.828463,34.136134]}},{"properties":{"city":"Goleta","zip":"93111","county":"Santa Barbara","geo_score":0.813,"id":"a66wekua08wt","geo_precision":"range","address":"4865 Calle Real"},"type":"Feature","geometry":{"type":"Point","coordinates":[-119.790968,34.443121]}},{"properties":{"city":"Hacienda Heights","zip":"91745","county":"Los Angeles","geo_score":0.49,"id":"a66wekwdi7ob","geo_precision":"street","address":"14620 E. Gale Ave."},"type":"Feature","geometry":{"type":"Point","coordinates":[-117.991827,34.021491]}},{"properties":{"city":"Hemet","zip":"92545","county":"Riverside","geo_score":0.468,"id":"a66wekkq2wi2","geo_precision":"street","address":"2885 W. Florida Ave."},"type":"Feature","geometry":{"type":"Point","coordinates":[-116.99345,33.747442]}},{"properties":{"city":"Henderson","zip":"89014","county":"Clark","geo_score":0.476,"id":"a66weknm1n5y","geo_precision":"street","address":"1051 W. Sunset Rd."},"type":"Feature","geometry":{"type":"Point","coordinates":[-115.068686,36.072666]}},{"properties":{"city":"Hesperia","zip":"92345","county":"San Bernardino","geo_score":0.805,"id":"a66weksp1kum","geo_precision":"range","address":"13074 Main St."},"type":"Feature","geometry":{"type":"Point","coordinates":[-117.379332,34.426882]}},{"properties":{"city":"Hesperia","zip":"92345","county":"San Bernardino","geo_score":0.805,"id":"a66wekjgwx2g","geo_precision":"range","address":"17069 Bear Valley Rd."},"type":"Feature","geometry":{"type":"Point","coordinates":[-117.290696,34.470964]}},{"properties":{"city":"Hollywood","zip":"90028","county":"Los Angeles","geo_score":0.902,"id":"a66wekvuwk21","geo_precision":"range","address":"7009 Sunset Blvd."},"type":"Feature","geometry":{"type":"Point","coordinates":[-118.341753,34.097968]}},{"properties":{"city":"Huntington Beach","zip":"92648","county":"Orange","geo_score":0.902,"id":"a66wekszasvv","geo_precision":"range","address":"18062 Beach Blvd."},"type":"Feature","geometry":{"type":"Point","coordinates":[-117.98903,33.699842]}},{"properties":{"city":"Huntington Park","zip":"90255","county":"Los Angeles","geo_score":0.847,"id":"a66weki6s0r3","geo_precision":"range","address":"6000 Pacific Blvd."},"type":"Feature","geometry":{"type":"Point","coordinates":[-118.225184,33.987204]}},{"properties":{"city":"Indio","zip":"92201","county":"Riverside","geo_score":0.435,"id":"a66wekqajy0a","geo_precision":"street","address":"82043 Hwy. 111"},"type":"Feature","geometry":{"type":"Point","coordinates":[-116.242607,33.707615]}},{"properties":{"city":"Inglewood","zip":"90301","county":"Los Angeles","geo_score":0.321,"id":"a66wekhlc6cr","geo_precision":"street","address":"3411 W. Century Blvd."},"type":"Feature","geometry":{"type":"Point","coordinates":[-118.320972,33.945473]}},{"properties":{"city":"Irvine","zip":"92612","county":"Orange","geo_score":0.902,"id":"a66wektsj8pf","geo_precision":"range","address":"4115 Campus Dr."},"type":"Feature","geometry":{"type":"Point","coordinates":[-117.837166,33.647874]}},{"properties":{"city":"Kearny Mesa","zip":"92111","county":"San Diego","geo_score":0.815,"id":"a66weksq8m19","geo_precision":"range","address":"4375 Kearny Mesa Rd."},"type":"Feature","geometry":{"type":"Point","coordinates":[-117.149092,32.819626]}},{"properties":{"city":"Kettleman City","zip":"93239","county":"Kings","geo_score":0.509,"id":"a66wekt9qccb","geo_precision":"street","address":"Highway 41 at Bernard Dr."},"type":"Feature","geometry":{"type":"Point","coordinates":[-119.959324,36.007287]}},{"properties":{"city":"Kingman","zip":"86409","county":"Mohave","geo_score":0.0,"id":"a66wekj2gf79","geo_precision":"unmatched","address":"1770 E Beverly Ave"},"type":"Feature","geometry":null},{"properties":{"city":"La Habra","zip":"90631","county":"Orange","geo_score":0.4,"id":"a66wekxniu99","geo_precision":"street","address":"2030 E. Lambert Rd."},"type":"Feature","geometry":{"type":"Point","coordinates":[-117.946106,33.924592]}},{"properties":{"city":"La Mirada","zip":"90638","county":"Los Angeles","geo_score":0.878,"id":"a66wektzehb2","geo_precision":"range","address":"14341 Firestone Blvd."},"type":"Feature","geometry":{"type":"Point","coordinates":[-118.025653,33.883263]}},{"properties":{"city":"La Puente","zip":"91744","county":"Los Angeles","geo_score":0.401,"id":"a66weknmrx9n","geo_precision":"street","address":"15259 E. Amar Rd."},"type":"Feature","geometry":{"type":"Point","coordinates":[-117.934602,34.036164]}},{"properties":{"city":"La Verne","zip":"91750","county":"Los Angeles","geo_score":0.902,"id":"a66wekn9ci9l","geo_precision":"range","address":"2098 Foothill Blvd."},"type":"Feature","geometry":{"type":"Point","coordinates":[-117.765163,34.113293]}},{"properties":{"city":"Laguna Hills","zip":"92653","county":"Orange","geo_score":0.846,"id":"a66wekth5iig","geo_precision":"range","address":"24001 Avenida De La Carlota"},"type":"Feature","geometry":{"type":"Point","coordinates":[-117.70859,33.61392]}},{"properties":{"city":"Laguna Niguel","zip":"92677","county":"Orange","geo_score":0.321,"id":"a66wekquzi23","geo_precision":"street","address":"27380 La Paz Rd."},"type":"Feature","geometry":{"type":"Point","coordinates":[-117.81404,33.678926]}},{"properties":{"city":"Laguna Niguel","zip":"92675","county":"Orange","geo_score":0.834,"id":"a66wekua3qb5","geo_precision":"range","address":"28782 Camino Capistrano"},"type":"Feature","geometry":{"type":"Point","coordinates":[-117.674193,33.54583]}},{"properties":{"city":"Lake Elsinore","zip":"92532","county":"Riverside","geo_score":0.793,"id":"a66wekjrlkio","geo_precision":"range","address":"331 Railroad Canyon Rd."},"type":"Feature","geometry":{"type":"Point","coordinates":[-117.298029,33.663228]}},{"properties":{"city":"Lake Havasu","zip":"86403","county":"Mohave","geo_score":0.76,"id":"a66wektx1nob","geo_precision":"range","address":"81-101 London Bridge Rd."},"type":"Feature","geometry":{"type":"Point","coordinates":[-114.348744,34.473967]}},{"properties":{"city":"Lakewood","zip":"90713","county":"Los Angeles","geo_score":0.902,"id":"a66wekvjttwu","geo_precision":"range","address":"5820 Bellflower Blvd."},"type":"Feature","geometry":{"type":"Point","coordinates":[-118.125093,33.86095]}},{"properties":{"city":"Lancaster","zip":"93536","county":"Los Angeles","geo_score":0.403,"id":"a66wekqap6vo","geo_precision":"street","address":"2021 W. Avenue I"},"type":"Feature","geometry":{"type":"Point","coordinates":[-118.143746,34.703948]}},{"properties":{"city":"Las Vegas","zip":"89128","county":"Clark","geo_score":0.882,"id":"a66wekipc9pp","geo_precision":"range","address":"1960 Rock Springs Dr."},"type":"Feature","geometry":{"type":"Point","coordinates":[-115.247036,36.195309]}},{"properties":{"city":"Las Vegas","zip":"89102","county":"Clark","geo_score":0.471,"id":"a66wekp77szu","geo_precision":"street","address":"2900 W. Sahara Ave."},"type":"Feature","geometry":{"type":"Point","coordinates":[-115.158507,36.143693]}},{"properties":{"city":"Las Vegas","zip":"89139","county":"Clark","geo_score":0.902,"id":"a66wekkgyxqr","geo_precision":"range","address":"3882 Blue Diamond Rd."},"type":"Feature","geometry":{"type":"Point","coordinates":[-115.192805,36.039378]}},{"properties":{"city":"Las Vegas","zip":"89119","county":"Clark","geo_score":0.462,"id":"a66wekqm5h91","geo_precision":"street","address":"4705 S. Maryland Pkwy."},"type":"Feature","geometry":{"type":"Point","coordinates":[-115.137377,36.122141]}},{"properties":{"city":"Las Vegas","zip":"89103","county":"Clark","geo_score":0.571,"id":"a66wekoon3t8","geo_precision":"street","address":"4888 Dean Martin Dr. (formerly Industrial Rd.)"},"type":"Feature","geometry":{"type":"Point","coordinates":[-115.240515,36.123546]}},{"properties":{"city":"Las Vegas","zip":"89110","county":"Clark","geo_score":0.348,"id":"a66wekus175a","geo_precision":"street","address":"51 N. Nellis Blvd."},"type":"Feature","geometry":{"type":"Point","coordinates":[-115.062225,36.161018]}},{"properties":{"city":"Las Vegas","zip":"89149","county":"Clark","geo_score":0.902,"id":"a66wekuazozv","geo_precision":"range","address":"5690 Centennial Center Blvd."},"type":"Feature","geometry":{"type":"Point","coordinates":[-115.259026,36.26537]}},{"properties":{"city":"Las Vegas","zip":"89123","county":"Clark","geo_score":0.468,"id":"a66wekmc3sbe","geo_precision":"street","address":"9240 S. Eastern Ave."},"type":"Feature","geometry":{"type":"Point","coordinates":[-115.118298,36.056865]}},{"properties":{"city":"Las Vegas","zip":"89147","county":"Clark","geo_score":0.462,"id":"a66wekxp1egr","geo_precision":"street","address":"9610 W. Tropicana Ave."},"type":"Feature","geometry":{"type":"Point","coordinates":[-115.257834,36.09962]}},{"properties":{"city":"Laughlin","zip":"89029","county":"Clark","geo_score":0.49,"id":"a66wekpnpfm2","geo_precision":"street","address":"2085 S. Casino Dr."},"type":"Feature","geometry":{"type":"Point","coordinates":[-114.615089,35.125116]}},{"properties":{"city":"Lebec/Tejon Ranch","zip":"93243","county":"Kern","geo_score":0.464,"id":"a66wekllo294","geo_precision":"street","address":"5926 Dennis McCarthy Dr."},"type":"Feature","geometry":{"type":"Point","coordinates":[-119.047345,35.892762]}},{"properties":{"city":"Lemon Grove","zip":"91945","county":"San Diego","geo_score":0.902,"id":"a66wekospk9n","geo_precision":"range","address":"7160 Broadway"},"type":"Feature","geometry":{"type":"Point","coordinates":[-117.043336,32.74254]}},{"properties":{"city":"Livermore","zip":"94550","county":"Alameda","geo_score":0.35,"id":"a66wekrz542f","geo_precision":"street","address":"1881 N. Livermore Ave."},"type":"Feature","geometry":{"type":"Point","coordinates":[-121.769792,37.684425]}},{"properties":{"city":"Lodi","zip":"95242","county":"San Joaquin","geo_score":0.464,"id":"a66weki8d7e2","geo_precision":"street","address":"2625 W. Kettleman Ln."},"type":"Feature","geometry":{"type":"Point","coordinates":[-121.275964,38.115502]}},{"properties":{"city":"Long Beach","zip":"90815","county":"Los Angeles","geo_score":0.887,"id":"a66wekj9yoi4","geo_precision":"range","address":"4600 Los Coyotes Diagonal"},"type":"Feature","geometry":{"type":"Point","coordinates":[-118.140406,33.791445]}},{"properties":{"city":"Long Beach","zip":"90803","county":"Los Angeles","geo_score":0.328,"id":"a66wekvb6g03","geo_precision":"street","address":"6391 E. Pacific Coast Hwy."},"type":"Feature","geometry":{"type":"Point","coordinates":[-118.120982,33.774052]}},{"properties":{"city":"Long Beach","zip":"90808","county":"Los Angeles","geo_score":0.707,"id":"a66wekmjee6d","geo_precision":"street","address":"7691 Carson Street"},"type":"Feature","geometry":{"type":"Point","coordinates":[-118.114355,33.83224]}},{"properties":{"city":"Manteca","zip":"95336","county":"San Joaquin","geo_score":0.416,"id":"a66wekj3nki8","geo_precision":"street","address":"1490 E. Yosemite Avenue"},"type":"Feature","geometry":{"type":"Point","coordinates":[-121.216447,37.797395]}},{"properties":{"city":"Marana","zip":"85743","county":"Pima","geo_score":0.61,"id":"a66wekq96j3g","geo_precision":"street","address":"8180 Cortaro Rd."},"type":"Feature","geometry":{"type":"Point","coordinates":[-111.109356,32.34341]}},{"properties":{"city":"Menifee","zip":"92584","county":"Riverside","geo_score":0.611,"id":"a66wekvn0f7p","geo_precision":"street","address":"30296 Haun Rd."},"type":"Feature","geometry":{"type":"Point","coordinates":[-117.175699,33.670466]}},{"properties":{"city":"Merced","zip":"95340","county":"Merced","geo_score":0.347,"id":"a66wekjzpd5l","geo_precision":"street","address":"1579 Martin Luther King Jr. Way"},"type":"Feature","geometry":{"type":"Point","coordinates":[-120.487414,37.288232]}},{"properties":{"city":"Mesa","zip":"85210","county":"Maricopa","geo_score":0.462,"id":"a66wekrt77ss","geo_precision":"street","address":"1342 S. Alma School Rd."},"type":"Feature","geometry":{"type":"Point","coordinates":[-111.856625,33.414232]}},{"properties":{"city":"Mesa","zip":"85204","county":"Maricopa","geo_score":0.471,"id":"a66wekx17ja7","geo_precision":"street","address":"1650 S. Stapley"},"type":"Feature","geometry":{"type":"Point","coordinates":[-111.805323,33.410193]}},{"properties":{"city":"Mesa","zip":"85209","county":"Maricopa","geo_score":0.459,"id":"a66wekur6jwc","geo_precision":"street","address":"1859 S. Signal Butte Rd."},"type":"Feature","geometry":{"type":"Point","coordinates":[-111.601599,33.378513]}},{"properties":{"city":"Mill Valley","zip":"94941","county":"Marin","geo_score":0.857,"id":"a66wekt92yqq","geo_precision":"range","address":"798 Redwood Hwy."},"type":"Feature","geometry":{"type":"Point","coordinates":[-122.515835,37.899551]}},{"properties":{"city":"Millbrae","zip":"94030","county":"San Mateo","geo_score":0.857,"id":"a66wekrnxdno","geo_precision":"range","address":"11 Rollins Rd."},"type":"Feature","geometry":{"type":"Point","coordinates":[-122.382867,37.599426]}},{"properties":{"city":"Milpitas","zip":"95035","county":"Santa Clara","geo_score":0.902,"id":"a66wekv8hvou","geo_precision":"range","address":"50 Ranch Dr."},"type":"Feature","geometry":{"type":"Point","coordinates":[-121.924915,37.42503]}},{"properties":{"city":"Mira Mesa","zip":"92126","county":"San Diego","geo_score":0.902,"id":"a66wekuhc9z5","geo_precision":"range","address":"9410 Mira Mesa Blvd."},"type":"Feature","geometry":{"type":"Point","coordinates":[-117.12328,32.917178]}},{"properties":{"city":"Mission Valley","zip":"92108","county":"San Diego","geo_score":0.596,"id":"a66wekv1c1fq","geo_precision":"range","address":"2005 Camino Del Este"},"type":"Feature","geometry":{"type":"Point","coordinates":[-117.131101,32.726577]}},{"properties":{"city":"Modesto","zip":"95356","county":"Stanislaus","geo_score":0.902,"id":"a66wekj0qfxz","geo_precision":"range","address":"3900 Pelandale Ave."},"type":"Feature","geometry":{"type":"Point","coordinates":[-121.067635,37.700059]}},{"properties":{"city":"Moorpark","zip":"93021","county":"Ventura","geo_score":0.617,"id":"a66weklzhnqq","geo_precision":"street","address":"856 Los Angeles Ave."},"type":"Feature","geometry":{"type":"Point","coordinates":[-118.885426,34.278875]}},{"properties":{"city":"Moreno Valley","zip":"92557","county":"Riverside","geo_score":0.902,"id":"a66wekhpls94","geo_precision":"range","address":"23035 Hemlock Ave."},"type":"Feature","geometry":{"type":"Point","coordinates":[-117.261068,33.94244]}},{"properties":{"city":"Morgan Hill","zip":"95037","county":"Santa Clara","geo_score":0.815,"id":"a66wekqk769t","geo_precision":"range","address":"895 Cochrane Road"},"type":"Feature","geometry":{"type":"Point","coordinates":[-121.654634,37.151544]}},{"properties":{"city":"Mountain View","zip":"94043","county":"Santa Clara","geo_score":0.459,"id":"a66wekmpsiq9","geo_precision":"street","address":"1159 N. Rengstorff Ave."},"type":"Feature","geometry":{"type":"Point","coordinates":[-122.09736,37.403159]}},{"properties":{"city":"Mountain View","zip":"94040","county":"Santa Clara","geo_score":0.462,"id":"a66wekpitkih","geo_precision":"street","address":"53 W. El Camino Real"},"type":"Feature","geometry":{"type":"Point","coordinates":[-122.06914,37.37865]}},{"properties":{"city":"Murrieta","zip":"92563","county":"Riverside","geo_score":0.531,"id":"a66wekkp3cb9","geo_precision":"zip","address":"39697 Avenida Acacias"},"type":"Feature","geometry":{"type":"Point","coordinates":[-117.158088,33.560581]}},{"properties":{"city":"Napa","zip":"94559","county":"Napa","geo_score":0.635,"id":"a66wekimteec","geo_precision":"street","address":"820 Imola Ave."},"type":"Feature","geometry":{"type":"Point","coordinates":[-122.274013,38.28048]}},{"properties":{"city":"National City","zip":"91950","county":"San Diego","geo_score":0.902,"id":"a66wekrm1qlr","geo_precision":"range","address":"500 Mile of Cars Way"},"type":"Feature","geometry":{"type":"Point","coordinates":[-117.106535,32.660503]}},{"properties":{"city":"Newbury Park","zip":"91320","county":"Ventura","geo_score":0.902,"id":"a66wekp2jzi8","geo_precision":"range","address":"1550 Newbury Rd."},"type":"Feature","geometry":{"type":"Point","coordinates":[-118.912196,34.182898]}},{"properties":{"city":"Newhall","zip":"91321","county":"Los Angeles","geo_score":0.327,"id":"a66wekmfidsi","geo_precision":"street","address":"25220 N. The Old Road"},"type":"Feature","geometry":{"type":"Point","coordinates":[-118.511091,34.336928]}},{"properties":{"city":"Norco","zip":"92860","county":"Riverside","geo_score":0.902,"id":"a66wekuyehyp","geo_precision":"range","address":"1810 Hamner Ave."},"type":"Feature","geometry":{"type":"Point","coordinates":[-117.561392,33.907882]}},{"properties":{"city":"North Hollywood","zip":"91605","county":"Los Angeles","geo_score":0.708,"id":"a66wekvipc37","geo_precision":"street","address":"5864 Lankershim Blvd."},"type":"Feature","geometry":{"type":"Point","coordinates":[-118.387779,34.193932]}},{"properties":{"city":"North Las Vegas","zip":"89030","county":"Clark","geo_score":0.482,"id":"a66wekkp5suc","geo_precision":"street","address":"2765 E. Craig Rd."},"type":"Feature","geometry":{"type":"Point","coordinates":[-115.134328,36.239619]}},{"properties":{"city":"North Las Vegas","zip":"89084","county":"Clark","geo_score":0.0,"id":"a66wekvf0eoq","geo_precision":"unmatched","address":"6880 N 5th St"},"type":"Feature","geometry":null},{"properties":{"city":"Northridge","zip":"91324","county":"Los Angeles","geo_score":0.902,"id":"a66wekncucyn","geo_precision":"range","address":"8830 Tampa Ave."},"type":"Feature","geometry":{"type":"Point","coordinates":[-118.553564,34.230658]}},{"properties":{"city":"Northridge","zip":"91325","county":"Los Angeles","geo_score":0.902,"id":"a66wekjf8zo2","geo_precision":"range","address":"9858 Balboa Blvd."},"type":"Feature","geometry":{"type":"Point","coordinates":[-118.502409,34.249805]}},{"properties":{"city":"Norwalk","zip":"90650","county":"Los Angeles","geo_score":0.815,"id":"a66wekviagz5","geo_precision":"range","address":"14330 Pioneer Blvd."},"type":"Feature","geometry":{"type":"Point","coordinates":[-118.082499,33.901584]}},{"properties":{"city":"Oakland","zip":"94601","county":"Alameda","geo_score":0.585,"id":"a66wekif3mjl","geo_precision":"street","address":"8300 Oakport St."},"type":"Feature","geometry":{"type":"Point","coordinates":[-122.215061,37.761421]}},{"properties":{"city":"Oceanside","zip":"92057","county":"San Diego","geo_score":0.829,"id":"a66wekijro1s","geo_precision":"range","address":"4605 Frazee"},"type":"Feature","geometry":{"type":"Point","coordinates":[-117.292702,33.236964]}},{"properties":{"city":"Ontario","zip":"91764","county":"San Bernardino","geo_score":0.536,"id":"a66wekmrmjsk","geo_precision":"street","address":"1891 E. G St."},"type":"Feature","geometry":{"type":"Point","coordinates":[-117.649632,34.065808]}},{"properties":{"city":"Ontario","zip":"91761","county":"San Bernardino","geo_score":0.805,"id":"a66wekteihvm","geo_precision":"range","address":"2235 Mountain Ave."},"type":"Feature","geometry":{"type":"Point","coordinates":[-117.728004,34.083308]}},{"properties":{"city":"Ontario","zip":"91764","county":"San Bernardino","geo_score":0.429,"id":"a66wekwq09dn","geo_precision":"street","address":"4310 E. Ontario Mills Parkway"},"type":"Feature","geometry":{"type":"Point","coordinates":[-117.555513,34.069742]}},{"properties":{"city":"Orange","zip":"92865","county":"Orange","geo_score":0.476,"id":"a66wekpmm5kd","geo_precision":"street","address":"2585 N. Tustin St."},"type":"Feature","geometry":{"type":"Point","coordinates":[-117.835893,33.817455]}},{"properties":{"city":"Orange","zip":"92869","county":"Orange","geo_score":0.468,"id":"a66weki6u6up","geo_precision":"street","address":"3501 E. Chapman Ave."},"type":"Feature","geometry":{"type":"Point","coordinates":[-117.82842,33.78781]}},{"properties":{"city":"Orem","zip":"84057","county":"Utah","geo_score":0.321,"id":"a66wekithnfs","geo_precision":"street","address":"350 E. University Pkwy."},"type":"Feature","geometry":{"type":"Point","coordinates":[-111.905453,40.584847]}},{"properties":{"city":"Oro Valley","zip":"85755","county":"Pima","geo_score":0.0,"id":"a66wekm35s0t","geo_precision":"unmatched","address":"11545 North Oracle Rd"},"type":"Feature","geometry":null},{"properties":{"city":"Oxnard","zip":"93030","county":"Ventura","geo_score":0.321,"id":"a66wekjq4vi3","geo_precision":"street","address":"381 W. Esplanade"},"type":"Feature","geometry":{"type":"Point","coordinates":[-119.174653,34.230002]}},{"properties":{"city":"Pacific Beach","zip":"92109","county":"San Diego","geo_score":0.902,"id":"a66weks9lix1","geo_precision":"range","address":"2910 Damon Ave."},"type":"Feature","geometry":{"type":"Point","coordinates":[-117.218969,32.807704]}},{"properties":{"city":"Palmdale","zip":"93550","county":"Los Angeles","geo_score":0.319,"id":"a66wekoiqk5k","geo_precision":"street","address":"142 E. Palmdale Blvd."},"type":"Feature","geometry":{"type":"Point","coordinates":[-118.131969,34.580525]}},{"properties":{"city":"Panorama City","zip":"91402","county":"Los Angeles","geo_score":0.902,"id":"a66wekvfozuk","geo_precision":"range","address":"13651 Roscoe Blvd."},"type":"Feature","geometry":{"type":"Point","coordinates":[-118.430427,34.221661]}},{"properties":{"city":"Paradise Valley","zip":"85032","county":"Maricopa","geo_score":0.735,"id":"a66wekraixg3","geo_precision":"zip","address":"12413 N. Tatum Blvd."},"type":"Feature","geometry":{"type":"Point","coordinates":[-112.030426,33.598652]}},{"properties":{"city":"Pasadena","zip":"91107","county":"Los Angeles","geo_score":0.414,"id":"a66wekx9pxlc","geo_precision":"street","address":"2114 E. Foothill Blvd."},"type":"Feature","geometry":{"type":"Point","coordinates":[-118.110717,34.149578]}},{"properties":{"city":"Pedley","zip":"92509","county":"Riverside","geo_score":0.815,"id":"a66wekkbp1p9","geo_precision":"range","address":"6634 Clay St."},"type":"Feature","geometry":{"type":"Point","coordinates":[-117.465257,33.967807]}},{"properties":{"city":"Peoria","zip":"85382","county":"Maricopa","geo_score":0.49,"id":"a66wekhjfipp","geo_precision":"street","address":"8285 W. Bell Rd."},"type":"Feature","geometry":{"type":"Point","coordinates":[-112.236032,33.638169]}},{"properties":{"city":"Petaluma","zip":"94952","county":"Sonoma","geo_score":0.816,"id":"a66wekrqx8fj","geo_precision":"range","address":"1010 Lakeville St."},"type":"Feature","geometry":{"type":"Point","coordinates":[-122.622225,38.235331]}},{"properties":{"city":"Phoenix","zip":"85027","county":"Maricopa","geo_score":0.347,"id":"a66wekunrgab","geo_precision":"street","address":"19407 N. 27th Avenue"},"type":"Feature","geometry":{"type":"Point","coordinates":[-112.024437,33.824522]}},{"properties":{"city":"Phoenix","zip":"85050","county":"Maricopa","geo_score":0.471,"id":"a66wekve3ulr","geo_precision":"street","address":"21001 N. Tatum Blvd."},"type":"Feature","geometry":{"type":"Point","coordinates":[-111.977414,33.655212]}},{"properties":{"city":"Phoenix","zip":"85029","county":"Maricopa","geo_score":0.329,"id":"a66wekqqh8g1","geo_precision":"street","address":"2770 W. Peoria Ave."},"type":"Feature","geometry":{"type":"Point","coordinates":[-112.082113,33.58209]}},{"properties":{"city":"Phoenix","zip":"85086","county":"Maricopa","geo_score":0.325,"id":"a66wekl8h4me","geo_precision":"street","address":"34850 N. Valley Pkwy."},"type":"Feature","geometry":{"type":"Point","coordinates":[-112.129225,33.798386]}},{"properties":{"city":"Phoenix","zip":"85037","county":"Maricopa","geo_score":0.464,"id":"a66wekwt8rvh","geo_precision":"street","address":"9585 W. Camelback Rd."},"type":"Feature","geometry":{"type":"Point","coordinates":[-112.255007,33.508798]}},{"properties":{"city":"Pico Rivera","zip":"90660","county":"Los Angeles","geo_score":0.844,"id":"a66wekpf8vnj","geo_precision":"range","address":"9070 Whittier Blvd."},"type":"Feature","geometry":{"type":"Point","coordinates":[-118.083105,34.000898]}},{"properties":{"city":"Pinole","zip":"94564","county":"Contra Costa","geo_score":0.902,"id":"a66weku8mcg4","geo_precision":"range","address":"1417 Fitzgerald Dr."},"type":"Feature","geometry":{"type":"Point","coordinates":[-122.302842,37.991668]}},{"properties":{"city":"Pittsburg","zip":"94565","county":"Contra Costa","geo_score":0.476,"id":"a66weklh41nc","geo_precision":"street","address":"4550 Delta Gateway Blvd."},"type":"Feature","geometry":{"type":"Point","coordinates":[-121.96728,38.034026]}},{"properties":{"city":"Placentia","zip":"92870","county":"Orange","geo_score":0.468,"id":"a66wekmuw8px","geo_precision":"street","address":"825 W. Chapman Ave."},"type":"Feature","geometry":{"type":"Point","coordinates":[-117.87146,33.87244]}},{"properties":{"city":"Placerville","zip":"95667","county":"El Dorado","geo_score":0.854,"id":"a66wekplp5dv","geo_precision":"range","address":"3055 Forni Road"},"type":"Feature","geometry":{"type":"Point","coordinates":[-120.83303,38.720653]}},{"properties":{"city":"Pleasanton","zip":"94588","county":"Alameda","geo_score":0.902,"id":"a66weki4fvrb","geo_precision":"range","address":"6015 Johnson Dr."},"type":"Feature","geometry":{"type":"Point","coordinates":[-121.907767,37.699801]}},{"properties":{"city":"Pomona","zip":"91767","county":"Los Angeles","geo_score":0.902,"id":"a66wekwyvtbz","geo_precision":"range","address":"1851 Indian Hill Blvd."},"type":"Feature","geometry":{"type":"Point","coordinates":[-117.719246,34.077662]}},{"properties":{"city":"Pomona","zip":"91766","county":"Los Angeles","geo_score":0.787,"id":"a66weklb048v","geo_precision":"range","address":"2505 Garey Ave."},"type":"Feature","geometry":{"type":"Point","coordinates":[-117.748992,34.026013]}},{"properties":{"city":"Porter Ranch","zip":"91326","county":"Los Angeles","geo_score":0.902,"id":"a66wektkel8r","geo_precision":"range","address":"19901 Rinaldi St."},"type":"Feature","geometry":{"type":"Point","coordinates":[-118.567309,34.275308]}},{"properties":{"city":"Poway","zip":"92064","county":"San Diego","geo_score":0.902,"id":"a66wektfsuzs","geo_precision":"range","address":"12890 Gregg Court*"},"type":"Feature","geometry":{"type":"Point","coordinates":[-117.047277,32.937695]}},{"properties":{"city":"Prescott","zip":"86301","county":"Yavapai","geo_score":0.346,"id":"a66wekv1ei89","geo_precision":"street","address":"3040 E. Hwy. 69"},"type":"Feature","geometry":{"type":"Point","coordinates":[-112.446463,34.548288]}},{"properties":{"city":"Rancho Cordova","zip":"95670","county":"Sacramento","geo_score":0.812,"id":"a66wekwdw27e","geo_precision":"range","address":"2475 Sunrise Blvd."},"type":"Feature","geometry":{"type":"Point","coordinates":[-121.269553,38.613549]}},{"properties":{"city":"Rancho Cucamonga","zip":"91739","county":"San Bernardino","geo_score":0.727,"id":"a66wekico3lt","geo_precision":"range","address":"12599 Foothill Blvd."},"type":"Feature","geometry":{"type":"Point","coordinates":[-117.531909,34.106319]}},{"properties":{"city":"Rancho Cucamonga","zip":"91730","county":"San Bernardino","geo_score":0.902,"id":"a66weki30t1h","geo_precision":"range","address":"8955 Foothill Blvd."},"type":"Feature","geometry":{"type":"Point","coordinates":[-117.610446,34.106654]}},{"properties":{"city":"Redding","zip":"96003","county":"Shasta","geo_score":0.902,"id":"a66wekkdslhl","geo_precision":"range","address":"1275 Dana Drive"},"type":"Feature","geometry":{"type":"Point","coordinates":[-122.351659,40.586174]}},{"properties":{"city":"Redondo Beach","zip":"90278","county":"Los Angeles","geo_score":0.902,"id":"a66wekwpakjh","geo_precision":"range","address":"3801 Inglewood Ave."},"type":"Feature","geometry":{"type":"Point","coordinates":[-118.36129,33.891276]}},{"properties":{"city":"Redwood City","zip":"94063","county":"San Mateo","geo_score":0.902,"id":"a66wekmw0r79","geo_precision":"range","address":"949 Veterans Blvd."},"type":"Feature","geometry":{"type":"Point","coordinates":[-122.226968,37.490058]}},{"properties":{"city":"Reno","zip":"89511","county":"Washoe","geo_score":0.317,"id":"a66wekhb8szb","geo_precision":"street","address":"8215 S. Virginia"},"type":"Feature","geometry":{"type":"Point","coordinates":[-119.769367,39.439453]}},{"properties":{"city":"Riverside","zip":"92504","county":"Riverside","geo_score":0.805,"id":"a66wekr1vkcq","geo_precision":"range","address":"7467 Indiana Ave."},"type":"Feature","geometry":{"type":"Point","coordinates":[-117.403668,33.935523]}},{"properties":{"city":"Riverton","zip":"84096","county":"Salt Lake","geo_score":0.0,"id":"a66weki41y94","geo_precision":"unmatched","address":"12569 S Crossing Dr"},"type":"Feature","geometry":null},{"properties":{"city":"Rohnert Park","zip":"94928","county":"Sonoma","geo_score":0.611,"id":"a66wekqaxxy9","geo_precision":"street","address":"5145 Redwood Dr."},"type":"Feature","geometry":{"type":"Point","coordinates":[-122.714966,38.363229]}},{"properties":{"city":"Rosemead","zip":"91770","county":"Los Angeles","geo_score":0.314,"id":"a66wekukqe8t","geo_precision":"street","address":"4242 N. Rosemead Blvd."},"type":"Feature","geometry":{"type":"Point","coordinates":[-118.07323,34.063199]}},{"properties":{"city":"Roseville","zip":"95678","county":"Placer","geo_score":0.61,"id":"a66wekqt47ve","geo_precision":"street","address":"10309 Fairway Dr."},"type":"Feature","geometry":{"type":"Point","coordinates":[-121.266791,38.783632]}},{"properties":{"city":"Roseville","zip":"95661","county":"Placer","geo_score":0.805,"id":"a66wekl4f2jg","geo_precision":"range","address":"1803 Taylor Rd."},"type":"Feature","geometry":{"type":"Point","coordinates":[-121.259524,38.757625]}},{"properties":{"city":"Sacramento","zip":"95834","county":"Sacramento","geo_score":0.902,"id":"a66wekk83gj3","geo_precision":"range","address":"2900 Del Paso Rd."},"type":"Feature","geometry":{"type":"Point","coordinates":[-121.531442,38.655782]}},{"properties":{"city":"Sacramento","zip":"95834","county":"Sacramento","geo_score":0.902,"id":"a66wekpxphhp","geo_precision":"range","address":"3501 Truxel Rd."},"type":"Feature","geometry":{"type":"Point","coordinates":[-121.497907,38.629717]}},{"properties":{"city":"Sacramento","zip":"95841","county":"Sacramento","geo_score":0.805,"id":"a66weksgevfh","geo_precision":"range","address":"4600 Madison Ave."},"type":"Feature","geometry":{"type":"Point","coordinates":[-121.357829,38.660973]}},{"properties":{"city":"Salinas","zip":"93905","county":"Monterey","geo_score":0.902,"id":"a66wekm45ad7","geo_precision":"range","address":"151 Kern St."},"type":"Feature","geometry":{"type":"Point","coordinates":[-121.640721,36.681202]}},{"properties":{"city":"San Bernardino","zip":"92408","county":"San Bernardino","geo_score":0.429,"id":"a66weku3artd","geo_precision":"street","address":"1065 E. Harriman Pl."},"type":"Feature","geometry":{"type":"Point","coordinates":[-117.269635,34.06642]}},{"properties":{"city":"San Bernardino","zip":"92410","county":"San Bernardino","geo_score":0.681,"id":"a66wekuoy87w","geo_precision":"street","address":"190 Bungalow Ct."},"type":"Feature","geometry":{"type":"Point","coordinates":[-117.299391,34.102202]}},{"properties":{"city":"San Carlos","zip":"94070","county":"San Mateo","geo_score":0.902,"id":"a66wekp1lu66","geo_precision":"range","address":"445 Industrial Rd.*"},"type":"Feature","geometry":{"type":"Point","coordinates":[-122.25813,37.512152]}},{"properties":{"city":"San Diego","zip":"92110","county":"San Diego","geo_score":0.902,"id":"a66weko37dgo","geo_precision":"range","address":"3102 Sports Arena Blvd."},"type":"Feature","geometry":{"type":"Point","coordinates":[-117.204856,32.751511]}},{"properties":{"city":"San Fernando","zip":"91342","county":"Los Angeles","geo_score":0.805,"id":"a66wekk0z82w","geo_precision":"range","address":"11455 Laurel Canyon Blvd."},"type":"Feature","geometry":{"type":"Point","coordinates":[-118.452436,34.277951]}},{"properties":{"city":"San Francisco","zip":"94133","county":"San Francisco","geo_score":0.829,"id":"a66wekmh0xx7","geo_precision":"range","address":"333 Jefferson St."},"type":"Feature","geometry":{"type":"Point","coordinates":[-122.417906,37.807945]}},{"properties":{"city":"San Jose","zip":"95148","county":"Santa Clara","geo_score":0.468,"id":"a66wekmag53k","geo_precision":"street","address":"2950 E. Capitol Expressway"},"type":"Feature","geometry":{"type":"Point","coordinates":[-121.818687,37.339175]}},{"properties":{"city":"San Jose","zip":"95110","county":"Santa Clara","geo_score":0.837,"id":"a66wekhift21","geo_precision":"range","address":"550 Newhall Dr."},"type":"Feature","geometry":{"type":"Point","coordinates":[-121.920353,37.349286]}},{"properties":{"city":"San Jose","zip":"95123","county":"Santa Clara","geo_score":0.902,"id":"a66weklt2u3h","geo_precision":"range","address":"5611 Santa Teresa Blvd."},"type":"Feature","geometry":{"type":"Point","coordinates":[-121.85982,37.246138]}},{"properties":{"city":"San Leandro","zip":"94579","county":"Alameda","geo_score":0.902,"id":"a66wekqzbe0c","geo_precision":"range","address":"15575 Hesperian Blvd."},"type":"Feature","geometry":{"type":"Point","coordinates":[-122.130165,37.68754]}},{"properties":{"city":"San Marcos","zip":"92078","county":"San Diego","geo_score":0.631,"id":"a66weksvuudd","geo_precision":"street","address":"583 Grand Ave."},"type":"Feature","geometry":{"type":"Point","coordinates":[-117.178041,33.134524]}},{"properties":{"city":"San Pedro","zip":"90732","county":"Los Angeles","geo_score":0.471,"id":"a66wekw4ox8n","geo_precision":"street","address":"1090 N. Western Ave."},"type":"Feature","geometry":{"type":"Point","coordinates":[-118.308998,33.752137]}},{"properties":{"city":"San Ramon","zip":"94583","county":"Contra Costa","geo_score":0.902,"id":"a66wekneiy38","geo_precision":"range","address":"2270 San Ramon Valley Blvd."},"type":"Feature","geometry":{"type":"Point","coordinates":[-121.977586,37.779257]}},{"properties":{"city":"Santa Ana","zip":"92704","county":"Orange","geo_score":0.471,"id":"a66weknda6iq","geo_precision":"street","address":"3361 S. Bristol St."},"type":"Feature","geometry":{"type":"Point","coordinates":[-117.88504,33.73447]}},{"properties":{"city":"Santa Ana","zip":"92703","county":"Orange","geo_score":0.471,"id":"a66wekns2vda","geo_precision":"street","address":"815 N. Bristol St."},"type":"Feature","geometry":{"type":"Point","coordinates":[-117.88517,33.745535]}},{"properties":{"city":"Santa Clara","zip":"95054","county":"Santa Clara","geo_score":0.815,"id":"a66wekihylvd","geo_precision":"range","address":"3001 Mission College Blvd."},"type":"Feature","geometry":{"type":"Point","coordinates":[-121.978175,37.391923]}},{"properties":{"city":"Santa Clarita","zip":"91350","county":"Los Angeles","geo_score":0.812,"id":"a66weklhgvca","geo_precision":"range","address":"26401 Bouquet Canyon Rd."},"type":"Feature","geometry":{"type":"Point","coordinates":[-118.53801,34.426109]}},{"properties":{"city":"Santa Clarita","zip":"91387","county":"Los Angeles","geo_score":0.82,"id":"a66wekt6lbyq","geo_precision":"range","address":"28368 Sand Canyon Rd."},"type":"Feature","geometry":{"type":"Point","coordinates":[-118.423558,34.423568]}},{"properties":{"city":"Santa Fe Springs","zip":"90670","county":"Los Angeles","geo_score":0.826,"id":"a66wekqf4ibs","geo_precision":"range","address":"10525 Carmenita Rd."},"type":"Feature","geometry":{"type":"Point","coordinates":[-118.046405,33.939915]}},{"properties":{"city":"Santa Maria","zip":"93454","county":"Santa Barbara","geo_score":0.343,"id":"a66wekkx3he2","geo_precision":"street","address":"1330 S. Bradley Rd."},"type":"Feature","geometry":{"type":"Point","coordinates":[-120.418131,34.952963]}},{"properties":{"city":"Santa Rosa","zip":"95401","county":"Sonoma","geo_score":0.805,"id":"a66wekkz0bvh","geo_precision":"range","address":"2131 County Center Dr."},"type":"Feature","geometry":{"type":"Point","coordinates":[-122.72478,38.460304]}},{"properties":{"city":"Scottsdale","zip":"85257","county":"Maricopa","geo_score":0.347,"id":"a66wekocfwwf","geo_precision":"street","address":"7467 E. Frank Lloyd Wright"},"type":"Feature","geometry":{"type":"Point","coordinates":[-111.904926,33.64719]}},{"properties":{"city":"Sherman Oaks","zip":"91403","county":"Los Angeles","geo_score":0.902,"id":"a66weko8ag73","geo_precision":"range","address":"4444 Van Nuys Blvd."},"type":"Feature","geometry":{"type":"Point","coordinates":[-118.448692,34.152145]}},{"properties":{"city":"Simi Valley","zip":"93063","county":"Ventura","geo_score":0.814,"id":"a66wekwkk7nm","geo_precision":"range","address":"2600 Stearns St."},"type":"Feature","geometry":{"type":"Point","coordinates":[-118.691391,34.282616]}},{"properties":{"city":"Sparks","zip":"89431","county":"Washoe","geo_score":0.805,"id":"a66wekjz7vb5","geo_precision":"range","address":"280 Pyramid Way"},"type":"Feature","geometry":{"type":"Point","coordinates":[-119.752935,39.535699]}},{"properties":{"city":"Stockton","zip":"95219","county":"San Joaquin","geo_score":0.482,"id":"a66wekr53isr","geo_precision":"street","address":"2727 W. March Ln."},"type":"Feature","geometry":{"type":"Point","coordinates":[-121.347521,37.984304]}},{"properties":{"city":"Studio City","zip":"90068","county":"Los Angeles","geo_score":0.782,"id":"a66wekmq1dm0","geo_precision":"range","address":"3640 Cahuenga Blvd."},"type":"Feature","geometry":{"type":"Point","coordinates":[-118.359688,34.134509]}},{"properties":{"city":"Sunnyvale","zip":"94087","county":"Santa Clara","geo_score":0.464,"id":"a66wekx28rvq","geo_precision":"street","address":"604 E. El Camino Real"},"type":"Feature","geometry":{"type":"Point","coordinates":[-122.01127,37.351941]}},{"properties":{"city":"Temecula","zip":"92590","county":"Riverside","geo_score":0.902,"id":"a66wekmxfnvw","geo_precision":"range","address":"27700 Jefferson Ave."},"type":"Feature","geometry":{"type":"Point","coordinates":[-117.158157,33.511347]}},{"properties":{"city":"Temecula","zip":"92592","county":"Riverside","geo_score":0.61,"id":"a66wekwk7dzq","geo_precision":"street","address":"30697 Temecula Pkwy."},"type":"Feature","geometry":{"type":"Point","coordinates":[-117.118569,33.471796]}},{"properties":{"city":"Tempe","zip":"85281","county":"Maricopa","geo_score":0.357,"id":"a66wekw06sxi","geo_precision":"street","address":"920 E. Playa Del Norte"},"type":"Feature","geometry":{"type":"Point","coordinates":[-111.797288,33.403666]}},{"properties":{"city":"Temple City","zip":"91780","county":"Los Angeles","geo_score":0.464,"id":"a66wekrh4n4d","geo_precision":"street","address":"10601 E. Lower Azusa Rd."},"type":"Feature","geometry":{"type":"Point","coordinates":[-118.064875,34.088381]}},{"properties":{"city":"Thousand Palms","zip":"92276","county":"Riverside","geo_score":0.902,"id":"a66wekscaj2o","geo_precision":"range","address":"72265 Varner Rd."},"type":"Feature","geometry":{"type":"Point","coordinates":[-116.400708,33.815598]}},{"properties":{"city":"Torrance","zip":"90505","county":"Los Angeles","geo_score":0.902,"id":"a66wekr62z9f","geo_precision":"range","address":"24445 Crenshaw Blvd."},"type":"Feature","geometry":{"type":"Point","coordinates":[-118.327924,33.803866]}},{"properties":{"city":"Torrance","zip":"90502","county":"Los Angeles","geo_score":0.348,"id":"a66wekqy83gn","geo_precision":"street","address":"730 W. Carson St."},"type":"Feature","geometry":{"type":"Point","coordinates":[-118.287232,33.831596]}},{"properties":{"city":"Tracy","zip":"95376","county":"San Joaquin","geo_score":0.819,"id":"a66wekwxahck","geo_precision":"range","address":"575 Clover Rd."},"type":"Feature","geometry":{"type":"Point","coordinates":[-121.43387,37.761409]}},{"properties":{"city":"Tucson","zip":"85713","county":"Pima","geo_score":0.425,"id":"a66wekuyxcpl","geo_precision":"street","address":"1979 E. Ajo Way"},"type":"Feature","geometry":{"type":"Point","coordinates":[-110.968253,32.177819]}},{"properties":{"city":"Tucson","zip":"85716","county":"Pima","geo_score":0.462,"id":"a66wekrbrmql","geo_precision":"street","address":"3711 E. Broadway Blvd."},"type":"Feature","geometry":{"type":"Point","coordinates":[-110.93516,32.221492]}},{"properties":{"city":"Tucson","zip":"85705","county":"Pima","geo_score":0.357,"id":"a66wekhv1z3u","geo_precision":"street","address":"4620 N. Oracle Rd.*"},"type":"Feature","geometry":{"type":"Point","coordinates":[-110.977909,32.23158]}},{"properties":{"city":"Tucson","zip":"85710","county":"Pima","geo_score":0.366,"id":"a66wekvjubrc","geo_precision":"street","address":"7111 E. Broadway Blvd."},"type":"Feature","geometry":{"type":"Point","coordinates":[-110.857924,32.221277]}},{"properties":{"city":"Tujunga","zip":"91042","county":"Los Angeles","geo_score":0.902,"id":"a66weks7aqu7","geo_precision":"range","address":"6225 Foothill Blvd."},"type":"Feature","geometry":{"type":"Point","coordinates":[-118.267049,34.241033]}},{"properties":{"city":"Turlock","zip":"95380","county":"Stanislaus","geo_score":0.902,"id":"a66weks3ys43","geo_precision":"range","address":"3071 Countryside Dr."},"type":"Feature","geometry":{"type":"Point","coordinates":[-120.881232,37.520671]}},{"properties":{"city":"Tustin","zip":"92782","county":"Orange","geo_score":0.485,"id":"a66wekhe2sbg","geo_precision":"street","address":"2895 Park Ave."},"type":"Feature","geometry":{"type":"Point","coordinates":[-117.88078,33.70972]}},{"properties":{"city":"Tustin","zip":"92782","county":"Orange","geo_score":0.447,"id":"a66wekii42qo","geo_precision":"street","address":"3020 El Camino Real"},"type":"Feature","geometry":{"type":"Point","coordinates":[-117.77594,33.75042]}},{"properties":{"city":"Union City","zip":"94587","county":"Alameda","geo_score":0.44,"id":"a66wekmx4mpz","geo_precision":"street","address":"32060 Union Landing Blvd."},"type":"Feature","geometry":{"type":"Point","coordinates":[-122.020334,37.590605]}},{"properties":{"city":"Upland","zip":"91786","county":"San Bernardino","geo_score":0.794,"id":"a66wekhezctw","geo_precision":"range","address":"1837 Foothill Blvd."},"type":"Feature","geometry":{"type":"Point","coordinates":[-117.687779,34.106784]}},{"properties":{"city":"Vacaville","zip":"95687","county":"Solano","geo_score":0.902,"id":"a66wektd54ji","geo_precision":"range","address":"170 Nut Tree Pkwy."},"type":"Feature","geometry":{"type":"Point","coordinates":[-121.957548,38.367128]}},{"properties":{"city":"Van Nuys","zip":"91406","county":"Los Angeles","geo_score":0.468,"id":"a66wekif0smx","geo_precision":"street","address":"7220 N. Balboa Blvd."},"type":"Feature","geometry":{"type":"Point","coordinates":[-118.501316,34.195617]}},{"properties":{"city":"Van Nuys","zip":"91402","county":"Los Angeles","geo_score":0.821,"id":"a66wekxphlvw","geo_precision":"range","address":"7930 Van Nuys Blvd."},"type":"Feature","geometry":{"type":"Point","coordinates":[-118.448685,34.215064]}},{"properties":{"city":"Ventura","zip":"93001","county":"Ventura","geo_score":0.85,"id":"a66wekrm8ry0","geo_precision":"range","address":"2070 Harbor Blvd."},"type":"Feature","geometry":{"type":"Point","coordinates":[-119.273138,34.268066]}},{"properties":{"city":"Victorville","zip":"92394","county":"San Bernadino","geo_score":0.643,"id":"a66wekvu7f77","geo_precision":"street","address":"15290 Civic Drive Rd."},"type":"Feature","geometry":{"type":"Point","coordinates":[-117.323783,34.522017]}},{"properties":{"city":"Visalia","zip":"93277","county":"Tulare","geo_score":0.468,"id":"a66weklqhhw3","geo_precision":"street","address":"1933 S. Mooney Blvd."},"type":"Feature","geometry":{"type":"Point","coordinates":[-119.31324,36.272991]}},{"properties":{"city":"Vista","zip":"92081","county":"San Diego","geo_score":0.0,"id":"a66weknch4bm","geo_precision":"unmatched","address":"2010 Hacienda Dr"},"type":"Feature","geometry":null},{"properties":{"city":"Washington City","zip":"84780","county":"Washington","geo_score":0.423,"id":"a66wekucf7xw","geo_precision":"street","address":"832 W. Telegraph St."},"type":"Feature","geometry":{"type":"Point","coordinates":[-113.512297,37.130285]}},{"properties":{"city":"West Covina","zip":"91790","county":"Los Angeles","geo_score":0.787,"id":"a66wektqv428","geo_precision":"range","address":"15610 San Bernardino Rd."},"type":"Feature","geometry":{"type":"Point","coordinates":[-117.938579,34.089962]}},{"properties":{"city":"West Covina","zip":"91791","county":"Los Angeles","geo_score":0.471,"id":"a66wekx39h5j","geo_precision":"street","address":"2940 E. Garvey Ave."},"type":"Feature","geometry":{"type":"Point","coordinates":[-117.872238,34.072176]}},{"properties":{"city":"West Jordan","zip":"84084","county":"Salt Lake","geo_score":0.851,"id":"a66wekmqazjw","geo_precision":"range","address":"7785 Jordan Landing Blvd."},"type":"Feature","geometry":{"type":"Point","coordinates":[-111.986378,40.60948]}},{"properties":{"city":"West Los Angeles","zip":"90034","county":"Los Angeles","geo_score":0.316,"id":"a66wekl1x5p4","geo_precision":"street","address":"9245 W. Venice Blvd."},"type":"Feature","geometry":{"type":"Point","coordinates":[-118.371198,34.039227]}},{"properties":{"city":"West Sacramento","zip":"95605","county":"Yolo","geo_score":0.495,"id":"a66wekxeowew","geo_precision":"zip","address":"780 Ikea Court"},"type":"Feature","geometry":{"type":"Point","coordinates":[-121.53829,38.587405]}},{"properties":{"city":"West Valley City","zip":"84119","county":"Salt Lake","geo_score":0.327,"id":"a66wekpcxp10","geo_precision":"street","address":"3715 S. Constitution Blvd."},"type":"Feature","geometry":{"type":"Point","coordinates":[-111.943164,40.704931]}},{"properties":{"city":"Westchester","zip":"90045","county":"Los Angeles","geo_score":0.341,"id":"a66wekipnx02","geo_precision":"street","address":"9149 S. Sepulveda Blvd."},"type":"Feature","geometry":{"type":"Point","coordinates":[-118.39468,33.980746]}},{"properties":{"city":"Westminster","zip":"92683","county":"Orange","geo_score":0.814,"id":"a66wekumk352","geo_precision":"range","address":"6292 Westminster Blvd."},"type":"Feature","geometry":{"type":"Point","coordinates":[-118.019337,33.758958]}},{"properties":{"city":"Westwood","zip":"90024","county":"Los Angeles","geo_score":0.815,"id":"a66wekm7ks06","geo_precision":"range","address":"922 Gayley Ave."},"type":"Feature","geometry":{"type":"Point","coordinates":[-118.448287,34.063141]}},{"properties":{"city":"Woodland","zip":"95776","county":"Yolo","geo_score":0.537,"id":"a66wekjexpx1","geo_precision":"street","address":"2011 Bronze Star Dr."},"type":"Feature","geometry":{"type":"Point","coordinates":[-121.742824,38.664659]}},{"properties":{"city":"Woodland Hills","zip":"91364","county":"Los Angeles","geo_score":0.832,"id":"a66weku7a6od","geo_precision":"range","address":"19920 Ventura Blvd."},"type":"Feature","geometry":{"type":"Point","coordinates":[-118.566379,34.172217]}},{"properties":{"city":"Yuba City","zip":"95993","county":"Sutter","geo_score":0.585,"id":"a66wekr4m3g9","geo_precision":"zip","address":"1375 Sunsweet Blvd."},"type":"Feature","geometry":{"type":"Point","coordinates":[-121.737911,39.130338]}},{"properties":{"city":"Yuma","zip":"85365","county":"Yuma","geo_score":0.49,"id":"a66wekiu5mea","geo_precision":"street","address":"1940 E. 16th St."},"type":"Feature","geometry":{"type":"Point","coordinates":[-114.617001,32.698524]}}],"is_temporal":false,"author":{"url":"http://www.in-n-out.com/alllocations.asp","metadata":"","contact_name":"","contact_address":"","source":"In-N-Out Burger","contact_phone":""},"source":"http://www.in-n-out.com/alllocations.asp","pagination":{"sort":null,"start":0,"total":258,"limit":1000000},"state":"complete","tags":"burger,fastfood","published":"2014-08-10T23:18:53-04:00","id":99084}