{"type":"FeatureCollection","data_type":"Dataset","url_type":null,"permissions":[{"permissions":{"download":true,"view":true},"group_id":"everyone"}],"classification":null,"title":"Penn year 4","count":25,"stream_id":99656,"contributor":{"url":"http://geocommons.com/users/8382","name":"miki.litmanovitz"},"data_attributes":null,"calculation_params":null,"icon_link":null,"link":"http://geocommons.com/overlays/99656.json","extent":[-122.332,29.4055,-72.9282,47.6062],"geometry_types":["point"],"unique_name":null,"name":"Penn year 4","feature_count":25,"description":"","next_feature":null,"is_raster":false,"short_classification":"Y","stats":{"year":{"max":4,"mean":4.0,"variance":0.0,"stdev":0.0,"min":4,"median":4}},"features":[{"properties":{"city":"New Haven","geo_score":0.714,"year":4,"id":"a63828yvhb2n","geo_precision":"city","state":"CT"},"type":"Feature","geometry":{"type":"Point","coordinates":[-72.928158,41.308153]}},{"properties":{"city":"New York","geo_score":0.714,"year":4,"id":"a63829bnqpyq","geo_precision":"city","state":"NY"},"type":"Feature","geometry":{"type":"Point","coordinates":[-74.005973,40.714269]}},{"properties":{"city":"Pasadena","geo_score":0.714,"year":4,"id":"a638294zfine","geo_precision":"city","state":"CA"},"type":"Feature","geometry":{"type":"Point","coordinates":[-118.144516,34.147785]}},{"properties":{"city":"Cambridge","geo_score":0.714,"year":4,"id":"a63828xyqa6e","geo_precision":"city","state":"MA"},"type":"Feature","geometry":{"type":"Point","coordinates":[-85.616627,38.221737]}},{"properties":{"city":"Hanover","geo_score":0.714,"year":4,"id":"a63829awa5js","geo_precision":"city","state":"NH"},"type":"Feature","geometry":{"type":"Point","coordinates":[-86.202472,33.004843]}},{"properties":{"city":"Durham","geo_score":0.714,"year":4,"id":"a63828ztmxik","geo_precision":"city","state":"NC"},"type":"Feature","geometry":{"type":"Point","coordinates":[-78.898619,35.994033]}},{"properties":{"city":"Baltimore","geo_score":0.714,"year":4,"id":"a6382995rdim","geo_precision":"city","state":"MD"},"type":"Feature","geometry":{"type":"Point","coordinates":[-76.612189,39.290385]}},{"properties":{"city":"Notre Dame","geo_score":0.635,"year":4,"id":"a638294x4xiw","geo_precision":"city","state":"IN"},"type":"Feature","geometry":{"type":"Point","coordinates":[-107.125598,37.230838]}},{"properties":{"city":"Pittsburgh","geo_score":0.714,"year":4,"id":"a638290zh40k","geo_precision":"city","state":"PA"},"type":"Feature","geometry":{"type":"Point","coordinates":[-79.995886,40.440625]}},{"properties":{"city":"Los Angeles","geo_score":0.714,"year":4,"id":"a6382920vj0u","geo_precision":"city","state":"CA"},"type":"Feature","geometry":{"type":"Point","coordinates":[-118.243685,34.052234]}},{"properties":{"city":"Charlottesville","geo_score":0.657,"year":4,"id":"a63828z8egxz","geo_precision":"city","state":"VA"},"type":"Feature","geometry":{"type":"Point","coordinates":[-79.237822,42.304503]}},{"properties":{"city":"Winston-Salem","geo_score":0.714,"year":4,"id":"a638299zk7wa","geo_precision":"city","state":"NC"},"type":"Feature","geometry":{"type":"Point","coordinates":[-80.244216,36.09986]}},{"properties":{"city":"Williamsburg","geo_score":0.714,"year":4,"id":"a638294bysun","geo_precision":"city","state":"VA"},"type":"Feature","geometry":{"type":"Point","coordinates":[-105.151933,38.381944]}},{"properties":{"city":"New York","geo_score":0.714,"year":4,"id":"a638294qrgdg","geo_precision":"city","state":"NY"},"type":"Feature","geometry":{"type":"Point","coordinates":[-74.005973,40.714269]}},{"properties":{"city":"Atlanta","geo_score":0.714,"year":4,"id":"a63829dj6fxs","geo_precision":"city","state":"GA"},"type":"Feature","geometry":{"type":"Point","coordinates":[-84.387982,33.748995]}},{"properties":{"city":"La Jolla","geo_score":0.612,"year":4,"id":"a638291p967r","geo_precision":"city","state":"CA"},"type":"Feature","geometry":{"type":"Point","coordinates":[-90.907616,34.877595]}},{"properties":{"city":"Bethlehem","geo_score":0.714,"year":4,"id":"a638290nopq4","geo_precision":"city","state":"PA"},"type":"Feature","geometry":{"type":"Point","coordinates":[-86.343579,32.053481]}},{"properties":{"city":"Davis","geo_score":0.714,"year":4,"id":"a638292anmac","geo_precision":"city","state":"CA"},"type":"Feature","geometry":{"type":"Point","coordinates":[-86.826139,41.714763]}},{"properties":{"city":"Santa Barbara","geo_score":0.607,"year":4,"id":"a638299202we","geo_precision":"city","state":"CA"},"type":"Feature","geometry":{"type":"Point","coordinates":[-111.85254,40.569992]}},{"properties":{"city":"Irvine","geo_score":0.714,"year":4,"id":"a63829b2r64y","geo_precision":"city","state":"CA"},"type":"Feature","geometry":{"type":"Point","coordinates":[-82.25121,29.405527]}},{"properties":{"city":"Seattle","geo_score":0.714,"year":4,"id":"a638290mlzyg","geo_precision":"city","state":"WA"},"type":"Feature","geometry":{"type":"Point","coordinates":[-122.332071,47.60621]}},{"properties":{"city":"Cleveland","geo_score":0.714,"year":4,"id":"a638293gkdkn","geo_precision":"city","state":"OH"},"type":"Feature","geometry":{"type":"Point","coordinates":[-81.695409,41.499495]}},{"properties":{"city":"Troy","geo_score":0.714,"year":4,"id":"a638298pk3wy","geo_precision":"city","state":"NY"},"type":"Feature","geometry":{"type":"Point","coordinates":[-83.14993,42.605589]}},{"properties":{"city":"Austin","geo_score":0.714,"year":4,"id":"a63829dafa57","geo_precision":"city","state":"TX"},"type":"Feature","geometry":{"type":"Point","coordinates":[-97.743061,30.267153]}},{"properties":{"city":"New York","geo_score":0.714,"year":4,"id":"a6382901pgat","geo_precision":"city","state":"NY"},"type":"Feature","geometry":{"type":"Point","coordinates":[-74.005973,40.714269]}}],"is_temporal":false,"author":{"url":"","metadata":"","contact_name":"","contact_address":"","source":"","contact_phone":""},"source":"","pagination":{"sort":null,"start":0,"total":25,"limit":1000000},"state":"complete","tags":"","published":"2014-08-10T23:58:50-04:00","id":99656}