{"type":"FeatureCollection","data_type":"Dataset","url_type":null,"permissions":[{"permissions":{"download":true,"view":true},"group_id":"everyone"}],"classification":null,"title":"Air Force JROTC programs not meeting enrollment requirements ","count":61,"stream_id":99905,"contributor":{"url":"http://geocommons.com/users/23440","name":"jesuspalafox"},"data_attributes":null,"calculation_params":null,"icon_link":null,"link":"http://geocommons.com/overlays/99905.json","extent":[-118.299,27.9667,-70.1151,48.052],"geometry_types":["point"],"unique_name":null,"name":"Air Force JROTC programs not meeting enrollment requirements ","feature_count":61,"description":"","next_feature":null,"is_raster":false,"short_classification":"Y","stats":{},"features":[{"properties":{"city":"Texarkana","school name":"Texarkana Arkansas Senior High School","geo_score":1.0,"zip code":"71854","id":"a65bbbyv6qhd","geo_precision":"zip","state":"AR"},"type":"Feature","geometry":{"type":"Point","coordinates":[-93.876485,33.431043]}},{"properties":{"city":"Mesa","school name":"Desert Ridge High School","geo_score":1.0,"zip code":"85209","id":"a65bbc2rr2zn","geo_precision":"zip","state":"AZ"},"type":"Feature","geometry":{"type":"Point","coordinates":[-111.82264,33.422269]}},{"properties":{"city":"Chandler","school name":"Basha High School","geo_score":1.0,"zip code":"85249","id":"a65bbc8kbf5i","geo_precision":"zip","state":"AZ"},"type":"Feature","geometry":{"type":"Point","coordinates":[-111.770161,33.247861]}},{"properties":{"city":"Buckeye","school name":"Buckeye Union High School","geo_score":0.871,"zip code":"85326","id":"a65bbc12r0h8","geo_precision":"zip","state":"AZ"},"type":"Feature","geometry":{"type":"Point","coordinates":[-112.299325,33.604206]}},{"properties":{"city":"Chandler","school name":"Hamilton High School","geo_score":1.0,"zip code":"85248","id":"a65bbc2c46rp","geo_precision":"zip","state":"AZ"},"type":"Feature","geometry":{"type":"Point","coordinates":[-111.859308,33.250947]}},{"properties":{"city":"Gilbert","school name":"Campo Verde High School","geo_score":0.871,"zip code":"85297-7334","id":"a65bbbxbhsrl","geo_precision":"zip","state":"AZ"},"type":"Feature","geometry":{"type":"Point","coordinates":[-111.642855,33.239131]}},{"properties":{"city":"Rosamond","school name":"Rosamond High School","geo_score":0.89,"zip code":"93560","id":"a65bbc4i1qsa","geo_precision":"zip","state":"CA"},"type":"Feature","geometry":{"type":"Point","coordinates":[-118.296745,34.87831]}},{"properties":{"city":"Yucaipa","school name":"Yucaipa High School","geo_score":0.857,"zip code":"92399","id":"a65bbc9k1hs9","geo_precision":"zip","state":"CA"},"type":"Feature","geometry":{"type":"Point","coordinates":[-116.947805,34.049457]}},{"properties":{"city":"La Crescenta","school name":"Crescenta Valley High School","geo_score":1.0,"zip code":"91214-3736","id":"a65bbbz80cl0","geo_precision":"zip","state":"CA"},"type":"Feature","geometry":{"type":"Point","coordinates":[-118.298662,33.786594]}},{"properties":{"city":"Vista","school name":"Vista High School","geo_score":1.0,"zip code":"92084","id":"a65bbc8a2g7d","geo_precision":"zip","state":"CA"},"type":"Feature","geometry":{"type":"Point","coordinates":[-116.846046,33.016928]}},{"properties":{"city":"Satelite Beach","school name":"Satellite High School","geo_score":0.889,"zip code":"32937","id":"a65bbc6q62ot","geo_precision":"zip","state":"FL"},"type":"Feature","geometry":{"type":"Point","coordinates":[-80.609497,28.202234]}},{"properties":{"city":"Tampa","school name":"Jefferson High School","geo_score":1.0,"zip code":"33607","id":"a65bbc3apm6y","geo_precision":"zip","state":"FL"},"type":"Feature","geometry":{"type":"Point","coordinates":[-82.556868,27.966697]}},{"properties":{"city":"Gulf Breeze","school name":"Gulf Breeze High School","geo_score":0.879,"zip code":"32561","id":"a65bbbzw2orq","geo_precision":"zip","state":"FL"},"type":"Feature","geometry":{"type":"Point","coordinates":[-86.990797,30.388255]}},{"properties":{"city":"Jasper","school name":"Hamilton County High School","geo_score":0.87,"zip code":"32052","id":"a65bbc8158mu","geo_precision":"zip","state":"FL"},"type":"Feature","geometry":{"type":"Point","coordinates":[-82.760407,30.428277]}},{"properties":{"city":"Tyrone","school name":"Sandy Creek High School","geo_score":1.0,"zip code":"30290","id":"a65bbc4x51kf","geo_precision":"zip","state":"GA"},"type":"Feature","geometry":{"type":"Point","coordinates":[-84.585773,33.460036]}},{"properties":{"city":"Madison","school name":"Morgan County High School","geo_score":0.9,"zip code":"30650","id":"a65bbca1dhec","geo_precision":"zip","state":"GA"},"type":"Feature","geometry":{"type":"Point","coordinates":[-83.560727,33.484848]}},{"properties":{"city":"Rome","school name":"Rome High School","geo_score":0.871,"zip code":"30161","id":"a65bbcbn81x7","geo_precision":"zip","state":"GA"},"type":"Feature","geometry":{"type":"Point","coordinates":[-85.323288,34.131486]}},{"properties":{"city":"Waterloo","school name":"West High School","geo_score":1.0,"zip code":"50702","id":"a65bbbzgdeuh","geo_precision":"zip","state":"IA"},"type":"Feature","geometry":{"type":"Point","coordinates":[-92.313876,42.458761]}},{"properties":{"city":"Bartonville","school name":"Limestone Community High School","geo_score":0.857,"zip code":"61607","id":"a65bbbxshtaj","geo_precision":"zip","state":"IL"},"type":"Feature","geometry":{"type":"Point","coordinates":[-89.667325,40.605316]}},{"properties":{"city":"Frankfort","school name":"Franklin County High School","geo_score":0.857,"zip code":"40601","id":"a65bbc4oed5z","geo_precision":"zip","state":"KY"},"type":"Feature","geometry":{"type":"Point","coordinates":[-84.753559,38.210628]}},{"properties":{"city":"Lafayette","school name":"Acadiana High School","geo_score":1.0,"zip code":"70506","id":"a65bbc6tp3ac","geo_precision":"zip","state":"LA"},"type":"Feature","geometry":{"type":"Point","coordinates":[-92.066315,30.176093]}},{"properties":{"city":"Bedford","school name":"Bedford High School","geo_score":0.948,"zip code":"1730","id":"a65bbc87aj23","geo_precision":"zip","state":"MA"},"type":"Feature","geometry":{"type":"Point","coordinates":[-71.315614,42.47815]}},{"properties":{"city":"Morgnaza","school name":"Chopticon High School","geo_score":0.964,"zip code":"20660","id":"a65bbcavacfq","geo_precision":"zip","state":"MD"},"type":"Feature","geometry":{"type":"Point","coordinates":[-76.694102,38.363994]}},{"properties":{"city":"Lewiston","school name":"Lewiston High School","geo_score":0.898,"zip code":"4240","id":"a65bbc3v74lk","geo_precision":"zip","state":"ME"},"type":"Feature","geometry":{"type":"Point","coordinates":[-70.115053,44.075908]}},{"properties":{"city":"Livonia","school name":"Winston Churchill High School","geo_score":1.0,"zip code":"48150","id":"a65bbc9oc49e","geo_precision":"zip","state":"MI"},"type":"Feature","geometry":{"type":"Point","coordinates":[-83.371753,42.369351]}},{"properties":{"city":"Lee's Summit","school name":"Lee's Summit West High School","geo_score":1.0,"zip code":"64082","id":"a65bbc7ams8g","geo_precision":"zip","state":"MO"},"type":"Feature","geometry":{"type":"Point","coordinates":[-94.405809,38.865864]}},{"properties":{"city":"Bolivar","school name":"Bolivar High School","geo_score":0.898,"zip code":"65613","id":"a65bbc8narm9","geo_precision":"zip","state":"MO"},"type":"Feature","geometry":{"type":"Point","coordinates":[-93.287137,37.561429]}},{"properties":{"city":"University City","school name":"University City High School","geo_score":1.0,"zip code":"63130-2911","id":"a65bbcaksx3n","geo_precision":"zip","state":"MO"},"type":"Feature","geometry":{"type":"Point","coordinates":[-90.309281,38.655885]}},{"properties":{"city":"Farmington","school name":"Farmington High School","geo_score":0.886,"zip code":"63640","id":"a65bbccbtkrj","geo_precision":"zip","state":"MO"},"type":"Feature","geometry":{"type":"Point","coordinates":[-90.42179,37.831163]}},{"properties":{"city":"Minot","school name":"Minot High School","geo_score":0.869,"zip code":"58701","id":"a65bbbxu6o2i","geo_precision":"zip","state":"ND"},"type":"Feature","geometry":{"type":"Point","coordinates":[-101.295718,48.051953]}},{"properties":{"city":"Wilingboro","school name":"Willingboro High School","geo_score":0.893,"zip code":"08046","id":"a65bbbytn82v","geo_precision":"zip","state":"NJ"},"type":"Feature","geometry":{"type":"Point","coordinates":[-74.887388,40.008445]}},{"properties":{"city":"Clovis","school name":"Clovis High School","geo_score":1.0,"zip code":"88102","id":"a65bbc4nr2dz","geo_precision":"zip","state":"NM"},"type":"Feature","geometry":{"type":"Point","coordinates":[-103.391269,34.628472]}},{"properties":{"city":"Las Vegas","school name":"Western High School","geo_score":1.0,"zip code":"89107","id":"a65bbcbe5vk6","geo_precision":"zip","state":"NV"},"type":"Feature","geometry":{"type":"Point","coordinates":[-115.208529,36.169069]}},{"properties":{"city":"Mount Vernon","school name":"Mount Vernon High School","geo_score":0.883,"zip code":"10552","id":"a65bbc0bmctr","geo_precision":"zip","state":"NY"},"type":"Feature","geometry":{"type":"Point","coordinates":[-73.835967,40.925099]}},{"properties":{"city":"Springboro","school name":"Springboro High School","geo_score":1.0,"zip code":"45066","id":"a65bbc51r9p6","geo_precision":"zip","state":"OH"},"type":"Feature","geometry":{"type":"Point","coordinates":[-84.14633,39.465762]}},{"properties":{"city":"Green","school name":"Green High School","geo_score":0.929,"zip code":"44232-0218","id":"a65bbc1eh51a","geo_precision":"zip","state":"OH"},"type":"Feature","geometry":{"type":"Point","coordinates":[-81.464838,40.931724]}},{"properties":{"city":"Muskogee","school name":"Muskogee High School","geo_score":1.0,"zip code":"74403","id":"a65bbbx4a9dd","geo_precision":"zip","state":"OK"},"type":"Feature","geometry":{"type":"Point","coordinates":[-95.433598,35.654483]}},{"properties":{"city":"Altus","school name":"Altus High School","geo_score":0.873,"zip code":"73521","id":"a65bbbyi7syy","geo_precision":"zip","state":"OK"},"type":"Feature","geometry":{"type":"Point","coordinates":[-99.237307,34.555907]}},{"properties":{"city":"Tulsa","school name":"Booker T. Washington High School","geo_score":1.0,"zip code":"74106","id":"a65bbbxcye2c","geo_precision":"zip","state":"OK"},"type":"Feature","geometry":{"type":"Point","coordinates":[-95.979824,36.190442]}},{"properties":{"city":"Jenks","school name":"Jenks High School","geo_score":1.0,"zip code":"74037-3900","id":"a65bbc6z500g","geo_precision":"zip","state":"OK"},"type":"Feature","geometry":{"type":"Point","coordinates":[-95.980972,36.006567]}},{"properties":{"city":"Enid","school name":"Enid High School","geo_score":0.921,"zip code":"73701-7299","id":"a65bbc4z5o5d","geo_precision":"zip","state":"OK"},"type":"Feature","geometry":{"type":"Point","coordinates":[-97.868947,36.435589]}},{"properties":{"city":"Lansdale","school name":"North Penn High School","geo_score":0.893,"zip code":"19446","id":"a65bbc9fr7s0","geo_precision":"zip","state":"PA"},"type":"Feature","geometry":{"type":"Point","coordinates":[-75.302953,40.245106]}},{"properties":{"city":"Philadelphia","school name":"Simon Gratz High School","geo_score":0.881,"zip code":"19140","id":"a65bbcde01f4","geo_precision":"zip","state":"PA"},"type":"Feature","geometry":{"type":"Point","coordinates":[-75.143788,40.016501]}},{"properties":{"city":"Manchester","school name":"Coffee County Central High School","geo_score":0.871,"zip code":"37355","id":"a65bbc0g58zm","geo_precision":"zip","state":"TN"},"type":"Feature","geometry":{"type":"Point","coordinates":[-85.916372,35.473132]}},{"properties":{"city":"Austin","school name":"John H. Reagan High School","geo_score":1.0,"zip code":"78752","id":"a65bbcauj4rt","geo_precision":"zip","state":"TX"},"type":"Feature","geometry":{"type":"Point","coordinates":[-97.699932,30.332901]}},{"properties":{"city":"Castroville","school name":"Medina Valley High School","geo_score":1.0,"zip code":"78009-5309","id":"a65bbcdhj58v","geo_precision":"zip","state":"TX"},"type":"Feature","geometry":{"type":"Point","coordinates":[-98.909219,29.364948]}},{"properties":{"city":"Bryan","school name":"Bryan High School","geo_score":1.0,"zip code":"77802","id":"a65bbcbjl96a","geo_precision":"zip","state":"TX"},"type":"Feature","geometry":{"type":"Point","coordinates":[-96.319377,30.620983]}},{"properties":{"city":"Splendora","school name":"Splendora High School","geo_score":0.879,"zip code":"77372","id":"a65bbcb66zdw","geo_precision":"zip","state":"TX"},"type":"Feature","geometry":{"type":"Point","coordinates":[-95.168821,30.192993]}},{"properties":{"city":"Richmond","school name":"John and Randolph Foster High School","geo_score":1.0,"zip code":"77406","id":"a65bbca34uyf","geo_precision":"zip","state":"TX"},"type":"Feature","geometry":{"type":"Point","coordinates":[-95.919107,29.50401]}},{"properties":{"city":"Burleson","school name":"Burleson High School","geo_score":0.893,"zip code":"76028","id":"a65bbbxw1avy","geo_precision":"zip","state":"TX"},"type":"Feature","geometry":{"type":"Point","coordinates":[-97.235569,32.55236]}},{"properties":{"city":"Austin","school name":"Westwood High School","geo_score":1.0,"zip code":"78750","id":"a65bbcc312bj","geo_precision":"zip","state":"TX"},"type":"Feature","geometry":{"type":"Point","coordinates":[-97.8155,30.406729]}},{"properties":{"city":"Amarillo","school name":"Palo Duro High School","geo_score":0.881,"zip code":"79107","id":"a65bbc6hmeg6","geo_precision":"zip","state":"TX"},"type":"Feature","geometry":{"type":"Point","coordinates":[-101.622955,35.261718]}},{"properties":{"city":"Houston","school name":"Elsik High School","geo_score":0.857,"zip code":"77072","id":"a65bbc91l6mt","geo_precision":"zip","state":"TX"},"type":"Feature","geometry":{"type":"Point","coordinates":[-95.575222,29.69662]}},{"properties":{"city":"Victoria","school name":"Victoria East/West High School (VCAL)","geo_score":1.0,"zip code":"77902","id":"a65bbc64vi60","geo_precision":"zip","state":"TX"},"type":"Feature","geometry":{"type":"Point","coordinates":[-97.100624,28.925513]}},{"properties":{"city":"Lynchburg","school name":"E.C. Glass High School","geo_score":0.868,"zip code":"24501","id":"a65bbbzudrd4","geo_precision":"zip","state":"VA"},"type":"Feature","geometry":{"type":"Point","coordinates":[-79.01391,37.374033]}},{"properties":{"city":"Vinton","school name":"William Byrd High School","geo_score":0.868,"zip code":"24179","id":"a65bbcbylh44","geo_precision":"zip","state":"VA"},"type":"Feature","geometry":{"type":"Point","coordinates":[-79.706979,37.254307]}},{"properties":{"city":"Amelia","school name":"Amelia County High School","geo_score":0.889,"zip code":"23002","id":"a65bbc6nyam4","geo_precision":"zip","state":"VA"},"type":"Feature","geometry":{"type":"Point","coordinates":[-77.93139,37.36765]}},{"properties":{"city":"Essesx Junction","school name":"Essex High School","geo_score":0.99,"zip code":"5452","id":"a65bbcb9h4wz","geo_precision":"zip","state":"VT"},"type":"Feature","geometry":{"type":"Point","coordinates":[-73.025271,44.485558]}},{"properties":{"city":"Spokane","school name":"John R. Rogers High School","geo_score":0.878,"zip code":"99207-9261","id":"a65bbccrtavt","geo_precision":"zip","state":"WA"},"type":"Feature","geometry":{"type":"Point","coordinates":[-117.314381,47.731837]}},{"properties":{"city":"Weston","school name":"Lewis County High School","geo_score":0.878,"zip code":"26452","id":"a65bbbzmpdmd","geo_precision":"zip","state":"WV"},"type":"Feature","geometry":{"type":"Point","coordinates":[-80.509259,39.047871]}},{"properties":{"city":"Ona","school name":"Cabell Midland High School","geo_score":0.87,"zip code":"25545","id":"a65bbc4g2k1o","geo_precision":"zip","state":"WV"},"type":"Feature","geometry":{"type":"Point","coordinates":[-82.21959,38.441753]}}],"is_temporal":false,"author":{"url":"","metadata":"","contact_name":"","contact_address":"","source":"","contact_phone":""},"source":"","pagination":{"sort":null,"start":0,"total":61,"limit":1000000},"state":"complete","tags":"air,force,jrotc,nnomy","published":"2014-08-11T00:17:09-04:00","id":99905}