{"type":"FeatureCollection","data_type":"Dataset","url_type":null,"permissions":[{"permissions":{"download":true,"view":true},"group_id":"everyone"}],"classification":null,"title":"Tannadoonah campers 2010 - zip","count":345,"stream_id":100311,"contributor":{"url":"http://geocommons.com/users/22768","name":"marty@riverbendcampfire.org"},"data_attributes":null,"calculation_params":null,"icon_link":null,"link":"http://geocommons.com/overlays/100311.json","extent":[-119.513,25.7743,-80.1937,43.0434],"geometry_types":["point"],"unique_name":null,"name":"Tannadoonah campers 2010 - zip","feature_count":345,"description":"","next_feature":null,"is_raster":false,"short_classification":"Y","stats":{},"features":[{"properties":{"zip":"49112","geo_score":0.714,"id":"a6df6bm1p8wf","geo_precision":"zip"},"type":"Feature","geometry":{"type":"Point","coordinates":[-85.896943,41.776716]}},{"properties":{"zip":"46615","geo_score":0.714,"id":"a6df6bnyide3","geo_precision":"zip"},"type":"Feature","geometry":{"type":"Point","coordinates":[-86.216105,41.677046]}},{"properties":{"zip":"46615","geo_score":0.714,"id":"a6df6bjr2cg8","geo_precision":"zip"},"type":"Feature","geometry":{"type":"Point","coordinates":[-86.216105,41.677046]}},{"properties":{"zip":"46530","geo_score":0.714,"id":"a6df6bk3w2vk","geo_precision":"zip"},"type":"Feature","geometry":{"type":"Point","coordinates":[-86.139868,41.734912]}},{"properties":{"zip":"48442","geo_score":0.714,"id":"a6df6bdnbho5","geo_precision":"zip"},"type":"Feature","geometry":{"type":"Point","coordinates":[-83.625227,42.860028]}},{"properties":{"zip":"48442","geo_score":0.714,"id":"a6df6bjdvrhc","geo_precision":"zip"},"type":"Feature","geometry":{"type":"Point","coordinates":[-83.625227,42.860028]}},{"properties":{"zip":"49120","geo_score":0.714,"id":"a6df6bj8rowr","geo_precision":"zip"},"type":"Feature","geometry":{"type":"Point","coordinates":[-86.207512,41.911713]}},{"properties":{"zip":"49047","geo_score":0.714,"id":"a6df6bm7brbm","geo_precision":"zip"},"type":"Feature","geometry":{"type":"Point","coordinates":[-86.199739,42.072265]}},{"properties":{"zip":"49120","geo_score":0.714,"id":"a6df6bo3e1v1","geo_precision":"zip"},"type":"Feature","geometry":{"type":"Point","coordinates":[-86.207512,41.911713]}},{"properties":{"zip":"46614","geo_score":0.714,"id":"a6df6bjkc8u4","geo_precision":"zip"},"type":"Feature","geometry":{"type":"Point","coordinates":[-86.236117,41.598937]}},{"properties":{"zip":"49120","geo_score":0.714,"id":"a6df6blm61pv","geo_precision":"zip"},"type":"Feature","geometry":{"type":"Point","coordinates":[-86.207512,41.911713]}},{"properties":{"zip":"49112","geo_score":0.714,"id":"a6df6bsh3ix6","geo_precision":"zip"},"type":"Feature","geometry":{"type":"Point","coordinates":[-85.896943,41.776716]}},{"properties":{"zip":"49112","geo_score":0.714,"id":"a6df6beqx62g","geo_precision":"zip"},"type":"Feature","geometry":{"type":"Point","coordinates":[-85.896943,41.776716]}},{"properties":{"zip":"46614","geo_score":0.714,"id":"a6df6bqlijsa","geo_precision":"zip"},"type":"Feature","geometry":{"type":"Point","coordinates":[-86.236117,41.598937]}},{"properties":{"zip":"46530","geo_score":0.714,"id":"a6df6bpdcjj7","geo_precision":"zip"},"type":"Feature","geometry":{"type":"Point","coordinates":[-86.139868,41.734912]}},{"properties":{"zip":"46614","geo_score":0.714,"id":"a6df6bnhj6q1","geo_precision":"zip"},"type":"Feature","geometry":{"type":"Point","coordinates":[-86.236117,41.598937]}},{"properties":{"zip":"60302","geo_score":0.714,"id":"a6df6bmstb1p","geo_precision":"zip"},"type":"Feature","geometry":{"type":"Point","coordinates":[-87.68732,41.811929]}},{"properties":{"zip":"49120","geo_score":0.714,"id":"a6df6bsee24u","geo_precision":"zip"},"type":"Feature","geometry":{"type":"Point","coordinates":[-86.207512,41.911713]}},{"properties":{"zip":"60625","geo_score":0.714,"id":"a6df6bm84g02","geo_precision":"zip"},"type":"Feature","geometry":{"type":"Point","coordinates":[-87.68732,41.811929]}},{"properties":{"zip":"60625","geo_score":0.714,"id":"a6df6bnqwccm","geo_precision":"zip"},"type":"Feature","geometry":{"type":"Point","coordinates":[-87.68732,41.811929]}},{"properties":{"zip":"60625","geo_score":0.714,"id":"a6df6brthuus","geo_precision":"zip"},"type":"Feature","geometry":{"type":"Point","coordinates":[-87.68732,41.811929]}},{"properties":{"zip":"46530","geo_score":0.714,"id":"a6df6bqgnhdp","geo_precision":"zip"},"type":"Feature","geometry":{"type":"Point","coordinates":[-86.139868,41.734912]}},{"properties":{"zip":"46637","geo_score":0.714,"id":"a6df6besgjba","geo_precision":"zip"},"type":"Feature","geometry":{"type":"Point","coordinates":[-86.252507,41.716159]}},{"properties":{"zip":"46637","geo_score":0.714,"id":"a6df6bjrgsfj","geo_precision":"zip"},"type":"Feature","geometry":{"type":"Point","coordinates":[-86.252507,41.716159]}},{"properties":{"zip":"46637","geo_score":0.714,"id":"a6df6bhqxev0","geo_precision":"zip"},"type":"Feature","geometry":{"type":"Point","coordinates":[-86.252507,41.716159]}},{"properties":{"zip":"46530","geo_score":0.714,"id":"a6df6bm4wm2r","geo_precision":"zip"},"type":"Feature","geometry":{"type":"Point","coordinates":[-86.139868,41.734912]}},{"properties":{"zip":"46574","geo_score":0.714,"id":"a6df6bnkaoqp","geo_precision":"zip"},"type":"Feature","geometry":{"type":"Point","coordinates":[-86.377509,41.465046]}},{"properties":{"zip":"60014","geo_score":0.714,"id":"a6df6bn0id71","geo_precision":"zip"},"type":"Feature","geometry":{"type":"Point","coordinates":[-88.300642,42.281689]}},{"properties":{"zip":"49120","geo_score":0.714,"id":"a6df6bjrohu7","geo_precision":"zip"},"type":"Feature","geometry":{"type":"Point","coordinates":[-86.207512,41.911713]}},{"properties":{"zip":"46637","geo_score":0.714,"id":"a6df6bkfj0ry","geo_precision":"zip"},"type":"Feature","geometry":{"type":"Point","coordinates":[-86.252507,41.716159]}},{"properties":{"zip":"46617","geo_score":0.714,"id":"a6df6blfrwto","geo_precision":"zip"},"type":"Feature","geometry":{"type":"Point","coordinates":[-86.238906,41.682897]}},{"properties":{"zip":"49112","geo_score":0.714,"id":"a6df6bh38xgb","geo_precision":"zip"},"type":"Feature","geometry":{"type":"Point","coordinates":[-85.896943,41.776716]}},{"properties":{"zip":"46614","geo_score":0.714,"id":"a6df6bge5a83","geo_precision":"zip"},"type":"Feature","geometry":{"type":"Point","coordinates":[-86.236117,41.598937]}},{"properties":{"zip":"46615","geo_score":0.714,"id":"a6df6bh6lknp","geo_precision":"zip"},"type":"Feature","geometry":{"type":"Point","coordinates":[-86.216105,41.677046]}},{"properties":{"zip":"60625","geo_score":0.714,"id":"a6df6bk3s08j","geo_precision":"zip"},"type":"Feature","geometry":{"type":"Point","coordinates":[-87.68732,41.811929]}},{"properties":{"zip":"60625","geo_score":0.714,"id":"a6df6bi1lj1n","geo_precision":"zip"},"type":"Feature","geometry":{"type":"Point","coordinates":[-87.68732,41.811929]}},{"properties":{"zip":"60625","geo_score":0.714,"id":"a6df6bde70ab","geo_precision":"zip"},"type":"Feature","geometry":{"type":"Point","coordinates":[-87.68732,41.811929]}},{"properties":{"zip":"49095","geo_score":0.714,"id":"a6df6bk8vtse","geo_precision":"zip"},"type":"Feature","geometry":{"type":"Point","coordinates":[-85.864166,41.866715]}},{"properties":{"zip":"49031","geo_score":0.714,"id":"a6df6bby0uca","geo_precision":"zip"},"type":"Feature","geometry":{"type":"Point","coordinates":[-85.958338,41.907269]}},{"properties":{"zip":"46544","geo_score":0.714,"id":"a6df6bc1axmc","geo_precision":"zip"},"type":"Feature","geometry":{"type":"Point","coordinates":[-86.287884,41.61536]}},{"properties":{"zip":"60453","geo_score":0.714,"id":"a6df6bga7twp","geo_precision":"zip"},"type":"Feature","geometry":{"type":"Point","coordinates":[-87.68732,41.811929]}},{"properties":{"zip":"60453","geo_score":0.714,"id":"a6df6bj9ki9y","geo_precision":"zip"},"type":"Feature","geometry":{"type":"Point","coordinates":[-87.68732,41.811929]}},{"properties":{"zip":"49095","geo_score":0.714,"id":"a6df6bmv28sh","geo_precision":"zip"},"type":"Feature","geometry":{"type":"Point","coordinates":[-85.864166,41.866715]}},{"properties":{"zip":"46530","geo_score":0.714,"id":"a6df6bexqk63","geo_precision":"zip"},"type":"Feature","geometry":{"type":"Point","coordinates":[-86.139868,41.734912]}},{"properties":{"zip":"46530","geo_score":0.714,"id":"a6df6bc3881i","geo_precision":"zip"},"type":"Feature","geometry":{"type":"Point","coordinates":[-86.139868,41.734912]}},{"properties":{"zip":"49112","geo_score":0.714,"id":"a6df6bdxijfe","geo_precision":"zip"},"type":"Feature","geometry":{"type":"Point","coordinates":[-85.896943,41.776716]}},{"properties":{"zip":"46375","geo_score":0.714,"id":"a6df6bo2da8i","geo_precision":"zip"},"type":"Feature","geometry":{"type":"Point","coordinates":[-87.446149,41.464203]}},{"properties":{"zip":"46614","geo_score":0.714,"id":"a6df6bkoan1g","geo_precision":"zip"},"type":"Feature","geometry":{"type":"Point","coordinates":[-86.236117,41.598937]}},{"properties":{"zip":"46530","geo_score":0.714,"id":"a6df6bd1mw5o","geo_precision":"zip"},"type":"Feature","geometry":{"type":"Point","coordinates":[-86.139868,41.734912]}},{"properties":{"zip":"46544","geo_score":0.714,"id":"a6df6bimb5wy","geo_precision":"zip"},"type":"Feature","geometry":{"type":"Point","coordinates":[-86.287884,41.61536]}},{"properties":{"zip":"46544","geo_score":0.714,"id":"a6df6bom10yj","geo_precision":"zip"},"type":"Feature","geometry":{"type":"Point","coordinates":[-86.287884,41.61536]}},{"properties":{"zip":"46544","geo_score":0.714,"id":"a6df6bj6etpt","geo_precision":"zip"},"type":"Feature","geometry":{"type":"Point","coordinates":[-86.287884,41.61536]}},{"properties":{"zip":"46617","geo_score":0.714,"id":"a6df6bqahi4u","geo_precision":"zip"},"type":"Feature","geometry":{"type":"Point","coordinates":[-86.238906,41.682897]}},{"properties":{"zip":"46614","geo_score":0.714,"id":"a6df6bluxt49","geo_precision":"zip"},"type":"Feature","geometry":{"type":"Point","coordinates":[-86.236117,41.598937]}},{"properties":{"zip":"46530","geo_score":0.714,"id":"a6df6bg77bq1","geo_precision":"zip"},"type":"Feature","geometry":{"type":"Point","coordinates":[-86.139868,41.734912]}},{"properties":{"zip":"49120","geo_score":0.714,"id":"a6df6bd4u1j9","geo_precision":"zip"},"type":"Feature","geometry":{"type":"Point","coordinates":[-86.207512,41.911713]}},{"properties":{"zip":"46530","geo_score":0.714,"id":"a6df6bfyswvf","geo_precision":"zip"},"type":"Feature","geometry":{"type":"Point","coordinates":[-86.139868,41.734912]}},{"properties":{"zip":"46614","geo_score":0.714,"id":"a6df6bgm3w4z","geo_precision":"zip"},"type":"Feature","geometry":{"type":"Point","coordinates":[-86.236117,41.598937]}},{"properties":{"zip":"49120","geo_score":0.714,"id":"a6df6bfid3rn","geo_precision":"zip"},"type":"Feature","geometry":{"type":"Point","coordinates":[-86.207512,41.911713]}},{"properties":{"zip":"46554","geo_score":0.714,"id":"a6df6bg7aiaw","geo_precision":"zip"},"type":"Feature","geometry":{"type":"Point","coordinates":[-86.408068,41.624213]}},{"properties":{"zip":"46554","geo_score":0.714,"id":"a6df6brt8c87","geo_precision":"zip"},"type":"Feature","geometry":{"type":"Point","coordinates":[-86.408068,41.624213]}},{"properties":{"zip":"46530","geo_score":0.714,"id":"a6df6bhur400","geo_precision":"zip"},"type":"Feature","geometry":{"type":"Point","coordinates":[-86.139868,41.734912]}},{"properties":{"zip":"46530","geo_score":0.714,"id":"a6df6bq743y7","geo_precision":"zip"},"type":"Feature","geometry":{"type":"Point","coordinates":[-86.139868,41.734912]}},{"properties":{"zip":"46530","geo_score":0.714,"id":"a6df6biejkdx","geo_precision":"zip"},"type":"Feature","geometry":{"type":"Point","coordinates":[-86.139868,41.734912]}},{"properties":{"zip":"60625","geo_score":0.714,"id":"a6df6boj5d30","geo_precision":"zip"},"type":"Feature","geometry":{"type":"Point","coordinates":[-87.68732,41.811929]}},{"properties":{"zip":"33029","geo_score":0.714,"id":"a6df6bq2r5jw","geo_precision":"zip"},"type":"Feature","geometry":{"type":"Point","coordinates":[-80.319019,26.097815]}},{"properties":{"zip":"33029","geo_score":0.714,"id":"a6df6bpm21fj","geo_precision":"zip"},"type":"Feature","geometry":{"type":"Point","coordinates":[-80.319019,26.097815]}},{"properties":{"zip":"46545","geo_score":0.714,"id":"a6df6bkt78ox","geo_precision":"zip"},"type":"Feature","geometry":{"type":"Point","coordinates":[-86.304735,41.696407]}},{"properties":{"zip":"46530","geo_score":0.714,"id":"a6df6bkmez0n","geo_precision":"zip"},"type":"Feature","geometry":{"type":"Point","coordinates":[-86.139868,41.734912]}},{"properties":{"zip":"46637","geo_score":0.714,"id":"a6df6bkrwjuo","geo_precision":"zip"},"type":"Feature","geometry":{"type":"Point","coordinates":[-86.252507,41.716159]}},{"properties":{"zip":"29681","geo_score":0.714,"id":"a6df6bs0o9y9","geo_precision":"zip"},"type":"Feature","geometry":{"type":"Point","coordinates":[-82.229559,34.804842]}},{"properties":{"zip":"29681","geo_score":0.714,"id":"a6df6behcvst","geo_precision":"zip"},"type":"Feature","geometry":{"type":"Point","coordinates":[-82.229559,34.804842]}},{"properties":{"zip":"60625","geo_score":0.714,"id":"a6df6bmtu8r9","geo_precision":"zip"},"type":"Feature","geometry":{"type":"Point","coordinates":[-87.68732,41.811929]}},{"properties":{"zip":"60625","geo_score":0.714,"id":"a6df6bh6jugw","geo_precision":"zip"},"type":"Feature","geometry":{"type":"Point","coordinates":[-87.68732,41.811929]}},{"properties":{"zip":"45244","geo_score":0.714,"id":"a6df6bn2nykd","geo_precision":"zip"},"type":"Feature","geometry":{"type":"Point","coordinates":[-84.29966,39.097839]}},{"properties":{"zip":"45244","geo_score":0.714,"id":"a6df6bfs3112","geo_precision":"zip"},"type":"Feature","geometry":{"type":"Point","coordinates":[-84.29966,39.097839]}},{"properties":{"zip":"46635","geo_score":0.714,"id":"a6df6bg6tezu","geo_precision":"zip"},"type":"Feature","geometry":{"type":"Point","coordinates":[-86.21695,41.700048]}},{"properties":{"zip":"46635","geo_score":0.714,"id":"a6df6bm3wmfv","geo_precision":"zip"},"type":"Feature","geometry":{"type":"Point","coordinates":[-86.21695,41.700048]}},{"properties":{"zip":"46561","geo_score":0.714,"id":"a6df6bd8zm3k","geo_precision":"zip"},"type":"Feature","geometry":{"type":"Point","coordinates":[-86.074447,41.694215]}},{"properties":{"zip":"46561","geo_score":0.714,"id":"a6df6bh7jk2y","geo_precision":"zip"},"type":"Feature","geometry":{"type":"Point","coordinates":[-86.074447,41.694215]}},{"properties":{"zip":"46561","geo_score":0.714,"id":"a6df6bmegazr","geo_precision":"zip"},"type":"Feature","geometry":{"type":"Point","coordinates":[-86.074447,41.694215]}},{"properties":{"zip":"49120","geo_score":0.714,"id":"a6df6bh30d41","geo_precision":"zip"},"type":"Feature","geometry":{"type":"Point","coordinates":[-86.207512,41.911713]}},{"properties":{"zip":"46637","geo_score":0.714,"id":"a6df6bdur23c","geo_precision":"zip"},"type":"Feature","geometry":{"type":"Point","coordinates":[-86.252507,41.716159]}},{"properties":{"zip":"46615","geo_score":0.714,"id":"a6df6bri3l16","geo_precision":"zip"},"type":"Feature","geometry":{"type":"Point","coordinates":[-86.216105,41.677046]}},{"properties":{"zip":"46530","geo_score":0.714,"id":"a6df6bczm488","geo_precision":"zip"},"type":"Feature","geometry":{"type":"Point","coordinates":[-86.139868,41.734912]}},{"properties":{"zip":"46545","geo_score":0.714,"id":"a6df6bhn65e6","geo_precision":"zip"},"type":"Feature","geometry":{"type":"Point","coordinates":[-86.304735,41.696407]}},{"properties":{"zip":"60453","geo_score":0.714,"id":"a6df6blxbns4","geo_precision":"zip"},"type":"Feature","geometry":{"type":"Point","coordinates":[-87.68732,41.811929]}},{"properties":{"zip":"60453","geo_score":0.714,"id":"a6df6bcigzz0","geo_precision":"zip"},"type":"Feature","geometry":{"type":"Point","coordinates":[-87.68732,41.811929]}},{"properties":{"zip":"46628","geo_score":0.714,"id":"a6df6brfcynv","geo_precision":"zip"},"type":"Feature","geometry":{"type":"Point","coordinates":[-86.380012,41.69338]}},{"properties":{"zip":"46544","geo_score":0.714,"id":"a6df6bk4th7h","geo_precision":"zip"},"type":"Feature","geometry":{"type":"Point","coordinates":[-86.287884,41.61536]}},{"properties":{"zip":"46544","geo_score":0.714,"id":"a6df6bqqd6hd","geo_precision":"zip"},"type":"Feature","geometry":{"type":"Point","coordinates":[-86.287884,41.61536]}},{"properties":{"zip":"46544","geo_score":0.714,"id":"a6df6bmet16j","geo_precision":"zip"},"type":"Feature","geometry":{"type":"Point","coordinates":[-86.287884,41.61536]}},{"properties":{"zip":"60646","geo_score":0.714,"id":"a6df6br4fprt","geo_precision":"zip"},"type":"Feature","geometry":{"type":"Point","coordinates":[-87.75901,42.00663]}},{"properties":{"zip":"46540","geo_score":0.714,"id":"a6df6br5qkyf","geo_precision":"zip"},"type":"Feature","geometry":{"type":"Point","coordinates":[-85.831327,41.646192]}},{"properties":{"zip":"46540","geo_score":0.714,"id":"a6df6bnw90k4","geo_precision":"zip"},"type":"Feature","geometry":{"type":"Point","coordinates":[-85.831327,41.646192]}},{"properties":{"zip":"60625","geo_score":0.714,"id":"a6df6bqx6to3","geo_precision":"zip"},"type":"Feature","geometry":{"type":"Point","coordinates":[-87.68732,41.811929]}},{"properties":{"zip":"60625","geo_score":0.714,"id":"a6df6blfe6ek","geo_precision":"zip"},"type":"Feature","geometry":{"type":"Point","coordinates":[-87.68732,41.811929]}},{"properties":{"zip":"49112","geo_score":0.714,"id":"a6df6bevwosw","geo_precision":"zip"},"type":"Feature","geometry":{"type":"Point","coordinates":[-85.896943,41.776716]}},{"properties":{"zip":"49112","geo_score":0.714,"id":"a6df6bl0daf4","geo_precision":"zip"},"type":"Feature","geometry":{"type":"Point","coordinates":[-85.896943,41.776716]}},{"properties":{"zip":"49112","geo_score":0.714,"id":"a6df6bjs4ubz","geo_precision":"zip"},"type":"Feature","geometry":{"type":"Point","coordinates":[-85.896943,41.776716]}},{"properties":{"zip":"46637","geo_score":0.714,"id":"a6df6bg7ypp0","geo_precision":"zip"},"type":"Feature","geometry":{"type":"Point","coordinates":[-86.252507,41.716159]}},{"properties":{"zip":"46637","geo_score":0.714,"id":"a6df6bgtucmp","geo_precision":"zip"},"type":"Feature","geometry":{"type":"Point","coordinates":[-86.252507,41.716159]}},{"properties":{"zip":"46385","geo_score":0.714,"id":"a6df6bfy9zf0","geo_precision":"zip"},"type":"Feature","geometry":{"type":"Point","coordinates":[-87.078309,41.470567]}},{"properties":{"zip":"46530","geo_score":0.714,"id":"a6df6brg5gqo","geo_precision":"zip"},"type":"Feature","geometry":{"type":"Point","coordinates":[-86.139868,41.734912]}},{"properties":{"zip":"46530","geo_score":0.714,"id":"a6df6bn65klr","geo_precision":"zip"},"type":"Feature","geometry":{"type":"Point","coordinates":[-86.139868,41.734912]}},{"properties":{"zip":"46530","geo_score":0.714,"id":"a6df6bmez7yp","geo_precision":"zip"},"type":"Feature","geometry":{"type":"Point","coordinates":[-86.139868,41.734912]}},{"properties":{"zip":"46617","geo_score":0.714,"id":"a6df6br054qo","geo_precision":"zip"},"type":"Feature","geometry":{"type":"Point","coordinates":[-86.238906,41.682897]}},{"properties":{"zip":"46530","geo_score":0.714,"id":"a6df6boaq97k","geo_precision":"zip"},"type":"Feature","geometry":{"type":"Point","coordinates":[-86.139868,41.734912]}},{"properties":{"zip":"60453","geo_score":0.714,"id":"a6df6bfpaarf","geo_precision":"zip"},"type":"Feature","geometry":{"type":"Point","coordinates":[-87.68732,41.811929]}},{"properties":{"zip":"60453","geo_score":0.714,"id":"a6df6bg23jaa","geo_precision":"zip"},"type":"Feature","geometry":{"type":"Point","coordinates":[-87.68732,41.811929]}},{"properties":{"zip":"60462","geo_score":0.714,"id":"a6df6bq82p6e","geo_precision":"zip"},"type":"Feature","geometry":{"type":"Point","coordinates":[-87.823385,41.570033]}},{"properties":{"zip":"46561","geo_score":0.714,"id":"a6df6be7soip","geo_precision":"zip"},"type":"Feature","geometry":{"type":"Point","coordinates":[-86.074447,41.694215]}},{"properties":{"zip":"60436","geo_score":0.714,"id":"a6df6bhqxp6c","geo_precision":"zip"},"type":"Feature","geometry":{"type":"Point","coordinates":[-88.201729,41.520031]}},{"properties":{"zip":"46514","geo_score":0.714,"id":"a6df6bh52hnr","geo_precision":"zip"},"type":"Feature","geometry":{"type":"Point","coordinates":[-85.975001,41.754216]}},{"properties":{"zip":"46628","geo_score":0.714,"id":"a6df6bni7svz","geo_precision":"zip"},"type":"Feature","geometry":{"type":"Point","coordinates":[-86.380012,41.69338]}},{"properties":{"zip":"46530","geo_score":0.714,"id":"a6df6bnkqbw6","geo_precision":"zip"},"type":"Feature","geometry":{"type":"Point","coordinates":[-86.139868,41.734912]}},{"properties":{"zip":"46516","geo_score":0.714,"id":"a6df6beg477v","geo_precision":"zip"},"type":"Feature","geometry":{"type":"Point","coordinates":[-85.897236,41.620856]}},{"properties":{"zip":"46617","geo_score":0.714,"id":"a6df6bc7lbzk","geo_precision":"zip"},"type":"Feature","geometry":{"type":"Point","coordinates":[-86.238906,41.682897]}},{"properties":{"zip":"46614","geo_score":0.714,"id":"a6df6berj31n","geo_precision":"zip"},"type":"Feature","geometry":{"type":"Point","coordinates":[-86.236117,41.598937]}},{"properties":{"zip":"46614","geo_score":0.714,"id":"a6df6bdb0lmh","geo_precision":"zip"},"type":"Feature","geometry":{"type":"Point","coordinates":[-86.236117,41.598937]}},{"properties":{"zip":"46614","geo_score":0.714,"id":"a6df6bn8qt1d","geo_precision":"zip"},"type":"Feature","geometry":{"type":"Point","coordinates":[-86.236117,41.598937]}},{"properties":{"zip":"46628","geo_score":0.714,"id":"a6df6bc8jg4t","geo_precision":"zip"},"type":"Feature","geometry":{"type":"Point","coordinates":[-86.380012,41.69338]}},{"properties":{"zip":"46544","geo_score":0.714,"id":"a6df6beppa3g","geo_precision":"zip"},"type":"Feature","geometry":{"type":"Point","coordinates":[-86.287884,41.61536]}},{"properties":{"zip":"49111","geo_score":0.714,"id":"a6df6bk444xk","geo_precision":"zip"},"type":"Feature","geometry":{"type":"Point","coordinates":[-86.328352,42.033377]}},{"properties":{"zip":"49112","geo_score":0.714,"id":"a6df6br426pd","geo_precision":"zip"},"type":"Feature","geometry":{"type":"Point","coordinates":[-85.896943,41.776716]}},{"properties":{"zip":"49112","geo_score":0.714,"id":"a6df6bc9jcpv","geo_precision":"zip"},"type":"Feature","geometry":{"type":"Point","coordinates":[-85.896943,41.776716]}},{"properties":{"zip":"48025","geo_score":0.714,"id":"a6df6be4r2y7","geo_precision":"zip"},"type":"Feature","geometry":{"type":"Point","coordinates":[-83.273264,42.515868]}},{"properties":{"zip":"46637","geo_score":0.714,"id":"a6df6bibflqy","geo_precision":"zip"},"type":"Feature","geometry":{"type":"Point","coordinates":[-86.252507,41.716159]}},{"properties":{"zip":"49112","geo_score":0.714,"id":"a6df6biwkxde","geo_precision":"zip"},"type":"Feature","geometry":{"type":"Point","coordinates":[-85.896943,41.776716]}},{"properties":{"zip":"60618","geo_score":0.714,"id":"a6df6bdmgegz","geo_precision":"zip"},"type":"Feature","geometry":{"type":"Point","coordinates":[-87.68732,41.811929]}},{"properties":{"zip":"46628","geo_score":0.714,"id":"a6df6bpdd2ly","geo_precision":"zip"},"type":"Feature","geometry":{"type":"Point","coordinates":[-86.380012,41.69338]}},{"properties":{"zip":"46637","geo_score":0.714,"id":"a6df6bkhbjbo","geo_precision":"zip"},"type":"Feature","geometry":{"type":"Point","coordinates":[-86.252507,41.716159]}},{"properties":{"zip":"46614","geo_score":0.714,"id":"a6df6bh83n2q","geo_precision":"zip"},"type":"Feature","geometry":{"type":"Point","coordinates":[-86.236117,41.598937]}},{"properties":{"zip":"46614","geo_score":0.714,"id":"a6df6bi00mcv","geo_precision":"zip"},"type":"Feature","geometry":{"type":"Point","coordinates":[-86.236117,41.598937]}},{"properties":{"zip":"46514","geo_score":0.714,"id":"a6df6bdk7i8s","geo_precision":"zip"},"type":"Feature","geometry":{"type":"Point","coordinates":[-85.975001,41.754216]}},{"properties":{"zip":"46614","geo_score":0.714,"id":"a6df6bdln6b5","geo_precision":"zip"},"type":"Feature","geometry":{"type":"Point","coordinates":[-86.236117,41.598937]}},{"properties":{"zip":"48430","geo_score":0.714,"id":"a6df6brlny4e","geo_precision":"zip"},"type":"Feature","geometry":{"type":"Point","coordinates":[-83.782171,42.691975]}},{"properties":{"zip":"49120","geo_score":0.714,"id":"a6df6bpm2u53","geo_precision":"zip"},"type":"Feature","geometry":{"type":"Point","coordinates":[-86.207512,41.911713]}},{"properties":{"zip":"49120","geo_score":0.714,"id":"a6df6boz0cwn","geo_precision":"zip"},"type":"Feature","geometry":{"type":"Point","coordinates":[-86.207512,41.911713]}},{"properties":{"zip":"46530","geo_score":0.714,"id":"a6df6bk2r4ql","geo_precision":"zip"},"type":"Feature","geometry":{"type":"Point","coordinates":[-86.139868,41.734912]}},{"properties":{"zip":"60625","geo_score":0.714,"id":"a6df6bklxza9","geo_precision":"zip"},"type":"Feature","geometry":{"type":"Point","coordinates":[-87.68732,41.811929]}},{"properties":{"zip":"60625","geo_score":0.714,"id":"a6df6be0dd6y","geo_precision":"zip"},"type":"Feature","geometry":{"type":"Point","coordinates":[-87.68732,41.811929]}},{"properties":{"zip":"60625","geo_score":0.714,"id":"a6df6bqw4azf","geo_precision":"zip"},"type":"Feature","geometry":{"type":"Point","coordinates":[-87.68732,41.811929]}},{"properties":{"zip":"49067","geo_score":0.714,"id":"a6df6bschfm3","geo_precision":"zip"},"type":"Feature","geometry":{"type":"Point","coordinates":[-85.878892,41.983935]}},{"properties":{"zip":"46561","geo_score":0.714,"id":"a6df6bida18c","geo_precision":"zip"},"type":"Feature","geometry":{"type":"Point","coordinates":[-86.074447,41.694215]}},{"properties":{"zip":"46530","geo_score":0.714,"id":"a6df6bqvcnpp","geo_precision":"zip"},"type":"Feature","geometry":{"type":"Point","coordinates":[-86.139868,41.734912]}},{"properties":{"zip":"46545","geo_score":0.714,"id":"a6df6bljr582","geo_precision":"zip"},"type":"Feature","geometry":{"type":"Point","coordinates":[-86.304735,41.696407]}},{"properties":{"zip":"50304","geo_score":0.714,"id":"a6df6biayqp4","geo_precision":"zip"},"type":"Feature","geometry":{"type":"Point","coordinates":[-93.572173,41.672687]}},{"properties":{"zip":"46544","geo_score":0.714,"id":"a6df6beo90c0","geo_precision":"zip"},"type":"Feature","geometry":{"type":"Point","coordinates":[-86.287884,41.61536]}},{"properties":{"zip":"46530","geo_score":0.714,"id":"a6df6bnvl903","geo_precision":"zip"},"type":"Feature","geometry":{"type":"Point","coordinates":[-86.139868,41.734912]}},{"properties":{"zip":"46530","geo_score":0.714,"id":"a6df6bde0f2d","geo_precision":"zip"},"type":"Feature","geometry":{"type":"Point","coordinates":[-86.139868,41.734912]}},{"properties":{"zip":"46628","geo_score":0.714,"id":"a6df6bksp2p5","geo_precision":"zip"},"type":"Feature","geometry":{"type":"Point","coordinates":[-86.380012,41.69338]}},{"properties":{"zip":"60304","geo_score":0.714,"id":"a6df6bi4xa36","geo_precision":"zip"},"type":"Feature","geometry":{"type":"Point","coordinates":[-87.68732,41.811929]}},{"properties":{"zip":"60304","geo_score":0.714,"id":"a6df6bc1q9hl","geo_precision":"zip"},"type":"Feature","geometry":{"type":"Point","coordinates":[-87.68732,41.811929]}},{"properties":{"zip":"46635","geo_score":0.714,"id":"a6df6bggs9of","geo_precision":"zip"},"type":"Feature","geometry":{"type":"Point","coordinates":[-86.21695,41.700048]}},{"properties":{"zip":"46615","geo_score":0.714,"id":"a6df6bnapxk5","geo_precision":"zip"},"type":"Feature","geometry":{"type":"Point","coordinates":[-86.216105,41.677046]}},{"properties":{"zip":"46615","geo_score":0.714,"id":"a6df6be3v8t6","geo_precision":"zip"},"type":"Feature","geometry":{"type":"Point","coordinates":[-86.216105,41.677046]}},{"properties":{"zip":"46615","geo_score":0.714,"id":"a6df6bhitlai","geo_precision":"zip"},"type":"Feature","geometry":{"type":"Point","coordinates":[-86.216105,41.677046]}},{"properties":{"zip":"46530","geo_score":0.714,"id":"a6df6bg6h4jh","geo_precision":"zip"},"type":"Feature","geometry":{"type":"Point","coordinates":[-86.139868,41.734912]}},{"properties":{"zip":"46530","geo_score":0.714,"id":"a6df6brud40c","geo_precision":"zip"},"type":"Feature","geometry":{"type":"Point","coordinates":[-86.139868,41.734912]}},{"properties":{"zip":"46637","geo_score":0.714,"id":"a6df6bnpe3x0","geo_precision":"zip"},"type":"Feature","geometry":{"type":"Point","coordinates":[-86.252507,41.716159]}},{"properties":{"zip":"46637","geo_score":0.714,"id":"a6df6bfkwx67","geo_precision":"zip"},"type":"Feature","geometry":{"type":"Point","coordinates":[-86.252507,41.716159]}},{"properties":{"zip":"46613","geo_score":0.714,"id":"a6df6bcb2uyy","geo_precision":"zip"},"type":"Feature","geometry":{"type":"Point","coordinates":[-86.255696,41.656573]}},{"properties":{"zip":"46614","geo_score":0.714,"id":"a6df6bdd05jc","geo_precision":"zip"},"type":"Feature","geometry":{"type":"Point","coordinates":[-86.236117,41.598937]}},{"properties":{"zip":"60404","geo_score":0.0,"id":"a6df6brbhy01","geo_precision":"unmatched"},"type":"Feature","geometry":null},{"properties":{"zip":"60404","geo_score":0.0,"id":"a6df6bciw17e","geo_precision":"unmatched"},"type":"Feature","geometry":null},{"properties":{"zip":"46617","geo_score":0.714,"id":"a6df6be394ik","geo_precision":"zip"},"type":"Feature","geometry":{"type":"Point","coordinates":[-86.238906,41.682897]}},{"properties":{"zip":"46614","geo_score":0.714,"id":"a6df6bddizgi","geo_precision":"zip"},"type":"Feature","geometry":{"type":"Point","coordinates":[-86.236117,41.598937]}},{"properties":{"zip":"46614","geo_score":0.714,"id":"a6df6bg03zuq","geo_precision":"zip"},"type":"Feature","geometry":{"type":"Point","coordinates":[-86.236117,41.598937]}},{"properties":{"zip":"46614","geo_score":0.714,"id":"a6df6bfq3ji6","geo_precision":"zip"},"type":"Feature","geometry":{"type":"Point","coordinates":[-86.236117,41.598937]}},{"properties":{"zip":"49120","geo_score":0.714,"id":"a6df6bqjtzm7","geo_precision":"zip"},"type":"Feature","geometry":{"type":"Point","coordinates":[-86.207512,41.911713]}},{"properties":{"zip":"46614","geo_score":0.714,"id":"a6df6bg3mhvu","geo_precision":"zip"},"type":"Feature","geometry":{"type":"Point","coordinates":[-86.236117,41.598937]}},{"properties":{"zip":"46614","geo_score":0.714,"id":"a6df6bn878vo","geo_precision":"zip"},"type":"Feature","geometry":{"type":"Point","coordinates":[-86.236117,41.598937]}},{"properties":{"zip":"60102","geo_score":0.714,"id":"a6df6bhzipyy","geo_precision":"zip"},"type":"Feature","geometry":{"type":"Point","coordinates":[-88.260638,42.188913]}},{"properties":{"zip":"46545","geo_score":0.714,"id":"a6df6bhnknmv","geo_precision":"zip"},"type":"Feature","geometry":{"type":"Point","coordinates":[-86.304735,41.696407]}},{"properties":{"zip":"46545","geo_score":0.714,"id":"a6df6bfrtqbq","geo_precision":"zip"},"type":"Feature","geometry":{"type":"Point","coordinates":[-86.304735,41.696407]}},{"properties":{"zip":"46545","geo_score":0.714,"id":"a6df6bjg1f6n","geo_precision":"zip"},"type":"Feature","geometry":{"type":"Point","coordinates":[-86.304735,41.696407]}},{"properties":{"zip":"93651","geo_score":0.714,"id":"a6df6bltlu8y","geo_precision":"zip"},"type":"Feature","geometry":{"type":"Point","coordinates":[-119.512686,37.008796]}},{"properties":{"zip":"46614","geo_score":0.714,"id":"a6df6bcni48e","geo_precision":"zip"},"type":"Feature","geometry":{"type":"Point","coordinates":[-86.236117,41.598937]}},{"properties":{"zip":"49120","geo_score":0.714,"id":"a6df6bl5v0p7","geo_precision":"zip"},"type":"Feature","geometry":{"type":"Point","coordinates":[-86.207512,41.911713]}},{"properties":{"zip":"46530","geo_score":0.714,"id":"a6df6bls015f","geo_precision":"zip"},"type":"Feature","geometry":{"type":"Point","coordinates":[-86.139868,41.734912]}},{"properties":{"zip":"49112","geo_score":0.714,"id":"a6df6bbyk4ul","geo_precision":"zip"},"type":"Feature","geometry":{"type":"Point","coordinates":[-85.896943,41.776716]}},{"properties":{"zip":"46530","geo_score":0.714,"id":"a6df6bmf6t7j","geo_precision":"zip"},"type":"Feature","geometry":{"type":"Point","coordinates":[-86.139868,41.734912]}},{"properties":{"zip":"46530","geo_score":0.714,"id":"a6df6bk1vl15","geo_precision":"zip"},"type":"Feature","geometry":{"type":"Point","coordinates":[-86.139868,41.734912]}},{"properties":{"zip":"46544","geo_score":0.714,"id":"a6df6bkpiis1","geo_precision":"zip"},"type":"Feature","geometry":{"type":"Point","coordinates":[-86.287884,41.61536]}},{"properties":{"zip":"46628","geo_score":0.714,"id":"a6df6bghw5g1","geo_precision":"zip"},"type":"Feature","geometry":{"type":"Point","coordinates":[-86.380012,41.69338]}},{"properties":{"zip":"46544","geo_score":0.714,"id":"a6df6bs1welp","geo_precision":"zip"},"type":"Feature","geometry":{"type":"Point","coordinates":[-86.287884,41.61536]}},{"properties":{"zip":"46544","geo_score":0.714,"id":"a6df6bl7zxsu","geo_precision":"zip"},"type":"Feature","geometry":{"type":"Point","coordinates":[-86.287884,41.61536]}},{"properties":{"zip":"46637","geo_score":0.714,"id":"a6df6blljotg","geo_precision":"zip"},"type":"Feature","geometry":{"type":"Point","coordinates":[-86.252507,41.716159]}},{"properties":{"zip":"46617","geo_score":0.714,"id":"a6df6bcuqiw4","geo_precision":"zip"},"type":"Feature","geometry":{"type":"Point","coordinates":[-86.238906,41.682897]}},{"properties":{"zip":"46350","geo_score":0.714,"id":"a6df6bif8fva","geo_precision":"zip"},"type":"Feature","geometry":{"type":"Point","coordinates":[-86.690024,41.716987]}},{"properties":{"zip":"46350","geo_score":0.714,"id":"a6df6bdxcs8z","geo_precision":"zip"},"type":"Feature","geometry":{"type":"Point","coordinates":[-86.690024,41.716987]}},{"properties":{"zip":"46350","geo_score":0.714,"id":"a6df6bioy3q8","geo_precision":"zip"},"type":"Feature","geometry":{"type":"Point","coordinates":[-86.690024,41.716987]}},{"properties":{"zip":"49095","geo_score":0.714,"id":"a6df6blvrpiz","geo_precision":"zip"},"type":"Feature","geometry":{"type":"Point","coordinates":[-85.864166,41.866715]}},{"properties":{"zip":"46628","geo_score":0.714,"id":"a6df6bqooyz5","geo_precision":"zip"},"type":"Feature","geometry":{"type":"Point","coordinates":[-86.380012,41.69338]}},{"properties":{"zip":"46628","geo_score":0.714,"id":"a6df6birnlch","geo_precision":"zip"},"type":"Feature","geometry":{"type":"Point","coordinates":[-86.380012,41.69338]}},{"properties":{"zip":"46628","geo_score":0.714,"id":"a6df6bjlkq84","geo_precision":"zip"},"type":"Feature","geometry":{"type":"Point","coordinates":[-86.380012,41.69338]}},{"properties":{"zip":"46614","geo_score":0.714,"id":"a6df6bcso07y","geo_precision":"zip"},"type":"Feature","geometry":{"type":"Point","coordinates":[-86.236117,41.598937]}},{"properties":{"zip":"46614","geo_score":0.714,"id":"a6df6benbij9","geo_precision":"zip"},"type":"Feature","geometry":{"type":"Point","coordinates":[-86.236117,41.598937]}},{"properties":{"zip":"46530","geo_score":0.714,"id":"a6df6bjxyqzc","geo_precision":"zip"},"type":"Feature","geometry":{"type":"Point","coordinates":[-86.139868,41.734912]}},{"properties":{"zip":"46545","geo_score":0.714,"id":"a6df6bdh6ny3","geo_precision":"zip"},"type":"Feature","geometry":{"type":"Point","coordinates":[-86.304735,41.696407]}},{"properties":{"zip":"46544","geo_score":0.714,"id":"a6df6bfacgzh","geo_precision":"zip"},"type":"Feature","geometry":{"type":"Point","coordinates":[-86.287884,41.61536]}},{"properties":{"zip":"46614","geo_score":0.714,"id":"a6df6bnun800","geo_precision":"zip"},"type":"Feature","geometry":{"type":"Point","coordinates":[-86.236117,41.598937]}},{"properties":{"zip":"46514","geo_score":0.714,"id":"a6df6br1l67o","geo_precision":"zip"},"type":"Feature","geometry":{"type":"Point","coordinates":[-85.975001,41.754216]}},{"properties":{"zip":"33161","geo_score":0.714,"id":"a6df6beonama","geo_precision":"zip"},"type":"Feature","geometry":{"type":"Point","coordinates":[-80.193659,25.774266]}},{"properties":{"zip":"33161","geo_score":0.714,"id":"a6df6bs2pccv","geo_precision":"zip"},"type":"Feature","geometry":{"type":"Point","coordinates":[-80.193659,25.774266]}},{"properties":{"zip":"46617","geo_score":0.714,"id":"a6df6bpu1w4m","geo_precision":"zip"},"type":"Feature","geometry":{"type":"Point","coordinates":[-86.238906,41.682897]}},{"properties":{"zip":"60404","geo_score":0.0,"id":"a6df6bp8q89x","geo_precision":"unmatched"},"type":"Feature","geometry":null},{"properties":{"zip":"46530","geo_score":0.714,"id":"a6df6bn5fd2s","geo_precision":"zip"},"type":"Feature","geometry":{"type":"Point","coordinates":[-86.139868,41.734912]}},{"properties":{"zip":"49031","geo_score":0.714,"id":"a6df6bcfmznd","geo_precision":"zip"},"type":"Feature","geometry":{"type":"Point","coordinates":[-85.958338,41.907269]}},{"properties":{"zip":"47150","geo_score":0.714,"id":"a6df6boxsfm3","geo_precision":"zip"},"type":"Feature","geometry":{"type":"Point","coordinates":[-85.845243,38.282569]}},{"properties":{"zip":"47150","geo_score":0.714,"id":"a6df6be70ont","geo_precision":"zip"},"type":"Feature","geometry":{"type":"Point","coordinates":[-85.845243,38.282569]}},{"properties":{"zip":"46614","geo_score":0.714,"id":"a6df6bi3zc7s","geo_precision":"zip"},"type":"Feature","geometry":{"type":"Point","coordinates":[-86.236117,41.598937]}},{"properties":{"zip":"49120","geo_score":0.714,"id":"a6df6beb4k6x","geo_precision":"zip"},"type":"Feature","geometry":{"type":"Point","coordinates":[-86.207512,41.911713]}},{"properties":{"zip":"46530","geo_score":0.714,"id":"a6df6bnwnrmj","geo_precision":"zip"},"type":"Feature","geometry":{"type":"Point","coordinates":[-86.139868,41.734912]}},{"properties":{"zip":"49031","geo_score":0.714,"id":"a6df6bokpyvy","geo_precision":"zip"},"type":"Feature","geometry":{"type":"Point","coordinates":[-85.958338,41.907269]}},{"properties":{"zip":"60625","geo_score":0.714,"id":"a6df6bmdbla6","geo_precision":"zip"},"type":"Feature","geometry":{"type":"Point","coordinates":[-87.68732,41.811929]}},{"properties":{"zip":"49120","geo_score":0.714,"id":"a6df6bojd0ek","geo_precision":"zip"},"type":"Feature","geometry":{"type":"Point","coordinates":[-86.207512,41.911713]}},{"properties":{"zip":"46545","geo_score":0.714,"id":"a6df6bejxvm8","geo_precision":"zip"},"type":"Feature","geometry":{"type":"Point","coordinates":[-86.304735,41.696407]}},{"properties":{"zip":"46544","geo_score":0.714,"id":"a6df6bkzv04i","geo_precision":"zip"},"type":"Feature","geometry":{"type":"Point","coordinates":[-86.287884,41.61536]}},{"properties":{"zip":"46614","geo_score":0.714,"id":"a6df6bi3h58w","geo_precision":"zip"},"type":"Feature","geometry":{"type":"Point","coordinates":[-86.236117,41.598937]}},{"properties":{"zip":"46545","geo_score":0.714,"id":"a6df6brhotq1","geo_precision":"zip"},"type":"Feature","geometry":{"type":"Point","coordinates":[-86.304735,41.696407]}},{"properties":{"zip":"49001","geo_score":0.714,"id":"a6df6brcglqd","geo_precision":"zip"},"type":"Feature","geometry":{"type":"Point","coordinates":[-85.686672,42.201152]}},{"properties":{"zip":"49120","geo_score":0.714,"id":"a6df6bjhe8w7","geo_precision":"zip"},"type":"Feature","geometry":{"type":"Point","coordinates":[-86.207512,41.911713]}},{"properties":{"zip":"46530","geo_score":0.714,"id":"a6df6bk862c8","geo_precision":"zip"},"type":"Feature","geometry":{"type":"Point","coordinates":[-86.139868,41.734912]}},{"properties":{"zip":"60304","geo_score":0.714,"id":"a6df6bqjn2se","geo_precision":"zip"},"type":"Feature","geometry":{"type":"Point","coordinates":[-87.68732,41.811929]}},{"properties":{"zip":"60304","geo_score":0.714,"id":"a6df6bqlswq1","geo_precision":"zip"},"type":"Feature","geometry":{"type":"Point","coordinates":[-87.68732,41.811929]}},{"properties":{"zip":"46544","geo_score":0.714,"id":"a6df6bqtqycq","geo_precision":"zip"},"type":"Feature","geometry":{"type":"Point","coordinates":[-86.287884,41.61536]}},{"properties":{"zip":"49095","geo_score":0.714,"id":"a6df6bnzqxj3","geo_precision":"zip"},"type":"Feature","geometry":{"type":"Point","coordinates":[-85.864166,41.866715]}},{"properties":{"zip":"46615","geo_score":0.714,"id":"a6df6bkkkrpz","geo_precision":"zip"},"type":"Feature","geometry":{"type":"Point","coordinates":[-86.216105,41.677046]}},{"properties":{"zip":"46514","geo_score":0.714,"id":"a6df6bgrs6qu","geo_precision":"zip"},"type":"Feature","geometry":{"type":"Point","coordinates":[-85.975001,41.754216]}},{"properties":{"zip":"66524","geo_score":0.714,"id":"a6df6bk2gl71","geo_precision":"zip"},"type":"Feature","geometry":{"type":"Point","coordinates":[-95.574894,38.724549]}},{"properties":{"zip":"60304","geo_score":0.714,"id":"a6df6bk3dzo5","geo_precision":"zip"},"type":"Feature","geometry":{"type":"Point","coordinates":[-87.68732,41.811929]}},{"properties":{"zip":"60453","geo_score":0.714,"id":"a6df6bf15wv6","geo_precision":"zip"},"type":"Feature","geometry":{"type":"Point","coordinates":[-87.68732,41.811929]}},{"properties":{"zip":"46530","geo_score":0.714,"id":"a6df6bk5pvjb","geo_precision":"zip"},"type":"Feature","geometry":{"type":"Point","coordinates":[-86.139868,41.734912]}},{"properties":{"zip":"46530","geo_score":0.714,"id":"a6df6bry8zxm","geo_precision":"zip"},"type":"Feature","geometry":{"type":"Point","coordinates":[-86.139868,41.734912]}},{"properties":{"zip":"46614","geo_score":0.714,"id":"a6df6blzxpvy","geo_precision":"zip"},"type":"Feature","geometry":{"type":"Point","coordinates":[-86.236117,41.598937]}},{"properties":{"zip":"46530","geo_score":0.714,"id":"a6df6bkrvmmk","geo_precision":"zip"},"type":"Feature","geometry":{"type":"Point","coordinates":[-86.139868,41.734912]}},{"properties":{"zip":"49120","geo_score":0.714,"id":"a6df6blihwsw","geo_precision":"zip"},"type":"Feature","geometry":{"type":"Point","coordinates":[-86.207512,41.911713]}},{"properties":{"zip":"49120","geo_score":0.714,"id":"a6df6bkl2o5j","geo_precision":"zip"},"type":"Feature","geometry":{"type":"Point","coordinates":[-86.207512,41.911713]}},{"properties":{"zip":"46530","geo_score":0.714,"id":"a6df6bqwxszt","geo_precision":"zip"},"type":"Feature","geometry":{"type":"Point","coordinates":[-86.139868,41.734912]}},{"properties":{"zip":"46544","geo_score":0.714,"id":"a6df6bdcpyj3","geo_precision":"zip"},"type":"Feature","geometry":{"type":"Point","coordinates":[-86.287884,41.61536]}},{"properties":{"zip":"48327","geo_score":0.714,"id":"a6df6bhvbi6n","geo_precision":"zip"},"type":"Feature","geometry":{"type":"Point","coordinates":[-83.406111,42.644824]}},{"properties":{"zip":"46628","geo_score":0.714,"id":"a6df6bp8jvq3","geo_precision":"zip"},"type":"Feature","geometry":{"type":"Point","coordinates":[-86.380012,41.69338]}},{"properties":{"zip":"46530","geo_score":0.714,"id":"a6df6blbgpe9","geo_precision":"zip"},"type":"Feature","geometry":{"type":"Point","coordinates":[-86.139868,41.734912]}},{"properties":{"zip":"46530","geo_score":0.714,"id":"a6df6bq8xh8x","geo_precision":"zip"},"type":"Feature","geometry":{"type":"Point","coordinates":[-86.139868,41.734912]}},{"properties":{"zip":"46530","geo_score":0.714,"id":"a6df6bk4jckw","geo_precision":"zip"},"type":"Feature","geometry":{"type":"Point","coordinates":[-86.139868,41.734912]}},{"properties":{"zip":"49031","geo_score":0.714,"id":"a6df6bc9jk7h","geo_precision":"zip"},"type":"Feature","geometry":{"type":"Point","coordinates":[-85.958338,41.907269]}},{"properties":{"zip":"46226","geo_score":0.714,"id":"a6df6bi5gwxp","geo_precision":"zip"},"type":"Feature","geometry":{"type":"Point","coordinates":[-86.091652,39.853096]}},{"properties":{"zip":"49120","geo_score":0.714,"id":"a6df6bd5cu60","geo_precision":"zip"},"type":"Feature","geometry":{"type":"Point","coordinates":[-86.207512,41.911713]}},{"properties":{"zip":"49120","geo_score":0.714,"id":"a6df6bei662p","geo_precision":"zip"},"type":"Feature","geometry":{"type":"Point","coordinates":[-86.207512,41.911713]}},{"properties":{"zip":"46563","geo_score":0.714,"id":"a6df6bdx5qiq","geo_precision":"zip"},"type":"Feature","geometry":{"type":"Point","coordinates":[-86.357229,41.30421]}},{"properties":{"zip":"46033","geo_score":0.714,"id":"a6df6be1u5vw","geo_precision":"zip"},"type":"Feature","geometry":{"type":"Point","coordinates":[-86.082936,39.974404]}},{"properties":{"zip":"46614","geo_score":0.714,"id":"a6df6bgzo53n","geo_precision":"zip"},"type":"Feature","geometry":{"type":"Point","coordinates":[-86.236117,41.598937]}},{"properties":{"zip":"49093","geo_score":0.714,"id":"a6df6boosxtf","geo_precision":"zip"},"type":"Feature","geometry":{"type":"Point","coordinates":[-85.547771,42.015881]}},{"properties":{"zip":"49093","geo_score":0.714,"id":"a6df6bl3frxm","geo_precision":"zip"},"type":"Feature","geometry":{"type":"Point","coordinates":[-85.547771,42.015881]}},{"properties":{"zip":"49093","geo_score":0.714,"id":"a6df6bkxhf06","geo_precision":"zip"},"type":"Feature","geometry":{"type":"Point","coordinates":[-85.547771,42.015881]}},{"properties":{"zip":"47401","geo_score":0.714,"id":"a6df6bharmbo","geo_precision":"zip"},"type":"Feature","geometry":{"type":"Point","coordinates":[-86.383326,39.150326]}},{"properties":{"zip":"46563","geo_score":0.714,"id":"a6df6bqqwgst","geo_precision":"zip"},"type":"Feature","geometry":{"type":"Point","coordinates":[-86.357229,41.30421]}},{"properties":{"zip":"46563","geo_score":0.714,"id":"a6df6be8uyw4","geo_precision":"zip"},"type":"Feature","geometry":{"type":"Point","coordinates":[-86.357229,41.30421]}},{"properties":{"zip":"48442","geo_score":0.714,"id":"a6df6bipqj4v","geo_precision":"zip"},"type":"Feature","geometry":{"type":"Point","coordinates":[-83.625227,42.860028]}},{"properties":{"zip":"48442","geo_score":0.714,"id":"a6df6bmlh6f2","geo_precision":"zip"},"type":"Feature","geometry":{"type":"Point","coordinates":[-83.625227,42.860028]}},{"properties":{"zip":"46614","geo_score":0.714,"id":"a6df6bd46sst","geo_precision":"zip"},"type":"Feature","geometry":{"type":"Point","coordinates":[-86.236117,41.598937]}},{"properties":{"zip":"46530","geo_score":0.714,"id":"a6df6benwz13","geo_precision":"zip"},"type":"Feature","geometry":{"type":"Point","coordinates":[-86.139868,41.734912]}},{"properties":{"zip":"60453","geo_score":0.714,"id":"a6df6brpmwwo","geo_precision":"zip"},"type":"Feature","geometry":{"type":"Point","coordinates":[-87.68732,41.811929]}},{"properties":{"zip":"46530","geo_score":0.714,"id":"a6df6bs07rnk","geo_precision":"zip"},"type":"Feature","geometry":{"type":"Point","coordinates":[-86.139868,41.734912]}},{"properties":{"zip":"46530","geo_score":0.714,"id":"a6df6bkh2k0w","geo_precision":"zip"},"type":"Feature","geometry":{"type":"Point","coordinates":[-86.139868,41.734912]}},{"properties":{"zip":"46530","geo_score":0.714,"id":"a6df6bq6xazl","geo_precision":"zip"},"type":"Feature","geometry":{"type":"Point","coordinates":[-86.139868,41.734912]}},{"properties":{"zip":"46530","geo_score":0.714,"id":"a6df6bhbtarw","geo_precision":"zip"},"type":"Feature","geometry":{"type":"Point","coordinates":[-86.139868,41.734912]}},{"properties":{"zip":"46552","geo_score":0.714,"id":"a6df6bnw7mdt","geo_precision":"zip"},"type":"Feature","geometry":{"type":"Point","coordinates":[-86.549741,41.704767]}},{"properties":{"zip":"46545","geo_score":0.714,"id":"a6df6bcgpa3s","geo_precision":"zip"},"type":"Feature","geometry":{"type":"Point","coordinates":[-86.304735,41.696407]}},{"properties":{"zip":"46635","geo_score":0.714,"id":"a6df6bf35avb","geo_precision":"zip"},"type":"Feature","geometry":{"type":"Point","coordinates":[-86.21695,41.700048]}},{"properties":{"zip":"46530","geo_score":0.714,"id":"a6df6bdbu31i","geo_precision":"zip"},"type":"Feature","geometry":{"type":"Point","coordinates":[-86.139868,41.734912]}},{"properties":{"zip":"46530","geo_score":0.714,"id":"a6df6bddfsyk","geo_precision":"zip"},"type":"Feature","geometry":{"type":"Point","coordinates":[-86.139868,41.734912]}},{"properties":{"zip":"46530","geo_score":0.714,"id":"a6df6bcs8xnv","geo_precision":"zip"},"type":"Feature","geometry":{"type":"Point","coordinates":[-86.139868,41.734912]}},{"properties":{"zip":"60453","geo_score":0.714,"id":"a6df6bd6qwmf","geo_precision":"zip"},"type":"Feature","geometry":{"type":"Point","coordinates":[-87.68732,41.811929]}},{"properties":{"zip":"60544","geo_score":0.714,"id":"a6df6bj6fbzl","geo_precision":"zip"},"type":"Feature","geometry":{"type":"Point","coordinates":[-88.181452,41.590308]}},{"properties":{"zip":"49031","geo_score":0.714,"id":"a6df6bm6q192","geo_precision":"zip"},"type":"Feature","geometry":{"type":"Point","coordinates":[-85.958338,41.907269]}},{"properties":{"zip":"46530","geo_score":0.714,"id":"a6df6bnn6zuz","geo_precision":"zip"},"type":"Feature","geometry":{"type":"Point","coordinates":[-86.139868,41.734912]}},{"properties":{"zip":"46530","geo_score":0.714,"id":"a6df6bg9528v","geo_precision":"zip"},"type":"Feature","geometry":{"type":"Point","coordinates":[-86.139868,41.734912]}},{"properties":{"zip":"46530","geo_score":0.714,"id":"a6df6bcf6g4b","geo_precision":"zip"},"type":"Feature","geometry":{"type":"Point","coordinates":[-86.139868,41.734912]}},{"properties":{"zip":"46530","geo_score":0.714,"id":"a6df6bhcsynd","geo_precision":"zip"},"type":"Feature","geometry":{"type":"Point","coordinates":[-86.139868,41.734912]}},{"properties":{"zip":"46545","geo_score":0.714,"id":"a6df6bfa66mr","geo_precision":"zip"},"type":"Feature","geometry":{"type":"Point","coordinates":[-86.304735,41.696407]}},{"properties":{"zip":"46635","geo_score":0.714,"id":"a6df6bcv8jzj","geo_precision":"zip"},"type":"Feature","geometry":{"type":"Point","coordinates":[-86.21695,41.700048]}},{"properties":{"zip":"46635","geo_score":0.714,"id":"a6df6bi7wgo4","geo_precision":"zip"},"type":"Feature","geometry":{"type":"Point","coordinates":[-86.21695,41.700048]}},{"properties":{"zip":"60618","geo_score":0.714,"id":"a6df6bhaz927","geo_precision":"zip"},"type":"Feature","geometry":{"type":"Point","coordinates":[-87.68732,41.811929]}},{"properties":{"zip":"60618","geo_score":0.714,"id":"a6df6bdue2o1","geo_precision":"zip"},"type":"Feature","geometry":{"type":"Point","coordinates":[-87.68732,41.811929]}},{"properties":{"zip":"46614","geo_score":0.714,"id":"a6df6bs4waxu","geo_precision":"zip"},"type":"Feature","geometry":{"type":"Point","coordinates":[-86.236117,41.598937]}},{"properties":{"zip":"49031","geo_score":0.714,"id":"a6df6bj16sip","geo_precision":"zip"},"type":"Feature","geometry":{"type":"Point","coordinates":[-85.958338,41.907269]}},{"properties":{"zip":"46530","geo_score":0.714,"id":"a6df6bcjgbf6","geo_precision":"zip"},"type":"Feature","geometry":{"type":"Point","coordinates":[-86.139868,41.734912]}},{"properties":{"zip":"60625","geo_score":0.714,"id":"a6df6bqr1729","geo_precision":"zip"},"type":"Feature","geometry":{"type":"Point","coordinates":[-87.68732,41.811929]}},{"properties":{"zip":"46530","geo_score":0.714,"id":"a6df6bccporx","geo_precision":"zip"},"type":"Feature","geometry":{"type":"Point","coordinates":[-86.139868,41.734912]}},{"properties":{"zip":"46530","geo_score":0.714,"id":"a6df6bomgo6b","geo_precision":"zip"},"type":"Feature","geometry":{"type":"Point","coordinates":[-86.139868,41.734912]}},{"properties":{"zip":"46530","geo_score":0.714,"id":"a6df6bs4nimv","geo_precision":"zip"},"type":"Feature","geometry":{"type":"Point","coordinates":[-86.139868,41.734912]}},{"properties":{"zip":"46530","geo_score":0.714,"id":"a6df6bcpjv79","geo_precision":"zip"},"type":"Feature","geometry":{"type":"Point","coordinates":[-86.139868,41.734912]}},{"properties":{"zip":"46530","geo_score":0.714,"id":"a6df6bol665r","geo_precision":"zip"},"type":"Feature","geometry":{"type":"Point","coordinates":[-86.139868,41.734912]}},{"properties":{"zip":"46530","geo_score":0.714,"id":"a6df6bqqjhwi","geo_precision":"zip"},"type":"Feature","geometry":{"type":"Point","coordinates":[-86.139868,41.734912]}},{"properties":{"zip":"46530","geo_score":0.714,"id":"a6df6bmpoob0","geo_precision":"zip"},"type":"Feature","geometry":{"type":"Point","coordinates":[-86.139868,41.734912]}},{"properties":{"zip":"46544","geo_score":0.714,"id":"a6df6bmvhooz","geo_precision":"zip"},"type":"Feature","geometry":{"type":"Point","coordinates":[-86.287884,41.61536]}},{"properties":{"zip":"46544","geo_score":0.714,"id":"a6df6bs5xqvn","geo_precision":"zip"},"type":"Feature","geometry":{"type":"Point","coordinates":[-86.287884,41.61536]}},{"properties":{"zip":"46544","geo_score":0.714,"id":"a6df6bkgrx69","geo_precision":"zip"},"type":"Feature","geometry":{"type":"Point","coordinates":[-86.287884,41.61536]}},{"properties":{"zip":"49112","geo_score":0.714,"id":"a6df6bkesvq5","geo_precision":"zip"},"type":"Feature","geometry":{"type":"Point","coordinates":[-85.896943,41.776716]}},{"properties":{"zip":"46615","geo_score":0.714,"id":"a6df6bcmik7p","geo_precision":"zip"},"type":"Feature","geometry":{"type":"Point","coordinates":[-86.216105,41.677046]}},{"properties":{"zip":"46544","geo_score":0.714,"id":"a6df6bf1fzcj","geo_precision":"zip"},"type":"Feature","geometry":{"type":"Point","coordinates":[-86.287884,41.61536]}},{"properties":{"zip":"46544","geo_score":0.714,"id":"a6df6bfvv6g9","geo_precision":"zip"},"type":"Feature","geometry":{"type":"Point","coordinates":[-86.287884,41.61536]}},{"properties":{"zip":"46544","geo_score":0.714,"id":"a6df6blaf36x","geo_precision":"zip"},"type":"Feature","geometry":{"type":"Point","coordinates":[-86.287884,41.61536]}},{"properties":{"zip":"46614","geo_score":0.714,"id":"a6df6blfnhru","geo_precision":"zip"},"type":"Feature","geometry":{"type":"Point","coordinates":[-86.236117,41.598937]}},{"properties":{"zip":"49120","geo_score":0.714,"id":"a6df6bi30i8a","geo_precision":"zip"},"type":"Feature","geometry":{"type":"Point","coordinates":[-86.207512,41.911713]}},{"properties":{"zip":"49120","geo_score":0.714,"id":"a6df6bryea4i","geo_precision":"zip"},"type":"Feature","geometry":{"type":"Point","coordinates":[-86.207512,41.911713]}},{"properties":{"zip":"46530","geo_score":0.714,"id":"a6df6bgvd1l1","geo_precision":"zip"},"type":"Feature","geometry":{"type":"Point","coordinates":[-86.139868,41.734912]}},{"properties":{"zip":"46614","geo_score":0.714,"id":"a6df6bhhmgdo","geo_precision":"zip"},"type":"Feature","geometry":{"type":"Point","coordinates":[-86.236117,41.598937]}},{"properties":{"zip":"46619","geo_score":0.714,"id":"a6df6bpm0sim","geo_precision":"zip"},"type":"Feature","geometry":{"type":"Point","coordinates":[-86.177226,41.564493]}},{"properties":{"zip":"37129","geo_score":0.714,"id":"a6df6bj4kapp","geo_precision":"zip"},"type":"Feature","geometry":{"type":"Point","coordinates":[-86.423535,35.901746]}},{"properties":{"zip":"37129","geo_score":0.714,"id":"a6df6bgkknup","geo_precision":"zip"},"type":"Feature","geometry":{"type":"Point","coordinates":[-86.423535,35.901746]}},{"properties":{"zip":"46637","geo_score":0.714,"id":"a6df6bfpev22","geo_precision":"zip"},"type":"Feature","geometry":{"type":"Point","coordinates":[-86.252507,41.716159]}},{"properties":{"zip":"49079","geo_score":0.714,"id":"a6df6bphuntw","geo_precision":"zip"},"type":"Feature","geometry":{"type":"Point","coordinates":[-85.956409,42.302815]}},{"properties":{"zip":"46530","geo_score":0.714,"id":"a6df6be9o55v","geo_precision":"zip"},"type":"Feature","geometry":{"type":"Point","coordinates":[-86.139868,41.734912]}},{"properties":{"zip":"46561","geo_score":0.714,"id":"a6df6bjxglva","geo_precision":"zip"},"type":"Feature","geometry":{"type":"Point","coordinates":[-86.074447,41.694215]}},{"properties":{"zip":"46530","geo_score":0.714,"id":"a6df6bpulskq","geo_precision":"zip"},"type":"Feature","geometry":{"type":"Point","coordinates":[-86.139868,41.734912]}},{"properties":{"zip":"46530","geo_score":0.714,"id":"a6df6bkuw58g","geo_precision":"zip"},"type":"Feature","geometry":{"type":"Point","coordinates":[-86.139868,41.734912]}},{"properties":{"zip":"46514","geo_score":0.714,"id":"a6df6bdkx7oy","geo_precision":"zip"},"type":"Feature","geometry":{"type":"Point","coordinates":[-85.975001,41.754216]}},{"properties":{"zip":"46514","geo_score":0.714,"id":"a6df6bobwgo7","geo_precision":"zip"},"type":"Feature","geometry":{"type":"Point","coordinates":[-85.975001,41.754216]}},{"properties":{"zip":"46617","geo_score":0.714,"id":"a6df6bf13k5g","geo_precision":"zip"},"type":"Feature","geometry":{"type":"Point","coordinates":[-86.238906,41.682897]}},{"properties":{"zip":"46617","geo_score":0.714,"id":"a6df6bgb9k1m","geo_precision":"zip"},"type":"Feature","geometry":{"type":"Point","coordinates":[-86.238906,41.682897]}},{"properties":{"zip":"46545","geo_score":0.714,"id":"a6df6bqn05bs","geo_precision":"zip"},"type":"Feature","geometry":{"type":"Point","coordinates":[-86.304735,41.696407]}},{"properties":{"zip":"60453","geo_score":0.714,"id":"a6df6br88dal","geo_precision":"zip"},"type":"Feature","geometry":{"type":"Point","coordinates":[-87.68732,41.811929]}},{"properties":{"zip":"48442","geo_score":0.714,"id":"a6df6bjdebsz","geo_precision":"zip"},"type":"Feature","geometry":{"type":"Point","coordinates":[-83.625227,42.860028]}},{"properties":{"zip":"49120","geo_score":0.714,"id":"a6df6bs995ww","geo_precision":"zip"},"type":"Feature","geometry":{"type":"Point","coordinates":[-86.207512,41.911713]}},{"properties":{"zip":"60625","geo_score":0.714,"id":"a6df6bph24oe","geo_precision":"zip"},"type":"Feature","geometry":{"type":"Point","coordinates":[-87.68732,41.811929]}},{"properties":{"zip":"46530","geo_score":0.714,"id":"a6df6blht7pp","geo_precision":"zip"},"type":"Feature","geometry":{"type":"Point","coordinates":[-86.139868,41.734912]}},{"properties":{"zip":"46619","geo_score":0.714,"id":"a6df6bpofo28","geo_precision":"zip"},"type":"Feature","geometry":{"type":"Point","coordinates":[-86.177226,41.564493]}},{"properties":{"zip":"46619","geo_score":0.714,"id":"a6df6bqsa37p","geo_precision":"zip"},"type":"Feature","geometry":{"type":"Point","coordinates":[-86.177226,41.564493]}},{"properties":{"zip":"46619","geo_score":0.714,"id":"a6df6bl2fha1","geo_precision":"zip"},"type":"Feature","geometry":{"type":"Point","coordinates":[-86.177226,41.564493]}},{"properties":{"zip":"49130","geo_score":0.714,"id":"a6df6bo4wibb","geo_precision":"zip"},"type":"Feature","geometry":{"type":"Point","coordinates":[-85.866011,41.800617]}},{"properties":{"zip":"49130","geo_score":0.714,"id":"a6df6bpmwbwn","geo_precision":"zip"},"type":"Feature","geometry":{"type":"Point","coordinates":[-85.866011,41.800617]}},{"properties":{"zip":"49301","geo_score":0.714,"id":"a6df6bqhe8w5","geo_precision":"zip"},"type":"Feature","geometry":{"type":"Point","coordinates":[-85.411412,43.043363]}},{"properties":{"zip":"60304","geo_score":0.714,"id":"a6df6boidjw9","geo_precision":"zip"},"type":"Feature","geometry":{"type":"Point","coordinates":[-87.68732,41.811929]}},{"properties":{"zip":"60304","geo_score":0.714,"id":"a6df6bdz93wt","geo_precision":"zip"},"type":"Feature","geometry":{"type":"Point","coordinates":[-87.68732,41.811929]}},{"properties":{"zip":"46383","geo_score":0.714,"id":"a6df6bm4hzc1","geo_precision":"zip"},"type":"Feature","geometry":{"type":"Point","coordinates":[-87.097253,41.464761]}},{"properties":{"zip":"46360","geo_score":0.714,"id":"a6df6bjumok6","geo_precision":"zip"},"type":"Feature","geometry":{"type":"Point","coordinates":[-86.845028,41.671429]}},{"properties":{"zip":"46545","geo_score":0.714,"id":"a6df6bs59adw","geo_precision":"zip"},"type":"Feature","geometry":{"type":"Point","coordinates":[-86.304735,41.696407]}},{"properties":{"zip":"49093","geo_score":0.714,"id":"a6df6bmyakep","geo_precision":"zip"},"type":"Feature","geometry":{"type":"Point","coordinates":[-85.547771,42.015881]}},{"properties":{"zip":"46614","geo_score":0.714,"id":"a6df6be0z80d","geo_precision":"zip"},"type":"Feature","geometry":{"type":"Point","coordinates":[-86.236117,41.598937]}},{"properties":{"zip":"46530","geo_score":0.714,"id":"a6df6blgijr5","geo_precision":"zip"},"type":"Feature","geometry":{"type":"Point","coordinates":[-86.139868,41.734912]}},{"properties":{"zip":"46552","geo_score":0.714,"id":"a6df6bc5ke03","geo_precision":"zip"},"type":"Feature","geometry":{"type":"Point","coordinates":[-86.549741,41.704767]}}],"is_temporal":false,"author":{"url":"","metadata":"","contact_name":"","contact_address":"","source":"","contact_phone":""},"source":"","pagination":{"sort":null,"start":0,"total":345,"limit":1000000},"state":"complete","tags":"","published":"2014-08-12T21:27:18-04:00","id":100311}