{"type":"FeatureCollection","data_type":"Dataset","url_type":null,"permissions":[{"permissions":{"download":true,"view":true},"group_id":"everyone"}],"classification":null,"title":"addresses","count":128,"stream_id":100372,"contributor":{"url":"http://geocommons.com/users/23555","name":"ryandick"},"data_attributes":null,"calculation_params":null,"icon_link":null,"link":"http://geocommons.com/overlays/100372.json","extent":[-79.0532,42.6763,-78.4635,43.1168],"geometry_types":["point"],"unique_name":null,"name":"addresses","feature_count":128,"description":"","next_feature":null,"is_raster":false,"short_classification":"Y","stats":{},"features":[{"properties":{"geo_score":0.737,"id":"a6mw98xmop81","geo_precision":"range","address":"236 McKinley, 14217"},"type":"Feature","geometry":{"type":"Point","coordinates":[-78.860391,42.964718]}},{"properties":{"geo_score":0.761,"id":"a6mw98zebmlj","geo_precision":"range","address":"124 Warsaw, 14218"},"type":"Feature","geometry":{"type":"Point","coordinates":[-78.830659,42.814702]}},{"properties":{"geo_score":0.745,"id":"a6mw98ryljrw","geo_precision":"range","address":"339 Bedford, 14216"},"type":"Feature","geometry":{"type":"Point","coordinates":[-78.877202,42.939624]}},{"properties":{"geo_score":0.743,"id":"a6mw98sx552c","geo_precision":"range","address":"216 Minnesota, 14215"},"type":"Feature","geometry":{"type":"Point","coordinates":[-78.821537,42.946629]}},{"properties":{"geo_score":0.743,"id":"a6mw98y26238","geo_precision":"range","address":"240 Kohler, 14150"},"type":"Feature","geometry":{"type":"Point","coordinates":[-78.884208,43.010836]}},{"properties":{"geo_score":0.739,"id":"a6mw997qgqyy","geo_precision":"range","address":"252 E Main, 14075"},"type":"Feature","geometry":{"type":"Point","coordinates":[-78.820392,42.715305]}},{"properties":{"geo_score":0.74,"id":"a6mw9924hgjp","geo_precision":"range","address":"2923 Cleveland, 14305"},"type":"Feature","geometry":{"type":"Point","coordinates":[-79.026994,43.106436]}},{"properties":{"geo_score":0.73,"id":"a6mw993ji4m7","geo_precision":"range","address":"320 Windermere, 14226"},"type":"Feature","geometry":{"type":"Point","coordinates":[-78.819528,42.965955]}},{"properties":{"geo_score":0.731,"id":"a6mw98xyi6w2","geo_precision":"range","address":"172 Lasalle, 14214"},"type":"Feature","geometry":{"type":"Point","coordinates":[-78.824398,42.945869]}},{"properties":{"geo_score":0.741,"id":"a6mw98uu738s","geo_precision":"range","address":"107 North Ellwood, 14223"},"type":"Feature","geometry":{"type":"Point","coordinates":[-78.840262,42.967852]}},{"properties":{"geo_score":0.759,"id":"a6mw994x9ity","geo_precision":"range","address":"3945 Clinton, 14224"},"type":"Feature","geometry":{"type":"Point","coordinates":[-78.737903,42.856637]}},{"properties":{"geo_score":0.749,"id":"a6mw99169mgy","geo_precision":"range","address":"4392 Stratford, 14075"},"type":"Feature","geometry":{"type":"Point","coordinates":[-78.872286,42.764751]}},{"properties":{"geo_score":0.768,"id":"a6mw995wjhk9","geo_precision":"range","address":"561 William, 14206"},"type":"Feature","geometry":{"type":"Point","coordinates":[-78.850576,42.885133]}},{"properties":{"geo_score":0.741,"id":"a6mw993kvl7m","geo_precision":"range","address":"39 Towhee Ct, 14051"},"type":"Feature","geometry":{"type":"Point","coordinates":[-78.713718,43.017089]}},{"properties":{"geo_score":0.0,"id":"a6mw98t1zhi3","geo_precision":"unmatched","address":"226 78th, 14304"},"type":"Feature","geometry":null},{"properties":{"geo_score":0.745,"id":"a6mw990gp1ap","geo_precision":"range","address":"100 Rutland, 14212"},"type":"Feature","geometry":{"type":"Point","coordinates":[-78.785372,42.897488]}},{"properties":{"geo_score":0.749,"id":"a6mw990j8zaf","geo_precision":"range","address":"256 Ruskin, 14226"},"type":"Feature","geometry":{"type":"Point","coordinates":[-78.794812,42.955744]}},{"properties":{"geo_score":0.839,"id":"a6mw98uw67rw","geo_precision":"range","address":"49 Maple Terrace, 14120"},"type":"Feature","geometry":{"type":"Point","coordinates":[-78.874869,43.045967]}},{"properties":{"geo_score":0.709,"id":"a6mw992dwj7w","geo_precision":"range","address":"89 Floss, 14211"},"type":"Feature","geometry":{"type":"Point","coordinates":[-78.804939,42.91862]}},{"properties":{"geo_score":0.743,"id":"a6mw98z943u8","geo_precision":"range","address":"97 Roosevelt, 14215"},"type":"Feature","geometry":{"type":"Point","coordinates":[-78.810084,42.933847]}},{"properties":{"geo_score":0.699,"id":"a6mw98uswayb","geo_precision":"range","address":"1644 Parker, 14150"},"type":"Feature","geometry":{"type":"Point","coordinates":[-78.837424,42.98438]}},{"properties":{"geo_score":0.816,"id":"a6mw98wzs91k","geo_precision":"range","address":"2760 Niagara Rd, 14304"},"type":"Feature","geometry":{"type":"Point","coordinates":[-78.894042,43.103755]}},{"properties":{"geo_score":0.824,"id":"a6mw990ehal9","geo_precision":"range","address":"147 Heath Ter, 14223"},"type":"Feature","geometry":{"type":"Point","coordinates":[-78.842665,42.967302]}},{"properties":{"geo_score":0.768,"id":"a6mw98vf59en","geo_precision":"range","address":"63 Kendale, 14215"},"type":"Feature","geometry":{"type":"Point","coordinates":[-78.795298,42.942376]}},{"properties":{"geo_score":0.745,"id":"a6mw992wk669","geo_precision":"range","address":"232 Bissell, 14211"},"type":"Feature","geometry":{"type":"Point","coordinates":[-78.823245,42.910046]}},{"properties":{"geo_score":0.717,"id":"a6mw992jqsqx","geo_precision":"range","address":"62 Andover, 14215"},"type":"Feature","geometry":{"type":"Point","coordinates":[-78.817357,42.933974]}},{"properties":{"geo_score":0.734,"id":"a6mw992u2p8q","geo_precision":"range","address":"826 East Delavan, 14215"},"type":"Feature","geometry":{"type":"Point","coordinates":[-78.826359,42.922399]}},{"properties":{"geo_score":0.739,"id":"a6mw990n5vvx","geo_precision":"range","address":"162 Delta, 14226"},"type":"Feature","geometry":{"type":"Point","coordinates":[-78.81877,42.976904]}},{"properties":{"geo_score":0.725,"id":"a6mw98vn2hdk","geo_precision":"range","address":"170 Mona, 14226"},"type":"Feature","geometry":{"type":"Point","coordinates":[-78.809638,42.949863]}},{"properties":{"geo_score":0.805,"id":"a6mw98w42m3n","geo_precision":"range","address":"99 Redwood Ter, 14221"},"type":"Feature","geometry":{"type":"Point","coordinates":[-78.745708,42.994955]}},{"properties":{"geo_score":0.805,"id":"a6mw98sehcwu","geo_precision":"range","address":"22 Pansy Pl, 14208"},"type":"Feature","geometry":{"type":"Point","coordinates":[-78.84694,42.920819]}},{"properties":{"geo_score":0.902,"id":"a6mw98x58qma","geo_precision":"range","address":"39 Admirals Walk, 14208"},"type":"Feature","geometry":{"type":"Point","coordinates":[-78.829337,43.049822]}},{"properties":{"geo_score":0.746,"id":"a6mw994kolrg","geo_precision":"range","address":"411 Dearborn, 14207"},"type":"Feature","geometry":{"type":"Point","coordinates":[-78.904019,42.940121]}},{"properties":{"geo_score":0.695,"id":"a6mw98wn9aj3","geo_precision":"range","address":"49 Woltz, 14212"},"type":"Feature","geometry":{"type":"Point","coordinates":[-78.83555,42.89519]}},{"properties":{"geo_score":0.737,"id":"a6mw98zvyf6k","geo_precision":"range","address":"45 Glenwood, 14209"},"type":"Feature","geometry":{"type":"Point","coordinates":[-78.864006,42.912471]}},{"properties":{"geo_score":0.707,"id":"a6mw993uv5i9","geo_precision":"range","address":"127 Bame, 14215"},"type":"Feature","geometry":{"type":"Point","coordinates":[-78.800443,42.947391]}},{"properties":{"geo_score":0.766,"id":"a6mw98yaybqn","geo_precision":"range","address":"102 Briarhurst, 14221"},"type":"Feature","geometry":{"type":"Point","coordinates":[-78.744574,42.986643]}},{"properties":{"geo_score":0.822,"id":"a6mw9985izng","geo_precision":"range","address":"1252 Charlesgate Circle, 14051"},"type":"Feature","geometry":{"type":"Point","coordinates":[-78.720845,43.048579]}},{"properties":{"geo_score":0.759,"id":"a6mw98uuqb0z","geo_precision":"range","address":"133 Macamley, 14220"},"type":"Feature","geometry":{"type":"Point","coordinates":[-78.825087,42.853893]}},{"properties":{"geo_score":0.707,"id":"a6mw98wkdo2j","geo_precision":"range","address":"3009 Mckoon, 14305"},"type":"Feature","geometry":{"type":"Point","coordinates":[-79.053178,43.116844]}},{"properties":{"geo_score":0.735,"id":"a6mw992kxcgk","geo_precision":"range","address":"80 Heath, 14214"},"type":"Feature","geometry":{"type":"Point","coordinates":[-78.826985,42.953617]}},{"properties":{"geo_score":0.717,"id":"a6mw98x9u566","geo_precision":"range","address":"171 E Morris, 14214"},"type":"Feature","geometry":{"type":"Point","coordinates":[-78.830564,42.940947]}},{"properties":{"geo_score":0.732,"id":"a6mw993fet0m","geo_precision":"range","address":"59 Hedley, 14208"},"type":"Feature","geometry":{"type":"Point","coordinates":[-78.851654,42.922912]}},{"properties":{"geo_score":0.746,"id":"a6mw995d1arr","geo_precision":"range","address":"85 Parkside, 14214"},"type":"Feature","geometry":{"type":"Point","coordinates":[-78.833985,42.950251]}},{"properties":{"geo_score":0.743,"id":"a6mw996cfhd5","geo_precision":"range","address":"502 Berkshire, 14215"},"type":"Feature","geometry":{"type":"Point","coordinates":[-78.810374,42.941136]}},{"properties":{"geo_score":0.564,"id":"a6mw99039e0f","geo_precision":"street","address":"306 Sycamore, 14211"},"type":"Feature","geometry":{"type":"Point","coordinates":[-78.82888,42.900915]}},{"properties":{"geo_score":0.707,"id":"a6mw990r9lpo","geo_precision":"range","address":"459 Lisbon, 14215"},"type":"Feature","geometry":{"type":"Point","coordinates":[-78.81186,42.946665]}},{"properties":{"geo_score":0.752,"id":"a6mw98v5yp01","geo_precision":"range","address":"135 Franklin, 14150"},"type":"Feature","geometry":{"type":"Point","coordinates":[-78.888831,43.012269]}},{"properties":{"geo_score":0.75,"id":"a6mw995c0cu3","geo_precision":"range","address":"412 Tremont, 14120"},"type":"Feature","geometry":{"type":"Point","coordinates":[-78.863816,43.025935]}},{"properties":{"geo_score":0.707,"id":"a6mw98vl4uuh","geo_precision":"range","address":"36 Condon, 14207"},"type":"Feature","geometry":{"type":"Point","coordinates":[-78.904298,42.955139]}},{"properties":{"geo_score":0.707,"id":"a6mw98t18vsp","geo_precision":"range","address":"28 Martha, 14215"},"type":"Feature","geometry":{"type":"Point","coordinates":[-78.812723,42.934409]}},{"properties":{"geo_score":0.732,"id":"a6mw990l7x7i","geo_precision":"range","address":"168 Harris Ct, 14225"},"type":"Feature","geometry":{"type":"Point","coordinates":[-78.742306,42.922583]}},{"properties":{"geo_score":0.759,"id":"a6mw992kpqpz","geo_precision":"range","address":"72 Lawnwood, 14228"},"type":"Feature","geometry":{"type":"Point","coordinates":[-78.815407,43.046015]}},{"properties":{"geo_score":0.746,"id":"a6mw98tzm50k","geo_precision":"range","address":"215 Keystone, 14211"},"type":"Feature","geometry":{"type":"Point","coordinates":[-78.810451,42.907543]}},{"properties":{"geo_score":0.6,"id":"a6mw98zs9hz6","geo_precision":"range","address":"34 Saint James, 14225"},"type":"Feature","geometry":{"type":"Point","coordinates":[-78.751838,42.918522]}},{"properties":{"geo_score":0.721,"id":"a6mw99064yog","geo_precision":"range","address":"45 Briggs, 14207"},"type":"Feature","geometry":{"type":"Point","coordinates":[-78.907264,42.950374]}},{"properties":{"geo_score":0.695,"id":"a6mw98ursh5y","geo_precision":"range","address":"45 Weber, 14215"},"type":"Feature","geometry":{"type":"Point","coordinates":[-78.803402,42.919871]}},{"properties":{"geo_score":0.724,"id":"a6mw98un85i5","geo_precision":"range","address":"138 Cunard, 14225"},"type":"Feature","geometry":{"type":"Point","coordinates":[-78.761868,42.928452]}},{"properties":{"geo_score":0.0,"id":"a6mw9955tpmb","geo_precision":"unmatched","address":"1037 92nd, 14304"},"type":"Feature","geometry":null},{"properties":{"geo_score":0.707,"id":"a6mw9929z1na","geo_precision":"range","address":"431 Lisbon, 14215"},"type":"Feature","geometry":{"type":"Point","coordinates":[-78.812735,42.946672]}},{"properties":{"geo_score":0.735,"id":"a6mw98tvauby","geo_precision":"range","address":"123 Palmer, 14217"},"type":"Feature","geometry":{"type":"Point","coordinates":[-78.875069,42.969977]}},{"properties":{"geo_score":0.717,"id":"a6mw98tdsuau","geo_precision":"range","address":"18 Phyllis, 14215"},"type":"Feature","geometry":{"type":"Point","coordinates":[-78.813196,42.935804]}},{"properties":{"geo_score":0.383,"id":"a6mw98w6z8pp","geo_precision":"street","address":"159 Wood Acres, 14051"},"type":"Feature","geometry":{"type":"Point","coordinates":[-78.789555,43.002657]}},{"properties":{"geo_score":0.771,"id":"a6mw98wn5o9o","geo_precision":"range","address":"993 Englewood, 14223"},"type":"Feature","geometry":{"type":"Point","coordinates":[-78.851555,42.971464]}},{"properties":{"geo_score":0.725,"id":"a6mw9938u713","geo_precision":"range","address":"101 Thatcher, 14215"},"type":"Feature","geometry":{"type":"Point","coordinates":[-78.818397,42.938523]}},{"properties":{"geo_score":0.741,"id":"a6mw992atnih","geo_precision":"range","address":"2732 Orleans, 14303"},"type":"Feature","geometry":{"type":"Point","coordinates":[-79.029055,43.089922]}},{"properties":{"geo_score":0.0,"id":"a6mw992mf5ui","geo_precision":"unmatched","address":"485 23rd, 14303"},"type":"Feature","geometry":null},{"properties":{"geo_score":0.757,"id":"a6mw9930bp69","geo_precision":"range","address":"9 Franklin, 14086"},"type":"Feature","geometry":{"type":"Point","coordinates":[-78.667548,42.896958]}},{"properties":{"geo_score":0.743,"id":"a6mw98xm7ldf","geo_precision":"range","address":"178 Roosevelt, 14215"},"type":"Feature","geometry":{"type":"Point","coordinates":[-78.807613,42.933858]}},{"properties":{"geo_score":0.771,"id":"a6mw98yr1soc","geo_precision":"range","address":"97 Westgate, 14217"},"type":"Feature","geometry":{"type":"Point","coordinates":[-78.873813,42.964513]}},{"properties":{"geo_score":0.793,"id":"a6mw98tncb6p","geo_precision":"range","address":"67 Eller, 14215"},"type":"Feature","geometry":{"type":"Point","coordinates":[-78.800655,42.915527]}},{"properties":{"geo_score":0.0,"id":"a6mw9930gddl","geo_precision":"unmatched","address":"136 60th, 14304"},"type":"Feature","geometry":null},{"properties":{"geo_score":0.732,"id":"a6mw992vm3dm","geo_precision":"range","address":"458 Broad, 14150"},"type":"Feature","geometry":{"type":"Point","coordinates":[-78.89184,43.013836]}},{"properties":{"geo_score":0.772,"id":"a6mw98wx8teo","geo_precision":"range","address":"5825 Genesee, 14086"},"type":"Feature","geometry":{"type":"Point","coordinates":[-78.635941,42.945333]}},{"properties":{"geo_score":0.772,"id":"a6mw98v97of0","geo_precision":"range","address":"261 S Division, 14204"},"type":"Feature","geometry":{"type":"Point","coordinates":[-78.865867,42.880995]}},{"properties":{"geo_score":0.735,"id":"a6mw98v4q9qz","geo_precision":"range","address":"36 Carol, 14215"},"type":"Feature","geometry":{"type":"Point","coordinates":[-78.794749,42.923451]}},{"properties":{"geo_score":0.776,"id":"a6mw996mye3d","geo_precision":"range","address":"50 Greenfield, 14214"},"type":"Feature","geometry":{"type":"Point","coordinates":[-78.843741,42.936906]}},{"properties":{"geo_score":0.721,"id":"a6mw990igl74","geo_precision":"range","address":"504 Riley, 14208"},"type":"Feature","geometry":{"type":"Point","coordinates":[-78.847786,42.909315]}},{"properties":{"geo_score":0.854,"id":"a6mw98st7muz","geo_precision":"range","address":"21 Carriage Hill East, 14221"},"type":"Feature","geometry":{"type":"Point","coordinates":[-78.755143,43.001316]}},{"properties":{"geo_score":0.759,"id":"a6mw991m5mim","geo_precision":"range","address":"103 Oakview, 14221"},"type":"Feature","geometry":{"type":"Point","coordinates":[-78.751998,43.011343]}},{"properties":{"geo_score":0.464,"id":"a6mw98vnh0u7","geo_precision":"street","address":"20 Court, 14150"},"type":"Feature","geometry":{"type":"Point","coordinates":[-78.463467,42.769636]}},{"properties":{"geo_score":0.751,"id":"a6mw9928k11h","geo_precision":"range","address":"1920 North Creek, 14085"},"type":"Feature","geometry":{"type":"Point","coordinates":[-78.939056,42.701909]}},{"properties":{"geo_score":0.707,"id":"a6mw992vn4tt","geo_precision":"range","address":"326 Colvin, 14216"},"type":"Feature","geometry":{"type":"Point","coordinates":[-78.859004,42.949799]}},{"properties":{"geo_score":0.74,"id":"a6mw98xe1udk","geo_precision":"range","address":"27 Harding, 14220"},"type":"Feature","geometry":{"type":"Point","coordinates":[-78.823227,42.840448]}},{"properties":{"geo_score":0.74,"id":"a6mw998b8t38","geo_precision":"range","address":"694 Emerson, 14226"},"type":"Feature","geometry":{"type":"Point","coordinates":[-78.808079,42.988054]}},{"properties":{"geo_score":0.823,"id":"a6mw98td32x5","geo_precision":"range","address":"1907 Cudaback, 14304"},"type":"Feature","geometry":{"type":"Point","coordinates":[-79.03886,43.086053]}},{"properties":{"geo_score":0.732,"id":"a6mw98tjpmmd","geo_precision":"range","address":"21 Parkridge, 14215"},"type":"Feature","geometry":{"type":"Point","coordinates":[-78.821621,42.93536]}},{"properties":{"geo_score":0.766,"id":"a6mw98uqxdzb","geo_precision":"range","address":"960 E Robinson, 14120"},"type":"Feature","geometry":{"type":"Point","coordinates":[-78.846318,43.035764]}},{"properties":{"geo_score":0.754,"id":"a6mw98ui3krj","geo_precision":"range","address":"44 Orchard, 14214"},"type":"Feature","geometry":{"type":"Point","coordinates":[-78.841031,42.938376]}},{"properties":{"geo_score":0.823,"id":"a6mw98wyf6bh","geo_precision":"range","address":"5215 Glenn Ter, 14075"},"type":"Feature","geometry":{"type":"Point","coordinates":[-78.789732,42.676304]}},{"properties":{"geo_score":0.751,"id":"a6mw98tm4end","geo_precision":"range","address":"3416 Warner, 14072"},"type":"Feature","geometry":{"type":"Point","coordinates":[-78.959784,43.055097]}},{"properties":{"geo_score":0.731,"id":"a6mw98vm2uhi","geo_precision":"range","address":"965 Parkhurst, 14150"},"type":"Feature","geometry":{"type":"Point","coordinates":[-78.829806,42.984447]}},{"properties":{"geo_score":0.771,"id":"a6mw996onq61","geo_precision":"range","address":"56 Zimmerman, 14120"},"type":"Feature","geometry":{"type":"Point","coordinates":[-78.855818,43.032157]}},{"properties":{"geo_score":0.733,"id":"a6mw9971alqy","geo_precision":"range","address":"2262 Woodlawn, 14301"},"type":"Feature","geometry":{"type":"Point","coordinates":[-79.035411,43.098894]}},{"properties":{"geo_score":0.74,"id":"a6mw9968f9kz","geo_precision":"range","address":"26 S Huxley, 14225"},"type":"Feature","geometry":{"type":"Point","coordinates":[-78.776018,42.936978]}},{"properties":{"geo_score":0.743,"id":"a6mw9974p9ix","geo_precision":"range","address":"5 Hazelwood, 14215"},"type":"Feature","geometry":{"type":"Point","coordinates":[-78.805904,42.919204]}},{"properties":{"geo_score":0.716,"id":"a6mw990tdntf","geo_precision":"range","address":"162 Oxford, 14226"},"type":"Feature","geometry":{"type":"Point","coordinates":[-78.817064,42.966818]}},{"properties":{"geo_score":0.727,"id":"a6mw994bhdbv","geo_precision":"range","address":"99 Lyndale, 14223"},"type":"Feature","geometry":{"type":"Point","coordinates":[-78.827148,42.961137]}},{"properties":{"geo_score":0.792,"id":"a6mw98znagz5","geo_precision":"range","address":"9535 Turnstone, 14031"},"type":"Feature","geometry":{"type":"Point","coordinates":[-78.636935,42.980047]}},{"properties":{"geo_score":0.727,"id":"a6mw9984wg0s","geo_precision":"range","address":"495 Wendel, 14223"},"type":"Feature","geometry":{"type":"Point","coordinates":[-78.8299,42.971741]}},{"properties":{"geo_score":0.782,"id":"a6mw98xj9kyc","geo_precision":"range","address":"91 Golden Pheasant, 14068"},"type":"Feature","geometry":{"type":"Point","coordinates":[-78.748222,43.028719]}},{"properties":{"geo_score":0.717,"id":"a6mw994f55ht","geo_precision":"range","address":"1430 Kenmore, 14216"},"type":"Feature","geometry":{"type":"Point","coordinates":[-78.870878,42.958679]}},{"properties":{"geo_score":0.725,"id":"a6mw98swppps","geo_precision":"range","address":"44 Victoria, 14214"},"type":"Feature","geometry":{"type":"Point","coordinates":[-78.837832,42.935321]}},{"properties":{"geo_score":0.74,"id":"a6mw98shybhf","geo_precision":"range","address":"154 S Huxley, 14225"},"type":"Feature","geometry":{"type":"Point","coordinates":[-78.776111,42.940839]}},{"properties":{"geo_score":0.731,"id":"a6mw995brsvl","geo_precision":"range","address":"566 Lasalle, 14215"},"type":"Feature","geometry":{"type":"Point","coordinates":[-78.811726,42.944953]}},{"properties":{"geo_score":0.737,"id":"a6mw98xk7wum","geo_precision":"range","address":"369 W Delavan, 14213"},"type":"Feature","geometry":{"type":"Point","coordinates":[-78.885896,42.9221]}},{"properties":{"geo_score":0.707,"id":"a6mw995m4ryf","geo_precision":"range","address":"225 Rounds, 14215"},"type":"Feature","geometry":{"type":"Point","coordinates":[-78.805904,42.947342]}},{"properties":{"geo_score":0.756,"id":"a6mw98xxr6q7","geo_precision":"range","address":"30 Jackson, 14218"},"type":"Feature","geometry":{"type":"Point","coordinates":[-78.843494,42.812928]}},{"properties":{"geo_score":0.748,"id":"a6mw994s2il0","geo_precision":"range","address":"2620 Eggert, 14150"},"type":"Feature","geometry":{"type":"Point","coordinates":[-78.834875,42.98771]}},{"properties":{"geo_score":0.815,"id":"a6mw98uukk79","geo_precision":"range","address":"175 Deumant Ter, 14223"},"type":"Feature","geometry":{"type":"Point","coordinates":[-78.848825,42.965868]}},{"properties":{"geo_score":0.732,"id":"a6mw98zm38bs","geo_precision":"range","address":"2747 Stenzel, 14120"},"type":"Feature","geometry":{"type":"Point","coordinates":[-78.898465,43.080666]}},{"properties":{"geo_score":0.82,"id":"a6mw9927iaw9","geo_precision":"range","address":"686 Niagara Falls Blvd, 14120"},"type":"Feature","geometry":{"type":"Point","coordinates":[-78.833437,43.057571]}},{"properties":{"geo_score":0.763,"id":"a6mw98sa25nd","geo_precision":"range","address":"204 Schoelles, 14228"},"type":"Feature","geometry":{"type":"Point","coordinates":[-78.763486,43.051717]}},{"properties":{"geo_score":0.71,"id":"a6mw98zgy9nj","geo_precision":"range","address":"198 Clair, 14120"},"type":"Feature","geometry":{"type":"Point","coordinates":[-78.837369,43.027312]}},{"properties":{"geo_score":0.743,"id":"a6mw9943lwv7","geo_precision":"range","address":"53 Hazelwood, 14215"},"type":"Feature","geometry":{"type":"Point","coordinates":[-78.805898,42.920688]}},{"properties":{"geo_score":0.725,"id":"a6mw98wfl6ua","geo_precision":"range","address":"633 Pasadena, 14304"},"type":"Feature","geometry":{"type":"Point","coordinates":[-78.958808,43.080198]}},{"properties":{"geo_score":0.763,"id":"a6mw991akiry","geo_precision":"range","address":"83 Roseville, 14210"},"type":"Feature","geometry":{"type":"Point","coordinates":[-78.851111,42.873327]}},{"properties":{"geo_score":0.731,"id":"a6mw993ycyxg","geo_precision":"range","address":"143 Wallace, 14214"},"type":"Feature","geometry":{"type":"Point","coordinates":[-78.84689,42.94713]}},{"properties":{"geo_score":0.707,"id":"a6mw9914ccxr","geo_precision":"range","address":"22 Kermit, 14215"},"type":"Feature","geometry":{"type":"Point","coordinates":[-78.816416,42.92361]}},{"properties":{"geo_score":0.748,"id":"a6mw997ydgwm","geo_precision":"range","address":"4702 Sawmill, 14031"},"type":"Feature","geometry":{"type":"Point","coordinates":[-78.589312,42.97433]}},{"properties":{"geo_score":0.709,"id":"a6mw98xyl1u4","geo_precision":"range","address":"294 N Park, 14216"},"type":"Feature","geometry":{"type":"Point","coordinates":[-78.855789,42.952572]}},{"properties":{"geo_score":0.715,"id":"a6mw991isu46","geo_precision":"range","address":"2923 Seneca, 14305"},"type":"Feature","geometry":{"type":"Point","coordinates":[-79.026942,43.110981]}},{"properties":{"geo_score":0.74,"id":"a6mw98v535tj","geo_precision":"range","address":"20 Sarabel Ct, 14225"},"type":"Feature","geometry":{"type":"Point","coordinates":[-78.759478,42.928507]}},{"properties":{"geo_score":0.739,"id":"a6mw99610yp0","geo_precision":"range","address":"191 Delta, 14226"},"type":"Feature","geometry":{"type":"Point","coordinates":[-78.818725,42.977776]}},{"properties":{"geo_score":0.778,"id":"a6mw98rtltya","geo_precision":"range","address":"94 Countryside, 14221"},"type":"Feature","geometry":{"type":"Point","coordinates":[-78.761298,43.008054]}},{"properties":{"geo_score":0.773,"id":"a6mw98umh2es","geo_precision":"range","address":"66 Millwood, 14150"},"type":"Feature","geometry":{"type":"Point","coordinates":[-78.830867,43.007746]}},{"properties":{"geo_score":0.741,"id":"a6mw992ey5ts","geo_precision":"range","address":"196 Bryant, 14120"},"type":"Feature","geometry":{"type":"Point","coordinates":[-78.867671,43.028771]}},{"properties":{"geo_score":0.695,"id":"a6mw98ut8nn9","geo_precision":"range","address":"329 Woltz, 14211"},"type":"Feature","geometry":{"type":"Point","coordinates":[-78.835516,42.90205]}}],"is_temporal":false,"author":{"url":"","metadata":"","contact_name":"","contact_address":"","source":"","contact_phone":""},"source":"","pagination":{"sort":null,"start":0,"total":128,"limit":1000000},"state":"complete","tags":"","published":"2014-08-12T21:34:04-04:00","id":100372}