{"type":"FeatureCollection","data_type":"Dataset","url_type":null,"permissions":[{"permissions":{"download":true,"view":true},"group_id":"everyone"}],"classification":null,"title":"2008 SBI reported prostitution arrests","count":74,"stream_id":100395,"contributor":{"url":"http://geocommons.com/users/23272","name":"NCpaired"},"data_attributes":null,"calculation_params":null,"icon_link":null,"link":"http://geocommons.com/overlays/100395.json","extent":[-82.9596,34.0902,-75.4693,36.446],"geometry_types":["point"],"unique_name":null,"name":"2008 SBI reported prostitution arrests","feature_count":74,"description":"Prostitution-related arrests reported to the North Carolina State Bureau of Investigation by law enforcement agencies for 2008; does not include the cities of Charlotte-Mecklenburg or Raleigh. Arrests for Durham appear to be inaccurate, based on a comparison of reports from the Durham Police Department.","next_feature":null,"is_raster":false,"short_classification":"Y","stats":{"latitude":{"max":36.445974,"mean":35.5621614054054,"variance":0.333446865391834,"stdev":0.577448582465862,"min":34.090202,"median":35.680441},"geo_score":{"max":0.857,"mean":0.838108108108108,"variance":0.0011006182895224,"stdev":0.0331755676593845,"min":0.729,"median":0.857},"no_arrests":{"max":130,"mean":12.5810810810811,"variance":695.42484265087,"stdev":26.3709090220809,"min":1,"median":2},"longitude":{"max":-75.469319,"mean":-79.3237592837838,"variance":2.88934772204919,"stdev":1.69980814271764,"min":-82.959617,"median":-79.42891}},"features":[{"properties":{"city":"Ahoskie","latitude":36.339311,"geo_score":0.857,"no_arrests":1,"longitude":-76.990498,"id":"a634s54vyzcv","geo_precision":"city","state":"NC"},"type":"Feature","geometry":{"type":"Point","coordinates":[-76.990498,36.339311]}},{"properties":{"city":"Albemarle","latitude":35.935995,"geo_score":0.806,"no_arrests":1,"longitude":-76.641331,"id":"a634s50x3cea","geo_precision":"city","state":"NC"},"type":"Feature","geometry":{"type":"Point","coordinates":[-76.641331,35.935995]}},{"properties":{"city":"Angier","latitude":35.478164,"geo_score":0.857,"no_arrests":3,"longitude":-78.729411,"id":"a634s4x1fmfz","geo_precision":"city","state":"NC"},"type":"Feature","geometry":{"type":"Point","coordinates":[-78.729411,35.478164]}},{"properties":{"city":"Archdale","latitude":35.914581,"geo_score":0.857,"no_arrests":1,"longitude":-79.971983,"id":"a634s57egrp7","geo_precision":"city","state":"NC"},"type":"Feature","geometry":{"type":"Point","coordinates":[-79.971983,35.914581]}},{"properties":{"city":"Asheboro","latitude":35.720699,"geo_score":0.857,"no_arrests":5,"longitude":-79.812805,"id":"a634s4yettx5","geo_precision":"city","state":"NC"},"type":"Feature","geometry":{"type":"Point","coordinates":[-79.812805,35.720699]}},{"properties":{"city":"Asheville","latitude":35.600945,"geo_score":0.857,"no_arrests":12,"longitude":-82.554015,"id":"a634s4tux2i1","geo_precision":"city","state":"NC"},"type":"Feature","geometry":{"type":"Point","coordinates":[-82.554015,35.600945]}},{"properties":{"city":"Brevard","latitude":35.174351,"geo_score":0.857,"no_arrests":2,"longitude":-82.753971,"id":"a634s4xiuv6c","geo_precision":"city","state":"NC"},"type":"Feature","geometry":{"type":"Point","coordinates":[-82.753971,35.174351]}},{"properties":{"city":"Burgaw","latitude":35.923211,"geo_score":0.762,"no_arrests":2,"longitude":-77.737755,"id":"a634s50aymef","geo_precision":"city","state":"NC"},"type":"Feature","geometry":{"type":"Point","coordinates":[-77.737755,35.923211]}},{"properties":{"city":"Burlington","latitude":36.091025,"geo_score":0.857,"no_arrests":16,"longitude":-79.430129,"id":"a634s54znyuk","geo_precision":"city","state":"NC"},"type":"Feature","geometry":{"type":"Point","coordinates":[-79.430129,36.091025]}},{"properties":{"city":"Burnsville","latitude":35.112373,"geo_score":0.857,"no_arrests":1,"longitude":-80.244506,"id":"a634s517eo8e","geo_precision":"city","state":"NC"},"type":"Feature","geometry":{"type":"Point","coordinates":[-80.244506,35.112373]}},{"properties":{"city":"Candor","latitude":35.264204,"geo_score":0.857,"no_arrests":2,"longitude":-79.800002,"id":"a634s523920a","geo_precision":"city","state":"NC"},"type":"Feature","geometry":{"type":"Point","coordinates":[-79.800002,35.264204]}},{"properties":{"city":"Cary","latitude":36.211527,"geo_score":0.821,"no_arrests":1,"longitude":-79.220017,"id":"a634s50miky7","geo_precision":"city","state":"NC"},"type":"Feature","geometry":{"type":"Point","coordinates":[-79.220017,36.211527]}},{"properties":{"city":"Clinton","latitude":35.482371,"geo_score":0.796,"no_arrests":6,"longitude":-79.416968,"id":"a634s5419yhh","geo_precision":"city","state":"NC"},"type":"Feature","geometry":{"type":"Point","coordinates":[-79.416968,35.482371]}},{"properties":{"city":"Columbia","latitude":35.936934,"geo_score":0.857,"no_arrests":2,"longitude":-76.203339,"id":"a634s55oil4y","geo_precision":"city","state":"NC"},"type":"Feature","geometry":{"type":"Point","coordinates":[-76.203339,35.936934]}},{"properties":{"city":"Concord","latitude":36.445974,"geo_score":0.857,"no_arrests":7,"longitude":-79.066402,"id":"a634s55sjsba","geo_precision":"city","state":"NC"},"type":"Feature","geometry":{"type":"Point","coordinates":[-79.066402,36.445974]}},{"properties":{"city":"Cornelius","latitude":35.473286,"geo_score":0.857,"no_arrests":2,"longitude":-80.872585,"id":"a634s4vm82lu","geo_precision":"city","state":"NC"},"type":"Feature","geometry":{"type":"Point","coordinates":[-80.872585,35.473286]}},{"properties":{"city":"Currituck","latitude":36.439774,"geo_score":0.857,"no_arrests":2,"longitude":-76.005478,"id":"a634s57cldr3","geo_precision":"city","state":"NC"},"type":"Feature","geometry":{"type":"Point","coordinates":[-76.005478,36.439774]}},{"properties":{"city":"Dunn","latitude":35.615133,"geo_score":0.821,"no_arrests":2,"longitude":-81.212581,"id":"a634s4yl4biv","geo_precision":"city","state":"NC"},"type":"Feature","geometry":{"type":"Point","coordinates":[-81.212581,35.615133]}},{"properties":{"city":"Durham","latitude":35.994033,"geo_score":0.857,"no_arrests":59,"longitude":-78.898619,"id":"a634s4zzbmn1","geo_precision":"city","state":"NC"},"type":"Feature","geometry":{"type":"Point","coordinates":[-78.898619,35.994033]}},{"properties":{"city":"Elizabeth City","latitude":35.711804,"geo_score":0.736,"no_arrests":14,"longitude":-80.106157,"id":"a634s4ye7nja","geo_precision":"city","state":"NC"},"type":"Feature","geometry":{"type":"Point","coordinates":[-80.106157,35.711804]}},{"properties":{"city":"Fayetteville","latitude":35.052664,"geo_score":0.857,"no_arrests":49,"longitude":-78.878359,"id":"a634s582hwit","geo_precision":"city","state":"NC"},"type":"Feature","geometry":{"type":"Point","coordinates":[-78.878359,35.052664]}},{"properties":{"city":"Goldsboro","latitude":35.368277,"geo_score":0.857,"no_arrests":5,"longitude":-78.092871,"id":"a634s4vzlbhj","geo_precision":"city","state":"NC"},"type":"Feature","geometry":{"type":"Point","coordinates":[-78.092871,35.368277]}},{"properties":{"city":"Graham","latitude":35.972114,"geo_score":0.857,"no_arrests":3,"longitude":-79.347527,"id":"a634s4zmc069","geo_precision":"city","state":"NC"},"type":"Feature","geometry":{"type":"Point","coordinates":[-79.347527,35.972114]}},{"properties":{"city":"Greensboro","latitude":36.072636,"geo_score":0.857,"no_arrests":108,"longitude":-79.791975,"id":"a634s50l7sz8","geo_precision":"city","state":"NC"},"type":"Feature","geometry":{"type":"Point","coordinates":[-79.791975,36.072636]}},{"properties":{"city":"Greenville","latitude":36.408734,"geo_score":0.831,"no_arrests":20,"longitude":-81.703445,"id":"a634s56ah4f5","geo_precision":"city","state":"NC"},"type":"Feature","geometry":{"type":"Point","coordinates":[-81.703445,36.408734]}},{"properties":{"city":"Halifax","latitude":36.33719,"geo_score":0.857,"no_arrests":3,"longitude":-77.629192,"id":"a634s4uw31n3","geo_precision":"city","state":"NC"},"type":"Feature","geometry":{"type":"Point","coordinates":[-77.629192,36.33719]}},{"properties":{"city":"Henderson","latitude":36.325768,"geo_score":0.857,"no_arrests":4,"longitude":-78.415777,"id":"a634s4xclp5s","geo_precision":"city","state":"NC"},"type":"Feature","geometry":{"type":"Point","coordinates":[-78.415777,36.325768]}},{"properties":{"city":"Hendersonville","latitude":36.325768,"geo_score":0.806,"no_arrests":6,"longitude":-78.415777,"id":"a634s553oww6","geo_precision":"city","state":"NC"},"type":"Feature","geometry":{"type":"Point","coordinates":[-78.415777,36.325768]}},{"properties":{"city":"Hickory","latitude":35.758221,"geo_score":0.857,"no_arrests":17,"longitude":-81.308224,"id":"a634s589sd12","geo_precision":"city","state":"NC"},"type":"Feature","geometry":{"type":"Point","coordinates":[-81.308224,35.758221]}},{"properties":{"city":"High Point","latitude":35.993538,"geo_score":0.857,"no_arrests":130,"longitude":-79.988711,"id":"a634s58dkp6p","geo_precision":"city","state":"NC"},"type":"Feature","geometry":{"type":"Point","coordinates":[-79.988711,35.993538]}},{"properties":{"city":"Hillsborough","latitude":36.077432,"geo_score":0.857,"no_arrests":1,"longitude":-79.085469,"id":"a634s564sifg","geo_precision":"city","state":"NC"},"type":"Feature","geometry":{"type":"Point","coordinates":[-79.085469,36.077432]}},{"properties":{"city":"Jackson","latitude":35.572639,"geo_score":0.805,"no_arrests":1,"longitude":-80.150051,"id":"a634s4yy08tl","geo_precision":"city","state":"NC"},"type":"Feature","geometry":{"type":"Point","coordinates":[-80.150051,35.572639]}},{"properties":{"city":"Jacksonville","latitude":35.572639,"geo_score":0.833,"no_arrests":11,"longitude":-80.150051,"id":"a634s508hxa8","geo_precision":"city","state":"NC"},"type":"Feature","geometry":{"type":"Point","coordinates":[-80.150051,35.572639]}},{"properties":{"city":"Kannapolis","latitude":35.462981,"geo_score":0.857,"no_arrests":4,"longitude":-80.672531,"id":"a634s53f6l5p","geo_precision":"city","state":"NC"},"type":"Feature","geometry":{"type":"Point","coordinates":[-80.672531,35.462981]}},{"properties":{"city":"Kernersville","latitude":35.404869,"geo_score":0.786,"no_arrests":4,"longitude":-79.574196,"id":"a634s4y84j3g","geo_precision":"city","state":"NC"},"type":"Feature","geometry":{"type":"Point","coordinates":[-79.574196,35.404869]}},{"properties":{"city":"Kings Mountain","latitude":35.296207,"geo_score":0.857,"no_arrests":1,"longitude":-81.491436,"id":"a634s56be9wl","geo_precision":"city","state":"NC"},"type":"Feature","geometry":{"type":"Point","coordinates":[-81.491436,35.296207]}},{"properties":{"city":"Kinston","latitude":35.220079,"geo_score":0.857,"no_arrests":14,"longitude":-77.615508,"id":"a634s55afp9l","geo_precision":"city","state":"NC"},"type":"Feature","geometry":{"type":"Point","coordinates":[-77.615508,35.220079]}},{"properties":{"city":"La Grange","latitude":35.215944,"geo_score":0.857,"no_arrests":2,"longitude":-77.631048,"id":"a634s4zw1gfw","geo_precision":"city","state":"NC"},"type":"Feature","geometry":{"type":"Point","coordinates":[-77.631048,35.215944]}},{"properties":{"city":"Laurinburg","latitude":34.796929,"geo_score":0.857,"no_arrests":3,"longitude":-79.475606,"id":"a634s585wb20","geo_precision":"city","state":"NC"},"type":"Feature","geometry":{"type":"Point","coordinates":[-79.475606,34.796929]}},{"properties":{"city":"Lenoir","latitude":35.937564,"geo_score":0.857,"no_arrests":2,"longitude":-81.539847,"id":"a634s4tb5a4u","geo_precision":"city","state":"NC"},"type":"Feature","geometry":{"type":"Point","coordinates":[-81.539847,35.937564]}},{"properties":{"city":"Lexington","latitude":35.801894,"geo_score":0.857,"no_arrests":11,"longitude":-80.210762,"id":"a634s4swx2sx","geo_precision":"city","state":"NC"},"type":"Feature","geometry":{"type":"Point","coordinates":[-80.210762,35.801894]}},{"properties":{"city":"Lincolnton","latitude":35.086546,"geo_score":0.805,"no_arrests":1,"longitude":-79.471982,"id":"a634s52zgvxk","geo_precision":"city","state":"NC"},"type":"Feature","geometry":{"type":"Point","coordinates":[-79.471982,35.086546]}},{"properties":{"city":"Longview","latitude":34.475168,"geo_score":0.857,"no_arrests":2,"longitude":-78.20222,"id":"a634s510tg82","geo_precision":"city","state":"NC"},"type":"Feature","geometry":{"type":"Point","coordinates":[-78.20222,34.475168]}},{"properties":{"city":"Lumberton","latitude":34.627222,"geo_score":0.81,"no_arrests":39,"longitude":-79.011944,"id":"a634s4sz1nkv","geo_precision":"city","state":"NC"},"type":"Feature","geometry":{"type":"Point","coordinates":[-79.011944,34.627222]}},{"properties":{"city":"Marion","latitude":35.684187,"geo_score":0.857,"no_arrests":1,"longitude":-82.034672,"id":"a634s51zrwq8","geo_precision":"city","state":"NC"},"type":"Feature","geometry":{"type":"Point","coordinates":[-82.034672,35.684187]}},{"properties":{"city":"Monroe","latitude":35.074176,"geo_score":0.857,"no_arrests":32,"longitude":-80.527827,"id":"a634s53m7nwt","geo_precision":"city","state":"NC"},"type":"Feature","geometry":{"type":"Point","coordinates":[-80.527827,35.074176]}},{"properties":{"city":"Mooresville","latitude":34.295725,"geo_score":0.81,"no_arrests":2,"longitude":-77.847484,"id":"a634s4t1zhxp","geo_precision":"city","state":"NC"},"type":"Feature","geometry":{"type":"Point","coordinates":[-77.847484,34.295725]}},{"properties":{"city":"Morehead City","latitude":35.711804,"geo_score":0.738,"no_arrests":2,"longitude":-80.106157,"id":"a634s4ywa5jx","geo_precision":"city","state":"NC"},"type":"Feature","geometry":{"type":"Point","coordinates":[-80.106157,35.711804]}},{"properties":{"city":"Morganton","latitude":36.122081,"geo_score":0.843,"no_arrests":1,"longitude":-79.42891,"id":"a634s4w668ap","geo_precision":"city","state":"NC"},"type":"Feature","geometry":{"type":"Point","coordinates":[-79.42891,36.122081]}},{"properties":{"city":"Morrisville","latitude":34.295725,"geo_score":0.821,"no_arrests":10,"longitude":-77.847484,"id":"a634s5259soc","geo_precision":"city","state":"NC"},"type":"Feature","geometry":{"type":"Point","coordinates":[-77.847484,34.295725]}},{"properties":{"city":"New Bern","latitude":35.098109,"geo_score":0.857,"no_arrests":1,"longitude":-77.178429,"id":"a634s50fstby","geo_precision":"city","state":"NC"},"type":"Feature","geometry":{"type":"Point","coordinates":[-77.178429,35.098109]}},{"properties":{"city":"Newport","latitude":34.766818,"geo_score":0.857,"no_arrests":1,"longitude":-76.878174,"id":"a634s52fc2c9","geo_precision":"city","state":"NC"},"type":"Feature","geometry":{"type":"Point","coordinates":[-76.878174,34.766818]}},{"properties":{"city":"Newton","latitude":34.876822,"geo_score":0.837,"no_arrests":1,"longitude":-79.695056,"id":"a634s4z8gkis","geo_precision":"city","state":"NC"},"type":"Feature","geometry":{"type":"Point","coordinates":[-79.695056,34.876822]}},{"properties":{"city":"Oak Island","latitude":34.090202,"geo_score":0.857,"no_arrests":1,"longitude":-78.127035,"id":"a634s53rnapb","geo_precision":"city","state":"NC"},"type":"Feature","geometry":{"type":"Point","coordinates":[-78.127035,34.090202]}},{"properties":{"city":"Pittsboro","latitude":35.745239,"geo_score":0.857,"no_arrests":2,"longitude":-79.213195,"id":"a634s4wnnkq5","geo_precision":"city","state":"NC"},"type":"Feature","geometry":{"type":"Point","coordinates":[-79.213195,35.745239]}},{"properties":{"city":"Red Springs","latitude":36.165968,"geo_score":0.743,"no_arrests":1,"longitude":-79.742808,"id":"a634s4xytu57","geo_precision":"city","state":"NC"},"type":"Feature","geometry":{"type":"Point","coordinates":[-79.742808,36.165968]}},{"properties":{"city":"Reidsville","latitude":34.220726,"geo_score":0.798,"no_arrests":5,"longitude":-77.817205,"id":"a634s4vuwjz8","geo_precision":"city","state":"NC"},"type":"Feature","geometry":{"type":"Point","coordinates":[-77.817205,34.220726]}},{"properties":{"city":"Roanoke Rapids","latitude":36.303962,"geo_score":0.857,"no_arrests":1,"longitude":-77.641063,"id":"a634s4twcfir","geo_precision":"city","state":"NC"},"type":"Feature","geometry":{"type":"Point","coordinates":[-77.641063,36.303962]}},{"properties":{"city":"Rocky Mount","latitude":35.950867,"geo_score":0.729,"no_arrests":27,"longitude":-75.681122,"id":"a634s55rzgqy","geo_precision":"city","state":"NC"},"type":"Feature","geometry":{"type":"Point","coordinates":[-75.681122,35.950867]}},{"properties":{"city":"Rutherfordton","latitude":35.339729,"geo_score":0.857,"no_arrests":2,"longitude":-82.004874,"id":"a634s4siieqw","geo_precision":"city","state":"NC"},"type":"Feature","geometry":{"type":"Point","coordinates":[-82.004874,35.339729]}},{"properties":{"city":"Salisbury","latitude":35.680441,"geo_score":0.857,"no_arrests":6,"longitude":-80.45316,"id":"a634s574onm7","geo_precision":"city","state":"NC"},"type":"Feature","geometry":{"type":"Point","coordinates":[-80.45316,35.680441]}},{"properties":{"city":"Sanford","latitude":35.469782,"geo_score":0.857,"no_arrests":4,"longitude":-79.171723,"id":"a634s54axz63","geo_precision":"city","state":"NC"},"type":"Feature","geometry":{"type":"Point","coordinates":[-79.171723,35.469782]}},{"properties":{"city":"Smithfield","latitude":35.484303,"geo_score":0.814,"no_arrests":1,"longitude":-80.870629,"id":"a634s54vk910","geo_precision":"city","state":"NC"},"type":"Feature","geometry":{"type":"Point","coordinates":[-80.870629,35.484303]}},{"properties":{"city":"Statesville","latitude":35.785413,"geo_score":0.819,"no_arrests":2,"longitude":-80.930908,"id":"a634s53mler7","geo_precision":"city","state":"NC"},"type":"Feature","geometry":{"type":"Point","coordinates":[-80.930908,35.785413]}},{"properties":{"city":"Sylva","latitude":35.554569,"geo_score":0.8,"no_arrests":2,"longitude":-75.469319,"id":"a634s4wafxms","geo_precision":"city","state":"NC"},"type":"Feature","geometry":{"type":"Point","coordinates":[-75.469319,35.554569]}},{"properties":{"city":"Tarboro","latitude":35.928437,"geo_score":0.857,"no_arrests":2,"longitude":-77.581631,"id":"a634s55a4hg1","geo_precision":"city","state":"NC"},"type":"Feature","geometry":{"type":"Point","coordinates":[-77.581631,35.928437]}},{"properties":{"city":"Thomasville","latitude":35.854539,"geo_score":0.857,"no_arrests":17,"longitude":-80.124764,"id":"a634s4wshg1j","geo_precision":"city","state":"NC"},"type":"Feature","geometry":{"type":"Point","coordinates":[-80.124764,35.854539]}},{"properties":{"city":"Wadesboro","latitude":34.924469,"geo_score":0.857,"no_arrests":1,"longitude":-80.05003,"id":"a634s4zyp616","geo_precision":"city","state":"NC"},"type":"Feature","geometry":{"type":"Point","coordinates":[-80.05003,34.924469]}},{"properties":{"city":"Waynesville","latitude":35.585619,"geo_score":0.857,"no_arrests":1,"longitude":-82.959617,"id":"a634s57k5p0y","geo_precision":"city","state":"NC"},"type":"Feature","geometry":{"type":"Point","coordinates":[-82.959617,35.585619]}},{"properties":{"city":"Wilmington","latitude":34.225726,"geo_score":0.857,"no_arrests":111,"longitude":-77.94471,"id":"a634s4xv4nzk","geo_precision":"city","state":"NC"},"type":"Feature","geometry":{"type":"Point","coordinates":[-77.94471,34.225726]}},{"properties":{"city":"Wilson","latitude":35.723264,"geo_score":0.857,"no_arrests":10,"longitude":-77.925269,"id":"a634s54gjcp5","geo_precision":"city","state":"NC"},"type":"Feature","geometry":{"type":"Point","coordinates":[-77.925269,35.723264]}},{"properties":{"city":"Winston-Salem","latitude":36.09986,"geo_score":0.857,"no_arrests":99,"longitude":-80.244216,"id":"a634s51e6jkv","geo_precision":"city","state":"NC"},"type":"Feature","geometry":{"type":"Point","coordinates":[-80.244216,36.09986]}},{"properties":{"city":"Woodfin","latitude":35.633444,"geo_score":0.857,"no_arrests":1,"longitude":-82.582073,"id":"a634s51wmxlw","geo_precision":"city","state":"NC"},"type":"Feature","geometry":{"type":"Point","coordinates":[-82.582073,35.633444]}},{"properties":{"city":"Zebulon","latitude":35.87922,"geo_score":0.857,"no_arrests":2,"longitude":-78.355582,"id":"a634s53pg10c","geo_precision":"city","state":"NC"},"type":"Feature","geometry":{"type":"Point","coordinates":[-78.355582,35.87922]}}],"is_temporal":false,"author":{"url":"http://ncpaired.web.unc.edu/","metadata":"http://www.ncdoj.gov/about-DOJ/state-Bureau-of-Investigation.aspx","contact_name":"","contact_address":"","source":"The North Carolina State Bureau of Investigation","contact_phone":""},"source":"http://ncpaired.web.unc.edu/","pagination":{"sort":null,"start":0,"total":74,"limit":1000000},"state":"complete","tags":"","published":"2014-08-12T21:35:28-04:00","id":100395}