{"type":"FeatureCollection","data_type":"Dataset","url_type":null,"permissions":[{"permissions":{"download":true,"view":true},"group_id":"everyone"}],"classification":null,"title":"Amtrak Stations, Florida, 2008","count":36,"stream_id":10093,"contributor":{"url":"http://geocommons.com/users/955","name":"williambenjaminiv"},"data_attributes":null,"calculation_params":null,"icon_link":null,"link":"http://geocommons.com/overlays/10093.json","extent":[-87.2045,25.8498,-80.0625,30.7807],"geometry_types":["point"],"unique_name":null,"name":"Amtrak Stations, Florida, 2008","feature_count":36,"description":"The Amtrak Stations database is a geographic data set containing Amtrak intercity railroad passenger terminals in the United States and Canada. Attribute data include services and passenger amenities provided at the station.","next_feature":null,"is_raster":false,"short_classification":"Y","stats":{"LON":{"max":-80.062462,"mean":-82.06771625,"variance":2.71320706406299,"stdev":1.64718155163995,"min":-87.204491,"median":-81.884903},"AUTOID":{"max":36.0,"mean":18.5,"variance":111.0,"stdev":10.5356537528527,"min":1.0,"median":19.0},"STFIPS":{"max":null,"min":null,"median":null},"OBJECTID":{"max":36.0,"mean":18.5,"variance":111.0,"stdev":10.5356537528527,"min":1.0,"median":19.0},"LAT":{"max":30.780727,"mean":28.3874770277778,"variance":2.18227754052014,"stdev":1.47725337722414,"min":25.849848,"median":28.364189}},"features":[{"properties":{"FGDLAQDATE":{"end_time":"2008/08/04 20:00:01 -0400","original":"Mon Aug 04 20:00:00 -0400 2008","granularity":"sec","time":"2008/08/04 20:00:00 -0400"},"LON":-82.470673,"STNTYPE":"BUS","CITY":"BRADENTON","ADDRESS1":"1115 MANATEE AVENUE WEST","DESCRIPT":"BRADENTON","ZIP":"34205-7803","ADDRESS2":"MANATEE COUNTY COURTHOUSE","AUTOID":1.0,"VERSION":"07","STATE":"FL","STNNAME":"BRADENTON, FLORIDA","STFIPS":"12","STNCODE":"BDT","OBJECTID":1.0,"id":"a672zm2pio4z","LAT":27.490396},"type":"Feature","geometry":{"type":"Point","coordinates":[-82.4706730316872,27.490395990791]}},{"properties":{"FGDLAQDATE":{"end_time":"2008/08/04 20:00:01 -0400","original":"Mon Aug 04 20:00:00 -0400 2008","granularity":"sec","time":"2008/08/04 20:00:00 -0400"},"LON":-85.537613,"STNTYPE":"RAIL","CITY":"CHIPLEY","ADDRESS1":"675 7TH STREET","DESCRIPT":"CHIPLEY","ZIP":"32428-1905","ADDRESS2":"","AUTOID":2.0,"VERSION":"07","STATE":"FL","STNNAME":"CHIPLEY, FLORIDA","STFIPS":"12","STNCODE":"CIP","OBJECTID":2.0,"id":"a672zm235xmx","LAT":30.780727},"type":"Feature","geometry":{"type":"Point","coordinates":[-85.5376130302914,30.7807270340487]}},{"properties":{"FGDLAQDATE":{"end_time":"2008/08/04 20:00:01 -0400","original":"Mon Aug 04 20:00:00 -0400 2008","granularity":"sec","time":"2008/08/04 20:00:00 -0400"},"LON":-86.569031,"STNTYPE":"RAIL","CITY":"CRESTVIEW","ADDRESS1":"101 NORTH MAIN STREET","DESCRIPT":"CRESTVIEW","ZIP":"32536-3545","ADDRESS2":"","AUTOID":3.0,"VERSION":"07","STATE":"FL","STNNAME":"CRESTVIEW, FLORIDA","STFIPS":"12","STNCODE":"CSV","OBJECTID":3.0,"id":"a672zlq788ot","LAT":30.757587},"type":"Feature","geometry":{"type":"Point","coordinates":[-86.5690309953138,30.7575870129237]}},{"properties":{"FGDLAQDATE":{"end_time":"2008/08/04 20:00:01 -0400","original":"Mon Aug 04 20:00:00 -0400 2008","granularity":"sec","time":"2008/08/04 20:00:00 -0400"},"LON":-82.184822,"STNTYPE":"OTHER","CITY":"DADE CITY","ADDRESS1":"14218 US HIGHWAY 98","DESCRIPT":"DADE CITY","ZIP":"33525","ADDRESS2":"HWY98/301 TRUCK ROUTE","AUTOID":4.0,"VERSION":"07","STATE":"FL","STNNAME":"DADE CITY, FLORIDA","STFIPS":"12","STNCODE":"DDE","OBJECTID":4.0,"id":"a672zlxwec55","LAT":28.364189},"type":"Feature","geometry":{"type":"Point","coordinates":[-82.1848220215109,28.3641890219452]}},{"properties":{"FGDLAQDATE":{"end_time":"2008/08/04 20:00:01 -0400","original":"Mon Aug 04 20:00:00 -0400 2008","granularity":"sec","time":"2008/08/04 20:00:00 -0400"},"LON":-80.12146,"STNTYPE":"RAIL","CITY":"DEERFIELD BEACH","ADDRESS1":"1300 W. HILLSBORO BLVD","DESCRIPT":"DEERFIELD BEACH","ZIP":"33442","ADDRESS2":"","AUTOID":5.0,"VERSION":"07","STATE":"FL","STNNAME":"DEERFIELD BEACH, FLORIDA","STFIPS":"12","STNCODE":"DFB","OBJECTID":5.0,"id":"a672zlslrygf","LAT":26.317795},"type":"Feature","geometry":{"type":"Point","coordinates":[-80.121459959754,26.3177950218074]}},{"properties":{"FGDLAQDATE":{"end_time":"2008/08/04 20:00:01 -0400","original":"Mon Aug 04 20:00:00 -0400 2008","granularity":"sec","time":"2008/08/04 20:00:00 -0400"},"LON":-80.092529,"STNTYPE":"RAIL","CITY":"DELRAY BEACH","ADDRESS1":"345 SOUTH CONGRESS AVE","DESCRIPT":"DELRAY BEACH","ZIP":"33444","ADDRESS2":"","AUTOID":6.0,"VERSION":"07","STATE":"FL","STNNAME":"DELRAY BEACH, FLORIDA","STFIPS":"12","STNCODE":"DLB","OBJECTID":6.0,"id":"a672zm5xkzdu","LAT":26.455179},"type":"Feature","geometry":{"type":"Point","coordinates":[-80.092529010324,26.4551789608959]}},{"properties":{"FGDLAQDATE":{"end_time":"2008/08/04 20:00:01 -0400","original":"Mon Aug 04 20:00:00 -0400 2008","granularity":"sec","time":"2008/08/04 20:00:00 -0400"},"LON":-81.352455,"STNTYPE":"RAIL","CITY":"DELAND","ADDRESS1":"2491 OLD NEW YORK AVE","DESCRIPT":"DELAND","ZIP":"32720-2808","ADDRESS2":"","AUTOID":7.0,"VERSION":"07","STATE":"FL","STNNAME":"DELAND, FLORIDA","STFIPS":"12","STNCODE":"DLD","OBJECTID":7.0,"id":"a672zm2sd9a8","LAT":29.016834},"type":"Feature","geometry":{"type":"Point","coordinates":[-81.3524550444982,29.0168339995327]}},{"properties":{"FGDLAQDATE":{"end_time":"2008/08/04 20:00:01 -0400","original":"Mon Aug 04 20:00:00 -0400 2008","granularity":"sec","time":"2008/08/04 20:00:00 -0400"},"LON":-81.009117,"STNTYPE":"BUS","CITY":"DAYTONA BEACH","ADDRESS1":"100 NORTH ATLANTIC AVE","DESCRIPT":"DAYTONA BEACH","ZIP":"32118-4273","ADDRESS2":"FAIRFIELD HILTON","AUTOID":8.0,"VERSION":"07","STATE":"FL","STNNAME":"DAYTONA BEACH, FLORIDA","STFIPS":"12","STNCODE":"DYA","OBJECTID":8.0,"id":"a672zlz6gv8y","LAT":29.228231},"type":"Feature","geometry":{"type":"Point","coordinates":[-81.0091170391645,29.2282310220516]}},{"properties":{"FGDLAQDATE":{"end_time":"2008/08/04 20:00:01 -0400","original":"Mon Aug 04 20:00:00 -0400 2008","granularity":"sec","time":"2008/08/04 20:00:00 -0400"},"LON":-80.170189,"STNTYPE":"RAIL","CITY":"FORT LAUDERDALE","ADDRESS1":"200 S.W. 21 TERRACE","DESCRIPT":"FORT LAUDERDALE","ZIP":"33312","ADDRESS2":"","AUTOID":9.0,"VERSION":"07","STATE":"FL","STNNAME":"FORT LAUDERDALE, FLORIDA","STFIPS":"12","STNCODE":"FTL","OBJECTID":9.0,"id":"a672zm0z8oim","LAT":26.119614},"type":"Feature","geometry":{"type":"Point","coordinates":[-80.1701890112621,26.1196140117288]}},{"properties":{"FGDLAQDATE":{"end_time":"2008/08/04 20:00:01 -0400","original":"Mon Aug 04 20:00:00 -0400 2008","granularity":"sec","time":"2008/08/04 20:00:00 -0400"},"LON":-81.884903,"STNTYPE":"BUS","CITY":"FORT MYERS","ADDRESS1":"6050 PLAZA DRIVE","DESCRIPT":"FORT MYERS","ZIP":"33906-4419","ADDRESS2":"FORT MYERS TRAVEL PLAZA","AUTOID":10.0,"VERSION":"07","STATE":"FL","STNNAME":"FORT MYERS, FLORIDA","STFIPS":"12","STNCODE":"FTM","OBJECTID":10.0,"id":"a672zlvk3u3z","LAT":26.68235},"type":"Feature","geometry":{"type":"Point","coordinates":[-81.884902949875,26.6823500244905]}},{"properties":{"FGDLAQDATE":{"end_time":"2008/08/04 20:00:01 -0400","original":"Mon Aug 04 20:00:00 -0400 2008","granularity":"sec","time":"2008/08/04 20:00:00 -0400"},"LON":-82.323692,"STNTYPE":"BUS","CITY":"GAINESVILLE","ADDRESS1":"104 S.E. 1ST AVENUE","DESCRIPT":"GAINESVILLE","ZIP":"32601-6824","ADDRESS2":"","AUTOID":11.0,"VERSION":"07","STATE":"FL","STNNAME":"GAINESVILLE, FLORIDA","STFIPS":"12","STNCODE":"GNF","OBJECTID":11.0,"id":"a672zlv0tqoa","LAT":29.651079},"type":"Feature","geometry":{"type":"Point","coordinates":[-82.3236919951139,29.6510790026773]}},{"properties":{"FGDLAQDATE":{"end_time":"2008/08/04 20:00:01 -0400","original":"Mon Aug 04 20:00:00 -0400 2008","granularity":"sec","time":"2008/08/04 20:00:00 -0400"},"LON":-80.168541,"STNTYPE":"RAIL","CITY":"HOLLYWOOD","ADDRESS1":"3001 HOLLYWOOD BLVD","DESCRIPT":"HOLLYWOOD","ZIP":"33021","ADDRESS2":"","AUTOID":12.0,"VERSION":"07","STATE":"FL","STNNAME":"HOLLYWOOD, FLORIDA","STFIPS":"12","STNCODE":"HOL","OBJECTID":12.0,"id":"a672zls9qbn2","LAT":26.010687},"type":"Feature","geometry":{"type":"Point","coordinates":[-80.1685410376247,26.0106870391502]}},{"properties":{"FGDLAQDATE":{"end_time":"2008/08/04 20:00:01 -0400","original":"Mon Aug 04 20:00:00 -0400 2008","granularity":"sec","time":"2008/08/04 20:00:00 -0400"},"LON":-81.724602,"STNTYPE":"RAIL","CITY":"JACKSONVILLE","ADDRESS1":"3570 CLIFFORD LANE","DESCRIPT":"JACKSONVILLE","ZIP":"32209-2123","ADDRESS2":"","AUTOID":13.0,"VERSION":"07","STATE":"FL","STNNAME":"JACKSONVILLE, FLORIDA","STFIPS":"12","STNCODE":"JAX","OBJECTID":13.0,"id":"a672zm2vqlf6","LAT":30.366577},"type":"Feature","geometry":{"type":"Point","coordinates":[-81.7246019898877,30.3665769569548]}},{"properties":{"FGDLAQDATE":{"end_time":"2008/08/04 20:00:01 -0400","original":"Mon Aug 04 20:00:00 -0400 2008","granularity":"sec","time":"2008/08/04 20:00:00 -0400"},"LON":-81.404869,"STNTYPE":"RAIL","CITY":"KISSIMMEE","ADDRESS1":"111 DAKIN STREET","DESCRIPT":"KISSIMMEE","ZIP":"34741-5723","ADDRESS2":"","AUTOID":14.0,"VERSION":"07","STATE":"FL","STNNAME":"KISSIMMEE, FLORIDA","STFIPS":"12","STNCODE":"KIS","OBJECTID":14.0,"id":"a672zltdg31e","LAT":28.29327},"type":"Feature","geometry":{"type":"Point","coordinates":[-81.4048690281461,28.2932700030791]}},{"properties":{"FGDLAQDATE":{"end_time":"2008/08/04 20:00:01 -0400","original":"Mon Aug 04 20:00:00 -0400 2008","granularity":"sec","time":"2008/08/04 20:00:00 -0400"},"LON":-81.951614,"STNTYPE":"RAIL","CITY":"LAKELAND","ADDRESS1":"600 LAKE MIRROR DRIVE","DESCRIPT":"LAKELAND","ZIP":"33801-5036","ADDRESS2":"","AUTOID":15.0,"VERSION":"07","STATE":"FL","STNNAME":"LAKELAND, FLORIDA","STFIPS":"12","STNCODE":"LAK","OBJECTID":15.0,"id":"a672zlxqjoac","LAT":28.045654},"type":"Feature","geometry":{"type":"Point","coordinates":[-81.9516140400516,28.0456540297456]}},{"properties":{"FGDLAQDATE":{"end_time":"2008/08/04 20:00:01 -0400","original":"Mon Aug 04 20:00:00 -0400 2008","granularity":"sec","time":"2008/08/04 20:00:00 -0400"},"LON":-82.6511,"STNTYPE":"RAIL","CITY":"LAKE CITY","ADDRESS1":"1200 LAKE JEFFREY ROAD","DESCRIPT":"LAKE CITY","ZIP":"32055-8709","ADDRESS2":"","AUTOID":16.0,"VERSION":"07","STATE":"FL","STNNAME":"LAKE CITY, FLORIDA","STFIPS":"12","STNCODE":"LEC","OBJECTID":16.0,"id":"a672zm3obq6q","LAT":30.196611},"type":"Feature","geometry":{"type":"Point","coordinates":[-82.6511000115805,30.1966109824605]}},{"properties":{"FGDLAQDATE":{"end_time":"2008/08/04 20:00:01 -0400","original":"Mon Aug 04 20:00:00 -0400 2008","granularity":"sec","time":"2008/08/04 20:00:00 -0400"},"LON":-81.951884,"STNTYPE":"RAIL","CITY":"LAKELAND","ADDRESS1":"600 LAKE MIRROR DR","DESCRIPT":"LAKELAND","ZIP":"33801-5036","ADDRESS2":"","AUTOID":17.0,"VERSION":"07","STATE":"FL","STNNAME":"LAKELAND, FLORIDA","STFIPS":"12","STNCODE":"LKL","OBJECTID":17.0,"id":"a672zm56e173","LAT":28.046778},"type":"Feature","geometry":{"type":"Point","coordinates":[-81.9518838463813,28.0467776706787]}},{"properties":{"FGDLAQDATE":{"end_time":"2008/08/04 20:00:01 -0400","original":"Mon Aug 04 20:00:00 -0400 2008","granularity":"sec","time":"2008/08/04 20:00:00 -0400"},"LON":-83.413338,"STNTYPE":"RAIL","CITY":"MADISON","ADDRESS1":"1000 SOUTH RANGE STREET","DESCRIPT":"MADISON","ZIP":"32340-2245","ADDRESS2":"","AUTOID":18.0,"VERSION":"07","STATE":"FL","STNNAME":"MADISON, FLORIDA","STFIPS":"12","STNCODE":"MDO","OBJECTID":18.0,"id":"a672zlxugsjz","LAT":30.45911},"type":"Feature","geometry":{"type":"Point","coordinates":[-83.4133380521555,30.4591099788912]}},{"properties":{"FGDLAQDATE":{"end_time":"2008/08/04 20:00:01 -0400","original":"Mon Aug 04 20:00:00 -0400 2008","granularity":"sec","time":"2008/08/04 20:00:00 -0400"},"LON":-80.258072,"STNTYPE":"RAIL","CITY":"MIAMI","ADDRESS1":"8303 NW 37TH AVE","DESCRIPT":"MIAMI","ZIP":"33147","ADDRESS2":"","AUTOID":19.0,"VERSION":"07","STATE":"FL","STNNAME":"MIAMI, FLORIDA","STFIPS":"12","STNCODE":"MIA","OBJECTID":19.0,"id":"a672zm5d8tza","LAT":25.849848},"type":"Feature","geometry":{"type":"Point","coordinates":[-80.2580720384625,25.8498479957521]}},{"properties":{"FGDLAQDATE":{"end_time":"2008/08/04 20:00:01 -0400","original":"Mon Aug 04 20:00:00 -0400 2008","granularity":"sec","time":"2008/08/04 20:00:00 -0400"},"LON":-82.136391,"STNTYPE":"BUS","CITY":"OCALA","ADDRESS1":"531 NORTHEAST FIRST AVE","DESCRIPT":"OCALA","ZIP":"34470-6647","ADDRESS2":"","AUTOID":20.0,"VERSION":"07","STATE":"FL","STNNAME":"OCALA, FLORIDA","STFIPS":"12","STNCODE":"OCA","OBJECTID":20.0,"id":"a672zm1nke2r","LAT":29.192228},"type":"Feature","geometry":{"type":"Point","coordinates":[-82.1363909577056,29.1922279640934]}},{"properties":{"FGDLAQDATE":{"end_time":"2008/08/04 20:00:01 -0400","original":"Mon Aug 04 20:00:00 -0400 2008","granularity":"sec","time":"2008/08/04 20:00:00 -0400"},"LON":-80.830307,"STNTYPE":"RAIL","CITY":"OKEECHOBEE","ADDRESS1":"801 NORTH PARROTT AVENUE","DESCRIPT":"OKEECHOBEE","ZIP":"34972-2130","ADDRESS2":"","AUTOID":21.0,"VERSION":"07","STATE":"FL","STNNAME":"OKEECHOBEE, FLORIDA","STFIPS":"12","STNCODE":"OKE","OBJECTID":21.0,"id":"a672zlq9uxsz","LAT":27.251219},"type":"Feature","geometry":{"type":"Point","coordinates":[-80.8303070297858,27.2512189726757]}},{"properties":{"FGDLAQDATE":{"end_time":"2008/08/04 20:00:01 -0400","original":"Mon Aug 04 20:00:00 -0400 2008","granularity":"sec","time":"2008/08/04 20:00:00 -0400"},"LON":-81.381744,"STNTYPE":"RAIL","CITY":"ORLANDO","ADDRESS1":"1400 SLIGH BLVD.","DESCRIPT":"ORLANDO","ZIP":"32806-3905","ADDRESS2":"","AUTOID":22.0,"VERSION":"07","STATE":"FL","STNNAME":"ORLANDO, FLORIDA","STFIPS":"12","STNCODE":"ORL","OBJECTID":22.0,"id":"a672zm2mbtio","LAT":28.525694},"type":"Feature","geometry":{"type":"Point","coordinates":[-81.3817440190046,28.5256939741773]}},{"properties":{"FGDLAQDATE":{"end_time":"2008/08/04 20:00:01 -0400","original":"Mon Aug 04 20:00:00 -0400 2008","granularity":"sec","time":"2008/08/04 20:00:00 -0400"},"LON":-81.640541,"STNTYPE":"RAIL","CITY":"PALATKA","ADDRESS1":"220 NORTH 11TH STREET","DESCRIPT":"PALATKA","ZIP":"32077-3615","ADDRESS2":"","AUTOID":23.0,"VERSION":"07","STATE":"FL","STNNAME":"PALATKA, FLORIDA","STFIPS":"12","STNCODE":"PAK","OBJECTID":23.0,"id":"a672zlth0rl5","LAT":29.649309},"type":"Feature","geometry":{"type":"Point","coordinates":[-81.6405410317827,29.6493089979162]}},{"properties":{"FGDLAQDATE":{"end_time":"2008/08/04 20:00:01 -0400","original":"Mon Aug 04 20:00:00 -0400 2008","granularity":"sec","time":"2008/08/04 20:00:00 -0400"},"LON":-82.052658,"STNTYPE":"BUS","CITY":"PORT CHARLOTTE","ADDRESS1":"909 KING HIGHWAY","DESCRIPT":"PORT CHARLOTTE","ZIP":"33980-4248","ADDRESS2":"AMOCO/BP CONVENIENCE STORE","AUTOID":24.0,"VERSION":"07","STATE":"FL","STNNAME":"PORT CHARLOTTE, FLORIDA","STFIPS":"12","STNCODE":"PCH","OBJECTID":24.0,"id":"a672zlzmemx7","LAT":27.01243},"type":"Feature","geometry":{"type":"Point","coordinates":[-82.0526580225018,27.0124300121699]}},{"properties":{"FGDLAQDATE":{"end_time":"2008/08/04 20:00:01 -0400","original":"Mon Aug 04 20:00:00 -0400 2008","granularity":"sec","time":"2008/08/04 20:00:00 -0400"},"LON":-87.204491,"STNTYPE":"RAIL","CITY":"PENSACOLA","ADDRESS1":"980 EAST HEINBERG STREET","DESCRIPT":"PENSACOLA","ZIP":"32502-4375","ADDRESS2":"","AUTOID":25.0,"VERSION":"07","STATE":"FL","STNNAME":"PENSACOLA, FLORIDA","STFIPS":"12","STNCODE":"PNS","OBJECTID":25.0,"id":"a672zlv9qt0m","LAT":30.417933},"type":"Feature","geometry":{"type":"Point","coordinates":[-87.2044909948245,30.4179330263711]}},{"properties":{"FGDLAQDATE":{"end_time":"2008/08/04 20:00:01 -0400","original":"Mon Aug 04 20:00:00 -0400 2008","granularity":"sec","time":"2008/08/04 20:00:00 -0400"},"LON":-81.434746,"STNTYPE":"RAIL","CITY":"SEBRING","ADDRESS1":"601 EAST CENTER ST","DESCRIPT":"SEBRING","ZIP":"33870-3513","ADDRESS2":"","AUTOID":26.0,"VERSION":"07","STATE":"FL","STNNAME":"SEBRING, FLORIDA","STFIPS":"12","STNCODE":"SBG","OBJECTID":26.0,"id":"a672zluq0dx5","LAT":27.497257},"type":"Feature","geometry":{"type":"Point","coordinates":[-81.434745998939,27.4972569827951]}},{"properties":{"FGDLAQDATE":{"end_time":"2008/08/04 20:00:01 -0400","original":"Mon Aug 04 20:00:00 -0400 2008","granularity":"sec","time":"2008/08/04 20:00:00 -0400"},"LON":-81.288582,"STNTYPE":"RAIL","CITY":"SANFORD","ADDRESS1":"600 SOUTH PERSIMMON AVENUE","DESCRIPT":"SANFORD","ZIP":"32771-2385","ADDRESS2":"","AUTOID":27.0,"VERSION":"07","STATE":"FL","STNNAME":"SANFORD (AUTO TRAIN), FLORIDA","STFIPS":"12","STNCODE":"SFA","OBJECTID":27.0,"id":"a672zm22ztye","LAT":28.807592},"type":"Feature","geometry":{"type":"Point","coordinates":[-81.2885820300533,28.807591975598]}},{"properties":{"FGDLAQDATE":{"end_time":"2008/08/04 20:00:01 -0400","original":"Mon Aug 04 20:00:00 -0400 2008","granularity":"sec","time":"2008/08/04 20:00:00 -0400"},"LON":-82.446991,"STNTYPE":"BUS","CITY":"SARASOTA","ADDRESS1":"1993 MAIN STREET","DESCRIPT":"SARASOTA","ZIP":"34231-5914","ADDRESS2":"US 301 AND MAIN THE EAST BOUND SIDE","AUTOID":28.0,"VERSION":"07","STATE":"FL","STNNAME":"SARASOTA, FLORIDA","STFIPS":"12","STNCODE":"SRA","OBJECTID":28.0,"id":"a672zlumuj8d","LAT":27.270142},"type":"Feature","geometry":{"type":"Point","coordinates":[-82.4469910418211,27.2701419754614]}},{"properties":{"FGDLAQDATE":{"end_time":"2008/08/04 20:00:01 -0400","original":"Mon Aug 04 20:00:00 -0400 2008","granularity":"sec","time":"2008/08/04 20:00:00 -0400"},"LON":-82.684677,"STNTYPE":"BUS","CITY":"CLEARWATER","ADDRESS1":"5251 110TH AVENUE NORTH","DESCRIPT":"CLEARWATER","ZIP":"33760-4846","ADDRESS2":"PINELLAS PARK SQUARE, SUITE 101","AUTOID":29.0,"VERSION":"07","STATE":"FL","STNNAME":"ST PETERSBURG-PINELLAS PARK-CLEARWATER, FLORIDA","STFIPS":"12","STNCODE":"STP","OBJECTID":29.0,"id":"a672zlt7csxb","LAT":27.83964},"type":"Feature","geometry":{"type":"Point","coordinates":[-82.6846770477407,27.8396399588662]}},{"properties":{"FGDLAQDATE":{"end_time":"2008/08/04 20:00:01 -0400","original":"Mon Aug 04 20:00:00 -0400 2008","granularity":"sec","time":"2008/08/04 20:00:00 -0400"},"LON":-84.289536,"STNTYPE":"RAIL","CITY":"TALLAHASSEE","ADDRESS1":"918 1/2 RAILROAD AVENUE","DESCRIPT":"TALLAHASSEE","ZIP":"32310-4348","ADDRESS2":"OPENED BY CARETAKER 30 MINS PRIOR TO TRAINS","AUTOID":30.0,"VERSION":"07","STATE":"FL","STNNAME":"TALLAHASSEE, FLORIDA","STFIPS":"12","STNCODE":"TLH","OBJECTID":30.0,"id":"a672zm48xrnb","LAT":30.433016},"type":"Feature","geometry":{"type":"Point","coordinates":[-84.2895360508928,30.4330160078172]}},{"properties":{"FGDLAQDATE":{"end_time":"2008/08/04 20:00:01 -0400","original":"Mon Aug 04 20:00:00 -0400 2008","granularity":"sec","time":"2008/08/04 20:00:00 -0400"},"LON":-82.450912,"STNTYPE":"RAIL","CITY":"TAMPA","ADDRESS1":"601 NEBRASKA AVE","DESCRIPT":"TAMPA","ZIP":"33602-3555","ADDRESS2":"","AUTOID":31.0,"VERSION":"07","STATE":"FL","STNNAME":"TAMPA, FLORIDA","STFIPS":"12","STNCODE":"TPA","OBJECTID":31.0,"id":"a672zm5vabc2","LAT":27.952265},"type":"Feature","geometry":{"type":"Point","coordinates":[-82.450912031992,27.9522650340743]}},{"properties":{"FGDLAQDATE":{"end_time":"2008/08/04 20:00:01 -0400","original":"Mon Aug 04 20:00:00 -0400 2008","granularity":"sec","time":"2008/08/04 20:00:00 -0400"},"LON":-82.167419,"STNTYPE":"BUS","CITY":"WALDO","ADDRESS1":"14648 NE 147TH AVENUE","DESCRIPT":"WALDO","ZIP":"32694-0802","ADDRESS2":"INTERSECTION HWY 301 &amp; SR24","AUTOID":32.0,"VERSION":"07","STATE":"FL","STNNAME":"WALDO, FLORIDA","STFIPS":"12","STNCODE":"WDO","OBJECTID":32.0,"id":"a672zlt8slj8","LAT":29.790171},"type":"Feature","geometry":{"type":"Point","coordinates":[-82.1674190115083,29.7901710359299]}},{"properties":{"FGDLAQDATE":{"end_time":"2008/08/04 20:00:01 -0400","original":"Mon Aug 04 20:00:00 -0400 2008","granularity":"sec","time":"2008/08/04 20:00:00 -0400"},"LON":-80.062462,"STNTYPE":"RAIL","CITY":"WEST PALM BEACH","ADDRESS1":"201 SOUTH TAMARIND AVE","DESCRIPT":"WEST PALM BEACH","ZIP":"33402","ADDRESS2":"","AUTOID":33.0,"VERSION":"07","STATE":"FL","STNNAME":"WEST PALM BEACH, FLORIDA","STFIPS":"12","STNCODE":"WPB","OBJECTID":33.0,"id":"a672zlrdc0zl","LAT":26.712341},"type":"Feature","geometry":{"type":"Point","coordinates":[-80.0624620367344,26.71234100893]}},{"properties":{"FGDLAQDATE":{"end_time":"2008/08/04 20:00:01 -0400","original":"Mon Aug 04 20:00:00 -0400 2008","granularity":"sec","time":"2008/08/04 20:00:00 -0400"},"LON":-81.351982,"STNTYPE":"RAIL","CITY":"WINTER PARK","ADDRESS1":"150 WEST MORSE BLVD","DESCRIPT":"WINTER PARK","ZIP":"32789-3825","ADDRESS2":"","AUTOID":34.0,"VERSION":"07","STATE":"FL","STNNAME":"WINTER PARK, FLORIDA","STFIPS":"12","STNCODE":"WPK","OBJECTID":34.0,"id":"a672zm4qvxrf","LAT":28.597132},"type":"Feature","geometry":{"type":"Point","coordinates":[-81.3519820415705,28.5971320002785]}},{"properties":{"FGDLAQDATE":{"end_time":"2008/08/04 20:00:01 -0400","original":"Mon Aug 04 20:00:00 -0400 2008","granularity":"sec","time":"2008/08/04 20:00:00 -0400"},"LON":-81.734261,"STNTYPE":"RAIL","CITY":"WINTER HAVEN","ADDRESS1":"1800 7TH ST SW","DESCRIPT":"WINTER HAVEN","ZIP":"33880-4375","ADDRESS2":"","AUTOID":35.0,"VERSION":"07","STATE":"FL","STNNAME":"WINTER HAVEN, FLORIDA","STFIPS":"12","STNCODE":"WTH","OBJECTID":35.0,"id":"a672zlvynt4n","LAT":28.002251},"type":"Feature","geometry":{"type":"Point","coordinates":[-81.7342610409322,28.0022510317669]}},{"properties":{"FGDLAQDATE":{"end_time":"2008/08/04 20:00:01 -0400","original":"Mon Aug 04 20:00:00 -0400 2008","granularity":"sec","time":"2008/08/04 20:00:00 -0400"},"LON":-82.039581,"STNTYPE":"OTHER","CITY":"WILDWOOD","ADDRESS1":"601 NORTH MAIN STREET","DESCRIPT":"WILDWOOD","ZIP":"34785-3842","ADDRESS2":"","AUTOID":36.0,"VERSION":"07","STATE":"FL","STNNAME":"WILDWOOD, FLORIDA","STFIPS":"12","STNCODE":"WWD","OBJECTID":36.0,"id":"a672zm102fqv","LAT":28.866037},"type":"Feature","geometry":{"type":"Point","coordinates":[-82.0395809721809,28.8660370122442]}}],"is_temporal":false,"author":{"url":"http://www.fgdl.org","metadata":"http://www.fgdl.org/metadataexplorer/full_metadata.jsp?docId={8F98F5D3-FB99-487C-9B2A-7388A7E0A365}&loggedIn=false","contact_name":"","contact_address":"","source":"Florida Geographic Data Library (FGDL)","contact_phone":""},"source":"http://www.fgdl.org","pagination":{"sort":null,"start":0,"total":36,"limit":1000000},"state":"complete","tags":"amtrak,commute,infrastructure,travel","published":"2008-01-01T12:00:00Z","id":10093}