{"type":"FeatureCollection","data_type":"Dataset","url_type":null,"permissions":[{"permissions":{"download":true,"view":true},"group_id":"everyone"}],"classification":null,"title":"WSPD checkpoints -csv version","count":212,"stream_id":102856,"contributor":{"url":"http://geocommons.com/users/24099","name":"aclulegal"},"data_attributes":null,"calculation_params":null,"icon_link":null,"link":"http://geocommons.com/overlays/102856.json","extent":[-80.3464,36.0186,-80.1554,36.1964],"geometry_types":["point"],"unique_name":null,"name":"WSPD checkpoints -csv version","feature_count":212,"description":"","next_feature":null,"is_raster":false,"short_classification":"Y","stats":{},"features":[{"properties":{"city":"Winston-Salem","intersecting street name":"Apollo Drive","geo_score":0.768,"notes":null,"address or street name":"599 Barbara Jane Avenue","day":"Fri., 9/3/2010","id":"a6io3446rnn7","geo_precision":"range","state":"NC"},"type":"Feature","geometry":{"type":"Point","coordinates":[-80.205657,36.103263]}},{"properties":{"city":"Winston-Salem","intersecting street name":null,"geo_score":0.805,"notes":null,"address or street name":"228 Barnes Road","day":"Fri., 2/18/2011","id":"a6io33tbu4n9","geo_precision":"range","state":"NC"},"type":"Feature","geometry":{"type":"Point","coordinates":[-80.232612,36.018583]}},{"properties":{"city":"Winston-Salem","intersecting street name":null,"geo_score":0.805,"notes":null,"address or street name":"231 Barnes Road","day":"Fri., 2/18/2011","id":"a6io342sfd55","geo_precision":"range","state":"NC"},"type":"Feature","geometry":{"type":"Point","coordinates":[-80.232568,36.018669]}},{"properties":{"city":"Winston-Salem","intersecting street name":null,"geo_score":0.805,"notes":null,"address or street name":"5500 Becks Church Rd.","day":"Fri., 1/21/2011","id":"a6io33o59ioy","geo_precision":"range","state":"NC"},"type":"Feature","geometry":{"type":"Point","coordinates":[-80.293724,36.173601]}},{"properties":{"city":"Winston-Salem","intersecting street name":null,"geo_score":0.805,"notes":null,"address or street name":"5501 Becks Church Rd.","day":"Fri., 1/21/2011","id":"a6io33v5jehk","geo_precision":"range","state":"NC"},"type":"Feature","geometry":{"type":"Point","coordinates":[-80.293724,36.173601]}},{"properties":{"city":"Winston-Salem","intersecting street name":null,"geo_score":0.805,"notes":null,"address or street name":"5510 Becks Church Rd.","day":"Fri., 1/21/2011","id":"a6io33oiu3tj","geo_precision":"range","state":"NC"},"type":"Feature","geometry":{"type":"Point","coordinates":[-80.29344,36.173589]}},{"properties":{"city":"Winston-Salem","intersecting street name":null,"geo_score":0.805,"notes":"Block No.","address or street name":"2000 Bowen Blvd.","day":"Thurs., 1/27/2011","id":"a6io33w10860","geo_precision":"range","state":"NC"},"type":"Feature","geometry":{"type":"Point","coordinates":[-80.221563,36.120573]}},{"properties":{"city":"Winston-Salem","intersecting street name":null,"geo_score":0.805,"notes":"Block No.","address or street name":"2000 Bowen Blvd.","day":"Sat., 10/9/2010","id":"a6io33x4ix9i","geo_precision":"range","state":"NC"},"type":"Feature","geometry":{"type":"Point","coordinates":[-80.221563,36.120573]}},{"properties":{"city":"Winston-Salem","intersecting street name":null,"geo_score":0.805,"notes":"Block No.","address or street name":"2000 Bowen Blvd.","day":"Wed., 2/2/2011","id":"a6io344715sr","geo_precision":"range","state":"NC"},"type":"Feature","geometry":{"type":"Point","coordinates":[-80.221563,36.120573]}},{"properties":{"city":"Winston-Salem","intersecting street name":null,"geo_score":0.805,"notes":null,"address or street name":"2091 Bowen Blvd.","day":"Fri., 10/29/2010","id":"a6io33vml78j","geo_precision":"range","state":"NC"},"type":"Feature","geometry":{"type":"Point","coordinates":[-80.219651,36.118637]}},{"properties":{"city":"Winston-Salem","intersecting street name":"Manchester St.","geo_score":0.805,"notes":null,"address or street name":"2098 Bowen Blvd.","day":"Fri., 6/25/2010","id":"a6io33vmja70","geo_precision":"range","state":"NC"},"type":"Feature","geometry":{"type":"Point","coordinates":[-80.219343,36.118536]}},{"properties":{"city":"Winston-Salem","intersecting street name":"Manchester St.","geo_score":0.805,"notes":null,"address or street name":"2098 Bowen Blvd.","day":"Sun., 7/11/2010","id":"a6io33qljc9e","geo_precision":"range","state":"NC"},"type":"Feature","geometry":{"type":"Point","coordinates":[-80.219343,36.118536]}},{"properties":{"city":"Winston-Salem","intersecting street name":"Manchester St.","geo_score":0.805,"notes":null,"address or street name":"2098 Bowen Blvd.","day":"Fri., 8/20/2010","id":"a6io33ri6jmw","geo_precision":"range","state":"NC"},"type":"Feature","geometry":{"type":"Point","coordinates":[-80.219343,36.118536]}},{"properties":{"city":"Winston-Salem","intersecting street name":"Manchester St.","geo_score":0.805,"notes":"Holiday","address or street name":"2098 Bowen Blvd.","day":"Mon., 9/6/2010","id":"a6io33vxdj2k","geo_precision":"range","state":"NC"},"type":"Feature","geometry":{"type":"Point","coordinates":[-80.219343,36.118536]}},{"properties":{"city":"Winston-Salem","intersecting street name":"Manchester St.","geo_score":0.805,"notes":null,"address or street name":"2098 Bowen Blvd.","day":"Fri., 10/15/2010","id":"a6io33puj06n","geo_precision":"range","state":"NC"},"type":"Feature","geometry":{"type":"Point","coordinates":[-80.219343,36.118536]}},{"properties":{"city":"Winston-Salem","intersecting street name":"Manchester St.","geo_score":0.805,"notes":null,"address or street name":"2098 Bowen Blvd.","day":"Fri., 10/29/2010","id":"a6io33ydm492","geo_precision":"range","state":"NC"},"type":"Feature","geometry":{"type":"Point","coordinates":[-80.219343,36.118536]}},{"properties":{"city":"Winston-Salem","intersecting street name":"Manchester St.","geo_score":0.805,"notes":null,"address or street name":"2098 Bowen Blvd.","day":"Fri., 11/12/2010","id":"a6io343t8ykm","geo_precision":"range","state":"NC"},"type":"Feature","geometry":{"type":"Point","coordinates":[-80.219343,36.118536]}},{"properties":{"city":"Winston-Salem","intersecting street name":"Manchester St.","geo_score":0.805,"notes":null,"address or street name":"2098 Bowen Blvd.","day":"Sun., 11/14/2010","id":"a6io33w24c4w","geo_precision":"range","state":"NC"},"type":"Feature","geometry":{"type":"Point","coordinates":[-80.219343,36.118536]}},{"properties":{"city":"Winston-Salem","intersecting street name":"Manchester St.","geo_score":0.805,"notes":null,"address or street name":"2098 Bowen Blvd.","day":"Fri., 2/4/2011","id":"a6io342mky5z","geo_precision":"range","state":"NC"},"type":"Feature","geometry":{"type":"Point","coordinates":[-80.219343,36.118536]}},{"properties":{"city":"Winston-Salem","intersecting street name":null,"geo_score":0.654,"notes":null,"address or street name":"2846 Burgandy St.","day":"Fri., 10/29/2010","id":"a6io344de82m","geo_precision":"range","state":"NC"},"type":"Feature","geometry":{"type":"Point","coordinates":[-80.220378,36.062591]}},{"properties":{"city":"Winston-Salem","intersecting street name":null,"geo_score":0.805,"notes":null,"address or street name":"2521 Cole Rd.","day":"Fri., 11/26/2010","id":"a6io33q3l7g1","geo_precision":"range","state":"NC"},"type":"Feature","geometry":{"type":"Point","coordinates":[-80.182059,36.068535]}},{"properties":{"city":"Winston-Salem","intersecting street name":"Cragmore Rd.","geo_score":0.805,"notes":null,"address or street name":"2529 Cole Rd.","day":"Fri., 11/26/2010","id":"a6io33s9pn06","geo_precision":"range","state":"NC"},"type":"Feature","geometry":{"type":"Point","coordinates":[-80.18205,36.068515]}},{"properties":{"city":"Winston-Salem","intersecting street name":null,"geo_score":0.707,"notes":"Block No.","address or street name":"3600 Country Club Rd.","day":"Sun., 10/10/2010","id":"a6io343ihju7","geo_precision":"street","state":"NC"},"type":"Feature","geometry":{"type":"Point","coordinates":[-80.310414,36.091991]}},{"properties":{"city":"Winston-Salem","intersecting street name":"Eastwood Dr.","geo_score":0.756,"notes":null,"address or street name":"2304 Cragmore Rd.","day":"Tues., 10/5/2010","id":"a6io33qbr8tl","geo_precision":"range","state":"NC"},"type":"Feature","geometry":{"type":"Point","coordinates":[-80.187328,36.072751]}},{"properties":{"city":"Winston-Salem","intersecting street name":"Eastwood Dr.","geo_score":0.756,"notes":null,"address or street name":"2304 Cragmore Rd.","day":"Fri., 10/29/2010","id":"a6io33xdw3jf","geo_precision":"range","state":"NC"},"type":"Feature","geometry":{"type":"Point","coordinates":[-80.187328,36.072751]}},{"properties":{"city":"Winston-Salem","intersecting street name":"Garden Path","geo_score":0.805,"notes":null,"address or street name":"128 Dalewood Drive","day":"Fri., 8/6/2010","id":"a6io33ob0m23","geo_precision":"range","state":"NC"},"type":"Feature","geometry":{"type":"Point","coordinates":[-80.331279,36.077378]}},{"properties":{"city":"Winston-Salem","intersecting street name":"Glendare Drive","geo_score":0.805,"notes":null,"address or street name":"198 Dalewood Drive","day":"Fri., 7/9/2010","id":"a6io3402h4sy","geo_precision":"range","state":"NC"},"type":"Feature","geometry":{"type":"Point","coordinates":[-80.329083,36.07625]}},{"properties":{"city":"Winston-Salem","intersecting street name":"Vargrave St.","geo_score":0.612,"notes":null,"address or street name":"1200 Diggs Blvd.","day":"Thurs., 9/9/2010","id":"a6io33y1vj2d","geo_precision":"street","state":"NC"},"type":"Feature","geometry":{"type":"Point","coordinates":[-80.22764,36.082764]}},{"properties":{"city":"Winston-Salem","intersecting street name":"Vargrave St.","geo_score":0.612,"notes":null,"address or street name":"1200 Diggs Blvd.","day":"Fri., 9/10/2010","id":"a6io33poofsq","geo_precision":"street","state":"NC"},"type":"Feature","geometry":{"type":"Point","coordinates":[-80.22764,36.082764]}},{"properties":{"city":"Winston-Salem","intersecting street name":"Vargrave St.","geo_score":0.612,"notes":null,"address or street name":"1200 Diggs Blvd.","day":"Fri., 9/10/2010","id":"a6io33ydbwkw","geo_precision":"street","state":"NC"},"type":"Feature","geometry":{"type":"Point","coordinates":[-80.22764,36.082764]}},{"properties":{"city":"Winston-Salem","intersecting street name":"Vargrave St.","geo_score":0.612,"notes":null,"address or street name":"1200 Diggs Blvd.","day":"Sat., 9/11/2010","id":"a6io341473ms","geo_precision":"street","state":"NC"},"type":"Feature","geometry":{"type":"Point","coordinates":[-80.22764,36.082764]}},{"properties":{"city":"Winston-Salem","intersecting street name":"Vargrave St.","geo_score":0.612,"notes":null,"address or street name":"1200 Diggs Blvd.","day":"Mon., 9/20/2010","id":"a6io343h2ujh","geo_precision":"street","state":"NC"},"type":"Feature","geometry":{"type":"Point","coordinates":[-80.22764,36.082764]}},{"properties":{"city":"Winston-Salem","intersecting street name":"Vargrave St.","geo_score":0.612,"notes":null,"address or street name":"1200 Diggs Blvd.","day":"Tues., 9/21/2010","id":"a6io33s3melv","geo_precision":"street","state":"NC"},"type":"Feature","geometry":{"type":"Point","coordinates":[-80.22764,36.082764]}},{"properties":{"city":"Winston-Salem","intersecting street name":null,"geo_score":0.347,"notes":"Block No.","address or street name":"2000 E. 14th St.","day":"Fri., 10/29/2010","id":"a6io33wanh89","geo_precision":"street","state":"NC"},"type":"Feature","geometry":{"type":"Point","coordinates":[-80.244936,36.112545]}},{"properties":{"city":"Winston-Salem","intersecting street name":null,"geo_score":0.347,"notes":"Block No.","address or street name":"2200 E. 14th St.","day":"Sat., 9/18/2010","id":"a6io33w0cv6n","geo_precision":"street","state":"NC"},"type":"Feature","geometry":{"type":"Point","coordinates":[-80.244936,36.112545]}},{"properties":{"city":"Winston-Salem","intersecting street name":"New Walkertown Rd.","geo_score":0.347,"notes":null,"address or street name":"2298 E. 14th St.","day":"Thurs., 10/21/2010","id":"a6io33zvobg1","geo_precision":"street","state":"NC"},"type":"Feature","geometry":{"type":"Point","coordinates":[-80.244936,36.112545]}},{"properties":{"city":"Winston-Salem","intersecting street name":null,"geo_score":0.371,"notes":null,"address or street name":"404 E. Northwest Blvd.","day":"Fri., 11/12/2010","id":"a6io33oj693m","geo_precision":"street","state":"NC"},"type":"Feature","geometry":{"type":"Point","coordinates":[-80.277481,36.089909]}},{"properties":{"city":"Winston-Salem","intersecting street name":"North Bound 52","geo_score":0.371,"notes":"Lat. 36.1176 Long. -80.23685","address or street name":"E. Northwest Blvd.","day":"Tues., 7/6/2010","id":"a6io33x1bhek","geo_precision":"street","state":"NC"},"type":"Feature","geometry":{"type":"Point","coordinates":[-80.277481,36.089909]}},{"properties":{"city":"Winston-Salem","intersecting street name":"North Bound 52","geo_score":0.371,"notes":"Lat. 36.1176 Long. -80.23685","address or street name":"E. Northwest Blvd.","day":"Fri., 7/23/2010","id":"a6io33zcwq7r","geo_precision":"street","state":"NC"},"type":"Feature","geometry":{"type":"Point","coordinates":[-80.277481,36.089909]}},{"properties":{"city":"Winston-Salem","intersecting street name":"North Bound 52","geo_score":0.371,"notes":"Lat. 36.1176 Long. -80.23685","address or street name":"E. Northwest Blvd.","day":"Fri., 7/23/2010","id":"a6io343306uv","geo_precision":"street","state":"NC"},"type":"Feature","geometry":{"type":"Point","coordinates":[-80.277481,36.089909]}},{"properties":{"city":"Winston-Salem","intersecting street name":"North Bound 52","geo_score":0.371,"notes":"Lat. 36.1176 Long. -80.23685","address or street name":"E. Northwest Blvd.","day":"Tues., 11/30/2010","id":"a6io33sejdu5","geo_precision":"street","state":"NC"},"type":"Feature","geometry":{"type":"Point","coordinates":[-80.277481,36.089909]}},{"properties":{"city":"Winston-Salem","intersecting street name":"South Bound 52","geo_score":0.371,"notes":null,"address or street name":"598 E. Northwest Blvd.","day":"Fri., 11/12/2010","id":"a6io33yzlyj9","geo_precision":"street","state":"NC"},"type":"Feature","geometry":{"type":"Point","coordinates":[-80.277481,36.089909]}},{"properties":{"city":"Winston-Salem","intersecting street name":null,"geo_score":0.347,"notes":null,"address or street name":"600 E. 16th Street","day":"Mon., 1/24/2011","id":"a6io33pzianb","geo_precision":"street","state":"NC"},"type":"Feature","geometry":{"type":"Point","coordinates":[-80.239138,36.114447]}},{"properties":{"city":"Winston-Salem","intersecting street name":null,"geo_score":0.347,"notes":null,"address or street name":"600 E. 16th Street","day":"Mon., 1/24/2011","id":"a6io33sjplk0","geo_precision":"street","state":"NC"},"type":"Feature","geometry":{"type":"Point","coordinates":[-80.239138,36.114447]}},{"properties":{"city":"Winston-Salem","intersecting street name":null,"geo_score":0.347,"notes":null,"address or street name":"707 E. 16th St.","day":"Thurs., 11/18/2010","id":"a6io33x5ja4d","geo_precision":"street","state":"NC"},"type":"Feature","geometry":{"type":"Point","coordinates":[-80.239138,36.114447]}},{"properties":{"city":"Winston-Salem","intersecting street name":"Ivy Ave.","geo_score":0.347,"notes":null,"address or street name":"498 E. 16th St.","day":"Fri., 8/6/2010","id":"a6io33osetut","geo_precision":"street","state":"NC"},"type":"Feature","geometry":{"type":"Point","coordinates":[-80.239138,36.114447]}},{"properties":{"city":"Winston-Salem","intersecting street name":null,"geo_score":0.333,"notes":"Block No.","address or street name":"1300 E. Sprague St.","day":"Fri., 8/6/2010","id":"a6io33suksw6","geo_precision":"street","state":"NC"},"type":"Feature","geometry":{"type":"Point","coordinates":[-80.181382,36.075561]}},{"properties":{"city":"Winston-Salem","intersecting street name":null,"geo_score":0.333,"notes":"Block No.","address or street name":"1300 E. Sprague St.","day":"Fri., 8/20/2010","id":"a6io33vq5agx","geo_precision":"street","state":"NC"},"type":"Feature","geometry":{"type":"Point","coordinates":[-80.181382,36.075561]}},{"properties":{"city":"Winston-Salem","intersecting street name":null,"geo_score":0.333,"notes":"Block No.","address or street name":"1300 E. Sprague St.","day":"Fri., 9/3/2010","id":"a6io33zf00pf","geo_precision":"street","state":"NC"},"type":"Feature","geometry":{"type":"Point","coordinates":[-80.181382,36.075561]}},{"properties":{"city":"Winston-Salem","intersecting street name":null,"geo_score":0.333,"notes":"Block No.","address or street name":"1300 E. Sprague St.","day":"Fri., 10/15/2010","id":"a6io33vfzbli","geo_precision":"street","state":"NC"},"type":"Feature","geometry":{"type":"Point","coordinates":[-80.181382,36.075561]}},{"properties":{"city":"Winston-Salem","intersecting street name":null,"geo_score":0.333,"notes":"Block No.","address or street name":"1300 E. Sprague St.","day":"Fri., 10/22/2010","id":"a6io33v033go","geo_precision":"street","state":"NC"},"type":"Feature","geometry":{"type":"Point","coordinates":[-80.181382,36.075561]}},{"properties":{"city":"Winston-Salem","intersecting street name":null,"geo_score":0.333,"notes":"Block No.","address or street name":"1300 E. Sprague St.","day":"Wed., 1/5/2011","id":"a6io33s1pscn","geo_precision":"street","state":"NC"},"type":"Feature","geometry":{"type":"Point","coordinates":[-80.181382,36.075561]}},{"properties":{"city":"Winston-Salem","intersecting street name":null,"geo_score":0.333,"notes":"Block No.","address or street name":"1300 E. Sprague St.","day":"Fri., 2/4/2011","id":"a6io33vsoq59","geo_precision":"street","state":"NC"},"type":"Feature","geometry":{"type":"Point","coordinates":[-80.181382,36.075561]}},{"properties":{"city":"Winston-Salem","intersecting street name":null,"geo_score":0.333,"notes":"Block No.","address or street name":"1300 E. Sprague St.","day":"Fri., 2/18/2011","id":"a6io3406rk2w","geo_precision":"street","state":"NC"},"type":"Feature","geometry":{"type":"Point","coordinates":[-80.181382,36.075561]}},{"properties":{"city":"Winston-Salem","intersecting street name":null,"geo_score":0.333,"notes":null,"address or street name":"1398 E. Sprague St.","day":"Fri., 10/15/2010","id":"a6io33qpuysw","geo_precision":"street","state":"NC"},"type":"Feature","geometry":{"type":"Point","coordinates":[-80.181382,36.075561]}},{"properties":{"city":"Winston-Salem","intersecting street name":"Terrace Ave.","geo_score":0.357,"notes":null,"address or street name":"1898 E. 3rd St.","day":"Tues., 2/22/2011","id":"a6io341k97l7","geo_precision":"street","state":"NC"},"type":"Feature","geometry":{"type":"Point","coordinates":[-80.23942,36.09832]}},{"properties":{"city":"Winston-Salem","intersecting street name":"N. Liberty St.","geo_score":0.347,"notes":null,"address or street name":"799 E. 12th St.","day":"Sat., 12/10/2010","id":"a6io33y5437h","geo_precision":"street","state":"NC"},"type":"Feature","geometry":{"type":"Point","coordinates":[-80.233119,36.109418]}},{"properties":{"city":"Winston-Salem","intersecting street name":"N. Liberty St.","geo_score":0.347,"notes":null,"address or street name":"778 E. 28th St.","day":"Fri., 6/25/2010","id":"a6io33yx4qmh","geo_precision":"street","state":"NC"},"type":"Feature","geometry":{"type":"Point","coordinates":[-80.244349,36.124841]}},{"properties":{"city":"Winston-Salem","intersecting street name":"N. Liberty St.","geo_score":0.347,"notes":null,"address or street name":"778 E. 28th St.","day":"Fri., 8/20/2010","id":"a6io33ut1u6p","geo_precision":"street","state":"NC"},"type":"Feature","geometry":{"type":"Point","coordinates":[-80.244349,36.124841]}},{"properties":{"city":"Winston-Salem","intersecting street name":"N. Liberty St.","geo_score":0.347,"notes":null,"address or street name":"778 E. 28th St.","day":"Sat., 11/13/2010","id":"a6io342q2012","geo_precision":"street","state":"NC"},"type":"Feature","geometry":{"type":"Point","coordinates":[-80.244349,36.124841]}},{"properties":{"city":"Winston-Salem","intersecting street name":"N. Liberty St.","geo_score":0.347,"notes":null,"address or street name":"778 E. 28th St.","day":"Sat., 11/13/2010","id":"a6io341qgzel","geo_precision":"street","state":"NC"},"type":"Feature","geometry":{"type":"Point","coordinates":[-80.244349,36.124841]}},{"properties":{"city":"Winston-Salem","intersecting street name":"Bowen Blvd.","geo_score":0.347,"notes":null,"address or street name":"1799 E. 25th St.","day":"Thurs., 10/21/2010","id":"a6io342xy4zp","geo_precision":"street","state":"NC"},"type":"Feature","geometry":{"type":"Point","coordinates":[-80.243703,36.12186]}},{"properties":{"city":"Winston-Salem","intersecting street name":"Silas Creek Parkway","geo_score":0.357,"notes":"Intersection occurs at 2 points","address or street name":"I-40 Eastbound","day":"Fri., 8/20/2010","id":"a6io33v4vxyf","geo_precision":"street","state":"NC"},"type":"Feature","geometry":{"type":"Point","coordinates":[-80.318938,36.095741]}},{"properties":{"city":"Winston-Salem","intersecting street name":null,"geo_score":0.683,"notes":null,"address or street name":"1871 Ebert Road","day":"Fri., 11/12/2010","id":"a6io343d8hkw","geo_precision":"range","state":"NC"},"type":"Feature","geometry":{"type":"Point","coordinates":[-80.277795,36.063248]}},{"properties":{"city":"Winston-Salem","intersecting street name":"Salem Crest Lane","geo_score":0.805,"notes":null,"address or street name":"1858 Ebert Road","day":"Sun., 2/6/2011","id":"a6io33xpwa4p","geo_precision":"range","state":"NC"},"type":"Feature","geometry":{"type":"Point","coordinates":[-80.277613,36.063434]}},{"properties":{"city":"Winston-Salem","intersecting street name":null,"geo_score":0.805,"notes":"Block No.","address or street name":"1700 Ebert Street","day":"Sat., 6/26/2010","id":"a6io341tr9bn","geo_precision":"range","state":"NC"},"type":"Feature","geometry":{"type":"Point","coordinates":[-80.277023,36.066065]}},{"properties":{"city":"Winston-Salem","intersecting street name":null,"geo_score":0.768,"notes":null,"address or street name":"121 Fayetteville St.","day":"Fri., 1/7/2011","id":"a6io33o6mub0","geo_precision":"range","state":"NC"},"type":"Feature","geometry":{"type":"Point","coordinates":[-80.23637,36.077524]}},{"properties":{"city":"Winston-Salem","intersecting street name":null,"geo_score":0.768,"notes":null,"address or street name":"122 Fayetteville St.","day":"Fri., 1/7/2011","id":"a6io343n50ws","geo_precision":"range","state":"NC"},"type":"Feature","geometry":{"type":"Point","coordinates":[-80.236338,36.077506]}},{"properties":{"city":"Winston-Salem","intersecting street name":"Woodland Ave.","geo_score":0.679,"notes":null,"address or street name":"1098 15th St.","day":"Fri., 8/20/2010","id":"a6io340vfpyy","geo_precision":"range","state":"NC"},"type":"Feature","geometry":{"type":"Point","coordinates":[-80.232658,36.113904]}},{"properties":{"city":"Winston-Salem","intersecting street name":"Woodland Ave.","geo_score":0.679,"notes":null,"address or street name":"1098 15th St.","day":"Fri. 9/10/2010","id":"a6io33rxyh89","geo_precision":"range","state":"NC"},"type":"Feature","geometry":{"type":"Point","coordinates":[-80.232658,36.113904]}},{"properties":{"city":"Winston-Salem","intersecting street name":"Old Vineyard Road","geo_score":0.805,"notes":null,"address or street name":"100 Glendare Drive","day":"Fri., 8/6/2010","id":"a6io33ynbstm","geo_precision":"range","state":"NC"},"type":"Feature","geometry":{"type":"Point","coordinates":[-80.328267,36.078818]}},{"properties":{"city":"Winston-Salem","intersecting street name":"Old Vineyard Road","geo_score":0.805,"notes":null,"address or street name":"100 Glendare Drive","day":"Mon., 11/22/2010","id":"a6io342uz4oi","geo_precision":"range","state":"NC"},"type":"Feature","geometry":{"type":"Point","coordinates":[-80.328267,36.078818]}},{"properties":{"city":"Winston-Salem","intersecting street name":null,"geo_score":0.74,"notes":null,"address or street name":"3072 Heitman Drive","day":"Mon., 11/29/2010","id":"a6io33xron53","geo_precision":"range","state":"NC"},"type":"Feature","geometry":{"type":"Point","coordinates":[-80.216969,36.058183]}},{"properties":{"city":"Winston-Salem","intersecting street name":null,"geo_score":0.74,"notes":null,"address or street name":"3133 Heitman Drive","day":"Mon., 11/29/2010","id":"a6io340dqmkw","geo_precision":"range","state":"NC"},"type":"Feature","geometry":{"type":"Point","coordinates":[-80.216919,36.057646]}},{"properties":{"city":"Winston-Salem","intersecting street name":null,"geo_score":0.74,"notes":null,"address or street name":"3183 Heitman Drive","day":"Sat., 10/2/2010","id":"a6io33qwjls2","geo_precision":"range","state":"NC"},"type":"Feature","geometry":{"type":"Point","coordinates":[-80.216876,36.057075]}},{"properties":{"city":"Winston-Salem","intersecting street name":null,"geo_score":0.74,"notes":null,"address or street name":"3185 Heitman Drive","day":"Tues., 9/14/2010","id":"a6io33u2w23l","geo_precision":"range","state":"NC"},"type":"Feature","geometry":{"type":"Point","coordinates":[-80.216874,36.057052]}},{"properties":{"city":"Winston-Salem","intersecting street name":null,"geo_score":0.74,"notes":null,"address or street name":"3200 Heitman Drive","day":"Fri., 8/6/2010","id":"a6io33txc4jg","geo_precision":"range","state":"NC"},"type":"Feature","geometry":{"type":"Point","coordinates":[-80.216842,36.056892]}},{"properties":{"city":"Winston-Salem","intersecting street name":null,"geo_score":0.74,"notes":"Block No.","address or street name":"3200 Heitman Drive","day":"Tues., 9/14/2010","id":"a6io344cmhr5","geo_precision":"range","state":"NC"},"type":"Feature","geometry":{"type":"Point","coordinates":[-80.216842,36.056892]}},{"properties":{"city":"Winston-Salem","intersecting street name":null,"geo_score":0.74,"notes":"Block No.","address or street name":"3200 Heitman Drive","day":"Fri., 10/15/2010","id":"a6io341fibrr","geo_precision":"range","state":"NC"},"type":"Feature","geometry":{"type":"Point","coordinates":[-80.216842,36.056892]}},{"properties":{"city":"Winston-Salem","intersecting street name":"Wendell Street","geo_score":0.74,"notes":null,"address or street name":"3198 Heitman Drive","day":"Fri., 8/20/2010","id":"a6io33tji5np","geo_precision":"range","state":"NC"},"type":"Feature","geometry":{"type":"Point","coordinates":[-80.216842,36.056892]}},{"properties":{"city":"Winston-Salem","intersecting street name":"Wendell Street","geo_score":0.74,"notes":null,"address or street name":"3198 Heitman Drive","day":"Fri., 8/20/2010","id":"a6io33o3pgxt","geo_precision":"range","state":"NC"},"type":"Feature","geometry":{"type":"Point","coordinates":[-80.216842,36.056892]}},{"properties":{"city":"Winston-Salem","intersecting street name":null,"geo_score":0.805,"notes":"Block No.","address or street name":"2900 Indiana Ave.","day":"Fri., 9/3/2010","id":"a6io3411lehb","geo_precision":"range","state":"NC"},"type":"Feature","geometry":{"type":"Point","coordinates":[-80.236232,36.126672]}},{"properties":{"city":"Winston-Salem","intersecting street name":null,"geo_score":0.805,"notes":"Block No.","address or street name":"2900 Indiana Ave.","day":"Fri., 9/3/2010","id":"a6io340maap4","geo_precision":"range","state":"NC"},"type":"Feature","geometry":{"type":"Point","coordinates":[-80.236232,36.126672]}},{"properties":{"city":"Winston-Salem","intersecting street name":null,"geo_score":0.805,"notes":null,"address or street name":"4700 Indiana Ave.","day":"Fri., 10/29/2010","id":"a6io3416shon","geo_precision":"range","state":"NC"},"type":"Feature","geometry":{"type":"Point","coordinates":[-80.269616,36.155575]}},{"properties":{"city":"Winston-Salem","intersecting street name":null,"geo_score":0.805,"notes":"Block No.","address or street name":"4700 Indiana Ave.","day":"Thurs., 7/1/2010","id":"a6io33o8bap7","geo_precision":"range","state":"NC"},"type":"Feature","geometry":{"type":"Point","coordinates":[-80.269616,36.155575]}},{"properties":{"city":"Winston-Salem","intersecting street name":null,"geo_score":0.805,"notes":null,"address or street name":"4730 Indiana Ave.","day":"Fri., 10/29/2010","id":"a6io33wfar2f","geo_precision":"range","state":"NC"},"type":"Feature","geometry":{"type":"Point","coordinates":[-80.270192,36.155559]}},{"properties":{"city":"Winston-Salem","intersecting street name":null,"geo_score":0.805,"notes":null,"address or street name":"4732 Indiana Ave.","day":"Thurs., 7/1/2010","id":"a6io340k9tgj","geo_precision":"range","state":"NC"},"type":"Feature","geometry":{"type":"Point","coordinates":[-80.270231,36.155558]}},{"properties":{"city":"Winston-Salem","intersecting street name":null,"geo_score":0.805,"notes":null,"address or street name":"4734 Indiana Ave.","day":"Fri., 10/29/2010","id":"a6io344dqe3d","geo_precision":"range","state":"NC"},"type":"Feature","geometry":{"type":"Point","coordinates":[-80.270269,36.155557]}},{"properties":{"city":"Winston-Salem","intersecting street name":null,"geo_score":0.805,"notes":"Block No.","address or street name":"4900 Indiana Ave.","day":"Thurs., 8/5/2010","id":"a6io33p5sgue","geo_precision":"range","state":"NC"},"type":"Feature","geometry":{"type":"Point","coordinates":[-80.274731,36.155865]}},{"properties":{"city":"Winston-Salem","intersecting street name":"Bon Air Ave.","geo_score":0.76,"notes":null,"address or street name":"199 Inverness St.","day":"Fri., 10/15/2010","id":"a6io342gx0bi","geo_precision":"range","state":"NC"},"type":"Feature","geometry":{"type":"Point","coordinates":[-80.243287,36.130877]}},{"properties":{"city":"Winston-Salem","intersecting street name":null,"geo_score":0.805,"notes":"Block No.","address or street name":"1600 Jonestown Rd.","day":"Fri., 2/18/2011","id":"a6io3423a86w","geo_precision":"range","state":"NC"},"type":"Feature","geometry":{"type":"Point","coordinates":[-80.346355,36.038767]}},{"properties":{"city":"Winston-Salem","intersecting street name":null,"geo_score":0.805,"notes":null,"address or street name":"1606 Jonestown Rd.","day":"Fri.,. 8/6/2010","id":"a6io33vqfm6w","geo_precision":"range","state":"NC"},"type":"Feature","geometry":{"type":"Point","coordinates":[-80.346296,36.038706]}},{"properties":{"city":"Winston-Salem","intersecting street name":null,"geo_score":0.805,"notes":"Block No.","address or street name":"1700 Jonestown Rd.","day":"Fri., 8/6/2010","id":"a6io3445p0tt","geo_precision":"range","state":"NC"},"type":"Feature","geometry":{"type":"Point","coordinates":[-80.339415,36.038367]}},{"properties":{"city":"Winston-Salem","intersecting street name":null,"geo_score":0.805,"notes":"Block No.","address or street name":"3200 Kernersville Rd.","day":"Fri., 1/7/2011","id":"a6io33rsdc38","geo_precision":"range","state":"NC"},"type":"Feature","geometry":{"type":"Point","coordinates":[-80.17399,36.078336]}},{"properties":{"city":"Winston-Salem","intersecting street name":null,"geo_score":0.57,"notes":null,"address or street name":"4200 Kilpatrick St.","day":"Fri.., 9/3/2010","id":"a6io33x4mdl1","geo_precision":"street","state":"NC"},"type":"Feature","geometry":{"type":"Point","coordinates":[-80.327224,36.078447]}},{"properties":{"city":"Winston-Salem","intersecting street name":null,"geo_score":0.805,"notes":"Block No.","address or street name":"4500 Lansing Drive","day":"Wed., 11/10/2010","id":"a6io33zgg2nj","geo_precision":"range","state":"NC"},"type":"Feature","geometry":{"type":"Point","coordinates":[-80.221272,36.149967]}},{"properties":{"city":"Winston-Salem","intersecting street name":null,"geo_score":0.805,"notes":"Block No.","address or street name":"4200 Morningside Drive","day":"Fri., 7/9/2010","id":"a6io341fux3b","geo_precision":"range","state":"NC"},"type":"Feature","geometry":{"type":"Point","coordinates":[-80.323317,36.168698]}},{"properties":{"city":"Winston-Salem","intersecting street name":null,"geo_score":0.805,"notes":"Block No.","address or street name":"300 Motor Road","day":"Fri., 2/18/2011","id":"a6io340d8k1y","geo_precision":"range","state":"NC"},"type":"Feature","geometry":{"type":"Point","coordinates":[-80.253368,36.154602]}},{"properties":{"city":"Winston-Salem","intersecting street name":null,"geo_score":0.333,"notes":"Block No.","address or street name":"1700 N. Cherry Street","day":"Thurs., 7/15/2010","id":"a6io3433vuec","geo_precision":"street","state":"NC"},"type":"Feature","geometry":{"type":"Point","coordinates":[-80.246663,36.095936]}},{"properties":{"city":"Winston-Salem","intersecting street name":"E. 17th St.","geo_score":0.321,"notes":null,"address or street name":"1699 N. Cleveland Ave.","day":"Sat., 8/21/2010","id":"a6io33solbhr","geo_precision":"street","state":"NC"},"type":"Feature","geometry":{"type":"Point","coordinates":[-80.229796,36.092831]}},{"properties":{"city":"Winston-Salem","intersecting street name":null,"geo_score":0.347,"notes":null,"address or street name":"4000 N. Glenn Ave.","day":"Sat., 10/2/2010","id":"a6io343hodlq","geo_precision":"street","state":"NC"},"type":"Feature","geometry":{"type":"Point","coordinates":[-80.194884,36.07129]}},{"properties":{"city":"Winston-Salem","intersecting street name":null,"geo_score":0.347,"notes":null,"address or street name":"4000 N. Glenn Ave.","day":"Sat., 10/2/2010","id":"a6io340mffc4","geo_precision":"street","state":"NC"},"type":"Feature","geometry":{"type":"Point","coordinates":[-80.194884,36.07129]}},{"properties":{"city":"Winston-Salem","intersecting street name":null,"geo_score":0.347,"notes":"Block No.","address or street name":"4000 N. Glenn Ave.","day":"Sun., 1/16/2011","id":"a6io341icn9c","geo_precision":"street","state":"NC"},"type":"Feature","geometry":{"type":"Point","coordinates":[-80.194884,36.07129]}},{"properties":{"city":"Winston-Salem","intersecting street name":null,"geo_score":0.347,"notes":null,"address or street name":"4100 N. Glenn Ave.","day":"Fri., 10/29/2010","id":"a6io340g0oxx","geo_precision":"street","state":"NC"},"type":"Feature","geometry":{"type":"Point","coordinates":[-80.194884,36.07129]}},{"properties":{"city":"Winston-Salem","intersecting street name":null,"geo_score":0.347,"notes":null,"address or street name":"4100 N. Glenn Ave.","day":"Sat., 12/18/2010","id":"a6io33yl6u6e","geo_precision":"street","state":"NC"},"type":"Feature","geometry":{"type":"Point","coordinates":[-80.194884,36.07129]}},{"properties":{"city":"Winston-Salem","intersecting street name":null,"geo_score":0.347,"notes":null,"address or street name":"4100 N. Glenn Ave.","day":"Sun., 1/16/2011","id":"a6io33rtt6ij","geo_precision":"street","state":"NC"},"type":"Feature","geometry":{"type":"Point","coordinates":[-80.194884,36.07129]}},{"properties":{"city":"Winston-Salem","intersecting street name":null,"geo_score":0.347,"notes":null,"address or street name":"4100 N. Glenn Ave.","day":"Sun., 1/23/2011","id":"a6io33snbj8q","geo_precision":"street","state":"NC"},"type":"Feature","geometry":{"type":"Point","coordinates":[-80.194884,36.07129]}},{"properties":{"city":"Winston-Salem","intersecting street name":null,"geo_score":0.347,"notes":"Block No.","address or street name":"4100 N. Glenn Ave.","day":"Sat., 2/12/2011","id":"a6io33s6kvl6","geo_precision":"street","state":"NC"},"type":"Feature","geometry":{"type":"Point","coordinates":[-80.194884,36.07129]}},{"properties":{"city":"Winston-Salem","intersecting street name":null,"geo_score":0.347,"notes":null,"address or street name":"4142 N. Glenn Ave.","day":"Wed., 6/30/2010","id":"a6io33zzwtme","geo_precision":"street","state":"NC"},"type":"Feature","geometry":{"type":"Point","coordinates":[-80.194884,36.07129]}},{"properties":{"city":"Winston-Salem","intersecting street name":null,"geo_score":0.347,"notes":null,"address or street name":"4153 N. Glenn Ave.","day":"Fri., 10/29/2010","id":"a6io33swryw9","geo_precision":"street","state":"NC"},"type":"Feature","geometry":{"type":"Point","coordinates":[-80.194884,36.07129]}},{"properties":{"city":"Winston-Salem","intersecting street name":null,"geo_score":0.347,"notes":null,"address or street name":"4155 N. Glenn Ave.","day":"Fri., 10/29/2010","id":"a6io343fszwg","geo_precision":"street","state":"NC"},"type":"Feature","geometry":{"type":"Point","coordinates":[-80.194884,36.07129]}},{"properties":{"city":"Winston-Salem","intersecting street name":null,"geo_score":0.347,"notes":null,"address or street name":"4196 N. Glenn Ave.","day":"Sat., 10/23/2010","id":"a6io33wx74bd","geo_precision":"street","state":"NC"},"type":"Feature","geometry":{"type":"Point","coordinates":[-80.194884,36.07129]}},{"properties":{"city":"Winston-Salem","intersecting street name":null,"geo_score":0.347,"notes":null,"address or street name":"4199 N. Glenn Ave.","day":"Fri., 2/18/2011","id":"a6io33s4tnmt","geo_precision":"street","state":"NC"},"type":"Feature","geometry":{"type":"Point","coordinates":[-80.194884,36.07129]}},{"properties":{"city":"Winston-Salem","intersecting street name":"N. Chestnut St.","geo_score":0.347,"notes":null,"address or street name":"198 N. Glenn Ave.","day":"Fri., 11/12/2010","id":"a6io343qtzbe","geo_precision":"street","state":"NC"},"type":"Feature","geometry":{"type":"Point","coordinates":[-80.194884,36.07129]}},{"properties":{"city":"Winston-Salem","intersecting street name":"N. Chestnut St.","geo_score":0.347,"notes":null,"address or street name":"198 N. Glenn Ave.","day":"Fri., 11/12/2010","id":"a6io33wfax81","geo_precision":"street","state":"NC"},"type":"Feature","geometry":{"type":"Point","coordinates":[-80.194884,36.07129]}},{"properties":{"city":"Winston-Salem","intersecting street name":"18th St.","geo_score":0.325,"notes":null,"address or street name":"1799 N. Jackson Ave.","day":"Fri., 11/5/2010","id":"a6io3441mr43","geo_precision":"street","state":"NC"},"type":"Feature","geometry":{"type":"Point","coordinates":[-80.225494,36.106823]}},{"properties":{"city":"Winston-Salem","intersecting street name":"18th St.","geo_score":0.325,"notes":null,"address or street name":"1799 N. Jackson Ave.","day":"Tues., 11/30/2010","id":"a6io33q25q62","geo_precision":"street","state":"NC"},"type":"Feature","geometry":{"type":"Point","coordinates":[-80.225494,36.106823]}},{"properties":{"city":"Winston-Salem","intersecting street name":null,"geo_score":0.329,"notes":"Block No.","address or street name":"1700 N. Liberty St.","day":"Wed., 8/4/2010","id":"a6io33qnbpda","geo_precision":"street","state":"NC"},"type":"Feature","geometry":{"type":"Point","coordinates":[-80.244761,36.097695]}},{"properties":{"city":"Winston-Salem","intersecting street name":"E. 11th St.","geo_score":0.329,"notes":null,"address or street name":"1228 N. Liberty St.","day":"Wed., 8/25/2010","id":"a6io342ibv6c","geo_precision":"street","state":"NC"},"type":"Feature","geometry":{"type":"Point","coordinates":[-80.244761,36.097695]}},{"properties":{"city":"Winston-Salem","intersecting street name":"E. 12th St.","geo_score":0.329,"notes":null,"address or street name":"1098 N. Liberty St.","day":"Sat., 7/24/2010","id":"a6io342a7nko","geo_precision":"street","state":"NC"},"type":"Feature","geometry":{"type":"Point","coordinates":[-80.244761,36.097695]}},{"properties":{"city":"Winston-Salem","intersecting street name":"E. 12th St.","geo_score":0.329,"notes":null,"address or street name":"1099 N. Liberty St.","day":"Fri., 11/12/2010","id":"a6io33uc7wt1","geo_precision":"street","state":"NC"},"type":"Feature","geometry":{"type":"Point","coordinates":[-80.244761,36.097695]}},{"properties":{"city":"Winston-Salem","intersecting street name":"E. 12th St.","geo_score":0.329,"notes":null,"address or street name":"1099 N. Liberty St.","day":"Fri., 12/10/2010","id":"a6io33waa1ox","geo_precision":"street","state":"NC"},"type":"Feature","geometry":{"type":"Point","coordinates":[-80.244761,36.097695]}},{"properties":{"city":"Winston-Salem","intersecting street name":"Germanton Road","geo_score":0.585,"notes":"Lat. 36.16744, Long. -80.2613","address or street name":"U.S. 52 Northbound","day":"Thurs., 7/29/2010","id":"a6io33v2e37h","geo_precision":"city","state":"NC"},"type":"Feature","geometry":{"type":"Point","coordinates":[-80.244216,36.09986]}},{"properties":{"city":"Winston-Salem","intersecting street name":"Germanton Road","geo_score":0.585,"notes":"Lat. 36.16744, Long. -80.2613","address or street name":"U.S. 52 Northbound","day":"Tues., 9/7/2010","id":"a6io343iofui","geo_precision":"city","state":"NC"},"type":"Feature","geometry":{"type":"Point","coordinates":[-80.244216,36.09986]}},{"properties":{"city":"Winston-Salem","intersecting street name":"N. Glenn Avenue","geo_score":0.585,"notes":"Lat. 36.13338, Long. -80.23834","address or street name":"U.S. 52 Northbound","day":"Wed., 8/4/2010","id":"a6io3433kvh6","geo_precision":"city","state":"NC"},"type":"Feature","geometry":{"type":"Point","coordinates":[-80.244216,36.09986]}},{"properties":{"city":"Winston-Salem","intersecting street name":"N. Liberty St.","geo_score":0.585,"notes":"Lat. 36.11705, Long. -80.23488","address or street name":"U.S. 52 Northbound","day":"Fri., 1/7/2011","id":"a6io33pdhe15","geo_precision":"city","state":"NC"},"type":"Feature","geometry":{"type":"Point","coordinates":[-80.244216,36.09986]}},{"properties":{"city":"Winston-Salem","intersecting street name":null,"geo_score":0.805,"notes":null,"address or street name":"900 New Hope Lane","day":"Wed., 8/4/2010","id":"a6io33s5nw5o","geo_precision":"range","state":"NC"},"type":"Feature","geometry":{"type":"Point","coordinates":[-80.234516,36.116191]}},{"properties":{"city":"Winston-Salem","intersecting street name":null,"geo_score":0.805,"notes":null,"address or street name":"961 New Hope Lane","day":"Thurs., 11/18/2010","id":"a6io341dqzga","geo_precision":"range","state":"NC"},"type":"Feature","geometry":{"type":"Point","coordinates":[-80.233882,36.116199]}},{"properties":{"city":"Winston-Salem","intersecting street name":null,"geo_score":0.77,"notes":"Block No.","address or street name":"2700 New Walkertown Rd.","day":"Sat., 7/3/2010","id":"a6io33seuaop","geo_precision":"range","state":"NC"},"type":"Feature","geometry":{"type":"Point","coordinates":[-80.212402,36.111509]}},{"properties":{"city":"Winston-Salem","intersecting street name":null,"geo_score":0.77,"notes":"Block No.","address or street name":"2800 New Walkertown Rd.","day":"Fri., 10/29/2010","id":"a6io33omemhg","geo_precision":"range","state":"NC"},"type":"Feature","geometry":{"type":"Point","coordinates":[-80.20991,36.11419]}},{"properties":{"city":"Winston-Salem","intersecting street name":null,"geo_score":0.805,"notes":null,"address or street name":"4300 Ogburn Ave.","day":"Sat., 8/28/2010","id":"a6io33zoxaaq","geo_precision":"range","state":"NC"},"type":"Feature","geometry":{"type":"Point","coordinates":[-80.236363,36.147853]}},{"properties":{"city":"Winston-Salem","intersecting street name":null,"geo_score":0.805,"notes":null,"address or street name":"4300 Ogburn Ave.","day":"Sat., 8/28/2010","id":"a6io33weid7g","geo_precision":"range","state":"NC"},"type":"Feature","geometry":{"type":"Point","coordinates":[-80.236363,36.147853]}},{"properties":{"city":"Winston-Salem","intersecting street name":null,"geo_score":0.805,"notes":null,"address or street name":"4400 Ogburn Ave.","day":"Fri., 9/24/2010","id":"a6io33vojzeg","geo_precision":"range","state":"NC"},"type":"Feature","geometry":{"type":"Point","coordinates":[-80.236352,36.150926]}},{"properties":{"city":"Winston-Salem","intersecting street name":null,"geo_score":0.805,"notes":null,"address or street name":"4404 Ogburn Ave.","day":"Sat., 8/28/2010","id":"a6io33ugx5la","geo_precision":"range","state":"NC"},"type":"Feature","geometry":{"type":"Point","coordinates":[-80.236352,36.151103]}},{"properties":{"city":"Winston-Salem","intersecting street name":null,"geo_score":0.805,"notes":null,"address or street name":"2500 Old Greensboro Rd.","day":"Mon., 11/8/2010","id":"a6io33xaqphh","geo_precision":"range","state":"NC"},"type":"Feature","geometry":{"type":"Point","coordinates":[-80.213227,36.099953]}},{"properties":{"city":"Winston-Salem","intersecting street name":null,"geo_score":0.805,"notes":"Block No.","address or street name":"2500 Old Greensboro Rd.","day":"Wed., 11/10/2010","id":"a6io341k75l6","geo_precision":"range","state":"NC"},"type":"Feature","geometry":{"type":"Point","coordinates":[-80.213227,36.099953]}},{"properties":{"city":"Winston-Salem","intersecting street name":null,"geo_score":0.805,"notes":"Block No.","address or street name":"2500 Old Greensboro Rd.","day":"Wed., 1/5/2011","id":"a6io3444kq4q","geo_precision":"range","state":"NC"},"type":"Feature","geometry":{"type":"Point","coordinates":[-80.213227,36.099953]}},{"properties":{"city":"Winston-Salem","intersecting street name":null,"geo_score":0.805,"notes":"Block No.","address or street name":"3500 Old Greensboro Rd.","day":"Fri., 10/29/2010","id":"a6io33w5sp6x","geo_precision":"range","state":"NC"},"type":"Feature","geometry":{"type":"Point","coordinates":[-80.197651,36.106601]}},{"properties":{"city":"Winston-Salem","intersecting street name":null,"geo_score":0.805,"notes":"Block No.","address or street name":"400 Old Hollow Rd.","day":"Sat., 2/19/2011","id":"a6io341vgfdg","geo_precision":"range","state":"NC"},"type":"Feature","geometry":{"type":"Point","coordinates":[-80.265072,36.196391]}},{"properties":{"city":"Winston-Salem","intersecting street name":"E. Sprague St.","geo_score":0.805,"notes":null,"address or street name":"2298 Old Lexington Rd.","day":"Fri., 8/20/2010","id":"a6io33p5d1zz","geo_precision":"range","state":"NC"},"type":"Feature","geometry":{"type":"Point","coordinates":[-80.226939,36.068728]}},{"properties":{"city":"Winston-Salem","intersecting street name":null,"geo_score":0.805,"notes":null,"address or street name":"5052 Pinewood Drive","day":"Fri., 7/9/2010","id":"a6io33qz2hgr","geo_precision":"range","state":"NC"},"type":"Feature","geometry":{"type":"Point","coordinates":[-80.303689,36.164409]}},{"properties":{"city":"Winston-Salem","intersecting street name":null,"geo_score":0.805,"notes":"Block No.","address or street name":"1300 Polo Road","day":"Sat., 8/21/2010","id":"a6io33pj24wv","geo_precision":"range","state":"NC"},"type":"Feature","geometry":{"type":"Point","coordinates":[-80.28477,36.138531]}},{"properties":{"city":"Winston-Salem","intersecting street name":null,"geo_score":0.805,"notes":"Block No.","address or street name":"1800 Polo Road","day":"Fri., 10/29/2010","id":"a6io3429qebx","geo_precision":"range","state":"NC"},"type":"Feature","geometry":{"type":"Point","coordinates":[-80.295967,36.132683]}},{"properties":{"city":"Winston-Salem","intersecting street name":null,"geo_score":0.805,"notes":null,"address or street name":"1200 Reynolda Rd.","day":"Fri., 10/15/2010","id":"a6io33r31vie","geo_precision":"range","state":"NC"},"type":"Feature","geometry":{"type":"Point","coordinates":[-80.266649,36.106939]}},{"properties":{"city":"Winston-Salem","intersecting street name":null,"geo_score":0.805,"notes":"Block No.","address or street name":"1200 Reynolda Rd.","day":"Sat., 7/24/2010","id":"a6io33wgt03u","geo_precision":"range","state":"NC"},"type":"Feature","geometry":{"type":"Point","coordinates":[-80.266649,36.106939]}},{"properties":{"city":"Winston-Salem","intersecting street name":null,"geo_score":0.805,"notes":null,"address or street name":"1239 Reynolda Rd.","day":"Fri., 12/10/2010","id":"a6io33td29eq","geo_precision":"range","state":"NC"},"type":"Feature","geometry":{"type":"Point","coordinates":[-80.26778,36.109383]}},{"properties":{"city":"Winston-Salem","intersecting street name":null,"geo_score":0.805,"notes":null,"address or street name":"2400 Reynolda Rd.","day":"Sat., 11/13/2010","id":"a6io33uwynsd","geo_precision":"range","state":"NC"},"type":"Feature","geometry":{"type":"Point","coordinates":[-80.288872,36.131469]}},{"properties":{"city":"Winston-Salem","intersecting street name":null,"geo_score":0.707,"notes":null,"address or street name":"2500 Reynolda Rd.","day":"Fri., 10/15/2010","id":"a6io34091fb2","geo_precision":"street","state":"NC"},"type":"Feature","geometry":{"type":"Point","coordinates":[-80.290433,36.133061]}},{"properties":{"city":"Winston-Salem","intersecting street name":null,"geo_score":0.616,"notes":null,"address or street name":"2530 Reynolda Rd.","day":"Fri., 12/10/2010","id":"a6io340ndppg","geo_precision":"street","state":"NC"},"type":"Feature","geometry":{"type":"Point","coordinates":[-80.292144,36.13509]}},{"properties":{"city":"Winston-Salem","intersecting street name":null,"geo_score":0.618,"notes":null,"address or street name":"2536 Reynolda Rd.","day":"Sat., 11/13/2010","id":"a6io33uts08r","geo_precision":"street","state":"NC"},"type":"Feature","geometry":{"type":"Point","coordinates":[-80.292144,36.13509]}},{"properties":{"city":"Winston-Salem","intersecting street name":null,"geo_score":0.805,"notes":null,"address or street name":"3000 Reynolda Rd.","day":"Tues., 12/14/2010","id":"a6io33wvsooj","geo_precision":"range","state":"NC"},"type":"Feature","geometry":{"type":"Point","coordinates":[-80.303444,36.146566]}},{"properties":{"city":"Winston-Salem","intersecting street name":null,"geo_score":0.805,"notes":"Block No.","address or street name":"2300 Reynolds Park Rd.","day":"Fri., 11/26/2010","id":"a6io33q18yrt","geo_precision":"range","state":"NC"},"type":"Feature","geometry":{"type":"Point","coordinates":[-80.209037,36.087588]}},{"properties":{"city":"Winston-Salem","intersecting street name":null,"geo_score":0.805,"notes":"Block No.","address or street name":"2400 Reynolds Park Rd.","day":"Mon., 7/26/2010","id":"a6io33xu4r5c","geo_precision":"range","state":"NC"},"type":"Feature","geometry":{"type":"Point","coordinates":[-80.20611,36.087247]}},{"properties":{"city":"Winston-Salem","intersecting street name":null,"geo_score":0.805,"notes":null,"address or street name":"2491 Reynolds Park Rd.","day":"Mon., 7/26/2010","id":"a6io33ymzcjw","geo_precision":"range","state":"NC"},"type":"Feature","geometry":{"type":"Point","coordinates":[-80.204214,36.087522]}},{"properties":{"city":"Winston-Salem","intersecting street name":null,"geo_score":0.805,"notes":null,"address or street name":"2731 Reynolds Park Rd.","day":"Fri., 10/29/2010","id":"a6io3406ha57","geo_precision":"range","state":"NC"},"type":"Feature","geometry":{"type":"Point","coordinates":[-80.193873,36.085235]}},{"properties":{"city":"Winston-Salem","intersecting street name":null,"geo_score":0.805,"notes":null,"address or street name":"393 Robbins Rd.","day":"Fri., 10/29/2010","id":"a6io33zdg57b","geo_precision":"range","state":"NC"},"type":"Feature","geometry":{"type":"Point","coordinates":[-80.155387,36.073328]}},{"properties":{"city":"Winston-Salem","intersecting street name":null,"geo_score":0.805,"notes":null,"address or street name":"400 Robbins Rd.","day":"Fri., 10/29/2010","id":"a6io3435ew77","geo_precision":"range","state":"NC"},"type":"Feature","geometry":{"type":"Point","coordinates":[-80.155505,36.072892]}},{"properties":{"city":"Winston-Salem","intersecting street name":"Woodcote Drive","geo_score":0.805,"notes":null,"address or street name":"3100 Rosie St.","day":"Sat., 10/2/2010","id":"a6io33phzzrq","geo_precision":"range","state":"NC"},"type":"Feature","geometry":{"type":"Point","coordinates":[-80.220789,36.057842]}},{"properties":{"city":"Winston-Salem","intersecting street name":null,"geo_score":0.857,"notes":"Block No./Address not found","address or street name":"35000 S. Frontage Rd.","day":"Sun., 7/25/2010","id":"a6io33vykq9b","geo_precision":"city","state":"NC"},"type":"Feature","geometry":{"type":"Point","coordinates":[-80.244216,36.09986]}},{"properties":{"city":"Winston-Salem","intersecting street name":null,"geo_score":0.857,"notes":"Block No./Address not found","address or street name":"35000 S. Frontage Rd.","day":"Sun., 7/25/2010","id":"a6io343t2zgr","geo_precision":"city","state":"NC"},"type":"Feature","geometry":{"type":"Point","coordinates":[-80.244216,36.09986]}},{"properties":{"city":"Winston-Salem","intersecting street name":null,"geo_score":0.857,"notes":"Address not found","address or street name":"37737 S. Frontage Rd.","day":"Wed., 7/7/2010","id":"a6io33poji0c","geo_precision":"city","state":"NC"},"type":"Feature","geometry":{"type":"Point","coordinates":[-80.244216,36.09986]}},{"properties":{"city":"Winston-Salem","intersecting street name":null,"geo_score":0.857,"notes":"Address not found","address or street name":"39991 S. Frontage Rd.","day":"Sun., 9/19/2010","id":"a6io33v7g2kk","geo_precision":"city","state":"NC"},"type":"Feature","geometry":{"type":"Point","coordinates":[-80.244216,36.09986]}},{"properties":{"city":"Winston-Salem","intersecting street name":null,"geo_score":0.857,"notes":"Address not found","address or street name":"41921 S. Frontage Rd.","day":"Fri., 7/23/2010","id":"a6io33wsd4wz","geo_precision":"city","state":"NC"},"type":"Feature","geometry":{"type":"Point","coordinates":[-80.244216,36.09986]}},{"properties":{"city":"Winston-Salem","intersecting street name":null,"geo_score":0.857,"notes":"Address not found","address or street name":"47681 S. Frontage Rd.","day":"Thurs., 8/19/2010","id":"a6io33ur4633","geo_precision":"city","state":"NC"},"type":"Feature","geometry":{"type":"Point","coordinates":[-80.244216,36.09986]}},{"properties":{"city":"Winston-Salem","intersecting street name":"Clemmonsville Road","geo_score":0.357,"notes":"Lat. 36.05963, Long. -80.22045","address or street name":"1 S. Frontage Rd./I-40 Eastbound","day":"Fri., 7/23/2010","id":"a6io342fesc7","geo_precision":"street","state":"NC"},"type":"Feature","geometry":{"type":"Point","coordinates":[-80.283513,36.076193]}},{"properties":{"city":"Winston-Salem","intersecting street name":"Thomasville Rd.","geo_score":0.857,"notes":"Address not found","address or street name":"99998 S. Frontage Rd.","day":"Tues., 8/24/2010","id":"a6io342eqml3","geo_precision":"city","state":"NC"},"type":"Feature","geometry":{"type":"Point","coordinates":[-80.244216,36.09986]}},{"properties":{"city":"Winston-Salem","intersecting street name":null,"geo_score":0.347,"notes":"Holiday/Block No.","address or street name":"100 S. Glenn Ave.","day":"Mon., 1/17/2011","id":"a6io33sttn8m","geo_precision":"street","state":"NC"},"type":"Feature","geometry":{"type":"Point","coordinates":[-80.194884,36.07129]}},{"properties":{"city":"Winston-Salem","intersecting street name":"W. Wright St.","geo_score":0.357,"notes":null,"address or street name":"2798 S. Main St.","day":"Fri., 6/25/2010","id":"a6io33yzquxo","geo_precision":"street","state":"NC"},"type":"Feature","geometry":{"type":"Point","coordinates":[-80.339344,36.17901]}},{"properties":{"city":"Winston-Salem","intersecting street name":null,"geo_score":0.683,"notes":"Block No.","address or street name":"1900 Salem Crest Lane","day":"Sun., 11/21/2010","id":"a6io3412bfec","geo_precision":"street","state":"NC"},"type":"Feature","geometry":{"type":"Point","coordinates":[-80.273204,36.060479]}},{"properties":{"city":"Winston-Salem","intersecting street name":"Terry Rd.","geo_score":0.805,"notes":null,"address or street name":"1 Salem Gardens Drive","day":"Thurs., 7/8/2010","id":"a6io33srkrww","geo_precision":"range","state":"NC"},"type":"Feature","geometry":{"type":"Point","coordinates":[-80.186191,36.081424]}},{"properties":{"city":"Winston-Salem","intersecting street name":"Waughtown St.","geo_score":0.342,"notes":"Lat. 36.07140, Long. -80.22844.  Anecdotal evidence of checkpoints exists.","address or street name":"U.S. 52 Southbound","day":"Tues., 10/19/2010","id":"a6io342y6zj9","geo_precision":"street","state":"NC"},"type":"Feature","geometry":{"type":"Point","coordinates":[-80.226334,36.087589]}},{"properties":{"city":"Winston-Salem","intersecting street name":"Waughtown St.","geo_score":0.342,"notes":"Lat. 36.07140, Long. -80.22844.  Anecdotal evidence of checkpoints exists.","address or street name":"U.S. 52 Southbound","day":"Sat., 10/30/2010","id":"a6io344dcwar","geo_precision":"street","state":"NC"},"type":"Feature","geometry":{"type":"Point","coordinates":[-80.226334,36.087589]}},{"properties":{"city":"Winston-Salem","intersecting street name":"Waughtown St.","geo_score":0.342,"notes":"Lat. 36.07140, Long. -80.22844.  Anecdotal evidence of checkpoints exists.","address or street name":"U.S. 52 Southbound","day":"Thurs., 1/27/2011","id":"a6io33pzk9s2","geo_precision":"street","state":"NC"},"type":"Feature","geometry":{"type":"Point","coordinates":[-80.226334,36.087589]}},{"properties":{"city":"Winston-Salem","intersecting street name":null,"geo_score":0.805,"notes":"Block No.","address or street name":"100 Stagecoach Rd.","day":"Fri., 6/25/2010","id":"a6io340u5lsf","geo_precision":"range","state":"NC"},"type":"Feature","geometry":{"type":"Point","coordinates":[-80.279212,36.193222]}},{"properties":{"city":"Winston-Salem","intersecting street name":null,"geo_score":0.805,"notes":null,"address or street name":"1013 Swaim Woods Lane","day":"Fri., 8/20/2010","id":"a6io33vb122h","geo_precision":"range","state":"NC"},"type":"Feature","geometry":{"type":"Point","coordinates":[-80.216651,36.056977]}},{"properties":{"city":"Winston-Salem","intersecting street name":"Salem Gardens Drive","geo_score":0.642,"notes":null,"address or street name":"1278 Terry Road","day":"Tues., 6/29/2010","id":"a6io3408mtjm","geo_precision":"street","state":"NC"},"type":"Feature","geometry":{"type":"Point","coordinates":[-80.186247,36.081213]}},{"properties":{"city":"Winston-Salem","intersecting street name":"Salem Gardens Drive","geo_score":0.642,"notes":null,"address or street name":"1278 Terry Road","day":"Fri., 7/9/2010","id":"a6io342nfnlk","geo_precision":"street","state":"NC"},"type":"Feature","geometry":{"type":"Point","coordinates":[-80.186247,36.081213]}},{"properties":{"city":"Winston-Salem","intersecting street name":null,"geo_score":0.805,"notes":null,"address or street name":"2902 Thomasville Rd.","day":"Fri., 10/29/2010","id":"a6io33zhbav3","geo_precision":"range","state":"NC"},"type":"Feature","geometry":{"type":"Point","coordinates":[-80.215796,36.060685]}},{"properties":{"city":"Winston-Salem","intersecting street name":null,"geo_score":0.805,"notes":"Block No.","address or street name":"3300 Thomasville Rd.","day":"Fri., 10/29/2010","id":"a6io33x4vfqz","geo_precision":"range","state":"NC"},"type":"Feature","geometry":{"type":"Point","coordinates":[-80.210979,36.056742]}},{"properties":{"city":"Winston-Salem","intersecting street name":null,"geo_score":0.679,"notes":null,"address or street name":"1274 29th St.","day":"Fri., 7/23/2010","id":"a6io341gjyit","geo_precision":"range","state":"NC"},"type":"Feature","geometry":{"type":"Point","coordinates":[-80.228299,36.125419]}},{"properties":{"city":"Winston-Salem","intersecting street name":"Claremont Ave.","geo_score":0.582,"notes":null,"address or street name":"1300 29th St.","day":"Fri., 8/6/2010","id":"a6io33vdmw7u","geo_precision":"street","state":"NC"},"type":"Feature","geometry":{"type":"Point","coordinates":[-80.227801,36.125249]}},{"properties":{"city":"Winston-Salem","intersecting street name":null,"geo_score":0.805,"notes":null,"address or street name":"2683 Urban St.","day":"Fri., 10/29/2010","id":"a6io33xb7bpn","geo_precision":"range","state":"NC"},"type":"Feature","geometry":{"type":"Point","coordinates":[-80.222742,36.064202]}},{"properties":{"city":"Winston-Salem","intersecting street name":null,"geo_score":0.805,"notes":null,"address or street name":"1741 Vargrave St.","day":"Fri., 11/26/2010","id":"a6io33ziotx1","geo_precision":"range","state":"NC"},"type":"Feature","geometry":{"type":"Point","coordinates":[-80.229756,36.074711]}},{"properties":{"city":"Winston-Salem","intersecting street name":null,"geo_score":0.805,"notes":null,"address or street name":"1787 Vargrave St.","day":"Thurs., 7/22/2010","id":"a6io33smbnq5","geo_precision":"range","state":"NC"},"type":"Feature","geometry":{"type":"Point","coordinates":[-80.229816,36.0742]}},{"properties":{"city":"Winston-Salem","intersecting street name":null,"geo_score":0.707,"notes":null,"address or street name":"900 Vargrave St.","day":"Fri., 9/3/2010","id":"a6io33rc7jmm","geo_precision":"street","state":"NC"},"type":"Feature","geometry":{"type":"Point","coordinates":[-80.228004,36.086541]}},{"properties":{"city":"Winston-Salem","intersecting street name":"Diggs Blvd.","geo_score":0.805,"notes":null,"address or street name":"1298 Vargrave St.","day":"Sat., 7/3/2010","id":"a6io33wdtpna","geo_precision":"range","state":"NC"},"type":"Feature","geometry":{"type":"Point","coordinates":[-80.229979,36.080379]}},{"properties":{"city":"Winston-Salem","intersecting street name":"U.S. 52 Southbound","geo_score":0.714,"notes":"Lat. 36.08275, Long. -80.22862 (estimate).  Anecdotal evidence of checkpoint exists.","address or street name":"Vargrave St.","day":"Sat., 9/18/2010","id":"a6io33s513o0","geo_precision":"street","state":"NC"},"type":"Feature","geometry":{"type":"Point","coordinates":[-80.228399,36.090454]}},{"properties":{"city":"Winston-Salem","intersecting street name":"Waughtown St.","geo_score":0.805,"notes":null,"address or street name":"1898 Vargrave St.","day":"Fri., 7/2/2010","id":"a6io33vivumo","geo_precision":"range","state":"NC"},"type":"Feature","geometry":{"type":"Point","coordinates":[-80.230153,36.073378]}},{"properties":{"city":"Winston-Salem","intersecting street name":"Waughtown St.","geo_score":0.805,"notes":null,"address or street name":"1898 Vargrave St.","day":"Fri., 7/2/2010","id":"a6io33xxbawt","geo_precision":"range","state":"NC"},"type":"Feature","geometry":{"type":"Point","coordinates":[-80.230153,36.073378]}},{"properties":{"city":"Winston-Salem","intersecting street name":"Waughtown St.","geo_score":0.805,"notes":null,"address or street name":"1898 Vargrave St.","day":"Thurs., 7/22/2010","id":"a6io33zalgpg","geo_precision":"range","state":"NC"},"type":"Feature","geometry":{"type":"Point","coordinates":[-80.230153,36.073378]}},{"properties":{"city":"Winston-Salem","intersecting street name":"Waughtown St.","geo_score":0.805,"notes":null,"address or street name":"1898 Vargrave St.","day":"Sun., 9/5/2010","id":"a6io343i3il0","geo_precision":"range","state":"NC"},"type":"Feature","geometry":{"type":"Point","coordinates":[-80.230153,36.073378]}},{"properties":{"city":"Winston-Salem","intersecting street name":null,"geo_score":0.371,"notes":"Block No.","address or street name":"1000 W. Northwest Blvd.","day":"Fri., 10/29/2010","id":"a6io33whtg0u","geo_precision":"street","state":"NC"},"type":"Feature","geometry":{"type":"Point","coordinates":[-80.277481,36.089909]}},{"properties":{"city":"Winston-Salem","intersecting street name":null,"geo_score":0.371,"notes":"Block No.","address or street name":"900 W. Northwest Blvd.","day":"Fri., 11/26/2010","id":"a6io341kdp5l","geo_precision":"street","state":"NC"},"type":"Feature","geometry":{"type":"Point","coordinates":[-80.277481,36.089909]}},{"properties":{"city":"Winston-Salem","intersecting street name":null,"geo_score":0.371,"notes":"Block No.","address or street name":"900 W. Northwest Blvd.","day":"Thurs., 12/30/2010","id":"a6io33qq8vtv","geo_precision":"street","state":"NC"},"type":"Feature","geometry":{"type":"Point","coordinates":[-80.277481,36.089909]}},{"properties":{"city":"Winston-Salem","intersecting street name":null,"geo_score":0.371,"notes":"Block No.","address or street name":"900 W. Northwest Blvd.","day":"Fri., 1/7/2011","id":"a6io33uf2fmd","geo_precision":"street","state":"NC"},"type":"Feature","geometry":{"type":"Point","coordinates":[-80.277481,36.089909]}},{"properties":{"city":"Winston-Salem","intersecting street name":null,"geo_score":0.371,"notes":null,"address or street name":"945 W. Northwest Blvd.","day":"Fri., 10/29/2010","id":"a6io33t1l877","geo_precision":"street","state":"NC"},"type":"Feature","geometry":{"type":"Point","coordinates":[-80.277481,36.089909]}},{"properties":{"city":"Winston-Salem","intersecting street name":null,"geo_score":0.371,"notes":null,"address or street name":"965 W. Northwest Blvd.","day":"Fri., 11/12/2010","id":"a6io33tvzhnx","geo_precision":"street","state":"NC"},"type":"Feature","geometry":{"type":"Point","coordinates":[-80.277481,36.089909]}},{"properties":{"city":"Winston-Salem","intersecting street name":null,"geo_score":0.805,"notes":null,"address or street name":"400 Waughtown St.","day":"Tues., 8/31/2010","id":"a6io33shk0au","geo_precision":"range","state":"NC"},"type":"Feature","geometry":{"type":"Point","coordinates":[-80.232383,36.074341]}},{"properties":{"city":"Winston-Salem","intersecting street name":null,"geo_score":0.805,"notes":null,"address or street name":"430 Waughtown St.","day":"Fri., 7/2/2010","id":"a6io33zgncmd","geo_precision":"range","state":"NC"},"type":"Feature","geometry":{"type":"Point","coordinates":[-80.231497,36.073886]}},{"properties":{"city":"Winston-Salem","intersecting street name":null,"geo_score":0.805,"notes":null,"address or street name":"431 Waughtown St.","day":"Fri., 12/10/2010","id":"a6io340e1cc3","geo_precision":"range","state":"NC"},"type":"Feature","geometry":{"type":"Point","coordinates":[-80.231445,36.073859]}},{"properties":{"city":"Winston-Salem","intersecting street name":null,"geo_score":0.805,"notes":null,"address or street name":"432 Waughtown St.","day":"Fri., 7/2/2010","id":"a6io33r8dl3y","geo_precision":"range","state":"NC"},"type":"Feature","geometry":{"type":"Point","coordinates":[-80.231438,36.073856]}},{"properties":{"city":"Winston-Salem","intersecting street name":null,"geo_score":0.805,"notes":null,"address or street name":"445 Waughtown St.","day":"Fri., 7/2/2010","id":"a6io33ydxy2d","geo_precision":"range","state":"NC"},"type":"Feature","geometry":{"type":"Point","coordinates":[-80.230973,36.073741]}},{"properties":{"city":"Winston-Salem","intersecting street name":null,"geo_score":0.805,"notes":null,"address or street name":"445 Waughtown St.","day":"Thurs., 11/18/2010","id":"a6io34158y9v","geo_precision":"range","state":"NC"},"type":"Feature","geometry":{"type":"Point","coordinates":[-80.230973,36.073741]}},{"properties":{"city":"Winston-Salem","intersecting street name":"U.S. 52 Northbound","geo_score":0.714,"notes":"Lat. 36.07123, Long. -80.22828.  Anecdotal evidence of checkpoint exists.","address or street name":"Waughtown St.","day":"Fri., 11/12/2010","id":"a6io342dya33","geo_precision":"street","state":"NC"},"type":"Feature","geometry":{"type":"Point","coordinates":[-80.235509,36.076426]}},{"properties":{"city":"Winston-Salem","intersecting street name":"U.S. 52 Southbound","geo_score":0.805,"notes":null,"address or street name":"569 Waughtown St.","day":"Fri., 2/4/2011","id":"a6io33vazrwi","geo_precision":"range","state":"NC"},"type":"Feature","geometry":{"type":"Point","coordinates":[-80.228082,36.071023]}},{"properties":{"city":"Winston-Salem","intersecting street name":null,"geo_score":0.805,"notes":"Block No.","address or street name":"2400 Willard Road","day":"Fri., 7/23/2010","id":"a6io33zfso0z","geo_precision":"range","state":"NC"},"type":"Feature","geometry":{"type":"Point","coordinates":[-80.198983,36.063933]}},{"properties":{"city":"Winston-Salem","intersecting street name":null,"geo_score":0.805,"notes":"Block No.","address or street name":"2400 Willard Road","day":"Fri., 8/6/2010","id":"a6io33vszyg3","geo_precision":"range","state":"NC"},"type":"Feature","geometry":{"type":"Point","coordinates":[-80.198983,36.063933]}},{"properties":{"city":"Winston-Salem","intersecting street name":null,"geo_score":0.805,"notes":"Block No.","address or street name":"2400 Willard Road","day":"Sat., 8/21/2010","id":"a6io33xifflw","geo_precision":"range","state":"NC"},"type":"Feature","geometry":{"type":"Point","coordinates":[-80.198983,36.063933]}},{"properties":{"city":"Winston-Salem","intersecting street name":null,"geo_score":0.805,"notes":"Block No.","address or street name":"2400 Willard Road","day":"Tues., 8/24/2010","id":"a6io33yas8zz","geo_precision":"range","state":"NC"},"type":"Feature","geometry":{"type":"Point","coordinates":[-80.198983,36.063933]}},{"properties":{"city":"Winston-Salem","intersecting street name":null,"geo_score":0.805,"notes":null,"address or street name":"2452 Willard Road","day":"Fri., 1/21/2011","id":"a6io34465bsd","geo_precision":"range","state":"NC"},"type":"Feature","geometry":{"type":"Point","coordinates":[-80.198011,36.06244]}},{"properties":{"city":"Winston-Salem","intersecting street name":null,"geo_score":0.805,"notes":null,"address or street name":"2466 Willard Road","day":"Sat., 7/17/2010","id":"a6io343ww6mv","geo_precision":"range","state":"NC"},"type":"Feature","geometry":{"type":"Point","coordinates":[-80.197635,36.062135]}},{"properties":{"city":"Winston-Salem","intersecting street name":null,"geo_score":0.805,"notes":null,"address or street name":"2469 Willard Road","day":"Wed., 7/7/2010","id":"a6io33xndbvb","geo_precision":"range","state":"NC"},"type":"Feature","geometry":{"type":"Point","coordinates":[-80.197581,36.062091]}}],"is_temporal":false,"author":{"url":"","metadata":"","contact_name":"","contact_address":"","source":"","contact_phone":""},"source":"","pagination":{"sort":null,"start":0,"total":212,"limit":1000000},"state":"complete","tags":"","published":"2014-08-13T01:13:33-04:00","id":102856}