{"type":"FeatureCollection","data_attributes":null,"calculation_params":null,"title":"test-data-3","count":24,"icon_link":null,"extent":[-82.53,38.3967,-82.3237,38.4426],"geometry_types":["point"],"unique_name":null,"feature_count":24,"link":"http://geocommons.com/overlays/103121.json","next_feature":null,"features":[{"properties":{"name":"McDonald's","zipcode":"25704","geo_score":0.393,"description":"Fast food","id":"a68h5zwpz8kh","address":"Rt 52 &amp; 5th St Rdeet Road","geo_precision":"street","state":"WV"},"type":"Feature","geometry":{"type":"Point","coordinates":[-82.368667,38.406698]}},{"properties":{"name":"McDonald's","zipcode":"25701","geo_score":0.805,"description":"Fast food","id":"a68h5zw3x3f3","address":"1445 Hal Greer Boulevard","geo_precision":"range","state":"WV"},"type":"Feature","geometry":{"type":"Point","coordinates":[-82.428122,38.40841]}},{"properties":{"name":"McDonald's","zipcode":"25703","geo_score":0.707,"description":"Fast food","id":"a68h5zsijk1b","address":"2106 5th Avenue","geo_precision":"range","state":"WV"},"type":"Feature","geometry":{"type":"Point","coordinates":[-82.420767,38.423354]}},{"properties":{"name":"McDonald's","zipcode":"25704","geo_score":0.805,"description":"Fast food","id":"a68h5znro935","address":"70 Washington Court","geo_precision":"range","state":"WV"},"type":"Feature","geometry":{"type":"Point","coordinates":[-82.47261,38.415312]}},{"properties":{"name":"Arby's","zipcode":"25701","geo_score":0.707,"description":"Fast food","id":"a68h5zpblwuc","address":"1451 3rd Avenue","geo_precision":"range","state":"WV"},"type":"Feature","geometry":{"type":"Point","coordinates":[-82.434898,38.423535]}},{"properties":{"name":"Burger King","zipcode":"25703","geo_score":0.707,"description":"Fast food","id":"a68h5zu3erj8","address":"2023 5th Avenue","geo_precision":"range","state":"WV"},"type":"Feature","geometry":{"type":"Point","coordinates":[-82.421859,38.423161]}},{"properties":{"name":"Burger King","zipcode":"25704","geo_score":0.805,"description":"Fast food","id":"a68h5zwz3qsx","address":"51 Washington Court","geo_precision":"range","state":"WV"},"type":"Feature","geometry":{"type":"Point","coordinates":[-82.472574,38.415211]}},{"properties":{"name":"Burger King","zipcode":"25705","geo_score":0.805,"description":"Fast food","id":"a68h5zolffxy","address":"3210 Washington Boulevard","geo_precision":"range","state":"WV"},"type":"Feature","geometry":{"type":"Point","coordinates":[-82.387612,38.4113]}},{"properties":{"name":"Hardees","zipcode":"25701","geo_score":0.688,"description":"Fast food","id":"a68h5zvo5n18","address":"603 5th Street","geo_precision":"range","state":"WV"},"type":"Feature","geometry":{"type":"Point","coordinates":[-82.449956,38.416802]}},{"properties":{"name":"Hardees","zipcode":"25704","geo_score":0.805,"description":"Fast food","id":"a68h5zx8h1ck","address":"1701 Washington Avenue","geo_precision":"range","state":"WV"},"type":"Feature","geometry":{"type":"Point","coordinates":[-82.484841,38.411677]}},{"properties":{"name":"KFC","zipcode":"25705","geo_score":0.61,"description":"Fast food","id":"a68h5zti2d8z","address":"5350 US Route 60","geo_precision":"street","state":"WV"},"type":"Feature","geometry":{"type":"Point","coordinates":[-82.530033,38.396729]}},{"properties":{"name":"KFC","zipcode":"25701","geo_score":0.805,"description":"Fast food","id":"a68h5zsuky56","address":"1325 Hal Greer Boulevard","geo_precision":"range","state":"WV"},"type":"Feature","geometry":{"type":"Point","coordinates":[-82.428549,38.41064]}},{"properties":{"name":"Pizza Hut","zipcode":"25704","geo_score":0.805,"description":"Fast food","id":"a68h5zva9xd2","address":"1523 Madison Avenue","geo_precision":"range","state":"WV"},"type":"Feature","geometry":{"type":"Point","coordinates":[-82.480506,38.408764]}},{"properties":{"name":"Pizza Hut","zipcode":"25701","geo_score":0.707,"description":"Fast food","id":"a68h600wrkpo","address":"1531 6th Avenue","geo_precision":"range","state":"WV"},"type":"Feature","geometry":{"type":"Point","coordinates":[-82.432375,38.419887]}},{"properties":{"name":"Little Caesars Pizza","zipcode":"25701","geo_score":0.707,"description":"Fast food","id":"a68h6011vgnn","address":"100 7th Avenue","geo_precision":"range","state":"WV"},"type":"Feature","geometry":{"type":"Point","coordinates":[-82.45644,38.414327]}},{"properties":{"name":"Little Caesars Pizza","zipcode":"25704","geo_score":0.484,"description":"Fast food","id":"a68h600csrws","address":"5th Av And 29Th Street","geo_precision":"street","state":"WV"},"type":"Feature","geometry":{"type":"Point","coordinates":[-82.399716,38.43098]}},{"properties":{"name":"Cambden Park","zipcode":"25704","geo_score":0.714,"description":"Park","id":"a68h6026ja9r","address":"5000 Waverly Road, Huntington","geo_precision":"street","state":"WV"},"type":"Feature","geometry":{"type":"Point","coordinates":[-82.502353,38.404869]}},{"properties":{"name":"Ritter Park","zipcode":"25701","geo_score":0.571,"description":"Park","id":"a68h5zr0oa2g","address":"3th Ave, Huntington, West Virginia","geo_precision":"street","state":"WV"},"type":"Feature","geometry":{"type":"Point","coordinates":[-82.452744,38.420435]}},{"properties":{"name":"Harris Riverfront Park","zipcode":"25701-1117","geo_score":0.592,"description":"Park","id":"a68h5zo8z5ms","address":"94 3rd Avenue West, Huntington","geo_precision":"street","state":"WV"},"type":"Feature","geometry":{"type":"Point","coordinates":[-82.457916,38.419545]}},{"properties":{"name":"Central City Market","zipcode":"25704","geo_score":0.527,"description":"Farmers Market","id":"a68h5zsl93z5","address":"55 14th Street West","geo_precision":"street","state":"WV"},"type":"Feature","geometry":{"type":"Point","coordinates":[-82.480665,38.413967]}},{"properties":{"name":"YMCA","zipcode":"25701","geo_score":0.654,"description":"Fitness &amp; Sports Facility","id":"a68h5zomp062","address":"5800 Ohio River Road","geo_precision":"street","state":"WV"},"type":"Feature","geometry":{"type":"Point","coordinates":[-82.323672,38.442623]}},{"properties":{"name":"Grand Master S.H. Kang's Tae Kwon Do, LLC","zipcode":"25303","geo_score":0.357,"description":"Fitness &amp; Sports Facility","id":"a68h5zpfun1y","address":"1415 4th Avenue, Huntington, WV","geo_precision":"street","state":"WV"},"type":"Feature","geometry":{"type":"Point","coordinates":[-82.45589,38.418687]}},{"properties":{"name":"Magic Fist Martial Arts","zipcode":"25701","geo_score":0.357,"description":"Fitness &amp; Sports Facility","id":"a68h6032m4ax","address":"914 1/2 4th Avenue, Huntington, WV","geo_precision":"street","state":"WV"},"type":"Feature","geometry":{"type":"Point","coordinates":[-82.45589,38.418687]}},{"properties":{"name":"American Health Centers","zipcode":"25704","geo_score":0.721,"description":"Fitness &amp; Sports Facility","id":"a68h5zvh3cvq","address":"421 16th Street West","geo_precision":"range","state":"WV"},"type":"Feature","geometry":{"type":"Point","coordinates":[-82.483287,38.411862]}}],"is_raster":false,"name":"test-data-3","state":"complete","short_classification":"Y","published":"2014-08-31T23:30:33-04:00","description":"","stats":{},"is_temporal":false,"pagination":{"sort":null,"start":0,"limit":1000000,"total":24},"author":{"metadata":"","contact_name":"","url":"","contact_address":"","contact_phone":"","source":""},"source":"","data_type":"Dataset","url_type":null,"permissions":[{"group_id":"everyone","permissions":{"download":true,"view":true}}],"classification":null,"tags":"","id":103121,"stream_id":103121,"contributor":{"name":"mayra01","url":"http://geocommons.com/users/23944"}}