{"type":"FeatureCollection","data_type":"Dataset","url_type":null,"permissions":[{"permissions":{"download":true,"view":true},"group_id":"everyone"}],"classification":null,"title":"Parking Tickets for 'Time Limit Exceeded' , Vancouver, 2004-2008","count":678,"stream_id":10410,"contributor":{"url":"http://geocommons.com/users/695","name":"Bill"},"data_attributes":null,"calculation_params":null,"icon_link":null,"link":"http://geocommons.com/overlays/10410.json","extent":[-132.182,49.2038,-123.024,53.6868],"geometry_types":["point"],"unique_name":null,"name":"Parking Tickets for 'Time Limit Exceeded' , Vancouver, 2004-2008","feature_count":678,"description":"total tickets issued for 'Time Limit Exceeded' in Vancouver from 2004-2008. This data comes from the Vancouver sun who received that data through a FOIA request. The Vancouver sun has this and other parking ticket data in their Parking Ticket Database.","next_feature":null,"is_raster":false,"short_classification":"Y","stats":{"tickets":{"max":2103.0,"mean":141.617994100295,"variance":47412.4786713028,"stdev":217.744066902643,"min":10.0,"median":53.0},"lat":{"max":53.686798,"mean":49.2754139572271,"variance":0.0526300075080796,"stdev":0.229412308972469,"min":49.203758,"median":49.26474},"long":{"max":-123.024422,"mean":-123.141728914454,"variance":0.240856612264252,"stdev":0.490771446056361,"min":-132.182404,"median":-123.122421}},"features":[{"properties":{"offence":"176E","tickets":10.0,"id":"a65jsjt0wzto","lat":49.270302,"address":"3650 Graveley St.","long":-123.024422},"type":"Feature","geometry":{"type":"Point","coordinates":[-123.024422,49.270302]}},{"properties":{"offence":"176E","tickets":10.0,"id":"a65jsjwlkdk0","lat":49.232193,"address":"3650 Kingsway","long":-123.024681},"type":"Feature","geometry":{"type":"Point","coordinates":[-123.024681,49.232193]}},{"properties":{"offence":"176E","tickets":10.0,"id":"a65jsjw5foq2","lat":49.240013,"address":"4950 Payne St.","long":-123.028748},"type":"Feature","geometry":{"type":"Point","coordinates":[-123.028748,49.240013]}},{"properties":{"offence":"176E","tickets":10.0,"id":"a65jsk4ga3e5","lat":49.235237,"address":"1950 38th Ave E.","long":-123.066261},"type":"Feature","geometry":{"type":"Point","coordinates":[-123.066261,49.235237]}},{"properties":{"offence":"176E","tickets":10.0,"id":"a65jsjvtzvwj","lat":49.276669,"address":"1650 Venables St.","long":-123.070282},"type":"Feature","geometry":{"type":"Point","coordinates":[-123.070282,49.276669]}},{"properties":{"offence":"176E","tickets":10.0,"id":"a65jsjsvfvhk","lat":49.267799,"address":"1650 3rd Ave E.","long":-123.070625},"type":"Feature","geometry":{"type":"Point","coordinates":[-123.070625,49.267799]}},{"properties":{"offence":"176E","tickets":10.0,"id":"a65jsjwanj1q","lat":49.227379,"address":"650 47th Ave E.","long":-123.091515},"type":"Feature","geometry":{"type":"Point","coordinates":[-123.091515,49.227379]}},{"properties":{"offence":"176E","tickets":10.0,"id":"a65jsjqbhmd9","lat":49.274887,"address":"750 National Ave.","long":-123.100311},"type":"Feature","geometry":{"type":"Point","coordinates":[-123.100311,49.274887]}},{"properties":{"offence":"176E","tickets":10.0,"id":"a65jsk1l46tl","lat":49.223766,"address":"150 51st Ave E.","long":-123.102745},"type":"Feature","geometry":{"type":"Point","coordinates":[-123.102745,49.223766]}},{"properties":{"offence":"176E","tickets":10.0,"id":"a65jsjvqqjz8","lat":49.257057,"address":"1150 16th Ave W.","long":-123.130318},"type":"Feature","geometry":{"type":"Point","coordinates":[-123.130318,49.257057]}},{"properties":{"offence":"176E","tickets":10.0,"id":"a65jsjpw9lup","lat":49.262165,"address":"2650 Granville St.","long":-123.13858},"type":"Feature","geometry":{"type":"Point","coordinates":[-123.13858,49.262165]}},{"properties":{"offence":"176E","tickets":10.0,"id":"a65jsk0wajvc","lat":49.25943,"address":"2950 Pine St.","long":-123.143539},"type":"Feature","geometry":{"type":"Point","coordinates":[-123.143539,49.25943]}},{"properties":{"offence":"176E","tickets":10.0,"id":"a65jsjp2w9hs","lat":49.26992,"address":"2150 2nd Ave W.","long":-123.153915},"type":"Feature","geometry":{"type":"Point","coordinates":[-123.153915,49.26992]}},{"properties":{"offence":"176E","tickets":10.0,"id":"a65jsjs4zvy2","lat":49.234608,"address":"2150 41st Ave W.","long":-123.157143},"type":"Feature","geometry":{"type":"Point","coordinates":[-123.157143,49.234608]}},{"properties":{"offence":"176E","tickets":10.0,"id":"a65jsjuy2hd5","lat":49.236912,"address":"5450 Yew St.","long":-123.158455},"type":"Feature","geometry":{"type":"Point","coordinates":[-123.158455,49.236912]}},{"properties":{"offence":"176E","tickets":11.0,"id":"a65jsk467fy3","lat":49.250618,"address":"2950 22nd Ave E.","long":-123.042831},"type":"Feature","geometry":{"type":"Point","coordinates":[-123.042831,49.250618]}},{"properties":{"offence":"176E","tickets":11.0,"id":"a65jsk0pw2sr","lat":49.276901,"address":"850 Renfrew St.","long":-123.044052},"type":"Feature","geometry":{"type":"Point","coordinates":[-123.044052,49.276901]}},{"properties":{"offence":"176E","tickets":11.0,"id":"a65jsk3arlab","lat":49.246269,"address":"2750 27th Ave E.","long":-123.048355},"type":"Feature","geometry":{"type":"Point","coordinates":[-123.048355,49.246269]}},{"properties":{"offence":"176E","tickets":11.0,"id":"a65jsjziiz28","lat":49.285667,"address":"2050 Wall St.","long":-123.062515},"type":"Feature","geometry":{"type":"Point","coordinates":[-123.062515,49.285667]}},{"properties":{"offence":"176E","tickets":11.0,"id":"a65jsjwxx7tm","lat":49.230869,"address":"5850 Victoria Dr.","long":-123.065552},"type":"Feature","geometry":{"type":"Point","coordinates":[-123.065552,49.230869]}},{"properties":{"offence":"176E","tickets":11.0,"id":"a65jsk22kzcu","lat":49.28273,"address":"250 Salsbury Dr.","long":-123.068268},"type":"Feature","geometry":{"type":"Point","coordinates":[-123.068268,49.28273]}},{"properties":{"offence":"176E","tickets":11.0,"id":"a65jsjzvz8wn","lat":49.2705,"address":"1750 Graveley St.","long":-123.068695},"type":"Feature","geometry":{"type":"Point","coordinates":[-123.068695,49.2705]}},{"properties":{"offence":"176E","tickets":11.0,"id":"a65jsjsybu6j","lat":49.261414,"address":"1450 10th Ave E.","long":-123.074669},"type":"Feature","geometry":{"type":"Point","coordinates":[-123.074669,49.261414]}},{"properties":{"offence":"176E","tickets":11.0,"id":"a65jsjze7v6s","lat":49.279003,"address":"650 Clark Dr.","long":-123.077209},"type":"Feature","geometry":{"type":"Point","coordinates":[-123.077209,49.279003]}},{"properties":{"offence":"176E","tickets":11.0,"id":"a65jsjv4pfdy","lat":49.28038,"address":"1250 Pender St. E.","long":-123.078156},"type":"Feature","geometry":{"type":"Point","coordinates":[-123.078156,49.28038]}},{"properties":{"offence":"176E","tickets":11.0,"id":"a65jsjx47jvb","lat":49.26424,"address":"1250 7th Ave E.","long":-123.07843},"type":"Feature","geometry":{"type":"Point","coordinates":[-123.07843,49.26424]}},{"properties":{"offence":"176E","tickets":11.0,"id":"a65jsjsx7whr","lat":49.250599,"address":"3850 Main St.","long":-123.100998},"type":"Feature","geometry":{"type":"Point","coordinates":[-123.100998,49.250599]}},{"properties":{"offence":"176E","tickets":11.0,"id":"a65jsjy585bm","lat":49.278343,"address":"750 Carrall St.","long":-123.105736},"type":"Feature","geometry":{"type":"Point","coordinates":[-123.105736,49.278343]}},{"properties":{"offence":"176E","tickets":11.0,"id":"a65jsjsiw365","lat":49.263031,"address":"50 Broadway St. E.","long":-123.105858},"type":"Feature","geometry":{"type":"Point","coordinates":[-123.105858,49.263031]}},{"properties":{"offence":"176E","tickets":11.0,"id":"a65jsjtjzqhh","lat":49.263084,"address":"150 Broadway St. W.","long":-123.108185},"type":"Feature","geometry":{"type":"Point","coordinates":[-123.108185,49.263084]}},{"properties":{"offence":"176E","tickets":11.0,"id":"a65jsjsxsa6t","lat":49.259911,"address":"2850 Cambie St.","long":-123.114891},"type":"Feature","geometry":{"type":"Point","coordinates":[-123.114891,49.259911]}},{"properties":{"offence":"176E","tickets":11.0,"id":"a65jsjqkh6sd","lat":49.234917,"address":"5550 Cambie St.","long":-123.11602},"type":"Feature","geometry":{"type":"Point","coordinates":[-123.11602,49.234917]}},{"properties":{"offence":"176E","tickets":11.0,"id":"a65jsk0s1wl6","lat":49.254227,"address":"550 19th Ave W.","long":-123.116409},"type":"Feature","geometry":{"type":"Point","coordinates":[-123.116409,49.254227]}},{"properties":{"offence":"176E","tickets":11.0,"id":"a65jsk4r7cc5","lat":49.264587,"address":"2350 Ash St.","long":-123.117455},"type":"Feature","geometry":{"type":"Point","coordinates":[-123.117455,49.264587]}},{"properties":{"offence":"176E","tickets":11.0,"id":"a65jsjvvepmx","lat":49.267147,"address":"50 Alder Bay Ct.","long":-123.133308},"type":"Feature","geometry":{"type":"Point","coordinates":[-123.133308,49.267147]}},{"properties":{"offence":"176E","tickets":11.0,"id":"a65jsk2gnujw","lat":49.21228,"address":"1550 65th Ave W.","long":-123.142014},"type":"Feature","geometry":{"type":"Point","coordinates":[-123.142014,49.21228]}},{"properties":{"offence":"176E","tickets":11.0,"id":"a65jsjsymwkj","lat":49.28381,"address":"1650 Beach Ave.","long":-123.14238},"type":"Feature","geometry":{"type":"Point","coordinates":[-123.14238,49.28381]}},{"properties":{"offence":"176E","tickets":11.0,"id":"a65jsjroqv1f","lat":49.264095,"address":"2850 Broadway St. W.","long":-123.169189},"type":"Feature","geometry":{"type":"Point","coordinates":[-123.169189,49.264095]}},{"properties":{"offence":"176E","tickets":12.0,"id":"a65jsjtsbhb8","lat":49.272739,"address":"1350 Nanaimo St.","long":-123.056526},"type":"Feature","geometry":{"type":"Point","coordinates":[-123.056526,49.272739]}},{"properties":{"offence":"176E","tickets":12.0,"id":"a65jsk4fwv14","lat":49.251595,"address":"1250 Kingsway","long":-123.078918},"type":"Feature","geometry":{"type":"Point","coordinates":[-123.078918,49.251595]}},{"properties":{"offence":"176E","tickets":12.0,"id":"a65jsk5bgwgf","lat":49.228706,"address":"6150 Fraser St.","long":-123.090576},"type":"Feature","geometry":{"type":"Point","coordinates":[-123.090576,49.228706]}},{"properties":{"offence":"176E","tickets":12.0,"id":"a65jsjssp7xx","lat":49.281216,"address":"550 Hastings St. E.","long":-123.09243},"type":"Feature","geometry":{"type":"Point","coordinates":[-123.09243,49.281216]}},{"properties":{"offence":"176E","tickets":12.0,"id":"a65jsk0qtgzg","lat":49.272106,"address":"1350 Station St.","long":-123.098053},"type":"Feature","geometry":{"type":"Point","coordinates":[-123.098053,49.272106]}},{"properties":{"offence":"176E","tickets":12.0,"id":"a65jsk0dck8m","lat":49.257034,"address":"3150 Main St.","long":-123.101219},"type":"Feature","geometry":{"type":"Point","coordinates":[-123.101219,49.257034]}},{"properties":{"offence":"176E","tickets":12.0,"id":"a65jsk1to50p","lat":49.257812,"address":"450 15th Ave W.","long":-123.114082},"type":"Feature","geometry":{"type":"Point","coordinates":[-123.114082,49.257812]}},{"properties":{"offence":"176E","tickets":12.0,"id":"a65jsjt0p266","lat":49.254879,"address":"450 18th Ave W.","long":-123.114449},"type":"Feature","geometry":{"type":"Point","coordinates":[-123.114449,49.254879]}},{"properties":{"offence":"176E","tickets":12.0,"id":"a65jsjuu82rz","lat":49.257523,"address":"3150 Granville St.","long":-123.138771},"type":"Feature","geometry":{"type":"Point","coordinates":[-123.138771,49.257523]}},{"properties":{"offence":"176E","tickets":13.0,"id":"a65jsjw4aho4","lat":49.231979,"address":"3450 Kingsway","long":-123.031281},"type":"Feature","geometry":{"type":"Point","coordinates":[-123.031281,49.231979]}},{"properties":{"offence":"176E","tickets":13.0,"id":"a65jsjwjq6f9","lat":49.237904,"address":"3350 Austrey Ave.","long":-123.03495},"type":"Feature","geometry":{"type":"Point","coordinates":[-123.03495,49.237904]}},{"properties":{"offence":"176E","tickets":13.0,"id":"a65jsjw6umrm","lat":49.281605,"address":"350 Penticton St.","long":-123.051971},"type":"Feature","geometry":{"type":"Point","coordinates":[-123.051971,49.281605]}},{"properties":{"offence":"176E","tickets":13.0,"id":"a65jsjs1grej","lat":49.218693,"address":"7250 Fraser St.","long":-123.090805},"type":"Feature","geometry":{"type":"Point","coordinates":[-123.090805,49.218693]}},{"properties":{"offence":"176E","tickets":13.0,"id":"a65jsk5c4wnz","lat":49.278435,"address":"550 Georgia St. E.","long":-123.091919},"type":"Feature","geometry":{"type":"Point","coordinates":[-123.091919,49.278435]}},{"properties":{"offence":"176E","tickets":13.0,"id":"a65jsjycouiv","lat":49.256123,"address":"3250 Main St.","long":-123.10125},"type":"Feature","geometry":{"type":"Point","coordinates":[-123.10125,49.256123]}},{"properties":{"offence":"176E","tickets":13.0,"id":"a65jsjxstiqw","lat":49.269142,"address":"150 2nd Ave E.","long":-123.101715},"type":"Feature","geometry":{"type":"Point","coordinates":[-123.101715,49.269142]}},{"properties":{"offence":"176E","tickets":13.0,"id":"a65jsjsw5djx","lat":49.275337,"address":"1050 Quebec St.","long":-123.101997},"type":"Feature","geometry":{"type":"Point","coordinates":[-123.101997,49.275337]}},{"properties":{"offence":"176E","tickets":13.0,"id":"a65jsjtg3a6e","lat":49.262054,"address":"50 10th Ave E.","long":-123.103966},"type":"Feature","geometry":{"type":"Point","coordinates":[-123.103966,49.262054]}},{"properties":{"offence":"176E","tickets":13.0,"id":"a65jsju3z45a","lat":49.278229,"address":"650 Expo Boulevard","long":-123.109634},"type":"Feature","geometry":{"type":"Point","coordinates":[-123.109634,49.278229]}},{"properties":{"offence":"176E","tickets":13.0,"id":"a65jsjw3805b","lat":49.268852,"address":"250 2nd Ave W.","long":-123.110306},"type":"Feature","geometry":{"type":"Point","coordinates":[-123.110306,49.268852]}},{"properties":{"offence":"176E","tickets":13.0,"id":"a65jsjyqmxsb","lat":49.288864,"address":"1750 Nelson St.","long":-123.137856},"type":"Feature","geometry":{"type":"Point","coordinates":[-123.137856,49.288864]}},{"properties":{"offence":"176E","tickets":13.0,"id":"a65jsjwbozcl","lat":49.27298,"address":"1450 Walnut St.","long":-123.148956},"type":"Feature","geometry":{"type":"Point","coordinates":[-123.148956,49.27298]}},{"properties":{"offence":"176E","tickets":13.0,"id":"a65jsjvii20t","lat":49.270802,"address":"2150 1st Ave W.","long":-123.153915},"type":"Feature","geometry":{"type":"Point","coordinates":[-123.153915,49.270802]}},{"properties":{"offence":"176E","tickets":13.0,"id":"a65jsjpot90b","lat":49.227158,"address":"5650 West Boulevard","long":-123.155106},"type":"Feature","geometry":{"type":"Point","coordinates":[-123.155106,49.227158]}},{"properties":{"offence":"176E","tickets":13.0,"id":"a65jsjpf3o6p","lat":49.269073,"address":"2250 3rd Ave W.","long":-123.156311},"type":"Feature","geometry":{"type":"Point","coordinates":[-123.156311,49.269073]}},{"properties":{"offence":"176E","tickets":13.0,"id":"a65jsjpeku5a","lat":49.264664,"address":"2450 Trutch St.","long":-123.175903},"type":"Feature","geometry":{"type":"Point","coordinates":[-123.175903,49.264664]}},{"properties":{"offence":"176E","tickets":14.0,"id":"a65jsjswh3vd","lat":49.239338,"address":"3550 Wellington Ave.","long":-123.028412},"type":"Feature","geometry":{"type":"Point","coordinates":[-123.028412,49.239338]}},{"properties":{"offence":"176E","tickets":14.0,"id":"a65jsk5002to","lat":49.28162,"address":"350 Templeton Dr.","long":-123.059761},"type":"Feature","geometry":{"type":"Point","coordinates":[-123.059761,49.28162]}},{"properties":{"offence":"176E","tickets":14.0,"id":"a65jsjr0n8vs","lat":49.252838,"address":"3550 Commercial St.","long":-123.068016},"type":"Feature","geometry":{"type":"Point","coordinates":[-123.068016,49.252838]}},{"properties":{"offence":"176E","tickets":14.0,"id":"a65jsjsvzzno","lat":49.261395,"address":"1750 10th Ave E.","long":-123.06881},"type":"Feature","geometry":{"type":"Point","coordinates":[-123.06881,49.261395]}},{"properties":{"offence":"176E","tickets":14.0,"id":"a65jsju6ncz6","lat":49.249527,"address":"1450 Kingsway","long":-123.074692},"type":"Feature","geometry":{"type":"Point","coordinates":[-123.074692,49.249527]}},{"properties":{"offence":"176E","tickets":14.0,"id":"a65jsjy8omvu","lat":49.276279,"address":"950 Odlum Dr.","long":-123.075867},"type":"Feature","geometry":{"type":"Point","coordinates":[-123.075867,49.276279]}},{"properties":{"offence":"176E","tickets":14.0,"id":"a65jsjqrmfhl","lat":49.279903,"address":"550 Clark Dr.","long":-123.077179},"type":"Feature","geometry":{"type":"Point","coordinates":[-123.077179,49.279903]}},{"properties":{"offence":"176E","tickets":14.0,"id":"a65jsk0g6d5j","lat":49.265945,"address":"2150 Main St.","long":-123.100876},"type":"Feature","geometry":{"type":"Point","coordinates":[-123.100876,49.265945]}},{"properties":{"offence":"176E","tickets":14.0,"id":"a65jsjx6g9ib","lat":49.263031,"address":"50 Broadway St. W.","long":-123.105858},"type":"Feature","geometry":{"type":"Point","coordinates":[-123.105858,49.263031]}},{"properties":{"offence":"176E","tickets":14.0,"id":"a65jsjw59777","lat":49.267429,"address":"150 4th Ave W.","long":-123.108086},"type":"Feature","geometry":{"type":"Point","coordinates":[-123.108086,49.267429]}},{"properties":{"offence":"176E","tickets":14.0,"id":"a65jsjyljjr5","lat":49.236427,"address":"5350 Boulevard W.","long":-123.110619},"type":"Feature","geometry":{"type":"Point","coordinates":[-123.110619,49.236427]}},{"properties":{"offence":"176E","tickets":14.0,"id":"a65jsk5an7er","lat":49.263191,"address":"450 Broadway St. W.","long":-123.113853},"type":"Feature","geometry":{"type":"Point","coordinates":[-123.113853,49.263191]}},{"properties":{"offence":"176E","tickets":14.0,"id":"a65jsjqlf8zy","lat":49.250088,"address":"450 23rd Ave W.","long":-123.113907},"type":"Feature","geometry":{"type":"Point","coordinates":[-123.113907,49.250088]}},{"properties":{"offence":"176E","tickets":14.0,"id":"a65jsjwj4h5b","lat":49.287437,"address":"950 Cordova St. W.","long":-123.115585},"type":"Feature","geometry":{"type":"Point","coordinates":[-123.115585,49.287437]}},{"properties":{"offence":"176E","tickets":14.0,"id":"a65jsjzvd8ni","lat":49.204037,"address":"8950 Oak St.","long":-123.130402},"type":"Feature","geometry":{"type":"Point","coordinates":[-123.130402,49.204037]}},{"properties":{"offence":"176E","tickets":14.0,"id":"a65jsjsnt9l5","lat":49.289284,"address":"1650 Haro St.","long":-123.134148},"type":"Feature","geometry":{"type":"Point","coordinates":[-123.134148,49.289284]}},{"properties":{"offence":"176E","tickets":14.0,"id":"a65jsjqqoltl","lat":49.263054,"address":"2550 Hemlock St.","long":-123.136101},"type":"Feature","geometry":{"type":"Point","coordinates":[-123.136101,49.263054]}},{"properties":{"offence":"176E","tickets":14.0,"id":"a65jsjrnu8tv","lat":49.264805,"address":"2250 8th Ave W.","long":-123.156471},"type":"Feature","geometry":{"type":"Point","coordinates":[-123.156471,49.264805]}},{"properties":{"offence":"176E","tickets":14.0,"id":"a65jsjx40nz0","lat":49.268517,"address":"3350 4th Ave W.","long":-123.178719},"type":"Feature","geometry":{"type":"Point","coordinates":[-123.178719,49.268517]}},{"properties":{"offence":"176E","tickets":14.0,"id":"a65jsk40mhr5","lat":49.264366,"address":"3750 Broadway St. W.","long":-123.18692},"type":"Feature","geometry":{"type":"Point","coordinates":[-123.18692,49.264366]}},{"properties":{"offence":"176E","tickets":14.0,"id":"a65jsjxc19qy","lat":53.686798,"address":"50 Hemlock Ct.","long":-132.182404},"type":"Feature","geometry":{"type":"Point","coordinates":[-132.182404,53.686798]}},{"properties":{"offence":"176E","tickets":15.0,"id":"a65jsjsfyyas","lat":49.23632,"address":"5350 Cecil St.","long":-123.035225},"type":"Feature","geometry":{"type":"Point","coordinates":[-123.035225,49.23632]}},{"properties":{"offence":"176E","tickets":15.0,"id":"a65jsjuc3or5","lat":49.281067,"address":"850 Hastings St. E.","long":-123.085953},"type":"Feature","geometry":{"type":"Point","coordinates":[-123.085953,49.281067]}},{"properties":{"offence":"176E","tickets":15.0,"id":"a65jsjpp1uo3","lat":49.234295,"address":"5550 Fraser St.","long":-123.090408},"type":"Feature","geometry":{"type":"Point","coordinates":[-123.090408,49.234295]}},{"properties":{"offence":"176E","tickets":15.0,"id":"a65jsjpjwgpn","lat":49.231449,"address":"5850 Fraser St.","long":-123.090515},"type":"Feature","geometry":{"type":"Point","coordinates":[-123.090515,49.231449]}},{"properties":{"offence":"176E","tickets":15.0,"id":"a65jsjv34c3f","lat":49.257313,"address":"550 15th Ave E.","long":-123.093079},"type":"Feature","geometry":{"type":"Point","coordinates":[-123.093079,49.257313]}},{"properties":{"offence":"176E","tickets":15.0,"id":"a65jsjsbuhc6","lat":49.267048,"address":"350 2nd Ave E.","long":-123.096848},"type":"Feature","geometry":{"type":"Point","coordinates":[-123.096848,49.267048]}},{"properties":{"offence":"176E","tickets":15.0,"id":"a65jsjzfuyur","lat":49.26685,"address":"2050 Main St.","long":-123.100792},"type":"Feature","geometry":{"type":"Point","coordinates":[-123.100792,49.26685]}},{"properties":{"offence":"176E","tickets":15.0,"id":"a65jsk0z8zmc","lat":49.25568,"address":"3350 Willow St.","long":-123.122078},"type":"Feature","geometry":{"type":"Point","coordinates":[-123.122078,49.25568]}},{"properties":{"offence":"176E","tickets":15.0,"id":"a65jsjp8crrr","lat":49.287849,"address":"1850 Beach Ave.","long":-123.142395},"type":"Feature","geometry":{"type":"Point","coordinates":[-123.142395,49.287849]}},{"properties":{"offence":"176E","tickets":15.0,"id":"a65jsjq7ikyx","lat":49.235031,"address":"5650 East Boulevard","long":-123.154976},"type":"Feature","geometry":{"type":"Point","coordinates":[-123.154976,49.235031]}},{"properties":{"offence":"176E","tickets":15.0,"id":"a65jsk4h5uol","lat":49.269993,"address":"2350 2nd Ave W.","long":-123.158646},"type":"Feature","geometry":{"type":"Point","coordinates":[-123.158646,49.269993]}},{"properties":{"offence":"176E","tickets":15.0,"id":"a65jsjv4y4pa","lat":49.234215,"address":"5750 Larch St.","long":-123.162766},"type":"Feature","geometry":{"type":"Point","coordinates":[-123.162766,49.234215]}},{"properties":{"offence":"176E","tickets":16.0,"id":"a65jsk3nyxul","lat":49.281609,"address":"350 Kamloops St.","long":-123.054581},"type":"Feature","geometry":{"type":"Point","coordinates":[-123.054581,49.281609]}},{"properties":{"offence":"176E","tickets":16.0,"id":"a65jsjpsppqe","lat":49.239586,"address":"4950 Victoria Dr.","long":-123.065376},"type":"Feature","geometry":{"type":"Point","coordinates":[-123.065376,49.239586]}},{"properties":{"offence":"176E","tickets":16.0,"id":"a65jsjwdno56","lat":49.264614,"address":"2250 Commercial Dr.","long":-123.069748},"type":"Feature","geometry":{"type":"Point","coordinates":[-123.069748,49.264614]}},{"properties":{"offence":"176E","tickets":16.0,"id":"a65jsjzcxuih","lat":49.278103,"address":"750 Clark Dr.","long":-123.07724},"type":"Feature","geometry":{"type":"Point","coordinates":[-123.07724,49.278103]}},{"properties":{"offence":"176E","tickets":16.0,"id":"a65jsk083yxn","lat":49.283241,"address":"150 Hawks Ave.","long":-123.087067},"type":"Feature","geometry":{"type":"Point","coordinates":[-123.087067,49.283241]}},{"properties":{"offence":"176E","tickets":16.0,"id":"a65jsk09hupj","lat":49.265488,"address":"250 6th Ave E.","long":-123.099815},"type":"Feature","geometry":{"type":"Point","coordinates":[-123.099815,49.265488]}},{"properties":{"offence":"176E","tickets":16.0,"id":"a65jsk4x8gax","lat":49.278664,"address":"150 Expo Boulevard","long":-123.107697},"type":"Feature","geometry":{"type":"Point","coordinates":[-123.107697,49.278664]}},{"properties":{"offence":"176E","tickets":16.0,"id":"a65jsjpbi93r","lat":49.265255,"address":"2250 Yukon St.","long":-123.112823},"type":"Feature","geometry":{"type":"Point","coordinates":[-123.112823,49.265255]}},{"properties":{"offence":"176E","tickets":16.0,"id":"a65jsjpk1s6t","lat":49.274525,"address":"1450 Granville St.","long":-123.130142},"type":"Feature","geometry":{"type":"Point","coordinates":[-123.130142,49.274525]}},{"properties":{"offence":"176E","tickets":16.0,"id":"a65jsjptl4xx","lat":49.227158,"address":"5450 West Boulevard","long":-123.155106},"type":"Feature","geometry":{"type":"Point","coordinates":[-123.155106,49.227158]}},{"properties":{"offence":"176E","tickets":16.0,"id":"a65jsjufj80g","lat":49.227158,"address":"5550 West Boulevard","long":-123.155106},"type":"Feature","geometry":{"type":"Point","coordinates":[-123.155106,49.227158]}},{"properties":{"offence":"176E","tickets":16.0,"id":"a65jsk3l91y5","lat":49.23468,"address":"2450 41st Ave W.","long":-123.162064},"type":"Feature","geometry":{"type":"Point","coordinates":[-123.162064,49.23468]}},{"properties":{"offence":"176E","tickets":17.0,"id":"a65jsjt75hmm","lat":49.2481,"address":"4150 Nanaimo St.","long":-123.056656},"type":"Feature","geometry":{"type":"Point","coordinates":[-123.056656,49.2481]}},{"properties":{"offence":"176E","tickets":17.0,"id":"a65jsk3ua3o6","lat":49.232388,"address":"5750 Fraser St.","long":-123.090492},"type":"Feature","geometry":{"type":"Point","coordinates":[-123.090492,49.232388]}},{"properties":{"offence":"176E","tickets":17.0,"id":"a65jsjzpgnk3","lat":49.230534,"address":"5950 Fraser St.","long":-123.090523},"type":"Feature","geometry":{"type":"Point","coordinates":[-123.090523,49.230534]}},{"properties":{"offence":"176E","tickets":17.0,"id":"a65jsk5chu9e","lat":49.229618,"address":"6050 Fraser St.","long":-123.09053},"type":"Feature","geometry":{"type":"Point","coordinates":[-123.09053,49.229618]}},{"properties":{"offence":"176E","tickets":17.0,"id":"a65jsjp378os","lat":49.243317,"address":"150 30th Ave E.","long":-123.102623},"type":"Feature","geometry":{"type":"Point","coordinates":[-123.102623,49.243317]}},{"properties":{"offence":"176E","tickets":17.0,"id":"a65jsk240non","lat":49.26313,"address":"250 Broadway St. W.","long":-123.110229},"type":"Feature","geometry":{"type":"Point","coordinates":[-123.110229,49.26313]}},{"properties":{"offence":"176E","tickets":17.0,"id":"a65jsjytmczw","lat":49.268574,"address":"3550 4th Ave W.","long":-123.182709},"type":"Feature","geometry":{"type":"Point","coordinates":[-123.182709,49.268574]}},{"properties":{"offence":"176E","tickets":17.0,"id":"a65jsjt6r7pr","lat":53.254795,"address":"350 3rd Ave W.","long":-132.085297},"type":"Feature","geometry":{"type":"Point","coordinates":[-132.085297,53.254795]}},{"properties":{"offence":"176E","tickets":18.0,"id":"a65jsju3ik0q","lat":49.238899,"address":"5050 Payne St.","long":-123.029823},"type":"Feature","geometry":{"type":"Point","coordinates":[-123.029823,49.238899]}},{"properties":{"offence":"176E","tickets":18.0,"id":"a65jsjsgbzul","lat":49.26862,"address":"1850 Ontario St.","long":-123.104675},"type":"Feature","geometry":{"type":"Point","coordinates":[-123.104675,49.26862]}},{"properties":{"offence":"176E","tickets":18.0,"id":"a65jsjvt897x","lat":49.21814,"address":"7350 Ontario St.","long":-123.106117},"type":"Feature","geometry":{"type":"Point","coordinates":[-123.106117,49.21814]}},{"properties":{"offence":"176E","tickets":18.0,"id":"a65jsjt03bpc","lat":49.286255,"address":"450 Hornby St.","long":-123.116356},"type":"Feature","geometry":{"type":"Point","coordinates":[-123.116356,49.286255]}},{"properties":{"offence":"176E","tickets":18.0,"id":"a65jsk154zsz","lat":49.260078,"address":"2850 Oak St.","long":-123.126724},"type":"Feature","geometry":{"type":"Point","coordinates":[-123.126724,49.260078]}},{"properties":{"offence":"176E","tickets":18.0,"id":"a65jsjvxkhlq","lat":49.276501,"address":"750 Drake St.","long":-123.128387},"type":"Feature","geometry":{"type":"Point","coordinates":[-123.128387,49.276501]}},{"properties":{"offence":"176E","tickets":18.0,"id":"a65jsk17an24","lat":49.281433,"address":"1250 Bute St.","long":-123.133881},"type":"Feature","geometry":{"type":"Point","coordinates":[-123.133881,49.281433]}},{"properties":{"offence":"176E","tickets":18.0,"id":"a65jsk0igwuk","lat":49.259319,"address":"2950 Hemlock St.","long":-123.136261},"type":"Feature","geometry":{"type":"Point","coordinates":[-123.136261,49.259319]}},{"properties":{"offence":"176E","tickets":18.0,"id":"a65jsjw5cez5","lat":49.271667,"address":"2150 York Ave.","long":-123.153847},"type":"Feature","geometry":{"type":"Point","coordinates":[-123.153847,49.271667]}},{"properties":{"offence":"176E","tickets":18.0,"id":"a65jsjrvs2xd","lat":49.269489,"address":"1850 Yew St.","long":-123.15509},"type":"Feature","geometry":{"type":"Point","coordinates":[-123.15509,49.269489]}},{"properties":{"offence":"176E","tickets":19.0,"id":"a65jsk322kbj","lat":49.219135,"address":"7150 Victoria Dr.","long":-123.065655},"type":"Feature","geometry":{"type":"Point","coordinates":[-123.065655,49.219135]}},{"properties":{"offence":"176E","tickets":19.0,"id":"a65jsk0d2ksl","lat":49.229713,"address":"5950 Ormidale St.","long":-123.02504},"type":"Feature","geometry":{"type":"Point","coordinates":[-123.02504,49.229713]}},{"properties":{"offence":"176E","tickets":19.0,"id":"a65jsjt0ankr","lat":49.281132,"address":"3550 Hastings St. E.","long":-123.026993},"type":"Feature","geometry":{"type":"Point","coordinates":[-123.026993,49.281132]}},{"properties":{"offence":"176E","tickets":19.0,"id":"a65jsjunneay","lat":49.281166,"address":"2450 Hastings St. E.","long":-123.055496},"type":"Feature","geometry":{"type":"Point","coordinates":[-123.055496,49.281166]}},{"properties":{"offence":"176E","tickets":19.0,"id":"a65jsjurqz4u","lat":49.281292,"address":"350 Hastings St. E.","long":-123.096413},"type":"Feature","geometry":{"type":"Point","coordinates":[-123.096413,49.281292]}},{"properties":{"offence":"176E","tickets":19.0,"id":"a65jsk31zoab","lat":49.283627,"address":"150 Carrall St.","long":-123.104294},"type":"Feature","geometry":{"type":"Point","coordinates":[-123.104294,49.283627]}},{"properties":{"offence":"176E","tickets":19.0,"id":"a65jsk1e9l8b","lat":49.263161,"address":"350 Broadway St. W.","long":-123.111938},"type":"Feature","geometry":{"type":"Point","coordinates":[-123.111938,49.263161]}},{"properties":{"offence":"176E","tickets":19.0,"id":"a65jsjp2wqcx","lat":49.284843,"address":"1550 Davie St.","long":-123.138084},"type":"Feature","geometry":{"type":"Point","coordinates":[-123.138084,49.284843]}},{"properties":{"offence":"176E","tickets":19.0,"id":"a65jsk18q574","lat":49.213131,"address":"1450 64th Ave W.","long":-123.138824},"type":"Feature","geometry":{"type":"Point","coordinates":[-123.138824,49.213131]}},{"properties":{"offence":"176E","tickets":19.0,"id":"a65jsju2ri31","lat":49.267204,"address":"1950 5th Ave W.","long":-123.149277},"type":"Feature","geometry":{"type":"Point","coordinates":[-123.149277,49.267204]}},{"properties":{"offence":"176E","tickets":19.0,"id":"a65jsjrcsxiv","lat":49.264126,"address":"2950 Broadway St. W.","long":-123.171257},"type":"Feature","geometry":{"type":"Point","coordinates":[-123.171257,49.264126]}},{"properties":{"offence":"176E","tickets":20.0,"id":"a65jsk3smshb","lat":49.232635,"address":"5650 Aberdeen St.","long":-123.028114},"type":"Feature","geometry":{"type":"Point","coordinates":[-123.028114,49.232635]}},{"properties":{"offence":"176E","tickets":20.0,"id":"a65jsk1sq84q","lat":49.237801,"address":"5150 Victoria Dr.","long":-123.06543},"type":"Feature","geometry":{"type":"Point","coordinates":[-123.06543,49.237801]}},{"properties":{"offence":"176E","tickets":20.0,"id":"a65jsk2clam7","lat":49.284382,"address":"50 Victoria Dr.","long":-123.065521},"type":"Feature","geometry":{"type":"Point","coordinates":[-123.065521,49.284382]}},{"properties":{"offence":"176E","tickets":20.0,"id":"a65jsjwwajtc","lat":49.272133,"address":"1750 Kitchener St.","long":-123.068642},"type":"Feature","geometry":{"type":"Point","coordinates":[-123.068642,49.272133]}},{"properties":{"offence":"176E","tickets":20.0,"id":"a65jsjrhmfgr","lat":49.26511,"address":"1550 6th Ave E.","long":-123.07238},"type":"Feature","geometry":{"type":"Point","coordinates":[-123.07238,49.26511]}},{"properties":{"offence":"176E","tickets":20.0,"id":"a65jsjr8nd9s","lat":49.261906,"address":"2550 Woodland Dr.","long":-123.073654},"type":"Feature","geometry":{"type":"Point","coordinates":[-123.073654,49.261906]}},{"properties":{"offence":"176E","tickets":20.0,"id":"a65jsjqs5thn","lat":49.250618,"address":"1350 Kingsway","long":-123.077026},"type":"Feature","geometry":{"type":"Point","coordinates":[-123.077026,49.250618]}},{"properties":{"offence":"176E","tickets":20.0,"id":"a65jsjul0yih","lat":49.277687,"address":"1250 Adanac St.","long":-123.078239},"type":"Feature","geometry":{"type":"Point","coordinates":[-123.078239,49.277687]}},{"properties":{"offence":"176E","tickets":20.0,"id":"a65jsjz64k1m","lat":49.253338,"address":"3550 Main St.","long":-123.100899},"type":"Feature","geometry":{"type":"Point","coordinates":[-123.100899,49.253338]}},{"properties":{"offence":"176E","tickets":20.0,"id":"a65jsk489e9j","lat":49.251446,"address":"3750 Main St.","long":-123.10096},"type":"Feature","geometry":{"type":"Point","coordinates":[-123.10096,49.251446]}},{"properties":{"offence":"176E","tickets":20.0,"id":"a65jsjpja25q","lat":49.241962,"address":"4850 Main St.","long":-123.101425},"type":"Feature","geometry":{"type":"Point","coordinates":[-123.101425,49.241962]}},{"properties":{"offence":"176E","tickets":20.0,"id":"a65jsjyudusv","lat":49.262161,"address":"250 10th Ave W.","long":-123.11026},"type":"Feature","geometry":{"type":"Point","coordinates":[-123.11026,49.262161]}},{"properties":{"offence":"176E","tickets":20.0,"id":"a65jsjr7xohn","lat":49.230988,"address":"5950 Boulevard W.","long":-123.110847},"type":"Feature","geometry":{"type":"Point","coordinates":[-123.110847,49.230988]}},{"properties":{"offence":"176E","tickets":20.0,"id":"a65jsjzumaay","lat":49.260258,"address":"2850 Hemlock St.","long":-123.13623},"type":"Feature","geometry":{"type":"Point","coordinates":[-123.13623,49.260258]}},{"properties":{"offence":"176E","tickets":20.0,"id":"a65jsk3adzed","lat":49.210865,"address":"1450 67th Ave W.","long":-123.13916},"type":"Feature","geometry":{"type":"Point","coordinates":[-123.13916,49.210865]}},{"properties":{"offence":"176E","tickets":20.0,"id":"a65jsjrg0jv0","lat":49.269955,"address":"2250 2nd Ave W.","long":-123.156281},"type":"Feature","geometry":{"type":"Point","coordinates":[-123.156281,49.269955]}},{"properties":{"offence":"176E","tickets":21.0,"id":"a65jsjvckvcm","lat":49.268917,"address":"1750 Renfrew St.","long":-123.044151},"type":"Feature","geometry":{"type":"Point","coordinates":[-123.044151,49.268917]}},{"properties":{"offence":"176E","tickets":21.0,"id":"a65jsjr1y9b8","lat":49.281525,"address":"350 Garden Dr.","long":-123.057831},"type":"Feature","geometry":{"type":"Point","coordinates":[-123.057831,49.281525]}},{"properties":{"offence":"176E","tickets":21.0,"id":"a65jsk32j7cd","lat":49.238564,"address":"5050 Victoria Dr.","long":-123.065407},"type":"Feature","geometry":{"type":"Point","coordinates":[-123.065407,49.238564]}},{"properties":{"offence":"176E","tickets":21.0,"id":"a65jsjryazvw","lat":49.265072,"address":"1750 6th Ave E.","long":-123.068748},"type":"Feature","geometry":{"type":"Point","coordinates":[-123.068748,49.265072]}},{"properties":{"offence":"176E","tickets":21.0,"id":"a65jsjsw46h6","lat":49.260914,"address":"2650 Commercial Dr.","long":-123.069824},"type":"Feature","geometry":{"type":"Point","coordinates":[-123.069824,49.260914]}},{"properties":{"offence":"176E","tickets":21.0,"id":"a65jsjozyyjf","lat":49.281517,"address":"350 Campbell Ave.","long":-123.084778},"type":"Feature","geometry":{"type":"Point","coordinates":[-123.084778,49.281517]}},{"properties":{"offence":"176E","tickets":21.0,"id":"a65jsjsqjidi","lat":49.279743,"address":"550 Heatley St.","long":-123.0896},"type":"Feature","geometry":{"type":"Point","coordinates":[-123.0896,49.279743]}},{"properties":{"offence":"176E","tickets":21.0,"id":"a65jsjyjrqal","lat":49.248089,"address":"4150 Fraser St.","long":-123.090027},"type":"Feature","geometry":{"type":"Point","coordinates":[-123.090027,49.248089]}},{"properties":{"offence":"176E","tickets":21.0,"id":"a65jsjyiybeb","lat":49.276928,"address":"550 Pacific Blvd.","long":-123.108665},"type":"Feature","geometry":{"type":"Point","coordinates":[-123.108665,49.276928]}},{"properties":{"offence":"176E","tickets":21.0,"id":"a65jsjywwzjl","lat":49.260132,"address":"2850 Spruce St.","long":-123.129112},"type":"Feature","geometry":{"type":"Point","coordinates":[-123.129112,49.260132]}},{"properties":{"offence":"176E","tickets":21.0,"id":"a65jsjrvtheb","lat":49.286144,"address":"950 Broughton St.","long":-123.132591},"type":"Feature","geometry":{"type":"Point","coordinates":[-123.132591,49.286144]}},{"properties":{"offence":"176E","tickets":21.0,"id":"a65jsjrcq0mh","lat":49.271629,"address":"2050 York Ave.","long":-123.151489},"type":"Feature","geometry":{"type":"Point","coordinates":[-123.151489,49.271629]}},{"properties":{"offence":"176E","tickets":21.0,"id":"a65jsk2t0por","lat":49.267231,"address":"2050 5th Ave W.","long":-123.151642},"type":"Feature","geometry":{"type":"Point","coordinates":[-123.151642,49.267231]}},{"properties":{"offence":"176E","tickets":21.0,"id":"a65jsk4ix7gv","lat":49.268631,"address":"1950 Vine St.","long":-123.157486},"type":"Feature","geometry":{"type":"Point","coordinates":[-123.157486,49.268631]}},{"properties":{"offence":"176E","tickets":22.0,"id":"a65jsjz1dba6","lat":49.260422,"address":"1950 11th Ave E.","long":-123.064949},"type":"Feature","geometry":{"type":"Point","coordinates":[-123.064949,49.260422]}},{"properties":{"offence":"176E","tickets":22.0,"id":"a65jsk2jo3ot","lat":49.231071,"address":"450 43rd Ave W.","long":-123.095642},"type":"Feature","geometry":{"type":"Point","coordinates":[-123.095642,49.231071]}},{"properties":{"offence":"176E","tickets":22.0,"id":"a65jsk512hn2","lat":49.255833,"address":"450 17th Ave W.","long":-123.113808},"type":"Feature","geometry":{"type":"Point","coordinates":[-123.113808,49.255833]}},{"properties":{"offence":"176E","tickets":22.0,"id":"a65jsk5a8rka","lat":49.264671,"address":"2450 Blenheim St.","long":-123.177818},"type":"Feature","geometry":{"type":"Point","coordinates":[-123.177818,49.264671]}},{"properties":{"offence":"176E","tickets":23.0,"id":"a65jsk2g3ub0","lat":49.254292,"address":"3450 Main St.","long":-123.100845},"type":"Feature","geometry":{"type":"Point","coordinates":[-123.100845,49.254292]}},{"properties":{"offence":"176E","tickets":23.0,"id":"a65jsk445yj0","lat":49.235935,"address":"5450 Boulevard W.","long":-123.110641},"type":"Feature","geometry":{"type":"Point","coordinates":[-123.110641,49.235935]}},{"properties":{"offence":"176E","tickets":23.0,"id":"a65jsjp5q141","lat":49.262196,"address":"350 10th Ave W.","long":-123.111969},"type":"Feature","geometry":{"type":"Point","coordinates":[-123.111969,49.262196]}},{"properties":{"offence":"176E","tickets":23.0,"id":"a65jsk2cta4p","lat":49.258816,"address":"1250 14th Ave W.","long":-123.132751},"type":"Feature","geometry":{"type":"Point","coordinates":[-123.132751,49.258816]}},{"properties":{"offence":"176E","tickets":23.0,"id":"a65jsjwwet86","lat":49.270569,"address":"50 Old Bridge Ct.","long":-123.134598},"type":"Feature","geometry":{"type":"Point","coordinates":[-123.134598,49.270569]}},{"properties":{"offence":"176E","tickets":23.0,"id":"a65jsjr1nu3e","lat":49.258896,"address":"1450 14th Ave W.","long":-123.137512},"type":"Feature","geometry":{"type":"Point","coordinates":[-123.137512,49.258896]}},{"properties":{"offence":"176E","tickets":23.0,"id":"a65jsjwqff1l","lat":49.264011,"address":"2550 Broadway St. W.","long":-123.163544},"type":"Feature","geometry":{"type":"Point","coordinates":[-123.163544,49.264011]}},{"properties":{"offence":"176E","tickets":24.0,"id":"a65jsk09iqku","lat":49.238541,"address":"2650 Kingsway","long":-123.050919},"type":"Feature","geometry":{"type":"Point","coordinates":[-123.050919,49.238541]}},{"properties":{"offence":"176E","tickets":24.0,"id":"a65jsjqrxmiv","lat":49.223724,"address":"250 51st Ave E.","long":-123.100647},"type":"Feature","geometry":{"type":"Point","coordinates":[-123.100647,49.223724]}},{"properties":{"offence":"176E","tickets":24.0,"id":"a65jsk2iwdw8","lat":49.273247,"address":"1350 Quebec St.","long":-123.101646},"type":"Feature","geometry":{"type":"Point","coordinates":[-123.101646,49.273247]}},{"properties":{"offence":"176E","tickets":24.0,"id":"a65jsjr2eam5","lat":49.235237,"address":"5550 Boulevard W.","long":-123.110672},"type":"Feature","geometry":{"type":"Point","coordinates":[-123.110672,49.235237]}},{"properties":{"offence":"176E","tickets":24.0,"id":"a65jsk3fmfv9","lat":49.284397,"address":"1250 Cardero St.","long":-123.139885},"type":"Feature","geometry":{"type":"Point","coordinates":[-123.139885,49.284397]}},{"properties":{"offence":"176E","tickets":24.0,"id":"a65jsjsr7xax","lat":49.270264,"address":"1750 Cypress St","long":-123.147896},"type":"Feature","geometry":{"type":"Point","coordinates":[-123.147896,49.270264]}},{"properties":{"offence":"176E","tickets":24.0,"id":"a65jsjvjzlbg","lat":49.271591,"address":"1950 York Ave.","long":-123.149094},"type":"Feature","geometry":{"type":"Point","coordinates":[-123.149094,49.271591]}},{"properties":{"offence":"176E","tickets":24.0,"id":"a65jsjws05v3","lat":49.264179,"address":"3150 Broadway St. W.","long":-123.174973},"type":"Feature","geometry":{"type":"Point","coordinates":[-123.174973,49.264179]}},{"properties":{"offence":"176E","tickets":25.0,"id":"a65jsjvvzvmr","lat":49.265091,"address":"1650 6th Ave E.","long":-123.07061},"type":"Feature","geometry":{"type":"Point","coordinates":[-123.07061,49.265091]}},{"properties":{"offence":"176E","tickets":25.0,"id":"a65jsjudzuqj","lat":49.262028,"address":"150 10th Ave E.","long":-123.102264},"type":"Feature","geometry":{"type":"Point","coordinates":[-123.102264,49.262028]}},{"properties":{"offence":"176E","tickets":25.0,"id":"a65jsjqy2fik","lat":49.260635,"address":"2750 Yukon St.","long":-123.112984},"type":"Feature","geometry":{"type":"Point","coordinates":[-123.112984,49.260635]}},{"properties":{"offence":"176E","tickets":25.0,"id":"a65jsjp8cokb","lat":49.285618,"address":"450 Howe St.","long":-123.115356},"type":"Feature","geometry":{"type":"Point","coordinates":[-123.115356,49.285618]}},{"properties":{"offence":"176E","tickets":25.0,"id":"a65jsjztsdtw","lat":49.261196,"address":"2750 Hemlock St.","long":-123.136192},"type":"Feature","geometry":{"type":"Point","coordinates":[-123.136192,49.261196]}},{"properties":{"offence":"176E","tickets":25.0,"id":"a65jsk2dubz5","lat":49.28223,"address":"1350 Broughton St.","long":-123.138458},"type":"Feature","geometry":{"type":"Point","coordinates":[-123.138458,49.28223]}},{"properties":{"offence":"176E","tickets":26.0,"id":"a65jsk0boh88","lat":49.242809,"address":"4650 Duchess St.","long":-123.047935},"type":"Feature","geometry":{"type":"Point","coordinates":[-123.047935,49.242809]}},{"properties":{"offence":"176E","tickets":26.0,"id":"a65jsjz7fn1k","lat":49.253716,"address":"3450 Commercial St.","long":-123.06794},"type":"Feature","geometry":{"type":"Point","coordinates":[-123.06794,49.253716]}},{"properties":{"offence":"176E","tickets":26.0,"id":"a65jsjt03ijz","lat":49.268707,"address":"1650 2nd Ave E.","long":-123.07061},"type":"Feature","geometry":{"type":"Point","coordinates":[-123.07061,49.268707]}},{"properties":{"offence":"176E","tickets":26.0,"id":"a65jsk04eqia","lat":49.22781,"address":"6250 Fraser St.","long":-123.090607},"type":"Feature","geometry":{"type":"Point","coordinates":[-123.090607,49.22781]}},{"properties":{"offence":"176E","tickets":26.0,"id":"a65jsjqqk41b","lat":49.281696,"address":"350 Jackson Ave.","long":-123.093407},"type":"Feature","geometry":{"type":"Point","coordinates":[-123.093407,49.281696]}},{"properties":{"offence":"176E","tickets":26.0,"id":"a65jsjp2sibx","lat":49.26836,"address":"250 2nd Ave E.","long":-123.09919},"type":"Feature","geometry":{"type":"Point","coordinates":[-123.09919,49.26836]}},{"properties":{"offence":"176E","tickets":26.0,"id":"a65jsk31b5p2","lat":49.252419,"address":"3650 Main St.","long":-123.100937},"type":"Feature","geometry":{"type":"Point","coordinates":[-123.100937,49.252419]}},{"properties":{"offence":"176E","tickets":26.0,"id":"a65jsjqw8w20","lat":49.261639,"address":"2650 Yukon St.","long":-123.112946},"type":"Feature","geometry":{"type":"Point","coordinates":[-123.112946,49.261639]}},{"properties":{"offence":"176E","tickets":26.0,"id":"a65jsjwn11ir","lat":49.255558,"address":"3350 Heather St.","long":-123.120155},"type":"Feature","geometry":{"type":"Point","coordinates":[-123.120155,49.255558]}},{"properties":{"offence":"176E","tickets":26.0,"id":"a65jsjxklhuh","lat":49.204971,"address":"8850 Osler St.","long":-123.131744},"type":"Feature","geometry":{"type":"Point","coordinates":[-123.131744,49.204971]}},{"properties":{"offence":"176E","tickets":26.0,"id":"a65jsjsold8f","lat":49.292698,"address":"1850 Alberni St.","long":-123.135201},"type":"Feature","geometry":{"type":"Point","coordinates":[-123.135201,49.292698]}},{"properties":{"offence":"176E","tickets":26.0,"id":"a65jsjywgj9n","lat":49.259022,"address":"1750 14th Ave W.","long":-123.144775},"type":"Feature","geometry":{"type":"Point","coordinates":[-123.144775,49.259022]}},{"properties":{"offence":"176E","tickets":26.0,"id":"a65jsjt6blbt","lat":49.207993,"address":"8650 Barnard St.","long":-123.14518},"type":"Feature","geometry":{"type":"Point","coordinates":[-123.14518,49.207993]}},{"properties":{"offence":"176E","tickets":26.0,"id":"a65jsjulh1tm","lat":49.267754,"address":"2050 Vine St.","long":-123.157524},"type":"Feature","geometry":{"type":"Point","coordinates":[-123.157524,49.267754]}},{"properties":{"offence":"176E","tickets":27.0,"id":"a65jsjphwyu1","lat":49.23571,"address":"3650 Vanness Ave.","long":-123.026337},"type":"Feature","geometry":{"type":"Point","coordinates":[-123.026337,49.23571]}},{"properties":{"offence":"176E","tickets":27.0,"id":"a65jsk4y5nxt","lat":49.250656,"address":"3850 Commercial St.","long":-123.068115},"type":"Feature","geometry":{"type":"Point","coordinates":[-123.068115,49.250656]}},{"properties":{"offence":"176E","tickets":27.0,"id":"a65jsk5f6pgp","lat":49.27116,"address":"1650 Cypress St","long":-123.147865},"type":"Feature","geometry":{"type":"Point","coordinates":[-123.147865,49.27116]}},{"properties":{"offence":"176E","tickets":28.0,"id":"a65jsjxk57u5","lat":49.234131,"address":"3550 Foster Ave.","long":-123.027313},"type":"Feature","geometry":{"type":"Point","coordinates":[-123.027313,49.234131]}},{"properties":{"offence":"176E","tickets":28.0,"id":"a65jsk0qdja8","lat":49.232555,"address":"5650 Melbourne St.","long":-123.029243},"type":"Feature","geometry":{"type":"Point","coordinates":[-123.029243,49.232555]}},{"properties":{"offence":"176E","tickets":28.0,"id":"a65jsjqgrgri","lat":49.233284,"address":"3350 Kingsway","long":-123.034241},"type":"Feature","geometry":{"type":"Point","coordinates":[-123.034241,49.233284]}},{"properties":{"offence":"176E","tickets":28.0,"id":"a65jsk011tn7","lat":49.28072,"address":"450 Templeton Dr.","long":-123.059769},"type":"Feature","geometry":{"type":"Point","coordinates":[-123.059769,49.28072]}},{"properties":{"offence":"176E","tickets":28.0,"id":"a65jsjyzgju8","lat":49.256966,"address":"650 16th Ave W.","long":-123.119148},"type":"Feature","geometry":{"type":"Point","coordinates":[-123.119148,49.256966]}},{"properties":{"offence":"176E","tickets":28.0,"id":"a65jsjwj5g3a","lat":49.282681,"address":"1450 Harwood St.","long":-123.139061},"type":"Feature","geometry":{"type":"Point","coordinates":[-123.139061,49.282681]}},{"properties":{"offence":"176E","tickets":29.0,"id":"a65jsjsb6mwb","lat":49.280231,"address":"2450 Pender St. E.","long":-123.055504},"type":"Feature","geometry":{"type":"Point","coordinates":[-123.055504,49.280231]}},{"properties":{"offence":"176E","tickets":29.0,"id":"a65jsjrksyse","lat":49.284454,"address":"550 Railway St.","long":-123.092102},"type":"Feature","geometry":{"type":"Point","coordinates":[-123.092102,49.284454]}},{"properties":{"offence":"176E","tickets":29.0,"id":"a65jsjqrxk6g","lat":49.284973,"address":"450 Granville St.","long":-123.114357},"type":"Feature","geometry":{"type":"Point","coordinates":[-123.114357,49.284973]}},{"properties":{"offence":"176E","tickets":29.0,"id":"a65jsk5hyr3x","lat":49.267616,"address":"1350 Fountain Way Ct.","long":-123.134392},"type":"Feature","geometry":{"type":"Point","coordinates":[-123.134392,49.267616]}},{"properties":{"offence":"176E","tickets":29.0,"id":"a65jsk53wzap","lat":49.269882,"address":"2050 2nd Ave W.","long":-123.15155},"type":"Feature","geometry":{"type":"Point","coordinates":[-123.15155,49.269882]}},{"properties":{"offence":"176E","tickets":29.0,"id":"a65jsjvdmvr9","lat":49.227158,"address":"5850 West Boulevard","long":-123.155106},"type":"Feature","geometry":{"type":"Point","coordinates":[-123.155106,49.227158]}},{"properties":{"offence":"176E","tickets":30.0,"id":"a65jsk42rkvu","lat":49.243999,"address":"2150 Kingsway","long":-123.062752},"type":"Feature","geometry":{"type":"Point","coordinates":[-123.062752,49.243999]}},{"properties":{"offence":"176E","tickets":30.0,"id":"a65jsjr362jp","lat":49.278225,"address":"1150 Georgia St. E.","long":-123.080276},"type":"Feature","geometry":{"type":"Point","coordinates":[-123.080276,49.278225]}},{"properties":{"offence":"176E","tickets":30.0,"id":"a65jsjvb57as","lat":49.243858,"address":"4550 Main St.","long":-123.101341},"type":"Feature","geometry":{"type":"Point","coordinates":[-123.101341,49.243858]}},{"properties":{"offence":"176E","tickets":30.0,"id":"a65jsjqr0sdd","lat":49.232502,"address":"450 42nd Ave W.","long":-123.115227},"type":"Feature","geometry":{"type":"Point","coordinates":[-123.115227,49.232502]}},{"properties":{"offence":"176E","tickets":30.0,"id":"a65jsjyadz4t","lat":49.261162,"address":"2750 Birch St.","long":-123.133812},"type":"Feature","geometry":{"type":"Point","coordinates":[-123.133812,49.261162]}},{"properties":{"offence":"176E","tickets":30.0,"id":"a65jsk2nttbi","lat":49.270569,"address":"850 Old Bridge Ct.","long":-123.134598},"type":"Feature","geometry":{"type":"Point","coordinates":[-123.134598,49.270569]}},{"properties":{"offence":"176E","tickets":30.0,"id":"a65jsjq4xuw8","lat":49.261639,"address":"1350 11th Ave W.","long":-123.13501},"type":"Feature","geometry":{"type":"Point","coordinates":[-123.13501,49.261639]}},{"properties":{"offence":"176E","tickets":30.0,"id":"a65jsk58nvbd","lat":49.258968,"address":"1650 14th Ave W.","long":-123.14241},"type":"Feature","geometry":{"type":"Point","coordinates":[-123.14241,49.258968]}},{"properties":{"offence":"176E","tickets":30.0,"id":"a65jsjz92zzm","lat":49.263405,"address":"2550 Vine St.","long":-123.157707},"type":"Feature","geometry":{"type":"Point","coordinates":[-123.157707,49.263405]}},{"properties":{"offence":"176E","tickets":30.0,"id":"a65jsjxek532","lat":49.264221,"address":"3350 Broadway St. W.","long":-123.178833},"type":"Feature","geometry":{"type":"Point","coordinates":[-123.178833,49.264221]}},{"properties":{"offence":"176E","tickets":31.0,"id":"a65jsk2iro8g","lat":49.281254,"address":"450 Hastings St. E.","long":-123.094398},"type":"Feature","geometry":{"type":"Point","coordinates":[-123.094398,49.281254]}},{"properties":{"offence":"176E","tickets":31.0,"id":"a65jsju5awra","lat":49.256592,"address":"150 16th Ave E.","long":-123.102219},"type":"Feature","geometry":{"type":"Point","coordinates":[-123.102219,49.256592]}},{"properties":{"offence":"176E","tickets":31.0,"id":"a65jsju3509y","lat":49.265625,"address":"150 6th Ave E.","long":-123.108131},"type":"Feature","geometry":{"type":"Point","coordinates":[-123.108131,49.265625]}},{"properties":{"offence":"176E","tickets":31.0,"id":"a65jsjrtjwly","lat":49.23304,"address":"1050 42nd Ave W.","long":-123.129074},"type":"Feature","geometry":{"type":"Point","coordinates":[-123.129074,49.23304]}},{"properties":{"offence":"176E","tickets":31.0,"id":"a65jsjt2azat","lat":49.257862,"address":"1150 15th Ave W.","long":-123.130302},"type":"Feature","geometry":{"type":"Point","coordinates":[-123.130302,49.257862]}},{"properties":{"offence":"176E","tickets":32.0,"id":"a65jsjsfncck","lat":49.249912,"address":"1350 23rd Ave E.","long":-123.077049},"type":"Feature","geometry":{"type":"Point","coordinates":[-123.077049,49.249912]}},{"properties":{"offence":"176E","tickets":32.0,"id":"a65jsjzn7i5m","lat":49.260624,"address":"2750 Sophia St.","long":-123.098289},"type":"Feature","geometry":{"type":"Point","coordinates":[-123.098289,49.260624]}},{"properties":{"offence":"176E","tickets":32.0,"id":"a65jsk5hvn8l","lat":49.273224,"address":"1250 Station St.","long":-123.098595},"type":"Feature","geometry":{"type":"Point","coordinates":[-123.098595,49.273224]}},{"properties":{"offence":"176E","tickets":32.0,"id":"a65jsk1sv365","lat":49.259205,"address":"2950 Spruce St.","long":-123.129135},"type":"Feature","geometry":{"type":"Point","coordinates":[-123.129135,49.259205]}},{"properties":{"offence":"176E","tickets":32.0,"id":"a65jsjqjmhya","lat":49.257557,"address":"3150 Fir St.","long":-123.141273},"type":"Feature","geometry":{"type":"Point","coordinates":[-123.141273,49.257557]}},{"properties":{"offence":"176E","tickets":32.0,"id":"a65jsjr6ez5v","lat":49.261074,"address":"2250 12th Ave W.","long":-123.156593},"type":"Feature","geometry":{"type":"Point","coordinates":[-123.156593,49.261074]}},{"properties":{"offence":"176E","tickets":32.0,"id":"a65jsjy0afhz","lat":49.268368,"address":"2750 4th Ave W.","long":-123.167336},"type":"Feature","geometry":{"type":"Point","coordinates":[-123.167336,49.268368]}},{"properties":{"offence":"176E","tickets":33.0,"id":"a65jsk06vh9s","lat":49.236927,"address":"5250 Joyce St.","long":-123.033073},"type":"Feature","geometry":{"type":"Point","coordinates":[-123.033073,49.236927]}},{"properties":{"offence":"176E","tickets":33.0,"id":"a65jsjxa8ql9","lat":49.263302,"address":"1450 8th Ave E.","long":-123.074585},"type":"Feature","geometry":{"type":"Point","coordinates":[-123.074585,49.263302]}},{"properties":{"offence":"176E","tickets":33.0,"id":"a65jsk0yia02","lat":49.267281,"address":"1950 Scotia St.","long":-123.098778},"type":"Feature","geometry":{"type":"Point","coordinates":[-123.098778,49.267281]}},{"properties":{"offence":"176E","tickets":33.0,"id":"a65jsjtym48t","lat":49.272236,"address":"1450 Western St.","long":-123.099358},"type":"Feature","geometry":{"type":"Point","coordinates":[-123.099358,49.272236]}},{"properties":{"offence":"176E","tickets":33.0,"id":"a65jsjt3neup","lat":49.261127,"address":"2750 Alder St.","long":-123.131462},"type":"Feature","geometry":{"type":"Point","coordinates":[-123.131462,49.261127]}},{"properties":{"offence":"176E","tickets":33.0,"id":"a65jsjvkhu6v","lat":49.268127,"address":"850 Hemlock Ct.","long":-123.136429},"type":"Feature","geometry":{"type":"Point","coordinates":[-123.136429,49.268127]}},{"properties":{"offence":"176E","tickets":33.0,"id":"a65jsjq654bb","lat":49.265808,"address":"2250 Fir St.","long":-123.140938},"type":"Feature","geometry":{"type":"Point","coordinates":[-123.140938,49.265808]}},{"properties":{"offence":"176E","tickets":33.0,"id":"a65jsjr0pggz","lat":49.263905,"address":"4650 10th Ave W.","long":-123.213715},"type":"Feature","geometry":{"type":"Point","coordinates":[-123.213715,49.263905]}},{"properties":{"offence":"176E","tickets":34.0,"id":"a65jsjuzzpjz","lat":49.282623,"address":"250 Commercial Dr.","long":-123.070366},"type":"Feature","geometry":{"type":"Point","coordinates":[-123.070366,49.282623]}},{"properties":{"offence":"176E","tickets":34.0,"id":"a65jsjzqzvq0","lat":49.264717,"address":"2250 Keith Dr.","long":-123.079407},"type":"Feature","geometry":{"type":"Point","coordinates":[-123.079407,49.264717]}},{"properties":{"offence":"176E","tickets":34.0,"id":"a65jsjvu30sn","lat":49.276852,"address":"650 Pacific Blvd.","long":-123.108864},"type":"Feature","geometry":{"type":"Point","coordinates":[-123.108864,49.276852]}},{"properties":{"offence":"176E","tickets":34.0,"id":"a65jsk04mncu","lat":49.228188,"address":"6250 Boulevard W.","long":-123.110802},"type":"Feature","geometry":{"type":"Point","coordinates":[-123.110802,49.228188]}},{"properties":{"offence":"176E","tickets":34.0,"id":"a65jsk17snvk","lat":49.25901,"address":"2950 Cambie St.","long":-123.115005},"type":"Feature","geometry":{"type":"Point","coordinates":[-123.115005,49.25901]}},{"properties":{"offence":"176E","tickets":34.0,"id":"a65jsk58lrlm","lat":49.265476,"address":"1850 7th Ave W.","long":-123.146881},"type":"Feature","geometry":{"type":"Point","coordinates":[-123.146881,49.265476]}},{"properties":{"offence":"176E","tickets":35.0,"id":"a65jsju7apso","lat":49.247101,"address":"4250 Fraser St.","long":-123.09005},"type":"Feature","geometry":{"type":"Point","coordinates":[-123.09005,49.247101]}},{"properties":{"offence":"176E","tickets":35.0,"id":"a65jsk11umf5","lat":49.255211,"address":"750 18th Ave W.","long":-123.121155},"type":"Feature","geometry":{"type":"Point","coordinates":[-123.121155,49.255211]}},{"properties":{"offence":"176E","tickets":35.0,"id":"a65jsjzw7yn5","lat":49.262978,"address":"2550 Alder St.","long":-123.131386},"type":"Feature","geometry":{"type":"Point","coordinates":[-123.131386,49.262978]}},{"properties":{"offence":"176E","tickets":36.0,"id":"a65jsjwo9ns3","lat":49.265057,"address":"1850 6th Ave E.","long":-123.066803},"type":"Feature","geometry":{"type":"Point","coordinates":[-123.066803,49.265057]}},{"properties":{"offence":"176E","tickets":36.0,"id":"a65jsk4eun07","lat":49.210217,"address":"8250 St. George St.","long":-123.094009},"type":"Feature","geometry":{"type":"Point","coordinates":[-123.094009,49.210217]}},{"properties":{"offence":"176E","tickets":36.0,"id":"a65jsjvff8ng","lat":49.267063,"address":"1250 Alder Bay Ct.","long":-123.133362},"type":"Feature","geometry":{"type":"Point","coordinates":[-123.133362,49.267063]}},{"properties":{"offence":"176E","tickets":36.0,"id":"a65jsk55tdbc","lat":49.283508,"address":"1250 Broughton St.","long":-123.136604},"type":"Feature","geometry":{"type":"Point","coordinates":[-123.136604,49.283508]}},{"properties":{"offence":"176E","tickets":36.0,"id":"a65jsjpm66mg","lat":49.261562,"address":"2750 Vine St.","long":-123.157738},"type":"Feature","geometry":{"type":"Point","coordinates":[-123.157738,49.261562]}},{"properties":{"offence":"176E","tickets":37.0,"id":"a65jsjxpnntd","lat":49.246067,"address":"4350 Fraser St.","long":-123.090073},"type":"Feature","geometry":{"type":"Point","coordinates":[-123.090073,49.246067]}},{"properties":{"offence":"176E","tickets":37.0,"id":"a65jsjxnh3uu","lat":49.28352,"address":"150 Jackson Ave.","long":-123.093323},"type":"Feature","geometry":{"type":"Point","coordinates":[-123.093323,49.28352]}},{"properties":{"offence":"176E","tickets":37.0,"id":"a65jsk3hpdzl","lat":49.262318,"address":"2650 Cypress St","long":-123.148193},"type":"Feature","geometry":{"type":"Point","coordinates":[-123.148193,49.262318]}},{"properties":{"offence":"176E","tickets":37.0,"id":"a65jsk1lijet","lat":49.272495,"address":"1950 Cornwall Ave.","long":-123.148994},"type":"Feature","geometry":{"type":"Point","coordinates":[-123.148994,49.272495]}},{"properties":{"offence":"176E","tickets":37.0,"id":"a65jsjuvn58o","lat":49.265602,"address":"2150 7th Ave W.","long":-123.154114},"type":"Feature","geometry":{"type":"Point","coordinates":[-123.154114,49.265602]}},{"properties":{"offence":"176E","tickets":37.0,"id":"a65jsjzktqdz","lat":49.268429,"address":"2950 4th Ave W.","long":-123.171768},"type":"Feature","geometry":{"type":"Point","coordinates":[-123.171768,49.268429]}},{"properties":{"offence":"176E","tickets":37.0,"id":"a65jsjxain4i","lat":49.264263,"address":"2550 Sasamat St.","long":-123.209099},"type":"Feature","geometry":{"type":"Point","coordinates":[-123.209099,49.264263]}},{"properties":{"offence":"176E","tickets":38.0,"id":"a65jsjrga5zc","lat":49.238773,"address":"5050 Joyce St.","long":-123.031342},"type":"Feature","geometry":{"type":"Point","coordinates":[-123.031342,49.238773]}},{"properties":{"offence":"176E","tickets":38.0,"id":"a65jsk43ajib","lat":49.271614,"address":"1450 Station St.","long":-123.098061},"type":"Feature","geometry":{"type":"Point","coordinates":[-123.098061,49.271614]}},{"properties":{"offence":"176E","tickets":38.0,"id":"a65jsjwg0qnw","lat":49.262573,"address":"1350 10th Ave W.","long":-123.134972},"type":"Feature","geometry":{"type":"Point","coordinates":[-123.134972,49.262573]}},{"properties":{"offence":"176E","tickets":38.0,"id":"a65jsjvjfcv8","lat":49.269039,"address":"2150 3rd Ave W.","long":-123.153946},"type":"Feature","geometry":{"type":"Point","coordinates":[-123.153946,49.269039]}},{"properties":{"offence":"176E","tickets":38.0,"id":"a65jsjwfx4vp","lat":49.264614,"address":"2450 Bayswater St.","long":-123.171219},"type":"Feature","geometry":{"type":"Point","coordinates":[-123.171219,49.264614]}},{"properties":{"offence":"176E","tickets":39.0,"id":"a65jsk4kn1ik","lat":49.281158,"address":"2650 Hastings St. E.","long":-123.050629},"type":"Feature","geometry":{"type":"Point","coordinates":[-123.050629,49.281158]}},{"properties":{"offence":"176E","tickets":39.0,"id":"a65jsjzuiovq","lat":49.262787,"address":"2550 Manitoba St.","long":-123.106842},"type":"Feature","geometry":{"type":"Point","coordinates":[-123.106842,49.262787]}},{"properties":{"offence":"176E","tickets":39.0,"id":"a65jsk4827l1","lat":49.256931,"address":"550 16th Ave W.","long":-123.116821},"type":"Feature","geometry":{"type":"Point","coordinates":[-123.116821,49.256931]}},{"properties":{"offence":"176E","tickets":39.0,"id":"a65jsjsbjvuo","lat":49.27766,"address":"1350 Burrard St.","long":-123.131363},"type":"Feature","geometry":{"type":"Point","coordinates":[-123.131363,49.27766]}},{"properties":{"offence":"176E","tickets":40.0,"id":"a65jsjqlsqfq","lat":49.28159,"address":"350 Renfrew St.","long":-123.044029},"type":"Feature","geometry":{"type":"Point","coordinates":[-123.044029,49.28159]}},{"properties":{"offence":"176E","tickets":40.0,"id":"a65jsjq0piom","lat":49.263233,"address":"1950 8th Ave E.","long":-123.064911},"type":"Feature","geometry":{"type":"Point","coordinates":[-123.064911,49.263233]}},{"properties":{"offence":"176E","tickets":40.0,"id":"a65jsk5hbt5k","lat":49.275791,"address":"950 Station St.","long":-123.09906},"type":"Feature","geometry":{"type":"Point","coordinates":[-123.09906,49.275791]}},{"properties":{"offence":"176E","tickets":40.0,"id":"a65jsk5eqcai","lat":49.234322,"address":"5650 Boulevard E.","long":-123.11071},"type":"Feature","geometry":{"type":"Point","coordinates":[-123.11071,49.234322]}},{"properties":{"offence":"176E","tickets":40.0,"id":"a65jsk0g5w6l","lat":49.254665,"address":"3450 Tupper St.","long":-123.116013},"type":"Feature","geometry":{"type":"Point","coordinates":[-123.116013,49.254665]}},{"properties":{"offence":"176E","tickets":40.0,"id":"a65jsk2bj6iq","lat":49.292824,"address":"750 Gilford St.","long":-123.136505},"type":"Feature","geometry":{"type":"Point","coordinates":[-123.136505,49.292824]}},{"properties":{"offence":"176E","tickets":40.0,"id":"a65jsjx5fmqf","lat":49.262615,"address":"1450 10th Ave W.","long":-123.137383},"type":"Feature","geometry":{"type":"Point","coordinates":[-123.137383,49.262615]}},{"properties":{"offence":"176E","tickets":40.0,"id":"a65jsjp3hqgj","lat":49.264202,"address":"3250 Broadway St. W.","long":-123.176872},"type":"Feature","geometry":{"type":"Point","coordinates":[-123.176872,49.264202]}},{"properties":{"offence":"176E","tickets":41.0,"id":"a65jsk2eabyg","lat":49.224731,"address":"150 50th Ave E.","long":-123.102715},"type":"Feature","geometry":{"type":"Point","coordinates":[-123.102715,49.224731]}},{"properties":{"offence":"176E","tickets":41.0,"id":"a65jsk0lnxfw","lat":49.293736,"address":"750 Chilco St.","long":-123.137848},"type":"Feature","geometry":{"type":"Point","coordinates":[-123.137848,49.293736]}},{"properties":{"offence":"176E","tickets":42.0,"id":"a65jsjsi58f3","lat":49.235786,"address":"3450 Euclid Ave.","long":-123.03199},"type":"Feature","geometry":{"type":"Point","coordinates":[-123.03199,49.235786]}},{"properties":{"offence":"176E","tickets":42.0,"id":"a65jsk4z4mdm","lat":49.25737,"address":"3150 Cambie St.","long":-123.115044},"type":"Feature","geometry":{"type":"Point","coordinates":[-123.115044,49.25737]}},{"properties":{"offence":"176E","tickets":42.0,"id":"a65jsk3067zj","lat":49.261608,"address":"1250 11th Ave W.","long":-123.132645},"type":"Feature","geometry":{"type":"Point","coordinates":[-123.132645,49.261608]}},{"properties":{"offence":"176E","tickets":42.0,"id":"a65jsjswwaw9","lat":49.259281,"address":"2950 Birch St.","long":-123.133888},"type":"Feature","geometry":{"type":"Point","coordinates":[-123.133888,49.259281]}},{"properties":{"offence":"176E","tickets":42.0,"id":"a65jsk0xpf7m","lat":49.262115,"address":"2650 Hemlock St.","long":-123.136162},"type":"Feature","geometry":{"type":"Point","coordinates":[-123.136162,49.262115]}},{"properties":{"offence":"176E","tickets":42.0,"id":"a65jsjzpzaqr","lat":49.236061,"address":"5550 Dunbar St.","long":-123.185287},"type":"Feature","geometry":{"type":"Point","coordinates":[-123.185287,49.236061]}},{"properties":{"offence":"176E","tickets":43.0,"id":"a65jsjx3opb1","lat":49.24041,"address":"4950 McGeer St.","long":-123.03241},"type":"Feature","geometry":{"type":"Point","coordinates":[-123.03241,49.24041]}},{"properties":{"offence":"176E","tickets":43.0,"id":"a65jsjqt2lc7","lat":49.22422,"address":"6650 Main St.","long":-123.101662},"type":"Feature","geometry":{"type":"Point","coordinates":[-123.101662,49.22422]}},{"properties":{"offence":"176E","tickets":43.0,"id":"a65jsk0gu0r0","lat":49.266621,"address":"50 Sitka Sq.","long":-123.128952},"type":"Feature","geometry":{"type":"Point","coordinates":[-123.128952,49.266621]}},{"properties":{"offence":"176E","tickets":43.0,"id":"a65jsjsf6bib","lat":49.263138,"address":"2550 Fir St.","long":-123.141037},"type":"Feature","geometry":{"type":"Point","coordinates":[-123.141037,49.263138]}},{"properties":{"offence":"176E","tickets":43.0,"id":"a65jsk40xryb","lat":49.267174,"address":"1850 5th Ave W.","long":-123.146851},"type":"Feature","geometry":{"type":"Point","coordinates":[-123.146851,49.267174]}},{"properties":{"offence":"176E","tickets":44.0,"id":"a65jsk01jgjg","lat":49.264767,"address":"250 7th Ave W.","long":-123.110184},"type":"Feature","geometry":{"type":"Point","coordinates":[-123.110184,49.264767]}},{"properties":{"offence":"176E","tickets":45.0,"id":"a65jsjt91qla","lat":49.233646,"address":"5550 Lincoln St.","long":-123.025909},"type":"Feature","geometry":{"type":"Point","coordinates":[-123.025909,49.233646]}},{"properties":{"offence":"176E","tickets":45.0,"id":"a65jsjxsc8in","lat":49.260471,"address":"1550 11th Ave E.","long":-123.072639},"type":"Feature","geometry":{"type":"Point","coordinates":[-123.072639,49.260471]}},{"properties":{"offence":"176E","tickets":45.0,"id":"a65jsjwiz7yp","lat":49.278908,"address":"650 Jackson Ave.","long":-123.093529},"type":"Feature","geometry":{"type":"Point","coordinates":[-123.093529,49.278908]}},{"properties":{"offence":"176E","tickets":45.0,"id":"a65jsk3dcinx","lat":49.275417,"address":"250 Station St.","long":-123.098793},"type":"Feature","geometry":{"type":"Point","coordinates":[-123.098793,49.275417]}},{"properties":{"offence":"176E","tickets":45.0,"id":"a65jsjv3t6pu","lat":49.256126,"address":"750 17th Ave W.","long":-123.121124},"type":"Feature","geometry":{"type":"Point","coordinates":[-123.121124,49.256126]}},{"properties":{"offence":"176E","tickets":45.0,"id":"a65jsjxwhceb","lat":49.264698,"address":"1950 8th Ave W.","long":-123.149307},"type":"Feature","geometry":{"type":"Point","coordinates":[-123.149307,49.264698]}},{"properties":{"offence":"176E","tickets":45.0,"id":"a65jsjywnnlb","lat":49.264153,"address":"3050 Broadway St. W.","long":-123.173042},"type":"Feature","geometry":{"type":"Point","coordinates":[-123.173042,49.264153]}},{"properties":{"offence":"176E","tickets":46.0,"id":"a65jsjpnb7mp","lat":49.23658,"address":"3650 Rae Ave.","long":-123.024498},"type":"Feature","geometry":{"type":"Point","coordinates":[-123.024498,49.23658]}},{"properties":{"offence":"176E","tickets":46.0,"id":"a65jsjpjs1gd","lat":49.28162,"address":"350 Heatley St.","long":-123.089516},"type":"Feature","geometry":{"type":"Point","coordinates":[-123.089516,49.28162]}},{"properties":{"offence":"176E","tickets":46.0,"id":"a65jsjqoraxf","lat":49.262081,"address":"2650 Birch St.","long":-123.133774},"type":"Feature","geometry":{"type":"Point","coordinates":[-123.133774,49.262081]}},{"properties":{"offence":"176E","tickets":46.0,"id":"a65jsk409i6a","lat":49.261448,"address":"2750 Maple St.","long":-123.15062},"type":"Feature","geometry":{"type":"Point","coordinates":[-123.15062,49.261448]}},{"properties":{"offence":"176E","tickets":46.0,"id":"a65jsjs11wqz","lat":49.263859,"address":"4550 10th Ave W.","long":-123.210655},"type":"Feature","geometry":{"type":"Point","coordinates":[-123.210655,49.263859]}},{"properties":{"offence":"176E","tickets":47.0,"id":"a65jsk0426co","lat":49.239574,"address":"5050 McGeer St.","long":-123.033195},"type":"Feature","geometry":{"type":"Point","coordinates":[-123.033195,49.239574]}},{"properties":{"offence":"176E","tickets":47.0,"id":"a65jsjuxbeif","lat":49.211796,"address":"8150 Main St.","long":-123.10218},"type":"Feature","geometry":{"type":"Point","coordinates":[-123.10218,49.211796]}},{"properties":{"offence":"176E","tickets":47.0,"id":"a65jsjtgc6a6","lat":49.289005,"address":"350 Bute St.","long":-123.122421},"type":"Feature","geometry":{"type":"Point","coordinates":[-123.122421,49.289005]}},{"properties":{"offence":"176E","tickets":48.0,"id":"a65jsjxv1q3l","lat":49.230804,"address":"3550 43rd Ave E.","long":-123.027832},"type":"Feature","geometry":{"type":"Point","coordinates":[-123.027832,49.230804]}},{"properties":{"offence":"176E","tickets":48.0,"id":"a65jsjp4w7ee","lat":49.270638,"address":"1450 Old Bridge Ct.","long":-123.134491},"type":"Feature","geometry":{"type":"Point","coordinates":[-123.134491,49.270638]}},{"properties":{"offence":"176E","tickets":48.0,"id":"a65jsjv9or76","lat":49.258854,"address":"1350 14th Ave W.","long":-123.135117},"type":"Feature","geometry":{"type":"Point","coordinates":[-123.135117,49.258854]}},{"properties":{"offence":"176E","tickets":48.0,"id":"a65jsjwjnoy4","lat":49.268127,"address":"1450 Hemlock Ct.","long":-123.136429},"type":"Feature","geometry":{"type":"Point","coordinates":[-123.136429,49.268127]}},{"properties":{"offence":"176E","tickets":48.0,"id":"a65jsjuumtzd","lat":49.284088,"address":"1450 Davie St.","long":-123.136902},"type":"Feature","geometry":{"type":"Point","coordinates":[-123.136902,49.284088]}},{"properties":{"offence":"176E","tickets":49.0,"id":"a65jsjtgssp1","lat":49.271484,"address":"1350 Grant St.","long":-123.075951},"type":"Feature","geometry":{"type":"Point","coordinates":[-123.075951,49.271484]}},{"properties":{"offence":"176E","tickets":49.0,"id":"a65jsjyekb2q","lat":49.257092,"address":"950 16th Ave W.","long":-123.125824},"type":"Feature","geometry":{"type":"Point","coordinates":[-123.125824,49.257092]}},{"properties":{"offence":"176E","tickets":49.0,"id":"a65jsjqaxkn6","lat":49.257832,"address":"1050 15th Ave W.","long":-123.128128},"type":"Feature","geometry":{"type":"Point","coordinates":[-123.128128,49.257832]}},{"properties":{"offence":"176E","tickets":50.0,"id":"a65jsjwfht44","lat":49.238548,"address":"3350 Clive Ave.","long":-123.033951},"type":"Feature","geometry":{"type":"Point","coordinates":[-123.033951,49.238548]}},{"properties":{"offence":"176E","tickets":50.0,"id":"a65jsjpf8x3o","lat":49.261971,"address":"350 10th Ave E.","long":-123.097275},"type":"Feature","geometry":{"type":"Point","coordinates":[-123.097275,49.261971]}},{"properties":{"offence":"176E","tickets":50.0,"id":"a65jsk0djbxp","lat":49.268684,"address":"1950 Cypress St","long":-123.147957},"type":"Feature","geometry":{"type":"Point","coordinates":[-123.147957,49.268684]}},{"properties":{"offence":"176E","tickets":51.0,"id":"a65jsjq2s8j1","lat":49.266479,"address":"50 5th Ave E.","long":-123.10379},"type":"Feature","geometry":{"type":"Point","coordinates":[-123.10379,49.266479]}},{"properties":{"offence":"176E","tickets":51.0,"id":"a65jsk0t9m7x","lat":49.290108,"address":"850 Bidwell St.","long":-123.134415},"type":"Feature","geometry":{"type":"Point","coordinates":[-123.134415,49.290108]}},{"properties":{"offence":"176E","tickets":51.0,"id":"a65jsjsrp7nb","lat":49.287979,"address":"1850 Morton Ave.","long":-123.141975},"type":"Feature","geometry":{"type":"Point","coordinates":[-123.141975,49.287979]}},{"properties":{"offence":"176E","tickets":52.0,"id":"a65jsk44p8ks","lat":49.280613,"address":"450 Hawks Ave.","long":-123.087189},"type":"Feature","geometry":{"type":"Point","coordinates":[-123.087189,49.280613]}},{"properties":{"offence":"176E","tickets":52.0,"id":"a65jsk30glsw","lat":49.265045,"address":"2250 Manitoba St.","long":-123.106773},"type":"Feature","geometry":{"type":"Point","coordinates":[-123.106773,49.265045]}},{"properties":{"offence":"176E","tickets":52.0,"id":"a65jsjyxbu9l","lat":49.258484,"address":"3050 Fir St.","long":-123.141235},"type":"Feature","geometry":{"type":"Point","coordinates":[-123.141235,49.258484]}},{"properties":{"offence":"176E","tickets":52.0,"id":"a65jsjs8241h","lat":49.267555,"address":"2050 Pine St.","long":-123.143257},"type":"Feature","geometry":{"type":"Point","coordinates":[-123.143257,49.267555]}},{"properties":{"offence":"176E","tickets":53.0,"id":"a65jsjr2g6xb","lat":49.218937,"address":"7250 Ontario St.","long":-123.106117},"type":"Feature","geometry":{"type":"Point","coordinates":[-123.106117,49.218937]}},{"properties":{"offence":"176E","tickets":53.0,"id":"a65jsju2swww","lat":49.287464,"address":"1750 Pendrell St.","long":-123.140007},"type":"Feature","geometry":{"type":"Point","coordinates":[-123.140007,49.287464]}},{"properties":{"offence":"176E","tickets":53.0,"id":"a65jsjvuibhp","lat":49.268932,"address":"1850 3rd Ave W.","long":-123.146835},"type":"Feature","geometry":{"type":"Point","coordinates":[-123.146835,49.268932]}},{"properties":{"offence":"176E","tickets":54.0,"id":"a65jsjpcww2k","lat":49.270317,"address":"3550 Graveley St.","long":-123.025948},"type":"Feature","geometry":{"type":"Point","coordinates":[-123.025948,49.270317]}},{"properties":{"offence":"176E","tickets":54.0,"id":"a65jsjy1d0ba","lat":49.269829,"address":"1850 Spyglass Pl.","long":-123.115257},"type":"Feature","geometry":{"type":"Point","coordinates":[-123.115257,49.269829]}},{"properties":{"offence":"176E","tickets":54.0,"id":"a65jsk501fiw","lat":49.270763,"address":"2050 1st Ave W.","long":-123.151489},"type":"Feature","geometry":{"type":"Point","coordinates":[-123.151489,49.270763]}},{"properties":{"offence":"176E","tickets":55.0,"id":"a65jsjs5scno","lat":49.256088,"address":"650 17th Ave W.","long":-123.119171},"type":"Feature","geometry":{"type":"Point","coordinates":[-123.119171,49.256088]}},{"properties":{"offence":"176E","tickets":55.0,"id":"a65jsjzfuzqf","lat":49.27084,"address":"2250 1st Ave W.","long":-123.15625},"type":"Feature","geometry":{"type":"Point","coordinates":[-123.15625,49.27084]}},{"properties":{"offence":"176E","tickets":56.0,"id":"a65jsjr54c2w","lat":49.272194,"address":"350 Terminal Ave.","long":-123.096725},"type":"Feature","geometry":{"type":"Point","coordinates":[-123.096725,49.272194]}},{"properties":{"offence":"176E","tickets":56.0,"id":"a65jsjxynazm","lat":49.225155,"address":"6550 Alberta St.","long":-123.112991},"type":"Feature","geometry":{"type":"Point","coordinates":[-123.112991,49.225155]}},{"properties":{"offence":"176E","tickets":56.0,"id":"a65jsk2c6qjl","lat":49.288158,"address":"1750 Comox St.","long":-123.138924},"type":"Feature","geometry":{"type":"Point","coordinates":[-123.138924,49.288158]}},{"properties":{"offence":"176E","tickets":56.0,"id":"a65jsjr3opq9","lat":49.26128,"address":"2750 Fir St.","long":-123.141121},"type":"Feature","geometry":{"type":"Point","coordinates":[-123.141121,49.26128]}},{"properties":{"offence":"176E","tickets":56.0,"id":"a65jsjponbbh","lat":49.273964,"address":"1350 Cypress St","long":-123.147751},"type":"Feature","geometry":{"type":"Point","coordinates":[-123.147751,49.273964]}},{"properties":{"offence":"176E","tickets":56.0,"id":"a65jsjru7g1p","lat":49.261738,"address":"2750 Cranberry Drive","long":-123.153694},"type":"Feature","geometry":{"type":"Point","coordinates":[-123.153694,49.261738]}},{"properties":{"offence":"176E","tickets":57.0,"id":"a65jsk4h4nam","lat":49.234638,"address":"5450 Ormidale St.","long":-123.024818},"type":"Feature","geometry":{"type":"Point","coordinates":[-123.024818,49.234638]}},{"properties":{"offence":"176E","tickets":58.0,"id":"a65jsk1dgkam","lat":49.210171,"address":"8250 Main St.","long":-123.10228},"type":"Feature","geometry":{"type":"Point","coordinates":[-123.10228,49.210171]}},{"properties":{"offence":"176E","tickets":59.0,"id":"a65jsk1kc0o7","lat":49.249874,"address":"3950 Main St.","long":-123.101028},"type":"Feature","geometry":{"type":"Point","coordinates":[-123.101028,49.249874]}},{"properties":{"offence":"176E","tickets":59.0,"id":"a65jsjpdi1qc","lat":49.268597,"address":"1950 Yew St.","long":-123.155121},"type":"Feature","geometry":{"type":"Point","coordinates":[-123.155121,49.268597]}},{"properties":{"offence":"176E","tickets":59.0,"id":"a65jsjy2iann","lat":49.235092,"address":"5650 Yew St.","long":-123.157738},"type":"Feature","geometry":{"type":"Point","coordinates":[-123.157738,49.235092]}},{"properties":{"offence":"176E","tickets":60.0,"id":"a65jsjx25nv8","lat":49.281155,"address":"450 Garden Dr.","long":-123.057838},"type":"Feature","geometry":{"type":"Point","coordinates":[-123.057838,49.281155]}},{"properties":{"offence":"176E","tickets":60.0,"id":"a65jsjtctyja","lat":49.256622,"address":"3250 Laurel St.","long":-123.124405},"type":"Feature","geometry":{"type":"Point","coordinates":[-123.124405,49.256622]}},{"properties":{"offence":"176E","tickets":60.0,"id":"a65jsk1vqsmq","lat":49.271915,"address":"1550 Maple St.","long":-123.150269},"type":"Feature","geometry":{"type":"Point","coordinates":[-123.150269,49.271915]}},{"properties":{"offence":"176E","tickets":60.0,"id":"a65jsk4bngxo","lat":49.269276,"address":"1850 Maple St.","long":-123.150352},"type":"Feature","geometry":{"type":"Point","coordinates":[-123.150352,49.269276]}},{"properties":{"offence":"176E","tickets":61.0,"id":"a65jsjw5v7rh","lat":49.22517,"address":"6550 Main St.","long":-123.101639},"type":"Feature","geometry":{"type":"Point","coordinates":[-123.101639,49.22517]}},{"properties":{"offence":"176E","tickets":61.0,"id":"a65jsjtdqmns","lat":49.266453,"address":"1150 Lamey's Mill Rd.","long":-123.130699},"type":"Feature","geometry":{"type":"Point","coordinates":[-123.130699,49.266453]}},{"properties":{"offence":"176E","tickets":61.0,"id":"a65jsjvr3dfo","lat":49.235592,"address":"2250 40th Ave W.","long":-123.158661},"type":"Feature","geometry":{"type":"Point","coordinates":[-123.158661,49.235592]}},{"properties":{"offence":"176E","tickets":63.0,"id":"a65jsjy54ot4","lat":49.206837,"address":"8750 Barnard St.","long":-123.145226},"type":"Feature","geometry":{"type":"Point","coordinates":[-123.145226,49.206837]}},{"properties":{"offence":"176E","tickets":64.0,"id":"a65jsjzgztb8","lat":49.256214,"address":"950 17th Ave W.","long":-123.12587},"type":"Feature","geometry":{"type":"Point","coordinates":[-123.12587,49.256214]}},{"properties":{"offence":"176E","tickets":64.0,"id":"a65jsk0ldwf4","lat":49.234764,"address":"3550 41st Ave W.","long":-123.183708},"type":"Feature","geometry":{"type":"Point","coordinates":[-123.183708,49.234764]}},{"properties":{"offence":"176E","tickets":65.0,"id":"a65jsk3vpk0e","lat":49.239613,"address":"4950 Joyce St.","long":-123.030533},"type":"Feature","geometry":{"type":"Point","coordinates":[-123.030533,49.239613]}},{"properties":{"offence":"176E","tickets":65.0,"id":"a65jsjtoe475","lat":49.276722,"address":"250 Prior St.","long":-123.098045},"type":"Feature","geometry":{"type":"Point","coordinates":[-123.098045,49.276722]}},{"properties":{"offence":"176E","tickets":65.0,"id":"a65jsjwma9ln","lat":49.257374,"address":"3150 Willow St.","long":-123.12204},"type":"Feature","geometry":{"type":"Point","coordinates":[-123.12204,49.257374]}},{"properties":{"offence":"176E","tickets":66.0,"id":"a65jsjv8oawt","lat":49.287266,"address":"950 Nicola St.","long":-123.13324},"type":"Feature","geometry":{"type":"Point","coordinates":[-123.13324,49.287266]}},{"properties":{"offence":"176E","tickets":66.0,"id":"a65jsjqqe6sf","lat":49.289852,"address":"1150 Chilco St.","long":-123.143684},"type":"Feature","geometry":{"type":"Point","coordinates":[-123.143684,49.289852]}},{"properties":{"offence":"176E","tickets":67.0,"id":"a65jsk2s1pqg","lat":49.234127,"address":"3650 Foster Ave.","long":-123.02536},"type":"Feature","geometry":{"type":"Point","coordinates":[-123.02536,49.234127]}},{"properties":{"offence":"176E","tickets":67.0,"id":"a65jsk46eo4p","lat":49.264164,"address":"1750 7th Ave E.","long":-123.068764},"type":"Feature","geometry":{"type":"Point","coordinates":[-123.068764,49.264164]}},{"properties":{"offence":"176E","tickets":67.0,"id":"a65jsjs99k5o","lat":49.264328,"address":"1050 8th Ave W.","long":-123.127792},"type":"Feature","geometry":{"type":"Point","coordinates":[-123.127792,49.264328]}},{"properties":{"offence":"176E","tickets":67.0,"id":"a65jsjs4xiuh","lat":49.268337,"address":"2650 4th Ave W.","long":-123.165459},"type":"Feature","geometry":{"type":"Point","coordinates":[-123.165459,49.268337]}},{"properties":{"offence":"176E","tickets":68.0,"id":"a65jsjvz3kic","lat":49.284042,"address":"350 Alexander St.","long":-123.096542},"type":"Feature","geometry":{"type":"Point","coordinates":[-123.096542,49.284042]}},{"properties":{"offence":"176E","tickets":68.0,"id":"a65jsjydzw91","lat":49.261093,"address":"250 11th Ave E.","long":-123.099426},"type":"Feature","geometry":{"type":"Point","coordinates":[-123.099426,49.261093]}},{"properties":{"offence":"176E","tickets":69.0,"id":"a65jsk42s6kq","lat":49.256031,"address":"550 17th Ave W.","long":-123.116051},"type":"Feature","geometry":{"type":"Point","coordinates":[-123.116051,49.256031]}},{"properties":{"offence":"176E","tickets":69.0,"id":"a65jsjpfw7xy","lat":49.258739,"address":"1050 14th Ave W.","long":-123.127983},"type":"Feature","geometry":{"type":"Point","coordinates":[-123.127983,49.258739]}},{"properties":{"offence":"176E","tickets":69.0,"id":"a65jsjuytw0n","lat":49.258778,"address":"1150 14th Ave W.","long":-123.130379},"type":"Feature","geometry":{"type":"Point","coordinates":[-123.130379,49.258778]}},{"properties":{"offence":"176E","tickets":70.0,"id":"a65jsjrf3sgn","lat":49.264153,"address":"1850 7th Ave E.","long":-123.066818},"type":"Feature","geometry":{"type":"Point","coordinates":[-123.066818,49.264153]}},{"properties":{"offence":"176E","tickets":70.0,"id":"a65jsk2gc6yv","lat":49.2598,"address":"1450 13th Ave W.","long":-123.137512},"type":"Feature","geometry":{"type":"Point","coordinates":[-123.137512,49.2598]}},{"properties":{"offence":"176E","tickets":70.0,"id":"a65jsk1xrr1c","lat":49.268524,"address":"1950 Maple St.","long":-123.150375},"type":"Feature","geometry":{"type":"Point","coordinates":[-123.150375,49.268524]}},{"properties":{"offence":"176E","tickets":71.0,"id":"a65jsk3rsic6","lat":49.263245,"address":"1850 8th Ave E.","long":-123.066414},"type":"Feature","geometry":{"type":"Point","coordinates":[-123.066414,49.263245]}},{"properties":{"offence":"176E","tickets":71.0,"id":"a65jsk2gwnq3","lat":49.243027,"address":"4650 Main St.","long":-123.101379},"type":"Feature","geometry":{"type":"Point","coordinates":[-123.101379,49.243027]}},{"properties":{"offence":"176E","tickets":71.0,"id":"a65jsk2nk864","lat":49.268688,"address":"1850 Columbia St.","long":-123.109428},"type":"Feature","geometry":{"type":"Point","coordinates":[-123.109428,49.268688]}},{"properties":{"offence":"176E","tickets":71.0,"id":"a65jsjyyi94j","lat":49.264198,"address":"2350 Alberta St.","long":-123.110909},"type":"Feature","geometry":{"type":"Point","coordinates":[-123.110909,49.264198]}},{"properties":{"offence":"176E","tickets":71.0,"id":"a65jsjqgf5bb","lat":49.259834,"address":"1550 13th Ave W.","long":-123.139984},"type":"Feature","geometry":{"type":"Point","coordinates":[-123.139984,49.259834]}},{"properties":{"offence":"176E","tickets":72.0,"id":"a65jsjq8ytie","lat":49.283466,"address":"150 Commercial Dr.","long":-123.070351},"type":"Feature","geometry":{"type":"Point","coordinates":[-123.070351,49.283466]}},{"properties":{"offence":"176E","tickets":73.0,"id":"a65jsk2pa903","lat":49.263721,"address":"1850 Broadway St. W.","long":-123.146973},"type":"Feature","geometry":{"type":"Point","coordinates":[-123.146973,49.263721]}},{"properties":{"offence":"176E","tickets":74.0,"id":"a65jsjqleo47","lat":49.286671,"address":"850 Jervis St.","long":-123.129021},"type":"Feature","geometry":{"type":"Point","coordinates":[-123.129021,49.286671]}},{"properties":{"offence":"176E","tickets":75.0,"id":"a65jsjtzxoe3","lat":49.289085,"address":"850 Cardero St.","long":-123.132812},"type":"Feature","geometry":{"type":"Point","coordinates":[-123.132812,49.289085]}},{"properties":{"offence":"176E","tickets":75.0,"id":"a65jsjxaygqn","lat":49.259766,"address":"1350 13th Ave W.","long":-123.135078},"type":"Feature","geometry":{"type":"Point","coordinates":[-123.135078,49.259766]}},{"properties":{"offence":"176E","tickets":75.0,"id":"a65jsjve7ww3","lat":49.292847,"address":"2050 Haro St.","long":-123.139717},"type":"Feature","geometry":{"type":"Point","coordinates":[-123.139717,49.292847]}},{"properties":{"offence":"176E","tickets":76.0,"id":"a65jsjy3j90y","lat":49.280685,"address":"450 Kamloops St.","long":-123.054588},"type":"Feature","geometry":{"type":"Point","coordinates":[-123.054588,49.280685]}},{"properties":{"offence":"176E","tickets":76.0,"id":"a65jsjrunifj","lat":49.260456,"address":"1650 11th Ave E.","long":-123.070755},"type":"Feature","geometry":{"type":"Point","coordinates":[-123.070755,49.260456]}},{"properties":{"offence":"176E","tickets":76.0,"id":"a65jsjwt8uxd","lat":49.264771,"address":"2350 Spruce St.","long":-123.128952},"type":"Feature","geometry":{"type":"Point","coordinates":[-123.128952,49.264771]}},{"properties":{"offence":"176E","tickets":77.0,"id":"a65jsjr0f6rq","lat":49.242531,"address":"4750 Main St.","long":-123.101395},"type":"Feature","geometry":{"type":"Point","coordinates":[-123.101395,49.242531]}},{"properties":{"offence":"176E","tickets":77.0,"id":"a65jsjrv5mz0","lat":49.268642,"address":"1850 Crowe St.","long":-123.111916},"type":"Feature","geometry":{"type":"Point","coordinates":[-123.111916,49.268642]}},{"properties":{"offence":"176E","tickets":78.0,"id":"a65jsjyng5hi","lat":49.256172,"address":"850 17th Ave W.","long":-123.123268},"type":"Feature","geometry":{"type":"Point","coordinates":[-123.123268,49.256172]}},{"properties":{"offence":"176E","tickets":78.0,"id":"a65jsk40pflg","lat":49.262012,"address":"2650 Spruce St.","long":-123.129051},"type":"Feature","geometry":{"type":"Point","coordinates":[-123.129051,49.262012]}},{"properties":{"offence":"176E","tickets":78.0,"id":"a65jsjte3r0r","lat":49.269844,"address":"1950 2nd Ave W.","long":-123.149155},"type":"Feature","geometry":{"type":"Point","coordinates":[-123.149155,49.269844]}},{"properties":{"offence":"176E","tickets":79.0,"id":"a65jsjwtxh7c","lat":49.258274,"address":"3050 Cambie St.","long":-123.115028},"type":"Feature","geometry":{"type":"Point","coordinates":[-123.115028,49.258274]}},{"properties":{"offence":"176E","tickets":79.0,"id":"a65jsk1my6t4","lat":49.290134,"address":"1950 Comox St.","long":-123.14196},"type":"Feature","geometry":{"type":"Point","coordinates":[-123.14196,49.290134]}},{"properties":{"offence":"176E","tickets":80.0,"id":"a65jsjrhb5an","lat":49.29081,"address":"750 Bidwell St.","long":-123.133354},"type":"Feature","geometry":{"type":"Point","coordinates":[-123.133354,49.29081]}},{"properties":{"offence":"176E","tickets":81.0,"id":"a65jsjv29yux","lat":49.26841,"address":"1850 Lorne St.","long":-123.099899},"type":"Feature","geometry":{"type":"Point","coordinates":[-123.099899,49.26841]}},{"properties":{"offence":"176E","tickets":82.0,"id":"a65jsk240fqp","lat":49.282562,"address":"1050 Barclay St.","long":-123.125969},"type":"Feature","geometry":{"type":"Point","coordinates":[-123.125969,49.282562]}},{"properties":{"offence":"176E","tickets":84.0,"id":"a65jsjt6nw2h","lat":49.280777,"address":"450 Dunlevy Ave.","long":-123.095421},"type":"Feature","geometry":{"type":"Point","coordinates":[-123.095421,49.280777]}},{"properties":{"offence":"176E","tickets":84.0,"id":"a65jsk4ny2g5","lat":49.26841,"address":"450 Moberly Rd.","long":-123.117645},"type":"Feature","geometry":{"type":"Point","coordinates":[-123.117645,49.26841]}},{"properties":{"offence":"176E","tickets":85.0,"id":"a65jsjqy9xkq","lat":49.258152,"address":"3050 Heather St.","long":-123.120079},"type":"Feature","geometry":{"type":"Point","coordinates":[-123.120079,49.258152]}},{"properties":{"offence":"176E","tickets":85.0,"id":"a65jsjspnnvx","lat":49.259914,"address":"1750 13th Ave W.","long":-123.144737},"type":"Feature","geometry":{"type":"Point","coordinates":[-123.144737,49.259914]}},{"properties":{"offence":"176E","tickets":85.0,"id":"a65jsjt9hpzv","lat":49.270294,"address":"1750 Maple St.","long":-123.150337},"type":"Feature","geometry":{"type":"Point","coordinates":[-123.150337,49.270294]}},{"properties":{"offence":"176E","tickets":86.0,"id":"a65jsjuymyhc","lat":49.280998,"address":"1350 Beach Ave.","long":-123.138931},"type":"Feature","geometry":{"type":"Point","coordinates":[-123.138931,49.280998]}},{"properties":{"offence":"176E","tickets":87.0,"id":"a65jsjpmt4v8","lat":49.264099,"address":"2350 Ontario St.","long":-123.104843},"type":"Feature","geometry":{"type":"Point","coordinates":[-123.104843,49.264099]}},{"properties":{"offence":"176E","tickets":87.0,"id":"a65jsk1ynkwv","lat":49.260002,"address":"2850 Heather St.","long":-123.119965},"type":"Feature","geometry":{"type":"Point","coordinates":[-123.119965,49.260002]}},{"properties":{"offence":"176E","tickets":87.0,"id":"a65jsk2t70ze","lat":49.269817,"address":"1850 2nd Ave W.","long":-123.146782},"type":"Feature","geometry":{"type":"Point","coordinates":[-123.146782,49.269817]}},{"properties":{"offence":"176E","tickets":88.0,"id":"a65jsk0o2sg4","lat":49.266106,"address":"1350 6th Ave W.","long":-123.135094},"type":"Feature","geometry":{"type":"Point","coordinates":[-123.135094,49.266106]}},{"properties":{"offence":"176E","tickets":88.0,"id":"a65jsjv7dctb","lat":49.264656,"address":"1850 8th Ave W.","long":-123.146896},"type":"Feature","geometry":{"type":"Point","coordinates":[-123.146896,49.264656]}},{"properties":{"offence":"176E","tickets":90.0,"id":"a65jsjt2kau9","lat":49.263279,"address":"1550 8th Ave E.","long":-123.072617},"type":"Feature","geometry":{"type":"Point","coordinates":[-123.072617,49.263279]}},{"properties":{"offence":"176E","tickets":90.0,"id":"a65jsk0oeg5e","lat":49.268082,"address":"350 2nd Ave W.","long":-123.111862},"type":"Feature","geometry":{"type":"Point","coordinates":[-123.111862,49.268082]}},{"properties":{"offence":"176E","tickets":90.0,"id":"a65jsk2pz3rb","lat":49.234135,"address":"5750 Yew St.","long":-123.158516},"type":"Feature","geometry":{"type":"Point","coordinates":[-123.158516,49.234135]}},{"properties":{"offence":"176E","tickets":91.0,"id":"a65jsjrmhcek","lat":49.273254,"address":"450 Pacific St.","long":-123.12674},"type":"Feature","geometry":{"type":"Point","coordinates":[-123.12674,49.273254]}},{"properties":{"offence":"176E","tickets":92.0,"id":"a65jsjsv1m43","lat":49.263767,"address":"4350 10th Ave W.","long":-123.204582},"type":"Feature","geometry":{"type":"Point","coordinates":[-123.204582,49.263767]}},{"properties":{"offence":"176E","tickets":93.0,"id":"a65jsjvb92zs","lat":49.219784,"address":"7150 Ontario St.","long":-123.106094},"type":"Feature","geometry":{"type":"Point","coordinates":[-123.106094,49.219784]}},{"properties":{"offence":"176E","tickets":93.0,"id":"a65jsjxclb1x","lat":49.234421,"address":"450 40th Ave W.","long":-123.114746},"type":"Feature","geometry":{"type":"Point","coordinates":[-123.114746,49.234421]}},{"properties":{"offence":"176E","tickets":93.0,"id":"a65jsjr7fhfj","lat":49.26318,"address":"2550 Pine St.","long":-123.14344},"type":"Feature","geometry":{"type":"Point","coordinates":[-123.14344,49.26318]}},{"properties":{"offence":"176E","tickets":94.0,"id":"a65jsk0tar5o","lat":49.261578,"address":"1150 11th Ave W.","long":-123.13028},"type":"Feature","geometry":{"type":"Point","coordinates":[-123.13028,49.261578]}},{"properties":{"offence":"176E","tickets":94.0,"id":"a65jsk26cb3s","lat":49.26556,"address":"2050 7th Ave W.","long":-123.151909},"type":"Feature","geometry":{"type":"Point","coordinates":[-123.151909,49.26556]}},{"properties":{"offence":"176E","tickets":95.0,"id":"a65jsjvffs6o","lat":49.260441,"address":"1850 11th Ave E.","long":-123.067032},"type":"Feature","geometry":{"type":"Point","coordinates":[-123.067032,49.260441]}},{"properties":{"offence":"176E","tickets":95.0,"id":"a65jsjruf58x","lat":49.268272,"address":"50 3rd Ave E.","long":-123.103722},"type":"Feature","geometry":{"type":"Point","coordinates":[-123.103722,49.268272]}},{"properties":{"offence":"176E","tickets":95.0,"id":"a65jsjt806is","lat":49.284374,"address":"550 Howe St.","long":-123.117226},"type":"Feature","geometry":{"type":"Point","coordinates":[-123.117226,49.284374]}},{"properties":{"offence":"176E","tickets":95.0,"id":"a65jsjujd71d","lat":49.271168,"address":"1650 Maple St.","long":-123.150307},"type":"Feature","geometry":{"type":"Point","coordinates":[-123.150307,49.271168]}},{"properties":{"offence":"176E","tickets":97.0,"id":"a65jsjz8jvia","lat":49.261921,"address":"2050 11th Ave W.","long":-123.151619},"type":"Feature","geometry":{"type":"Point","coordinates":[-123.151619,49.261921]}},{"properties":{"offence":"176E","tickets":97.0,"id":"a65jsjy45sma","lat":49.268402,"address":"2850 4th Ave W.","long":-123.169701},"type":"Feature","geometry":{"type":"Point","coordinates":[-123.169701,49.268402]}},{"properties":{"offence":"176E","tickets":98.0,"id":"a65jsjyzum3w","lat":49.259617,"address":"950 13th Ave W.","long":-123.125557},"type":"Feature","geometry":{"type":"Point","coordinates":[-123.125557,49.259617]}},{"properties":{"offence":"176E","tickets":98.0,"id":"a65jsk4j2w1c","lat":49.291382,"address":"650 Bidwell St.","long":-123.132469},"type":"Feature","geometry":{"type":"Point","coordinates":[-123.132469,49.291382]}},{"properties":{"offence":"176E","tickets":100.0,"id":"a65jsjrcjlrd","lat":49.260445,"address":"1750 11th Ave E.","long":-123.069206},"type":"Feature","geometry":{"type":"Point","coordinates":[-123.069206,49.260445]}},{"properties":{"offence":"176E","tickets":100.0,"id":"a65jsk2pqjbj","lat":49.271618,"address":"1550 Western St.","long":-123.099503},"type":"Feature","geometry":{"type":"Point","coordinates":[-123.099503,49.271618]}},{"properties":{"offence":"176E","tickets":100.0,"id":"a65jsjsvn3eb","lat":49.232414,"address":"5850 Boulevard W.","long":-123.110802},"type":"Feature","geometry":{"type":"Point","coordinates":[-123.110802,49.232414]}},{"properties":{"offence":"176E","tickets":101.0,"id":"a65jsjvk7bng","lat":49.264248,"address":"3450 Broadway St. W.","long":-123.180862},"type":"Feature","geometry":{"type":"Point","coordinates":[-123.180862,49.264248]}},{"properties":{"offence":"176E","tickets":102.0,"id":"a65jsk21hi89","lat":49.271248,"address":"1650 Yew St.","long":-123.155029},"type":"Feature","geometry":{"type":"Point","coordinates":[-123.155029,49.271248]}},{"properties":{"offence":"176E","tickets":103.0,"id":"a65jsjxfpbjo","lat":49.266365,"address":"2150 Yukon St.","long":-123.112755},"type":"Feature","geometry":{"type":"Point","coordinates":[-123.112755,49.266365]}},{"properties":{"offence":"176E","tickets":105.0,"id":"a65jsjpzkqbk","lat":49.281162,"address":"2550 Hastings St. E.","long":-123.053253},"type":"Feature","geometry":{"type":"Point","coordinates":[-123.053253,49.281162]}},{"properties":{"offence":"176E","tickets":105.0,"id":"a65jsk04qlvn","lat":49.262402,"address":"2650 Cranberry Drive","long":-123.153831},"type":"Feature","geometry":{"type":"Point","coordinates":[-123.153831,49.262402]}},{"properties":{"offence":"176E","tickets":106.0,"id":"a65jsjsvst6g","lat":49.263813,"address":"4450 10th Ave W.","long":-123.207634},"type":"Feature","geometry":{"type":"Point","coordinates":[-123.207634,49.263813]}},{"properties":{"offence":"176E","tickets":107.0,"id":"a65jsjw047qc","lat":49.263248,"address":"2450 Scotia St.","long":-123.098961},"type":"Feature","geometry":{"type":"Point","coordinates":[-123.098961,49.263248]}},{"properties":{"offence":"176E","tickets":107.0,"id":"a65jsjw9sii1","lat":49.269711,"address":"1750 Ontario St.","long":-123.104637},"type":"Feature","geometry":{"type":"Point","coordinates":[-123.104637,49.269711]}},{"properties":{"offence":"176E","tickets":107.0,"id":"a65jsjrcvch3","lat":49.267345,"address":"550 Moberly Rd.","long":-123.117485},"type":"Feature","geometry":{"type":"Point","coordinates":[-123.117485,49.267345]}},{"properties":{"offence":"176E","tickets":107.0,"id":"a65jsjsft46o","lat":49.266804,"address":"1250 Lamey's Mill Rd.","long":-123.132736},"type":"Feature","geometry":{"type":"Point","coordinates":[-123.132736,49.266804]}},{"properties":{"offence":"176E","tickets":107.0,"id":"a65jsjs94517","lat":49.267323,"address":"1350 Lamey's Mill Rd.","long":-123.134628},"type":"Feature","geometry":{"type":"Point","coordinates":[-123.134628,49.267323]}},{"properties":{"offence":"176E","tickets":108.0,"id":"a65jsjzd9aic","lat":49.284512,"address":"350 Water St.","long":-123.109894},"type":"Feature","geometry":{"type":"Point","coordinates":[-123.109894,49.284512]}},{"properties":{"offence":"176E","tickets":108.0,"id":"a65jsjygf26h","lat":49.25705,"address":"850 16th Ave W.","long":-123.12323},"type":"Feature","geometry":{"type":"Point","coordinates":[-123.12323,49.25705]}},{"properties":{"offence":"176E","tickets":109.0,"id":"a65jsjy8xnkh","lat":49.275112,"address":"1050 Station St.","long":-123.098534},"type":"Feature","geometry":{"type":"Point","coordinates":[-123.098534,49.275112]}},{"properties":{"offence":"176E","tickets":109.0,"id":"a65jsjq16qbn","lat":49.271706,"address":"2250 York Ave.","long":-123.156219},"type":"Feature","geometry":{"type":"Point","coordinates":[-123.156219,49.271706]}},{"properties":{"offence":"176E","tickets":110.0,"id":"a65jsjzv0a4a","lat":49.208694,"address":"8350 St. George St.","long":-123.094048},"type":"Feature","geometry":{"type":"Point","coordinates":[-123.094048,49.208694]}},{"properties":{"offence":"176E","tickets":111.0,"id":"a65jsk4lhed6","lat":49.230698,"address":"5850 Ormidale St.","long":-123.025047},"type":"Feature","geometry":{"type":"Point","coordinates":[-123.025047,49.230698]}},{"properties":{"offence":"176E","tickets":111.0,"id":"a65jsjvdbvuh","lat":49.261078,"address":"2750 Spruce St.","long":-123.129082},"type":"Feature","geometry":{"type":"Point","coordinates":[-123.129082,49.261078]}},{"properties":{"offence":"176E","tickets":112.0,"id":"a65jsk0rus6a","lat":49.262505,"address":"1150 10th Ave W.","long":-123.130249},"type":"Feature","geometry":{"type":"Point","coordinates":[-123.130249,49.262505]}},{"properties":{"offence":"176E","tickets":112.0,"id":"a65jsjyhzxxe","lat":49.262539,"address":"1250 10th Ave W.","long":-123.132607},"type":"Feature","geometry":{"type":"Point","coordinates":[-123.132607,49.262539]}},{"properties":{"offence":"176E","tickets":112.0,"id":"a65jsjoz96qa","lat":49.25798,"address":"1450 15th Ave W.","long":-123.13755},"type":"Feature","geometry":{"type":"Point","coordinates":[-123.13755,49.25798]}},{"properties":{"offence":"176E","tickets":113.0,"id":"a65jsk0lwwiq","lat":49.204281,"address":"1150 73rd Ave W.","long":-123.13311},"type":"Feature","geometry":{"type":"Point","coordinates":[-123.13311,49.204281]}},{"properties":{"offence":"176E","tickets":116.0,"id":"a65jsjwg6u3r","lat":49.232704,"address":"5650 Lincoln St.","long":-123.025894},"type":"Feature","geometry":{"type":"Point","coordinates":[-123.025894,49.232704]}},{"properties":{"offence":"176E","tickets":116.0,"id":"a65jsjyem3a5","lat":49.281731,"address":"350 Dunlevy Ave.","long":-123.095383},"type":"Feature","geometry":{"type":"Point","coordinates":[-123.095383,49.281731]}},{"properties":{"offence":"176E","tickets":118.0,"id":"a65jsjqe3btb","lat":49.256535,"address":"3250 Heather St.","long":-123.120132},"type":"Feature","geometry":{"type":"Point","coordinates":[-123.120132,49.256535]}},{"properties":{"offence":"176E","tickets":118.0,"id":"a65jsjrnfjhc","lat":49.271561,"address":"1850 York Ave.","long":-123.147133},"type":"Feature","geometry":{"type":"Point","coordinates":[-123.147133,49.271561]}},{"properties":{"offence":"176E","tickets":119.0,"id":"a65jsjqydy5l","lat":49.259396,"address":"2950 Fir St.","long":-123.141197},"type":"Feature","geometry":{"type":"Point","coordinates":[-123.141197,49.259396]}},{"properties":{"offence":"176E","tickets":120.0,"id":"a65jsjvzmd5q","lat":49.267059,"address":"1550 5th Ave W.","long":-123.140579},"type":"Feature","geometry":{"type":"Point","coordinates":[-123.140579,49.267059]}},{"properties":{"offence":"176E","tickets":121.0,"id":"a65jsk2oyegs","lat":49.280682,"address":"450 Penticton St.","long":-123.051979},"type":"Feature","geometry":{"type":"Point","coordinates":[-123.051979,49.280682]}},{"properties":{"offence":"176E","tickets":121.0,"id":"a65jsjqssw6l","lat":49.264694,"address":"2350 Laurel St.","long":-123.124123},"type":"Feature","geometry":{"type":"Point","coordinates":[-123.124123,49.264694]}},{"properties":{"offence":"176E","tickets":122.0,"id":"a65jsjrhi11h","lat":49.262959,"address":"2350 10th Ave W.","long":-123.158913},"type":"Feature","geometry":{"type":"Point","coordinates":[-123.158913,49.262959]}},{"properties":{"offence":"176E","tickets":123.0,"id":"a65jsk3f11y4","lat":49.284775,"address":"1150 Nicola St.","long":-123.136978},"type":"Feature","geometry":{"type":"Point","coordinates":[-123.136978,49.284775]}},{"properties":{"offence":"176E","tickets":126.0,"id":"a65jsk0fkr7q","lat":49.28384,"address":"750 Alexander St.","long":-123.088173},"type":"Feature","geometry":{"type":"Point","coordinates":[-123.088173,49.28384]}},{"properties":{"offence":"176E","tickets":126.0,"id":"a65jsjwbi86i","lat":49.263863,"address":"250 8th Ave W.","long":-123.110214},"type":"Feature","geometry":{"type":"Point","coordinates":[-123.110214,49.263863]}},{"properties":{"offence":"176E","tickets":126.0,"id":"a65jsk3e30u9","lat":49.241226,"address":"750 33rd Ave W.","long":-123.122162},"type":"Feature","geometry":{"type":"Point","coordinates":[-123.122162,49.241226]}},{"properties":{"offence":"176E","tickets":128.0,"id":"a65jsjyntw5l","lat":49.26284,"address":"2050 10th Ave W.","long":-123.151688},"type":"Feature","geometry":{"type":"Point","coordinates":[-123.151688,49.26284]}},{"properties":{"offence":"176E","tickets":129.0,"id":"a65jsk54j9bu","lat":49.273865,"address":"1550 Granville St.","long":-123.131149},"type":"Feature","geometry":{"type":"Point","coordinates":[-123.131149,49.273865]}},{"properties":{"offence":"176E","tickets":131.0,"id":"a65jsjs4rfqg","lat":49.244614,"address":"2750 29th Ave E.","long":-123.048286},"type":"Feature","geometry":{"type":"Point","coordinates":[-123.048286,49.244614]}},{"properties":{"offence":"176E","tickets":131.0,"id":"a65jsjv4r8qj","lat":49.26918,"address":"50 2nd Ave E.","long":-123.103691},"type":"Feature","geometry":{"type":"Point","coordinates":[-123.103691,49.26918]}},{"properties":{"offence":"176E","tickets":132.0,"id":"a65jsjp8i9hp","lat":49.28548,"address":"1450 Comox St.","long":-123.134804},"type":"Feature","geometry":{"type":"Point","coordinates":[-123.134804,49.28548]}},{"properties":{"offence":"176E","tickets":132.0,"id":"a65jsjy9ffaz","lat":49.259872,"address":"1650 13th Ave W.","long":-123.14238},"type":"Feature","geometry":{"type":"Point","coordinates":[-123.14238,49.259872]}},{"properties":{"offence":"176E","tickets":134.0,"id":"a65jsjyta1v4","lat":49.259689,"address":"1150 13th Ave W.","long":-123.130348},"type":"Feature","geometry":{"type":"Point","coordinates":[-123.130348,49.259689]}},{"properties":{"offence":"176E","tickets":135.0,"id":"a65jsjqyl54p","lat":49.287971,"address":"1050 Bidwell St.","long":-123.137604},"type":"Feature","geometry":{"type":"Point","coordinates":[-123.137604,49.287971]}},{"properties":{"offence":"176E","tickets":135.0,"id":"a65jsjt3xxl3","lat":49.269005,"address":"2050 3rd Ave W.","long":-123.151573},"type":"Feature","geometry":{"type":"Point","coordinates":[-123.151573,49.269005]}},{"properties":{"offence":"176E","tickets":136.0,"id":"a65jsk31cnhf","lat":49.263508,"address":"3750 10th Ave W.","long":-123.186874},"type":"Feature","geometry":{"type":"Point","coordinates":[-123.186874,49.263508]}},{"properties":{"offence":"176E","tickets":137.0,"id":"a65jsjzxbmp5","lat":49.263824,"address":"2150 Broadway St. W.","long":-123.154121},"type":"Feature","geometry":{"type":"Point","coordinates":[-123.154121,49.263824]}},{"properties":{"offence":"176E","tickets":138.0,"id":"a65jsjp9bj6z","lat":49.25658,"address":"3250 Willow St.","long":-123.122047},"type":"Feature","geometry":{"type":"Point","coordinates":[-123.122047,49.25658]}},{"properties":{"offence":"176E","tickets":138.0,"id":"a65jsjwxu4vq","lat":49.288689,"address":"950 Bidwell St.","long":-123.136536},"type":"Feature","geometry":{"type":"Point","coordinates":[-123.136536,49.288689]}},{"properties":{"offence":"176E","tickets":139.0,"id":"a65jsjp01z08","lat":49.290981,"address":"1750 Robson St.","long":-123.134697},"type":"Feature","geometry":{"type":"Point","coordinates":[-123.134697,49.290981]}},{"properties":{"offence":"176E","tickets":142.0,"id":"a65jsjp03mf0","lat":49.257004,"address":"750 16th Ave W.","long":-123.121101},"type":"Feature","geometry":{"type":"Point","coordinates":[-123.121101,49.257004]}},{"properties":{"offence":"176E","tickets":143.0,"id":"a65jsjrt6i5w","lat":49.280746,"address":"450 Jackson Ave.","long":-123.093452},"type":"Feature","geometry":{"type":"Point","coordinates":[-123.093452,49.280746]}},{"properties":{"offence":"176E","tickets":144.0,"id":"a65jsk4xh5fv","lat":49.283424,"address":"1550 Harwood St.","long":-123.140221},"type":"Feature","geometry":{"type":"Point","coordinates":[-123.140221,49.283424]}},{"properties":{"offence":"176E","tickets":145.0,"id":"a65jsjpp60hd","lat":49.259956,"address":"2850 Ash St.","long":-123.117645},"type":"Feature","geometry":{"type":"Point","coordinates":[-123.117645,49.259956]}},{"properties":{"offence":"176E","tickets":146.0,"id":"a65jsjpc3bez","lat":49.260822,"address":"1550 12th Ave W.","long":-123.139961},"type":"Feature","geometry":{"type":"Point","coordinates":[-123.139961,49.260822]}},{"properties":{"offence":"176E","tickets":148.0,"id":"a65jsk5hmz22","lat":49.26667,"address":"1050 Sitka Sq.","long":-123.12896},"type":"Feature","geometry":{"type":"Point","coordinates":[-123.12896,49.26667]}},{"properties":{"offence":"176E","tickets":149.0,"id":"a65jsk4e7vog","lat":49.265583,"address":"50 6th Ave W.","long":-123.105766},"type":"Feature","geometry":{"type":"Point","coordinates":[-123.105766,49.265583]}},{"properties":{"offence":"176E","tickets":149.0,"id":"a65jsjrwbxlh","lat":49.272125,"address":"1550 Yew St.","long":-123.154999},"type":"Feature","geometry":{"type":"Point","coordinates":[-123.154999,49.272125]}},{"properties":{"offence":"176E","tickets":150.0,"id":"a65jsjuafb8n","lat":49.284,"address":"450 Alexander St.","long":-123.094276},"type":"Feature","geometry":{"type":"Point","coordinates":[-123.094276,49.284]}},{"properties":{"offence":"176E","tickets":150.0,"id":"a65jsjpzuz9c","lat":49.269402,"address":"1750 Cook St.","long":-123.110382},"type":"Feature","geometry":{"type":"Point","coordinates":[-123.110382,49.269402]}},{"properties":{"offence":"176E","tickets":151.0,"id":"a65jsjtrgrbo","lat":49.279911,"address":"1250 Beach Ave.","long":-123.137756},"type":"Feature","geometry":{"type":"Point","coordinates":[-123.137756,49.279911]}},{"properties":{"offence":"176E","tickets":153.0,"id":"a65jsjyqxe2w","lat":49.204285,"address":"1250 73rd Ave W.","long":-123.134125},"type":"Feature","geometry":{"type":"Point","coordinates":[-123.134125,49.204285]}},{"properties":{"offence":"176E","tickets":153.0,"id":"a65jsjxysswh","lat":49.235226,"address":"5650 Dunbar St.","long":-123.18531},"type":"Feature","geometry":{"type":"Point","coordinates":[-123.18531,49.235226]}},{"properties":{"offence":"176E","tickets":154.0,"id":"a65jsk2aywn0","lat":49.203758,"address":"8950 Hudson St.","long":-123.134766},"type":"Feature","geometry":{"type":"Point","coordinates":[-123.134766,49.203758]}},{"properties":{"offence":"176E","tickets":154.0,"id":"a65jsjri235o","lat":49.28183,"address":"1350 Harwood St.","long":-123.137733},"type":"Feature","geometry":{"type":"Point","coordinates":[-123.137733,49.28183]}},{"properties":{"offence":"176E","tickets":155.0,"id":"a65jsk4vnyul","lat":49.268223,"address":"150 3rd Ave E.","long":-123.101547},"type":"Feature","geometry":{"type":"Point","coordinates":[-123.101547,49.268223]}},{"properties":{"offence":"176E","tickets":157.0,"id":"a65jsjpb2acf","lat":49.287193,"address":"850 Broughton St.","long":-123.131027},"type":"Feature","geometry":{"type":"Point","coordinates":[-123.131027,49.287193]}},{"properties":{"offence":"176E","tickets":163.0,"id":"a65jsjrww88z","lat":49.265427,"address":"2250 Ash St.","long":-123.117432},"type":"Feature","geometry":{"type":"Point","coordinates":[-123.117432,49.265427]}},{"properties":{"offence":"176E","tickets":163.0,"id":"a65jsjxzvd0s","lat":49.283848,"address":"1250 Nicola St.","long":-123.138397},"type":"Feature","geometry":{"type":"Point","coordinates":[-123.138397,49.283848]}},{"properties":{"offence":"176E","tickets":164.0,"id":"a65jsjwhq1gg","lat":49.264797,"address":"350 7th Ave W.","long":-123.111885},"type":"Feature","geometry":{"type":"Point","coordinates":[-123.111885,49.264797]}},{"properties":{"offence":"176E","tickets":164.0,"id":"a65jsk3lgp0f","lat":49.264729,"address":"2350 Oak St.","long":-123.126556},"type":"Feature","geometry":{"type":"Point","coordinates":[-123.126556,49.264729]}},{"properties":{"offence":"176E","tickets":166.0,"id":"a65jsjv9oqyo","lat":49.274883,"address":"250 National Ave.","long":-123.098839},"type":"Feature","geometry":{"type":"Point","coordinates":[-123.098839,49.274883]}},{"properties":{"offence":"176E","tickets":169.0,"id":"a65jsjt9a14x","lat":49.22065,"address":"7050 Ontario St.","long":-123.106087},"type":"Feature","geometry":{"type":"Point","coordinates":[-123.106087,49.22065]}},{"properties":{"offence":"176E","tickets":171.0,"id":"a65jsk4jy8jb","lat":49.261749,"address":"1650 11th Ave W.","long":-123.142303},"type":"Feature","geometry":{"type":"Point","coordinates":[-123.142303,49.261749]}},{"properties":{"offence":"176E","tickets":174.0,"id":"a65jsk42o0lm","lat":49.263882,"address":"2250 Broadway St. W.","long":-123.156509},"type":"Feature","geometry":{"type":"Point","coordinates":[-123.156509,49.263882]}},{"properties":{"offence":"176E","tickets":178.0,"id":"a65jsjreh95n","lat":49.259727,"address":"1250 13th Ave W.","long":-123.132721},"type":"Feature","geometry":{"type":"Point","coordinates":[-123.132721,49.259727]}},{"properties":{"offence":"176E","tickets":179.0,"id":"a65jsk2uvm4y","lat":49.276806,"address":"1350 Hornby St.","long":-123.130569},"type":"Feature","geometry":{"type":"Point","coordinates":[-123.130569,49.276806]}},{"properties":{"offence":"176E","tickets":181.0,"id":"a65jsjxo4uuz","lat":49.283512,"address":"1350 Cardero St.","long":-123.141174},"type":"Feature","geometry":{"type":"Point","coordinates":[-123.141174,49.283512]}},{"properties":{"offence":"176E","tickets":183.0,"id":"a65jsjy20xfs","lat":49.264629,"address":"2350 Heather St.","long":-123.11982},"type":"Feature","geometry":{"type":"Point","coordinates":[-123.11982,49.264629]}},{"properties":{"offence":"176E","tickets":183.0,"id":"a65jsjyhys6j","lat":49.293034,"address":"850 Chilco St.","long":-123.138916},"type":"Feature","geometry":{"type":"Point","coordinates":[-123.138916,49.293034]}},{"properties":{"offence":"176E","tickets":184.0,"id":"a65jsk408i92","lat":49.274715,"address":"1250 Homer St.","long":-123.124077},"type":"Feature","geometry":{"type":"Point","coordinates":[-123.124077,49.274715]}},{"properties":{"offence":"176E","tickets":185.0,"id":"a65jsjvyhatd","lat":49.286919,"address":"1150 Bidwell St.","long":-123.139206},"type":"Feature","geometry":{"type":"Point","coordinates":[-123.139206,49.286919]}},{"properties":{"offence":"176E","tickets":187.0,"id":"a65jsjxzwboa","lat":49.261505,"address":"2150 Salal Dr.","long":-123.154579},"type":"Feature","geometry":{"type":"Point","coordinates":[-123.154579,49.261505]}},{"properties":{"offence":"176E","tickets":188.0,"id":"a65jsjt5bn5g","lat":49.236191,"address":"5250 Melbourne St.","long":-123.028511},"type":"Feature","geometry":{"type":"Point","coordinates":[-123.028511,49.236191]}},{"properties":{"offence":"176E","tickets":188.0,"id":"a65jsk27aron","lat":49.232635,"address":"5650 Wessex St.","long":-123.034592},"type":"Feature","geometry":{"type":"Point","coordinates":[-123.034592,49.232635]}},{"properties":{"offence":"176E","tickets":188.0,"id":"a65jsk0zii72","lat":49.26474,"address":"2050 8th Ave W.","long":-123.151825},"type":"Feature","geometry":{"type":"Point","coordinates":[-123.151825,49.26474]}},{"properties":{"offence":"176E","tickets":189.0,"id":"a65jsjy9hzig","lat":49.264233,"address":"2350 Manitoba St.","long":-123.106796},"type":"Feature","geometry":{"type":"Point","coordinates":[-123.106796,49.264233]}},{"properties":{"offence":"176E","tickets":190.0,"id":"a65jsjpa9o7u","lat":49.283272,"address":"1350 Davie St.","long":-123.135628},"type":"Feature","geometry":{"type":"Point","coordinates":[-123.135628,49.283272]}},{"properties":{"offence":"176E","tickets":192.0,"id":"a65jsjr09jhg","lat":49.281788,"address":"1050 Thurlow St.","long":-123.129105},"type":"Feature","geometry":{"type":"Point","coordinates":[-123.129105,49.281788]}},{"properties":{"offence":"176E","tickets":193.0,"id":"a65jsjr0dx9r","lat":49.258022,"address":"1550 15th Ave W.","long":-123.140015},"type":"Feature","geometry":{"type":"Point","coordinates":[-123.140015,49.258022]}},{"properties":{"offence":"176E","tickets":195.0,"id":"a65jsk4w26nj","lat":49.264839,"address":"2350 Birch St.","long":-123.133675},"type":"Feature","geometry":{"type":"Point","coordinates":[-123.133675,49.264839]}},{"properties":{"offence":"176E","tickets":195.0,"id":"a65jsk23g3l2","lat":49.280888,"address":"1250 Harwood St.","long":-123.136284},"type":"Feature","geometry":{"type":"Point","coordinates":[-123.136284,49.280888]}},{"properties":{"offence":"176E","tickets":196.0,"id":"a65jsjvteez2","lat":49.273811,"address":"1250 Quebec St.","long":-123.101669},"type":"Feature","geometry":{"type":"Point","coordinates":[-123.101669,49.273811]}},{"properties":{"offence":"176E","tickets":197.0,"id":"a65jsjv2mlco","lat":49.26926,"address":"50 2nd Ave W.","long":-123.105614},"type":"Feature","geometry":{"type":"Point","coordinates":[-123.105614,49.26926]}},{"properties":{"offence":"176E","tickets":197.0,"id":"a65jsjwq028q","lat":49.270725,"address":"1950 1st Ave W.","long":-123.149124},"type":"Feature","geometry":{"type":"Point","coordinates":[-123.149124,49.270725]}},{"properties":{"offence":"176E","tickets":198.0,"id":"a65jsk3i0tk4","lat":49.23362,"address":"2150 42nd Ave W.","long":-123.157082},"type":"Feature","geometry":{"type":"Point","coordinates":[-123.157082,49.23362]}},{"properties":{"offence":"176E","tickets":199.0,"id":"a65jsjw7689n","lat":49.268597,"address":"3650 4th Ave W.","long":-123.184677},"type":"Feature","geometry":{"type":"Point","coordinates":[-123.184677,49.268597]}},{"properties":{"offence":"176E","tickets":201.0,"id":"a65jsjq1ms9w","lat":49.236988,"address":"5150 Gaston St.","long":-123.030296},"type":"Feature","geometry":{"type":"Point","coordinates":[-123.030296,49.236988]}},{"properties":{"offence":"176E","tickets":201.0,"id":"a65jsjw3i6t5","lat":49.284653,"address":"1350 Comox St.","long":-123.133514},"type":"Feature","geometry":{"type":"Point","coordinates":[-123.133514,49.284653]}},{"properties":{"offence":"176E","tickets":202.0,"id":"a65jsjslzu24","lat":49.258938,"address":"1550 14th Ave W.","long":-123.139992},"type":"Feature","geometry":{"type":"Point","coordinates":[-123.139992,49.258938]}},{"properties":{"offence":"176E","tickets":202.0,"id":"a65jsk15asw6","lat":49.288475,"address":"1850 Pendrell St.","long":-123.141548},"type":"Feature","geometry":{"type":"Point","coordinates":[-123.141548,49.288475]}},{"properties":{"offence":"176E","tickets":205.0,"id":"a65jsjwvtg2q","lat":49.257416,"address":"3150 Laurel St.","long":-123.124374},"type":"Feature","geometry":{"type":"Point","coordinates":[-123.124374,49.257416]}},{"properties":{"offence":"176E","tickets":212.0,"id":"a65jsjxxfnrz","lat":49.275822,"address":"650 Drake St.","long":-123.12735},"type":"Feature","geometry":{"type":"Point","coordinates":[-123.12735,49.275822]}},{"properties":{"offence":"176E","tickets":212.0,"id":"a65jsk415pzq","lat":49.277061,"address":"850 Drake St.","long":-123.129265},"type":"Feature","geometry":{"type":"Point","coordinates":[-123.129265,49.277061]}},{"properties":{"offence":"176E","tickets":215.0,"id":"a65jsjsj3fzw","lat":49.283974,"address":"1350 Pendrell St.","long":-123.134575},"type":"Feature","geometry":{"type":"Point","coordinates":[-123.134575,49.283974]}},{"properties":{"offence":"176E","tickets":218.0,"id":"a65jsjp9bd5t","lat":49.291538,"address":"1950 Barclay St.","long":-123.139832},"type":"Feature","geometry":{"type":"Point","coordinates":[-123.139832,49.291538]}},{"properties":{"offence":"176E","tickets":218.0,"id":"a65jsk5f6hkj","lat":49.262695,"address":"1650 10th Ave W.","long":-123.142288},"type":"Feature","geometry":{"type":"Point","coordinates":[-123.142288,49.262695]}},{"properties":{"offence":"176E","tickets":219.0,"id":"a65jsjpsu842","lat":49.286446,"address":"1650 Pendrell St.","long":-123.138382},"type":"Feature","geometry":{"type":"Point","coordinates":[-123.138382,49.286446]}},{"properties":{"offence":"176E","tickets":222.0,"id":"a65jsjy0z0uz","lat":49.274162,"address":"1150 Station St.","long":-123.098564},"type":"Feature","geometry":{"type":"Point","coordinates":[-123.098564,49.274162]}},{"properties":{"offence":"176E","tickets":225.0,"id":"a65jsjy5iio6","lat":49.275684,"address":"950 Beach Ave.","long":-123.13327},"type":"Feature","geometry":{"type":"Point","coordinates":[-123.13327,49.275684]}},{"properties":{"offence":"176E","tickets":226.0,"id":"a65jsjtxyfka","lat":49.26897,"address":"1950 3rd Ave W.","long":-123.149178},"type":"Feature","geometry":{"type":"Point","coordinates":[-123.149178,49.26897]}},{"properties":{"offence":"176E","tickets":229.0,"id":"a65jsjt6j09z","lat":49.284885,"address":"450 Railway St.","long":-123.094231},"type":"Feature","geometry":{"type":"Point","coordinates":[-123.094231,49.284885]}},{"properties":{"offence":"176E","tickets":229.0,"id":"a65jsjx7mpn1","lat":49.264103,"address":"2350 Scotia St.","long":-123.098923},"type":"Feature","geometry":{"type":"Point","coordinates":[-123.098923,49.264103]}},{"properties":{"offence":"176E","tickets":230.0,"id":"a65jsjwyja7p","lat":49.237354,"address":"3450 Vanness Ave.","long":-123.029915},"type":"Feature","geometry":{"type":"Point","coordinates":[-123.029915,49.237354]}},{"properties":{"offence":"176E","tickets":232.0,"id":"a65jsjw1r6wg","lat":49.267361,"address":"50 4th Ave E.","long":-123.103752},"type":"Feature","geometry":{"type":"Point","coordinates":[-123.103752,49.267361]}},{"properties":{"offence":"176E","tickets":236.0,"id":"a65jsjwud81c","lat":49.23381,"address":"5550 Ormidale St.","long":-123.024818},"type":"Feature","geometry":{"type":"Point","coordinates":[-123.024818,49.23381]}},{"properties":{"offence":"176E","tickets":237.0,"id":"a65jsjzdxbcu","lat":49.267269,"address":"550 Commodore Rd.","long":-123.1166},"type":"Feature","geometry":{"type":"Point","coordinates":[-123.1166,49.267269]}},{"properties":{"offence":"176E","tickets":237.0,"id":"a65jsjxxavof","lat":49.261074,"address":"2750 Oak St.","long":-123.126694},"type":"Feature","geometry":{"type":"Point","coordinates":[-123.126694,49.261074]}},{"properties":{"offence":"176E","tickets":239.0,"id":"a65jsjp7nmfu","lat":49.265141,"address":"950 7th Ave W.","long":-123.125351},"type":"Feature","geometry":{"type":"Point","coordinates":[-123.125351,49.265141]}},{"properties":{"offence":"176E","tickets":243.0,"id":"a65jsk5aw7uk","lat":49.285583,"address":"1250 Bidwell St.","long":-123.141212},"type":"Feature","geometry":{"type":"Point","coordinates":[-123.141212,49.285583]}},{"properties":{"offence":"176E","tickets":246.0,"id":"a65jsk58zbja","lat":49.289444,"address":"1950 Pendrell St.","long":-123.143021},"type":"Feature","geometry":{"type":"Point","coordinates":[-123.143021,49.289444]}},{"properties":{"offence":"176E","tickets":249.0,"id":"a65jsjrzf35l","lat":49.288548,"address":"1650 Barclay St.","long":-123.135193},"type":"Feature","geometry":{"type":"Point","coordinates":[-123.135193,49.288548]}},{"properties":{"offence":"176E","tickets":251.0,"id":"a65jsjxh792g","lat":49.283203,"address":"950 Thurlow St.","long":-123.126961},"type":"Feature","geometry":{"type":"Point","coordinates":[-123.126961,49.283203]}},{"properties":{"offence":"176E","tickets":253.0,"id":"a65jsjp4m8ch","lat":49.266617,"address":"350 5th Ave W.","long":-123.111794},"type":"Feature","geometry":{"type":"Point","coordinates":[-123.111794,49.266617]}},{"properties":{"offence":"176E","tickets":253.0,"id":"a65jsjwxqycj","lat":49.274029,"address":"550 Pacific St.","long":-123.127975},"type":"Feature","geometry":{"type":"Point","coordinates":[-123.127975,49.274029]}},{"properties":{"offence":"176E","tickets":254.0,"id":"a65jsk2q3nvc","lat":49.262657,"address":"1550 10th Ave W.","long":-123.139847},"type":"Feature","geometry":{"type":"Point","coordinates":[-123.139847,49.262657]}},{"properties":{"offence":"176E","tickets":256.0,"id":"a65jsjzjw86n","lat":49.236458,"address":"3550 Vanness Ave.","long":-123.027962},"type":"Feature","geometry":{"type":"Point","coordinates":[-123.027962,49.236458]}},{"properties":{"offence":"176E","tickets":256.0,"id":"a65jsjwlqkyz","lat":49.259541,"address":"750 13th Ave W.","long":-123.12101},"type":"Feature","geometry":{"type":"Point","coordinates":[-123.12101,49.259541]}},{"properties":{"offence":"176E","tickets":258.0,"id":"a65jsjzesdx0","lat":49.259129,"address":"2950 Laurel St.","long":-123.124344},"type":"Feature","geometry":{"type":"Point","coordinates":[-123.124344,49.259129]}},{"properties":{"offence":"176E","tickets":261.0,"id":"a65jsjxnkm7w","lat":49.259464,"address":"550 13th Ave W.","long":-123.116386},"type":"Feature","geometry":{"type":"Point","coordinates":[-123.116386,49.259464]}},{"properties":{"offence":"176E","tickets":264.0,"id":"a65jsjtv04yq","lat":49.262463,"address":"1050 10th Ave W.","long":-123.127869},"type":"Feature","geometry":{"type":"Point","coordinates":[-123.127869,49.262463]}},{"properties":{"offence":"176E","tickets":267.0,"id":"a65jsjq4b1yo","lat":49.257877,"address":"3050 Willow St.","long":-123.122047},"type":"Feature","geometry":{"type":"Point","coordinates":[-123.122047,49.257877]}},{"properties":{"offence":"176E","tickets":267.0,"id":"a65jsjrtg2na","lat":49.290962,"address":"2050 Comox St.","long":-123.143227},"type":"Feature","geometry":{"type":"Point","coordinates":[-123.143227,49.290962]}},{"properties":{"offence":"176E","tickets":269.0,"id":"a65jsjysice7","lat":49.287128,"address":"1650 Comox St.","long":-123.137344},"type":"Feature","geometry":{"type":"Point","coordinates":[-123.137344,49.287128]}},{"properties":{"offence":"176E","tickets":272.0,"id":"a65jsjvdtqv2","lat":49.288338,"address":"1550 Haro St.","long":-123.132759},"type":"Feature","geometry":{"type":"Point","coordinates":[-123.132759,49.288338]}},{"properties":{"offence":"176E","tickets":277.0,"id":"a65jsk2a53ai","lat":49.274708,"address":"650 Pacific St.","long":-123.129044},"type":"Feature","geometry":{"type":"Point","coordinates":[-123.129044,49.274708]}},{"properties":{"offence":"176E","tickets":279.0,"id":"a65jsk2rnhb3","lat":49.258621,"address":"750 14th Ave W.","long":-123.121063},"type":"Feature","geometry":{"type":"Point","coordinates":[-123.121063,49.258621]}},{"properties":{"offence":"176E","tickets":281.0,"id":"a65jsjz17pbi","lat":49.235577,"address":"2150 40th Ave W.","long":-123.156662},"type":"Feature","geometry":{"type":"Point","coordinates":[-123.156662,49.235577]}},{"properties":{"offence":"176E","tickets":293.0,"id":"a65jsjqlqap6","lat":49.261795,"address":"1750 11th Ave W.","long":-123.144661},"type":"Feature","geometry":{"type":"Point","coordinates":[-123.144661,49.261795]}},{"properties":{"offence":"176E","tickets":296.0,"id":"a65jsjxhb8ec","lat":49.23278,"address":"5650 Ormidale St.","long":-123.024803},"type":"Feature","geometry":{"type":"Point","coordinates":[-123.024803,49.23278]}},{"properties":{"offence":"176E","tickets":300.0,"id":"a65jsjqvkmm3","lat":49.284451,"address":"1050 Jervis St.","long":-123.132408},"type":"Feature","geometry":{"type":"Point","coordinates":[-123.132408,49.284451]}},{"properties":{"offence":"176E","tickets":301.0,"id":"a65jsjule600","lat":49.269737,"address":"1750 Columbia St.","long":-123.109413},"type":"Feature","geometry":{"type":"Point","coordinates":[-123.109413,49.269737]}},{"properties":{"offence":"176E","tickets":301.0,"id":"a65jsk1xtzix","lat":49.276138,"address":"750 Rolston Cres.","long":-123.128761},"type":"Feature","geometry":{"type":"Point","coordinates":[-123.128761,49.276138]}},{"properties":{"offence":"176E","tickets":304.0,"id":"a65jsjzktj6m","lat":49.265152,"address":"2350 Maple St.","long":-123.15049},"type":"Feature","geometry":{"type":"Point","coordinates":[-123.15049,49.265152]}},{"properties":{"offence":"176E","tickets":306.0,"id":"a65jsjs23dye","lat":49.265175,"address":"1050 7th Ave W.","long":-123.127769},"type":"Feature","geometry":{"type":"Point","coordinates":[-123.127769,49.265175]}},{"properties":{"offence":"176E","tickets":307.0,"id":"a65jsk4g0wu3","lat":49.29221,"address":"1950 Haro St.","long":-123.138725},"type":"Feature","geometry":{"type":"Point","coordinates":[-123.138725,49.29221]}},{"properties":{"offence":"176E","tickets":309.0,"id":"a65jsjyc8j4m","lat":49.235844,"address":"3550 Crowley Dr.","long":-123.028854},"type":"Feature","geometry":{"type":"Point","coordinates":[-123.028854,49.235844]}},{"properties":{"offence":"176E","tickets":309.0,"id":"a65jsk4y682x","lat":49.263371,"address":"2550 Yew St.","long":-123.155312},"type":"Feature","geometry":{"type":"Point","coordinates":[-123.155312,49.263371]}},{"properties":{"offence":"176E","tickets":310.0,"id":"a65jsk4i6xmt","lat":49.28397,"address":"550 Alexander St.","long":-123.092407},"type":"Feature","geometry":{"type":"Point","coordinates":[-123.092407,49.28397]}},{"properties":{"offence":"176E","tickets":310.0,"id":"a65jsk0u7tj7","lat":49.257793,"address":"950 15th Ave W.","long":-123.125725},"type":"Feature","geometry":{"type":"Point","coordinates":[-123.125725,49.257793]}},{"properties":{"offence":"176E","tickets":314.0,"id":"a65jsk3iy35l","lat":49.278419,"address":"750 Abbott St.","long":-123.107635},"type":"Feature","geometry":{"type":"Point","coordinates":[-123.107635,49.278419]}},{"properties":{"offence":"176E","tickets":316.0,"id":"a65jsjt3bi1l","lat":49.278454,"address":"1150 Beach Ave.","long":-123.136292},"type":"Feature","geometry":{"type":"Point","coordinates":[-123.136292,49.278454]}},{"properties":{"offence":"176E","tickets":317.0,"id":"a65jsjx73lt0","lat":49.264648,"address":"2350 Willow St.","long":-123.12178},"type":"Feature","geometry":{"type":"Point","coordinates":[-123.12178,49.264648]}},{"properties":{"offence":"176E","tickets":327.0,"id":"a65jsjrtbyr4","lat":49.265285,"address":"1350 7th Ave W.","long":-123.134857},"type":"Feature","geometry":{"type":"Point","coordinates":[-123.134857,49.265285]}},{"properties":{"offence":"176E","tickets":333.0,"id":"a65jsk3px3a2","lat":49.289192,"address":"1850 Comox St.","long":-123.140495},"type":"Feature","geometry":{"type":"Point","coordinates":[-123.140495,49.289192]}},{"properties":{"offence":"176E","tickets":336.0,"id":"a65jsjyslup0","lat":49.259575,"address":"850 13th Ave W.","long":-123.123184},"type":"Feature","geometry":{"type":"Point","coordinates":[-123.123184,49.259575]}},{"properties":{"offence":"176E","tickets":338.0,"id":"a65jsjslj2v0","lat":49.290585,"address":"1850 Barclay St.","long":-123.138351},"type":"Feature","geometry":{"type":"Point","coordinates":[-123.138351,49.290585]}},{"properties":{"offence":"176E","tickets":343.0,"id":"a65jsjtlrebc","lat":49.265072,"address":"750 7th Ave W.","long":-123.120811},"type":"Feature","geometry":{"type":"Point","coordinates":[-123.120811,49.265072]}},{"properties":{"offence":"176E","tickets":349.0,"id":"a65jsjsjjlap","lat":49.264412,"address":"1250 8th Ave W.","long":-123.132523},"type":"Feature","geometry":{"type":"Point","coordinates":[-123.132523,49.264412]}},{"properties":{"offence":"176E","tickets":350.0,"id":"a65jsk4po1g9","lat":49.264805,"address":"2350 Alder St.","long":-123.131294},"type":"Feature","geometry":{"type":"Point","coordinates":[-123.131294,49.264805]}},{"properties":{"offence":"176E","tickets":351.0,"id":"a65jsk3ja2x3","lat":49.283695,"address":"50 Water St.","long":-123.105286},"type":"Feature","geometry":{"type":"Point","coordinates":[-123.105286,49.283695]}},{"properties":{"offence":"176E","tickets":352.0,"id":"a65jsju8coot","lat":49.257725,"address":"750 15th Ave W.","long":-123.121574},"type":"Feature","geometry":{"type":"Point","coordinates":[-123.121574,49.257725]}},{"properties":{"offence":"176E","tickets":353.0,"id":"a65jsjyernis","lat":49.25951,"address":"650 13th Ave W.","long":-123.118851},"type":"Feature","geometry":{"type":"Point","coordinates":[-123.118851,49.25951]}},{"properties":{"offence":"176E","tickets":353.0,"id":"a65jsjxifeqs","lat":49.259655,"address":"1050 13th Ave W.","long":-123.127953},"type":"Feature","geometry":{"type":"Point","coordinates":[-123.127953,49.259655]}},{"properties":{"offence":"176E","tickets":361.0,"id":"a65jsk3bzncw","lat":49.20499,"address":"8850 Hudson St.","long":-123.13472},"type":"Feature","geometry":{"type":"Point","coordinates":[-123.13472,49.20499]}},{"properties":{"offence":"176E","tickets":362.0,"id":"a65jsjru837m","lat":49.279694,"address":"1150 Harwood St.","long":-123.13443},"type":"Feature","geometry":{"type":"Point","coordinates":[-123.13443,49.279694]}},{"properties":{"offence":"176E","tickets":365.0,"id":"a65jsjst3ann","lat":49.263783,"address":"50 8th Ave W.","long":-123.105827},"type":"Feature","geometry":{"type":"Point","coordinates":[-123.105827,49.263783]}},{"properties":{"offence":"176E","tickets":369.0,"id":"a65jsjsmcea2","lat":49.268192,"address":"1450 Lamey's Mill Rd.","long":-123.136734},"type":"Feature","geometry":{"type":"Point","coordinates":[-123.136734,49.268192]}},{"properties":{"offence":"176E","tickets":372.0,"id":"a65jsjr9vs46","lat":49.258812,"address":"650 14th Ave W.","long":-123.118904},"type":"Feature","geometry":{"type":"Point","coordinates":[-123.118904,49.258812]}},{"properties":{"offence":"176E","tickets":373.0,"id":"a65jsjpfk0xq","lat":49.29126,"address":"1850 Haro St.","long":-123.137268},"type":"Feature","geometry":{"type":"Point","coordinates":[-123.137268,49.29126]}},{"properties":{"offence":"176E","tickets":374.0,"id":"a65jsjqb584t","lat":49.2658,"address":"550 6th Ave W.","long":-123.1157},"type":"Feature","geometry":{"type":"Point","coordinates":[-123.1157,49.2658]}},{"properties":{"offence":"176E","tickets":381.0,"id":"a65jsjurlwse","lat":49.290279,"address":"1750 Haro St.","long":-123.135742},"type":"Feature","geometry":{"type":"Point","coordinates":[-123.135742,49.290279]}},{"properties":{"offence":"176E","tickets":384.0,"id":"a65jsjsgim2w","lat":49.292088,"address":"1650 Bayshore Dr.","long":-123.130791},"type":"Feature","geometry":{"type":"Point","coordinates":[-123.130791,49.292088]}},{"properties":{"offence":"176E","tickets":386.0,"id":"a65jsk0nvecb","lat":49.261723,"address":"1550 11th Ave W.","long":-123.139854},"type":"Feature","geometry":{"type":"Point","coordinates":[-123.139854,49.261723]}},{"properties":{"offence":"176E","tickets":388.0,"id":"a65jsjyipl97","lat":49.263214,"address":"1650 8th Ave E.","long":-123.070648},"type":"Feature","geometry":{"type":"Point","coordinates":[-123.070648,49.263214]}},{"properties":{"offence":"176E","tickets":388.0,"id":"a65jsjx0vqbf","lat":49.259132,"address":"2950 Ash St.","long":-123.117683},"type":"Feature","geometry":{"type":"Point","coordinates":[-123.117683,49.259132]}},{"properties":{"offence":"176E","tickets":393.0,"id":"a65jsjtfnke6","lat":49.281601,"address":"1250 Burnaby St.","long":-123.135246},"type":"Feature","geometry":{"type":"Point","coordinates":[-123.135246,49.281601]}},{"properties":{"offence":"176E","tickets":395.0,"id":"a65jsjyiuq9y","lat":49.266735,"address":"650 Moberly Rd.","long":-123.119209},"type":"Feature","geometry":{"type":"Point","coordinates":[-123.119209,49.266735]}},{"properties":{"offence":"176E","tickets":401.0,"id":"a65jsk10smft","lat":49.265213,"address":"1150 7th Ave W.","long":-123.130135},"type":"Feature","geometry":{"type":"Point","coordinates":[-123.130135,49.265213]}},{"properties":{"offence":"176E","tickets":404.0,"id":"a65jsk0109tw","lat":49.275444,"address":"650 Rolston Cres.","long":-123.127754},"type":"Feature","geometry":{"type":"Point","coordinates":[-123.127754,49.275444]}},{"properties":{"offence":"176E","tickets":409.0,"id":"a65jsjsh15ij","lat":49.259174,"address":"2950 Heather St.","long":-123.120018},"type":"Feature","geometry":{"type":"Point","coordinates":[-123.120018,49.259174]}},{"properties":{"offence":"176E","tickets":423.0,"id":"a65jsk1l17nf","lat":49.265251,"address":"1250 7th Ave W.","long":-123.132492},"type":"Feature","geometry":{"type":"Point","coordinates":[-123.132492,49.265251]}},{"properties":{"offence":"176E","tickets":428.0,"id":"a65jsjsdzzn7","lat":49.291962,"address":"950 Chilco St.","long":-123.140526},"type":"Feature","geometry":{"type":"Point","coordinates":[-123.140526,49.291962]}},{"properties":{"offence":"176E","tickets":435.0,"id":"a65jsk0789rp","lat":49.2752,"address":"1450 Howe St.","long":-123.131157},"type":"Feature","geometry":{"type":"Point","coordinates":[-123.131157,49.2752]}},{"properties":{"offence":"176E","tickets":442.0,"id":"a65jsk1xc0df","lat":49.265102,"address":"850 7th Ave W.","long":-123.122963},"type":"Feature","geometry":{"type":"Point","coordinates":[-123.122963,49.265102]}},{"properties":{"offence":"176E","tickets":445.0,"id":"a65jsjuj17nb","lat":49.258217,"address":"3050 Laurel St.","long":-123.124359},"type":"Feature","geometry":{"type":"Point","coordinates":[-123.124359,49.258217]}},{"properties":{"offence":"176E","tickets":451.0,"id":"a65jsjs7jobg","lat":49.267483,"address":"350 4th Ave W.","long":-123.111443},"type":"Feature","geometry":{"type":"Point","coordinates":[-123.111443,49.267483]}},{"properties":{"offence":"176E","tickets":451.0,"id":"a65jsjqnhx1n","lat":49.285309,"address":"850 Bute St.","long":-123.128067},"type":"Feature","geometry":{"type":"Point","coordinates":[-123.128067,49.285309]}},{"properties":{"offence":"176E","tickets":452.0,"id":"a65jsk5ciz8a","lat":49.291985,"address":"1850 Robson St.","long":-123.136269},"type":"Feature","geometry":{"type":"Point","coordinates":[-123.136269,49.291985]}},{"properties":{"offence":"176E","tickets":467.0,"id":"a65jsk26b9sl","lat":49.292591,"address":"1750 Bayshore Dr.","long":-123.132362},"type":"Feature","geometry":{"type":"Point","coordinates":[-123.132362,49.292591]}},{"properties":{"offence":"176E","tickets":469.0,"id":"a65jsjzjimkc","lat":49.274899,"address":"150 National Ave.","long":-123.100998},"type":"Feature","geometry":{"type":"Point","coordinates":[-123.100998,49.274899]}},{"properties":{"offence":"176E","tickets":470.0,"id":"a65jsk3e7zqy","lat":49.27446,"address":"750 Beach Ave.","long":-123.131355},"type":"Feature","geometry":{"type":"Point","coordinates":[-123.131355,49.27446]}},{"properties":{"offence":"176E","tickets":472.0,"id":"a65jsjsem4gu","lat":49.262733,"address":"1750 10th Ave W.","long":-123.144653},"type":"Feature","geometry":{"type":"Point","coordinates":[-123.144653,49.262733]}},{"properties":{"offence":"176E","tickets":473.0,"id":"a65jsjudc8pp","lat":49.258759,"address":"550 14th Ave W.","long":-123.116089},"type":"Feature","geometry":{"type":"Point","coordinates":[-123.116089,49.258759]}},{"properties":{"offence":"176E","tickets":479.0,"id":"a65jsk1qb1i4","lat":49.284084,"address":"250 Alexander St.","long":-123.098648},"type":"Feature","geometry":{"type":"Point","coordinates":[-123.098648,49.284084]}},{"properties":{"offence":"176E","tickets":492.0,"id":"a65jsjq8v1zi","lat":49.286072,"address":"1350 Barclay St.","long":-123.131355},"type":"Feature","geometry":{"type":"Point","coordinates":[-123.131355,49.286072]}},{"properties":{"offence":"176E","tickets":502.0,"id":"a65jsjwzanjy","lat":49.261974,"address":"2650 Oak St.","long":-123.126663},"type":"Feature","geometry":{"type":"Point","coordinates":[-123.126663,49.261974]}},{"properties":{"offence":"176E","tickets":508.0,"id":"a65jsjz7nugl","lat":49.247597,"address":"4250 Willow St.","long":-123.122391},"type":"Feature","geometry":{"type":"Point","coordinates":[-123.122391,49.247597]}},{"properties":{"offence":"176E","tickets":510.0,"id":"a65jsjyxvpse","lat":49.283188,"address":"1050 Bute St.","long":-123.131256},"type":"Feature","geometry":{"type":"Point","coordinates":[-123.131256,49.283188]}},{"properties":{"offence":"176E","tickets":517.0,"id":"a65jsjuyummr","lat":49.278339,"address":"1050 Harwood St.","long":-123.132355},"type":"Feature","geometry":{"type":"Point","coordinates":[-123.132355,49.278339]}},{"properties":{"offence":"176E","tickets":520.0,"id":"a65jsjud94a7","lat":49.258698,"address":"950 14th Ave W.","long":-123.125587},"type":"Feature","geometry":{"type":"Point","coordinates":[-123.125587,49.258698]}},{"properties":{"offence":"176E","tickets":525.0,"id":"a65jsjzr538b","lat":49.26733,"address":"150 4th Ave E.","long":-123.101562},"type":"Feature","geometry":{"type":"Point","coordinates":[-123.101562,49.26733]}},{"properties":{"offence":"176E","tickets":528.0,"id":"a65jsk06iadt","lat":49.261547,"address":"1050 11th Ave W.","long":-123.127899},"type":"Feature","geometry":{"type":"Point","coordinates":[-123.127899,49.261547]}},{"properties":{"offence":"176E","tickets":528.0,"id":"a65jsjymi0qo","lat":49.289761,"address":"1550 Alberni St.","long":-123.130646},"type":"Feature","geometry":{"type":"Point","coordinates":[-123.130646,49.289761]}},{"properties":{"offence":"176E","tickets":530.0,"id":"a65jsjy2jrec","lat":49.269299,"address":"150 2nd Ave W.","long":-123.10804},"type":"Feature","geometry":{"type":"Point","coordinates":[-123.10804,49.269299]}},{"properties":{"offence":"176E","tickets":536.0,"id":"a65jsjyo1usd","lat":49.266285,"address":"1750 6th Ave W.","long":-123.144508},"type":"Feature","geometry":{"type":"Point","coordinates":[-123.144508,49.266285]}},{"properties":{"offence":"176E","tickets":537.0,"id":"a65jsk2xclth","lat":49.284622,"address":"1150 Haro St.","long":-123.126999},"type":"Feature","geometry":{"type":"Point","coordinates":[-123.126999,49.284622]}},{"properties":{"offence":"176E","tickets":551.0,"id":"a65jsjum9z87","lat":49.266556,"address":"150 5th Ave W.","long":-123.108093},"type":"Feature","geometry":{"type":"Point","coordinates":[-123.108093,49.266556]}},{"properties":{"offence":"176E","tickets":558.0,"id":"a65jsjv03td0","lat":49.277702,"address":"950 Drake St.","long":-123.130264},"type":"Feature","geometry":{"type":"Point","coordinates":[-123.130264,49.277702]}},{"properties":{"offence":"176E","tickets":562.0,"id":"a65jsjzaihii","lat":49.281796,"address":"1150 Pendrell St.","long":-123.131218},"type":"Feature","geometry":{"type":"Point","coordinates":[-123.131218,49.281796]}},{"properties":{"offence":"176E","tickets":565.0,"id":"a65jsjtqa4ux","lat":49.284889,"address":"50 Dunlevy Ave.","long":-123.095245},"type":"Feature","geometry":{"type":"Point","coordinates":[-123.095245,49.284889]}},{"properties":{"offence":"176E","tickets":593.0,"id":"a65jsjwfzmlg","lat":49.257751,"address":"850 15th Ave W.","long":-123.12323},"type":"Feature","geometry":{"type":"Point","coordinates":[-123.12323,49.257751]}},{"properties":{"offence":"176E","tickets":594.0,"id":"a65jsk27nrip","lat":49.28302,"address":"1250 Pendrell St.","long":-123.133141},"type":"Feature","geometry":{"type":"Point","coordinates":[-123.133141,49.28302]}},{"properties":{"offence":"176E","tickets":624.0,"id":"a65jsjrtjs10","lat":49.289814,"address":"750 Cardero St.","long":-123.131706},"type":"Feature","geometry":{"type":"Point","coordinates":[-123.131706,49.289814]}},{"properties":{"offence":"176E","tickets":628.0,"id":"a65jsjqr6tfd","lat":49.258656,"address":"850 14th Ave W.","long":-123.123215},"type":"Feature","geometry":{"type":"Point","coordinates":[-123.123215,49.258656]}},{"properties":{"offence":"176E","tickets":628.0,"id":"a65jsjsdp3eb","lat":49.290234,"address":"1450 Hastings St. W.","long":-123.127609},"type":"Feature","geometry":{"type":"Point","coordinates":[-123.127609,49.290234]}},{"properties":{"offence":"176E","tickets":654.0,"id":"a65jsjp45odo","lat":49.259083,"address":"2950 Willow St.","long":-123.122002},"type":"Feature","geometry":{"type":"Point","coordinates":[-123.122002,49.259083]}},{"properties":{"offence":"176E","tickets":658.0,"id":"a65jsjqw5ygn","lat":49.274536,"address":"1150 Quebec St.","long":-123.10183},"type":"Feature","geometry":{"type":"Point","coordinates":[-123.10183,49.274536]}},{"properties":{"offence":"176E","tickets":659.0,"id":"a65jsjwg2cvb","lat":49.262871,"address":"2150 10th Ave W.","long":-123.153725},"type":"Feature","geometry":{"type":"Point","coordinates":[-123.153725,49.262871]}},{"properties":{"offence":"176E","tickets":673.0,"id":"a65jsk59b4ai","lat":49.265038,"address":"650 7th Ave W.","long":-123.118652},"type":"Feature","geometry":{"type":"Point","coordinates":[-123.118652,49.265038]}},{"properties":{"offence":"176E","tickets":713.0,"id":"a65jsk56l4yy","lat":49.285137,"address":"1250 Barclay St.","long":-123.129883},"type":"Feature","geometry":{"type":"Point","coordinates":[-123.129883,49.285137]}},{"properties":{"offence":"176E","tickets":734.0,"id":"a65jsjrivfen","lat":49.281857,"address":"1050 Nelson St.","long":-123.12706},"type":"Feature","geometry":{"type":"Point","coordinates":[-123.12706,49.281857]}},{"properties":{"offence":"176E","tickets":735.0,"id":"a65jsjr726sy","lat":49.204964,"address":"8850 Selkirk St.","long":-123.13343},"type":"Feature","geometry":{"type":"Point","coordinates":[-123.13343,49.204964]}},{"properties":{"offence":"176E","tickets":738.0,"id":"a65jsk3cn056","lat":49.275066,"address":"850 Beach Ave.","long":-123.132294},"type":"Feature","geometry":{"type":"Point","coordinates":[-123.132294,49.275066]}},{"properties":{"offence":"176E","tickets":764.0,"id":"a65jsjphg6uq","lat":49.283943,"address":"1150 Barclay St.","long":-123.128036},"type":"Feature","geometry":{"type":"Point","coordinates":[-123.128036,49.283943]}},{"properties":{"offence":"176E","tickets":791.0,"id":"a65jsk0fyuc0","lat":49.284603,"address":"350 Railway St.","long":-123.096542},"type":"Feature","geometry":{"type":"Point","coordinates":[-123.096542,49.284603]}},{"properties":{"offence":"176E","tickets":803.0,"id":"a65jsk112947","lat":49.276611,"address":"950 Cambie St.","long":-123.117348},"type":"Feature","geometry":{"type":"Point","coordinates":[-123.117348,49.276611]}},{"properties":{"offence":"176E","tickets":837.0,"id":"a65jsjvlnqu9","lat":49.278194,"address":"50 Expo Boulevard","long":-123.106628},"type":"Feature","geometry":{"type":"Point","coordinates":[-123.106628,49.278194]}},{"properties":{"offence":"176E","tickets":886.0,"id":"a65jsjs2vurg","lat":49.280376,"address":"1150 Burnaby St.","long":-123.133369},"type":"Feature","geometry":{"type":"Point","coordinates":[-123.133369,49.280376]}},{"properties":{"offence":"176E","tickets":892.0,"id":"a65jsjtqdhsq","lat":49.28582,"address":"1250 Haro St.","long":-123.128822},"type":"Feature","geometry":{"type":"Point","coordinates":[-123.128822,49.28582]}},{"properties":{"offence":"176E","tickets":998.0,"id":"a65jsk55l201","lat":49.236931,"address":"3450 Crowley Dr.","long":-123.031334},"type":"Feature","geometry":{"type":"Point","coordinates":[-123.031334,49.236931]}},{"properties":{"offence":"176E","tickets":1081.0,"id":"a65jsjxfcw7w","lat":49.281151,"address":"1050 Comox St.","long":-123.128105},"type":"Feature","geometry":{"type":"Point","coordinates":[-123.128105,49.281151]}},{"properties":{"offence":"176E","tickets":1098.0,"id":"a65jsk1th146","lat":49.264992,"address":"550 7th Ave W.","long":-123.11618},"type":"Feature","geometry":{"type":"Point","coordinates":[-123.11618,49.264992]}},{"properties":{"offence":"176E","tickets":1139.0,"id":"a65jsjxydn4p","lat":49.277679,"address":"850 Cambie St.","long":-123.115791},"type":"Feature","geometry":{"type":"Point","coordinates":[-123.115791,49.277679]}},{"properties":{"offence":"176E","tickets":1149.0,"id":"a65jsk4w1te6","lat":49.289722,"address":"1350 Hastings St. W.","long":-123.125862},"type":"Feature","geometry":{"type":"Point","coordinates":[-123.125862,49.289722]}},{"properties":{"offence":"176E","tickets":1162.0,"id":"a65jsjulfolz","lat":49.27581,"address":"1450 Hornby St.","long":-123.13208},"type":"Feature","geometry":{"type":"Point","coordinates":[-123.13208,49.27581]}},{"properties":{"offence":"176E","tickets":1301.0,"id":"a65jsk1vyqou","lat":49.247162,"address":"850 27th Ave W.","long":-123.123619},"type":"Feature","geometry":{"type":"Point","coordinates":[-123.123619,49.247162]}},{"properties":{"offence":"176E","tickets":1461.0,"id":"a65jsk1tiqj9","lat":49.279022,"address":"1050 Burnaby St.","long":-123.131287},"type":"Feature","geometry":{"type":"Point","coordinates":[-123.131287,49.279022]}},{"properties":{"offence":"176E","tickets":1526.0,"id":"a65jsk0yk4r0","lat":49.265697,"address":"350 6th Ave W.","long":-123.111832},"type":"Feature","geometry":{"type":"Point","coordinates":[-123.111832,49.265697]}},{"properties":{"offence":"176E","tickets":2103.0,"id":"a65jsjsjfmdn","lat":49.289124,"address":"1250 Hastings St. W.","long":-123.123848},"type":"Feature","geometry":{"type":"Point","coordinates":[-123.123848,49.289124]}}],"is_temporal":false,"author":{"url":"http://www.vancouversun.com/parking/basic-search.html","metadata":"","contact_name":"","contact_address":"","source":"Vancouver Sun","contact_phone":""},"source":"http://www.vancouversun.com/parking/basic-search.html","pagination":{"sort":null,"start":0,"total":678,"limit":1000000},"state":"complete","tags":"parking,sun,the,vancouver","published":"2009-02-18T18:07:08Z","id":10410}