{"type":"FeatureCollection","data_type":"Dataset","url_type":null,"permissions":[{"permissions":{"download":true,"view":true},"group_id":"everyone"}],"classification":null,"title":"176E-ForMaggie","count":44,"stream_id":10415,"contributor":{"url":"http://geocommons.com/users/695","name":"Bill"},"data_attributes":null,"calculation_params":null,"icon_link":null,"link":"http://geocommons.com/overlays/10415.json","extent":[-123.154,49.205,-123.031,49.2902],"geometry_types":["point"],"unique_name":null,"name":"176E-ForMaggie","feature_count":44,"description":"","next_feature":null,"is_raster":false,"short_classification":"Y","stats":{"tickets":{"max":2103.0,"mean":786.340909090909,"variance":112914.183403806,"stdev":336.027057547165,"min":502.0,"median":659.0},"lat":{"max":49.290234,"mean":49.27191925,"variance":0.00026938253605233,"stdev":0.0164128771412062,"min":49.204964,"median":49.277679},"long":{"max":-123.031334,"mean":-123.121617863636,"variance":0.000332549306911176,"stdev":0.0182359344951438,"min":-123.153725,"median":-123.126663}},"features":[{"properties":{"offence":"176E","tickets":502.0,"id":"a673s6dgxd07","lat":49.261974,"address":"2650 Oak St.","long":-123.126663},"type":"Feature","geometry":{"type":"Point","coordinates":[-123.126663,49.261974]}},{"properties":{"offence":"176E","tickets":508.0,"id":"a673s6qtw3ti","lat":49.247597,"address":"4250 Willow St.","long":-123.122391},"type":"Feature","geometry":{"type":"Point","coordinates":[-123.122391,49.247597]}},{"properties":{"offence":"176E","tickets":510.0,"id":"a673s6p1il8z","lat":49.283188,"address":"1050 Bute St.","long":-123.131256},"type":"Feature","geometry":{"type":"Point","coordinates":[-123.131256,49.283188]}},{"properties":{"offence":"176E","tickets":517.0,"id":"a673s6cii6fd","lat":49.278339,"address":"1050 Harwood St.","long":-123.132355},"type":"Feature","geometry":{"type":"Point","coordinates":[-123.132355,49.278339]}},{"properties":{"offence":"176E","tickets":520.0,"id":"a673s6n0st03","lat":49.258698,"address":"950 14th Ave W.","long":-123.125587},"type":"Feature","geometry":{"type":"Point","coordinates":[-123.125587,49.258698]}},{"properties":{"offence":"176E","tickets":525.0,"id":"a673s6o4rtcb","lat":49.26733,"address":"150 4th Ave E.","long":-123.101562},"type":"Feature","geometry":{"type":"Point","coordinates":[-123.101562,49.26733]}},{"properties":{"offence":"176E","tickets":528.0,"id":"a673s6q40ia5","lat":49.261547,"address":"1050 11th Ave W.","long":-123.127899},"type":"Feature","geometry":{"type":"Point","coordinates":[-123.127899,49.261547]}},{"properties":{"offence":"176E","tickets":528.0,"id":"a673s6pd0o3e","lat":49.289761,"address":"1550 Alberni St.","long":-123.130646},"type":"Feature","geometry":{"type":"Point","coordinates":[-123.130646,49.289761]}},{"properties":{"offence":"176E","tickets":530.0,"id":"a673s6bnvc75","lat":49.269299,"address":"150 2nd Ave W.","long":-123.10804},"type":"Feature","geometry":{"type":"Point","coordinates":[-123.10804,49.269299]}},{"properties":{"offence":"176E","tickets":536.0,"id":"a673s6c50hzc","lat":49.266285,"address":"1750 6th Ave W.","long":-123.144508},"type":"Feature","geometry":{"type":"Point","coordinates":[-123.144508,49.266285]}},{"properties":{"offence":"176E","tickets":537.0,"id":"a673s6dlu2jw","lat":49.284622,"address":"1150 Haro St.","long":-123.126999},"type":"Feature","geometry":{"type":"Point","coordinates":[-123.126999,49.284622]}},{"properties":{"offence":"176E","tickets":551.0,"id":"a673s6r4ecvx","lat":49.266556,"address":"150 5th Ave W.","long":-123.108093},"type":"Feature","geometry":{"type":"Point","coordinates":[-123.108093,49.266556]}},{"properties":{"offence":"176E","tickets":558.0,"id":"a673s6oyelqr","lat":49.277702,"address":"950 Drake St.","long":-123.130264},"type":"Feature","geometry":{"type":"Point","coordinates":[-123.130264,49.277702]}},{"properties":{"offence":"176E","tickets":562.0,"id":"a673s6q4p7i7","lat":49.281796,"address":"1150 Pendrell St.","long":-123.131218},"type":"Feature","geometry":{"type":"Point","coordinates":[-123.131218,49.281796]}},{"properties":{"offence":"176E","tickets":565.0,"id":"a673s6kd2eyz","lat":49.284889,"address":"50 Dunlevy Ave.","long":-123.095245},"type":"Feature","geometry":{"type":"Point","coordinates":[-123.095245,49.284889]}},{"properties":{"offence":"176E","tickets":593.0,"id":"a673s6cnn95a","lat":49.257751,"address":"850 15th Ave W.","long":-123.12323},"type":"Feature","geometry":{"type":"Point","coordinates":[-123.12323,49.257751]}},{"properties":{"offence":"176E","tickets":594.0,"id":"a673s6dfw5u9","lat":49.28302,"address":"1250 Pendrell St.","long":-123.133141},"type":"Feature","geometry":{"type":"Point","coordinates":[-123.133141,49.28302]}},{"properties":{"offence":"176E","tickets":624.0,"id":"a673s6ok89ae","lat":49.289814,"address":"750 Cardero St.","long":-123.131706},"type":"Feature","geometry":{"type":"Point","coordinates":[-123.131706,49.289814]}},{"properties":{"offence":"176E","tickets":628.0,"id":"a673s6efigbc","lat":49.258656,"address":"850 14th Ave W.","long":-123.123215},"type":"Feature","geometry":{"type":"Point","coordinates":[-123.123215,49.258656]}},{"properties":{"offence":"176E","tickets":628.0,"id":"a673s6dgph6m","lat":49.290234,"address":"1450 Hastings St. W.","long":-123.127609},"type":"Feature","geometry":{"type":"Point","coordinates":[-123.127609,49.290234]}},{"properties":{"offence":"176E","tickets":654.0,"id":"a673s6n9xtkp","lat":49.259083,"address":"2950 Willow St.","long":-123.122002},"type":"Feature","geometry":{"type":"Point","coordinates":[-123.122002,49.259083]}},{"properties":{"offence":"176E","tickets":658.0,"id":"a673s6cdu7ck","lat":49.274536,"address":"1150 Quebec St.","long":-123.10183},"type":"Feature","geometry":{"type":"Point","coordinates":[-123.10183,49.274536]}},{"properties":{"offence":"176E","tickets":659.0,"id":"a673s6ljf5jh","lat":49.262871,"address":"2150 10th Ave W.","long":-123.153725},"type":"Feature","geometry":{"type":"Point","coordinates":[-123.153725,49.262871]}},{"properties":{"offence":"176E","tickets":673.0,"id":"a673s6jm9ka0","lat":49.265038,"address":"650 7th Ave W.","long":-123.118652},"type":"Feature","geometry":{"type":"Point","coordinates":[-123.118652,49.265038]}},{"properties":{"offence":"176E","tickets":713.0,"id":"a673s6cmqwpo","lat":49.285137,"address":"1250 Barclay St.","long":-123.129883},"type":"Feature","geometry":{"type":"Point","coordinates":[-123.129883,49.285137]}},{"properties":{"offence":"176E","tickets":734.0,"id":"a673s6e5d04h","lat":49.281857,"address":"1050 Nelson St.","long":-123.12706},"type":"Feature","geometry":{"type":"Point","coordinates":[-123.12706,49.281857]}},{"properties":{"offence":"176E","tickets":735.0,"id":"a673s6fvnk85","lat":49.204964,"address":"8850 Selkirk St.","long":-123.13343},"type":"Feature","geometry":{"type":"Point","coordinates":[-123.13343,49.204964]}},{"properties":{"offence":"176E","tickets":738.0,"id":"a673s6ir09b0","lat":49.275066,"address":"850 Beach Ave.","long":-123.132294},"type":"Feature","geometry":{"type":"Point","coordinates":[-123.132294,49.275066]}},{"properties":{"offence":"176E","tickets":764.0,"id":"a673s6mdo0ku","lat":49.283943,"address":"1150 Barclay St.","long":-123.128036},"type":"Feature","geometry":{"type":"Point","coordinates":[-123.128036,49.283943]}},{"properties":{"offence":"176E","tickets":791.0,"id":"a673s6ir8qof","lat":49.284603,"address":"350 Railway St.","long":-123.096542},"type":"Feature","geometry":{"type":"Point","coordinates":[-123.096542,49.284603]}},{"properties":{"offence":"176E","tickets":803.0,"id":"a673s6jz3rge","lat":49.276611,"address":"950 Cambie St.","long":-123.117348},"type":"Feature","geometry":{"type":"Point","coordinates":[-123.117348,49.276611]}},{"properties":{"offence":"176E","tickets":837.0,"id":"a673s6inn85h","lat":49.278194,"address":"50 Expo Boulevard","long":-123.106628},"type":"Feature","geometry":{"type":"Point","coordinates":[-123.106628,49.278194]}},{"properties":{"offence":"176E","tickets":886.0,"id":"a673s6indbre","lat":49.280376,"address":"1150 Burnaby St.","long":-123.133369},"type":"Feature","geometry":{"type":"Point","coordinates":[-123.133369,49.280376]}},{"properties":{"offence":"176E","tickets":892.0,"id":"a673s6npvnuq","lat":49.28582,"address":"1250 Haro St.","long":-123.128822},"type":"Feature","geometry":{"type":"Point","coordinates":[-123.128822,49.28582]}},{"properties":{"offence":"176E","tickets":998.0,"id":"a673s6mfsqjv","lat":49.236931,"address":"3450 Crowley Dr.","long":-123.031334},"type":"Feature","geometry":{"type":"Point","coordinates":[-123.031334,49.236931]}},{"properties":{"offence":"176E","tickets":1081.0,"id":"a673s6k8ma07","lat":49.281151,"address":"1050 Comox St.","long":-123.128105},"type":"Feature","geometry":{"type":"Point","coordinates":[-123.128105,49.281151]}},{"properties":{"offence":"176E","tickets":1098.0,"id":"a673s6fc2lin","lat":49.264992,"address":"550 7th Ave W.","long":-123.11618},"type":"Feature","geometry":{"type":"Point","coordinates":[-123.11618,49.264992]}},{"properties":{"offence":"176E","tickets":1139.0,"id":"a673s6qeb30x","lat":49.277679,"address":"850 Cambie St.","long":-123.115791},"type":"Feature","geometry":{"type":"Point","coordinates":[-123.115791,49.277679]}},{"properties":{"offence":"176E","tickets":1149.0,"id":"a673s6j5c2qc","lat":49.289722,"address":"1350 Hastings St. W.","long":-123.125862},"type":"Feature","geometry":{"type":"Point","coordinates":[-123.125862,49.289722]}},{"properties":{"offence":"176E","tickets":1162.0,"id":"a673s6i5encp","lat":49.27581,"address":"1450 Hornby St.","long":-123.13208},"type":"Feature","geometry":{"type":"Point","coordinates":[-123.13208,49.27581]}},{"properties":{"offence":"176E","tickets":1301.0,"id":"a673s6mlc0ux","lat":49.247162,"address":"850 27th Ave W.","long":-123.123619},"type":"Feature","geometry":{"type":"Point","coordinates":[-123.123619,49.247162]}},{"properties":{"offence":"176E","tickets":1461.0,"id":"a673s6cz6b2b","lat":49.279022,"address":"1050 Burnaby St.","long":-123.131287},"type":"Feature","geometry":{"type":"Point","coordinates":[-123.131287,49.279022]}},{"properties":{"offence":"176E","tickets":1526.0,"id":"a673s6gpw81z","lat":49.265697,"address":"350 6th Ave W.","long":-123.111832},"type":"Feature","geometry":{"type":"Point","coordinates":[-123.111832,49.265697]}},{"properties":{"offence":"176E","tickets":2103.0,"id":"a673s6n5ucmm","lat":49.289124,"address":"1250 Hastings St. W.","long":-123.123848},"type":"Feature","geometry":{"type":"Point","coordinates":[-123.123848,49.289124]}}],"is_temporal":false,"author":{"url":"","metadata":"","contact_name":"","contact_address":"","source":"","contact_phone":""},"source":"","pagination":{"sort":null,"start":0,"total":44,"limit":1000000},"state":"complete","tags":"sun,the","published":"2014-08-10T11:37:03-04:00","id":10415}