{"type":"FeatureCollection","data_type":"Dataset","url_type":null,"permissions":[{"permissions":{"download":true,"view":true},"group_id":"everyone"}],"classification":null,"title":"171-ForMaggie","count":67,"stream_id":10417,"contributor":{"url":"http://geocommons.com/users/695","name":"Bill"},"data_attributes":null,"calculation_params":null,"icon_link":null,"link":"http://geocommons.com/overlays/10417.json","extent":[-123.169,49.2333,-123.034,49.291],"geometry_types":["point"],"unique_name":null,"name":"171-ForMaggie","feature_count":67,"description":"","next_feature":null,"is_raster":false,"short_classification":"Y","stats":{"offence":{"max":171.0,"mean":171.0,"variance":0.0,"stdev":0.0,"min":171.0,"median":171.0},"tickets":{"max":7397.0,"mean":1803.89552238806,"variance":1208179.85255541,"stdev":1099.17234888593,"min":1000.0,"median":1499.0},"lat":{"max":49.290981,"mean":49.2752272089552,"variance":0.00012321899762235,"stdev":0.0111004052909049,"min":49.233284,"median":49.279922},"long":{"max":-123.034241,"mean":-123.121341447761,"variance":0.000452494962826769,"stdev":0.0212719289869718,"min":-123.169189,"median":-123.123848}},"features":[{"properties":{"offence":171.0,"tickets":1000.0,"id":"a673s4vrp01a","lat":49.28368,"address":"750 Burrard St.","long":-123.122185},"type":"Feature","geometry":{"type":"Point","coordinates":[-123.122185,49.28368]}},{"properties":{"offence":171.0,"tickets":1009.0,"id":"a673s4ngozf6","lat":49.263695,"address":"1650 Broadway St. E.","long":-123.142235},"type":"Feature","geometry":{"type":"Point","coordinates":[-123.142235,49.263695]}},{"properties":{"offence":171.0,"tickets":1013.0,"id":"a673s4qk66sy","lat":49.263367,"address":"1050 Broadway St. W.","long":-123.127747},"type":"Feature","geometry":{"type":"Point","coordinates":[-123.127747,49.263367]}},{"properties":{"offence":171.0,"tickets":1019.0,"id":"a673s4qxvzl7","lat":49.283096,"address":"350 Hastings St. W.","long":-123.110458},"type":"Feature","geometry":{"type":"Point","coordinates":[-123.110458,49.283096]}},{"properties":{"offence":171.0,"tickets":1046.0,"id":"a673s4rb7eum","lat":49.279587,"address":"1150 Burrard St.","long":-123.128418},"type":"Feature","geometry":{"type":"Point","coordinates":[-123.128418,49.279587]}},{"properties":{"offence":171.0,"tickets":1047.0,"id":"a673s4vwiomy","lat":49.262691,"address":"2550 Yukon St.","long":-123.1129},"type":"Feature","geometry":{"type":"Point","coordinates":[-123.1129,49.262691]}},{"properties":{"offence":171.0,"tickets":1051.0,"id":"a673s4n5tkz6","lat":49.283806,"address":"350 Cordova St. W.","long":-123.109558},"type":"Feature","geometry":{"type":"Point","coordinates":[-123.109558,49.283806]}},{"properties":{"offence":171.0,"tickets":1060.0,"id":"a673s4n0jryo","lat":49.27681,"address":"1050 Homer St.","long":-123.120895},"type":"Feature","geometry":{"type":"Point","coordinates":[-123.120895,49.27681]}},{"properties":{"offence":171.0,"tickets":1067.0,"id":"a673s4qi3b21","lat":49.258457,"address":"3050 Granville St.","long":-123.138733},"type":"Feature","geometry":{"type":"Point","coordinates":[-123.138733,49.258457]}},{"properties":{"offence":171.0,"tickets":1069.0,"id":"a673s4kww2pd","lat":49.263569,"address":"1450 Broadway St. W.","long":-123.13723},"type":"Feature","geometry":{"type":"Point","coordinates":[-123.13723,49.263569]}},{"properties":{"offence":171.0,"tickets":1070.0,"id":"a673s4h2klrk","lat":49.273487,"address":"1250 Commercial Dr.","long":-123.069572},"type":"Feature","geometry":{"type":"Point","coordinates":[-123.069572,49.273487]}},{"properties":{"offence":171.0,"tickets":1082.0,"id":"a673s4q3jtoa","lat":49.280373,"address":"550 Abbott St.","long":-123.107605},"type":"Feature","geometry":{"type":"Point","coordinates":[-123.107605,49.280373]}},{"properties":{"offence":171.0,"tickets":1088.0,"id":"a673s4m9ny2t","lat":49.286495,"address":"1250 Robson St.","long":-123.127762},"type":"Feature","geometry":{"type":"Point","coordinates":[-123.127762,49.286495]}},{"properties":{"offence":171.0,"tickets":1119.0,"id":"a673s4iahg3z","lat":49.2603,"address":"2850 Granville St.","long":-123.138718},"type":"Feature","geometry":{"type":"Point","coordinates":[-123.138718,49.2603]}},{"properties":{"offence":171.0,"tickets":1128.0,"id":"a673s4ozmn13","lat":49.279987,"address":"1050 Hornby St.","long":-123.125801},"type":"Feature","geometry":{"type":"Point","coordinates":[-123.125801,49.279987]}},{"properties":{"offence":171.0,"tickets":1146.0,"id":"a673s4h9rel4","lat":49.279587,"address":"750 Nelson St.","long":-123.12355},"type":"Feature","geometry":{"type":"Point","coordinates":[-123.12355,49.279587]}},{"properties":{"offence":171.0,"tickets":1157.0,"id":"a673s4jwu89c","lat":49.275303,"address":"1050 Commercial Dr.","long":-123.069534},"type":"Feature","geometry":{"type":"Point","coordinates":[-123.069534,49.275303]}},{"properties":{"offence":171.0,"tickets":1176.0,"id":"a673s4tqzftm","lat":49.286442,"address":"1150 Georgia St. W.","long":-123.124252},"type":"Feature","geometry":{"type":"Point","coordinates":[-123.124252,49.286442]}},{"properties":{"offence":171.0,"tickets":1188.0,"id":"a673s4lhdhoy","lat":49.263504,"address":"1250 Broadway St. W.","long":-123.132553},"type":"Feature","geometry":{"type":"Point","coordinates":[-123.132553,49.263504]}},{"properties":{"offence":171.0,"tickets":1215.0,"id":"a673s4kxdeb6","lat":49.285744,"address":"1650 Davie St.","long":-123.139465},"type":"Feature","geometry":{"type":"Point","coordinates":[-123.139465,49.285744]}},{"properties":{"offence":171.0,"tickets":1274.0,"id":"a673s4tpw4d2","lat":49.285641,"address":"550 Burrard St.","long":-123.119324},"type":"Feature","geometry":{"type":"Point","coordinates":[-123.119324,49.285641]}},{"properties":{"offence":171.0,"tickets":1277.0,"id":"a673s4tfv4fb","lat":49.283272,"address":"1350 Davie St.","long":-123.135628},"type":"Feature","geometry":{"type":"Point","coordinates":[-123.135628,49.283272]}},{"properties":{"offence":171.0,"tickets":1291.0,"id":"a673s4ov80ln","lat":49.262657,"address":"1550 10th Ave W.","long":-123.139847},"type":"Feature","geometry":{"type":"Point","coordinates":[-123.139847,49.262657]}},{"properties":{"offence":171.0,"tickets":1291.0,"id":"a673s4ntgsro","lat":49.282097,"address":"850 Hornby St.","long":-123.122581},"type":"Feature","geometry":{"type":"Point","coordinates":[-123.122581,49.282097]}},{"properties":{"offence":171.0,"tickets":1296.0,"id":"a673s4sbmj82","lat":49.263721,"address":"1850 Broadway St. W.","long":-123.146973},"type":"Feature","geometry":{"type":"Point","coordinates":[-123.146973,49.263721]}},{"properties":{"offence":171.0,"tickets":1324.0,"id":"a673s4knkhzt","lat":49.287491,"address":"650 Bute St.","long":-123.124771},"type":"Feature","geometry":{"type":"Point","coordinates":[-123.124771,49.287491]}},{"properties":{"offence":171.0,"tickets":1330.0,"id":"a673s4tegzy4","lat":49.286064,"address":"1150 Alberni St.","long":-123.124832},"type":"Feature","geometry":{"type":"Point","coordinates":[-123.124832,49.286064]}},{"properties":{"offence":171.0,"tickets":1342.0,"id":"a673s4v4u8vx","lat":49.290981,"address":"1750 Robson St.","long":-123.134697},"type":"Feature","geometry":{"type":"Point","coordinates":[-123.134697,49.290981]}},{"properties":{"offence":171.0,"tickets":1350.0,"id":"a673s4h3d7bo","lat":49.274399,"address":"1150 Commercial Dr.","long":-123.06955},"type":"Feature","geometry":{"type":"Point","coordinates":[-123.06955,49.274399]}},{"properties":{"offence":171.0,"tickets":1366.0,"id":"a673s4pl5bn4","lat":49.26347,"address":"1150 Broadway St. W.","long":-123.130188},"type":"Feature","geometry":{"type":"Point","coordinates":[-123.130188,49.26347]}},{"properties":{"offence":171.0,"tickets":1381.0,"id":"a673s4krb4v7","lat":49.271057,"address":"650 Terminal Ave.","long":-123.09021},"type":"Feature","geometry":{"type":"Point","coordinates":[-123.09021,49.271057]}},{"properties":{"offence":171.0,"tickets":1397.0,"id":"a673s4s8fkf8","lat":49.272579,"address":"1350 Commercial Dr.","long":-123.069595},"type":"Feature","geometry":{"type":"Point","coordinates":[-123.069595,49.272579]}},{"properties":{"offence":171.0,"tickets":1408.0,"id":"a673s4m2qut3","lat":49.282318,"address":"1250 Davie St.","long":-123.134148},"type":"Feature","geometry":{"type":"Point","coordinates":[-123.134148,49.282318]}},{"properties":{"offence":171.0,"tickets":1499.0,"id":"a673s4w84tcf","lat":49.279922,"address":"550 Main St.","long":-123.099716},"type":"Feature","geometry":{"type":"Point","coordinates":[-123.099716,49.279922]}},{"properties":{"offence":171.0,"tickets":1548.0,"id":"a673s4k3w13m","lat":49.282394,"address":"650 Seymour St.","long":-123.116287},"type":"Feature","geometry":{"type":"Point","coordinates":[-123.116287,49.282394]}},{"properties":{"offence":171.0,"tickets":1551.0,"id":"a673s4qw4xg3","lat":49.283184,"address":"750 Hornby St.","long":-123.120949},"type":"Feature","geometry":{"type":"Point","coordinates":[-123.120949,49.283184]}},{"properties":{"offence":171.0,"tickets":1562.0,"id":"a673s4my7ihm","lat":49.283531,"address":"550 Seymour St.","long":-123.114571},"type":"Feature","geometry":{"type":"Point","coordinates":[-123.114571,49.283531]}},{"properties":{"offence":171.0,"tickets":1587.0,"id":"a673s4w4lw7f","lat":49.282742,"address":"850 Burrard St.","long":-123.123627},"type":"Feature","geometry":{"type":"Point","coordinates":[-123.123627,49.282742]}},{"properties":{"offence":171.0,"tickets":1597.0,"id":"a673s4lm6z1l","lat":49.263695,"address":"1650 Broadway St. W.","long":-123.142235},"type":"Feature","geometry":{"type":"Point","coordinates":[-123.142235,49.263695]}},{"properties":{"offence":171.0,"tickets":1605.0,"id":"a673s4jr4ot5","lat":49.287937,"address":"1150 Pender St. W.","long":-123.121941},"type":"Feature","geometry":{"type":"Point","coordinates":[-123.121941,49.287937]}},{"properties":{"offence":171.0,"tickets":1608.0,"id":"a673s4v9n9ef","lat":49.233284,"address":"3350 Kingsway","long":-123.034241},"type":"Feature","geometry":{"type":"Point","coordinates":[-123.034241,49.233284]}},{"properties":{"offence":171.0,"tickets":1616.0,"id":"a673s4lq30jn","lat":49.284393,"address":"450 Cordova St. W.","long":-123.110443},"type":"Feature","geometry":{"type":"Point","coordinates":[-123.110443,49.284393]}},{"properties":{"offence":171.0,"tickets":1646.0,"id":"a673s4nmjc2z","lat":49.264095,"address":"2850 Broadway St. W.","long":-123.169189},"type":"Feature","geometry":{"type":"Point","coordinates":[-123.169189,49.264095]}},{"properties":{"offence":171.0,"tickets":1677.0,"id":"a673s4pptxa0","lat":49.263306,"address":"750 Broadway St. W.","long":-123.120872},"type":"Feature","geometry":{"type":"Point","coordinates":[-123.120872,49.263306]}},{"properties":{"offence":171.0,"tickets":1679.0,"id":"a673s4vfjthw","lat":49.287468,"address":"1350 Robson St.","long":-123.129257},"type":"Feature","geometry":{"type":"Point","coordinates":[-123.129257,49.287468]}},{"properties":{"offence":171.0,"tickets":1757.0,"id":"a673s4v3o8cm","lat":49.263794,"address":"1950 Broadway St. W.","long":-123.149368},"type":"Feature","geometry":{"type":"Point","coordinates":[-123.149368,49.263794]}},{"properties":{"offence":171.0,"tickets":1770.0,"id":"a673s4rzwraw","lat":49.287041,"address":"1050 Pender St. W.","long":-123.119003},"type":"Feature","geometry":{"type":"Point","coordinates":[-123.119003,49.287041]}},{"properties":{"offence":171.0,"tickets":1791.0,"id":"a673s4v7lfj7","lat":49.263603,"address":"1550 Broadway St. W.","long":-123.139824},"type":"Feature","geometry":{"type":"Point","coordinates":[-123.139824,49.263603]}},{"properties":{"offence":171.0,"tickets":1853.0,"id":"a673s4wajdnx","lat":49.280411,"address":"150 Pender St. E.","long":-123.10096},"type":"Feature","geometry":{"type":"Point","coordinates":[-123.10096,49.280411]}},{"properties":{"offence":171.0,"tickets":1931.0,"id":"a673s4uj6epc","lat":49.262165,"address":"2650 Granville St.","long":-123.13858},"type":"Feature","geometry":{"type":"Point","coordinates":[-123.13858,49.262165]}},{"properties":{"offence":171.0,"tickets":1995.0,"id":"a673s4hg5iyd","lat":49.280437,"address":"950 Howe St.","long":-123.123253},"type":"Feature","geometry":{"type":"Point","coordinates":[-123.123253,49.280437]}},{"properties":{"offence":171.0,"tickets":2073.0,"id":"a673s4igweq4","lat":49.275574,"address":"450 Davie St.","long":-123.123772},"type":"Feature","geometry":{"type":"Point","coordinates":[-123.123772,49.275574]}},{"properties":{"offence":171.0,"tickets":2246.0,"id":"a673s4mgxnyx","lat":49.263084,"address":"150 Broadway St. W.","long":-123.108185},"type":"Feature","geometry":{"type":"Point","coordinates":[-123.108185,49.263084]}},{"properties":{"offence":171.0,"tickets":2248.0,"id":"a673s4uz7u5l","lat":49.285007,"address":"750 Thurlow St.","long":-123.124222},"type":"Feature","geometry":{"type":"Point","coordinates":[-123.124222,49.285007]}},{"properties":{"offence":171.0,"tickets":2480.0,"id":"a673s4jef8an","lat":49.286396,"address":"750 Bute St.","long":-123.126396},"type":"Feature","geometry":{"type":"Point","coordinates":[-123.126396,49.286396]}},{"properties":{"offence":171.0,"tickets":2491.0,"id":"a673s4i6mvp4","lat":49.263325,"address":"950 Broadway St. W.","long":-123.12542},"type":"Feature","geometry":{"type":"Point","coordinates":[-123.12542,49.263325]}},{"properties":{"offence":171.0,"tickets":2592.0,"id":"a673s4hojioz","lat":49.263271,"address":"650 Broadway St. W.","long":-123.118729},"type":"Feature","geometry":{"type":"Point","coordinates":[-123.118729,49.263271]}},{"properties":{"offence":171.0,"tickets":2613.0,"id":"a673s4wpf1f4","lat":49.284691,"address":"1050 Alberni St.","long":-123.122704},"type":"Feature","geometry":{"type":"Point","coordinates":[-123.122704,49.284691]}},{"properties":{"offence":171.0,"tickets":2626.0,"id":"a673s4x01404","lat":49.279743,"address":"1050 Davie St.","long":-123.130219},"type":"Feature","geometry":{"type":"Point","coordinates":[-123.130219,49.279743]}},{"properties":{"offence":171.0,"tickets":2743.0,"id":"a673s4n2oz98","lat":49.263336,"address":"850 Broadway St. W.","long":-123.123032},"type":"Feature","geometry":{"type":"Point","coordinates":[-123.123032,49.263336]}},{"properties":{"offence":171.0,"tickets":2756.0,"id":"a673s4q6hkqq","lat":49.26355,"address":"1350 Broadway St. W.","long":-123.134888},"type":"Feature","geometry":{"type":"Point","coordinates":[-123.134888,49.26355]}},{"properties":{"offence":171.0,"tickets":3063.0,"id":"a673s4otszvf","lat":49.281109,"address":"1150 Davie St.","long":-123.132301},"type":"Feature","geometry":{"type":"Point","coordinates":[-123.132301,49.281109]}},{"properties":{"offence":171.0,"tickets":3190.0,"id":"a673s4s4t3gf","lat":49.263737,"address":"1750 Broadway St. W.","long":-123.144539},"type":"Feature","geometry":{"type":"Point","coordinates":[-123.144539,49.263737]}},{"properties":{"offence":171.0,"tickets":3264.0,"id":"a673s4jqwwbg","lat":49.287525,"address":"1050 Hastings St. W.","long":-123.118217},"type":"Feature","geometry":{"type":"Point","coordinates":[-123.118217,49.287525]}},{"properties":{"offence":171.0,"tickets":3269.0,"id":"a673s4pvwk2v","lat":49.28149,"address":"850 Howe St.","long":-123.121651},"type":"Feature","geometry":{"type":"Point","coordinates":[-123.121651,49.28149]}},{"properties":{"offence":171.0,"tickets":6461.0,"id":"a673s4iytpu6","lat":49.285301,"address":"1150 Robson St.","long":-123.125923},"type":"Feature","geometry":{"type":"Point","coordinates":[-123.125923,49.285301]}},{"properties":{"offence":171.0,"tickets":7397.0,"id":"a673s4iylde9","lat":49.283955,"address":"1050 Robson St.","long":-123.123848},"type":"Feature","geometry":{"type":"Point","coordinates":[-123.123848,49.283955]}}],"is_temporal":false,"author":{"url":"","metadata":"","contact_name":"","contact_address":"","source":"","contact_phone":""},"source":"","pagination":{"sort":null,"start":0,"total":67,"limit":1000000},"state":"complete","tags":"sun,the","published":"2014-08-10T11:37:05-04:00","id":10417}