{"type":"FeatureCollection","data_type":"Dataset","url_type":null,"permissions":[{"permissions":{"download":true,"view":true},"group_id":"everyone"}],"classification":null,"title":"OIL GAS MAP UPLOAD","count":26,"stream_id":105359,"contributor":{"url":"http://geocommons.com/users/21135","name":"Agarrison"},"data_attributes":null,"calculation_params":null,"icon_link":null,"link":"http://geocommons.com/overlays/105359.json","extent":[-169.678,-14.1753,-71.2906,42.9516],"geometry_types":["point"],"unique_name":null,"name":"OIL GAS MAP UPLOAD","feature_count":26,"description":"","next_feature":null,"is_raster":false,"short_classification":"Y","stats":{},"features":[{"properties":{"city":"BALGOWLAH","zip":"2093","column_6":null,"column_7":null,"geo_score":0.73,"total":"23.4","country":"Australia","id":"a62rr2ifl4kt","geo_precision":"zip","state":"NSW"},"type":"Feature","geometry":{"type":"Point","coordinates":[-71.29061,42.090376]}},{"properties":{"city":"EDMONTON","zip":"T6P1K3","column_6":null,"column_7":null,"geo_score":0.0,"total":"35.1","country":"Canada","id":"a62rr2jq2heb","geo_precision":"unmatched","state":"AB"},"type":"Feature","geometry":null},{"properties":{"city":"EDMONTON","zip":"T6X0A9","column_6":null,"column_7":null,"geo_score":0.0,"total":"392.7","country":"Canada","id":"a62rr2m2af1h","geo_precision":"unmatched","state":"AB"},"type":"Feature","geometry":null},{"properties":{"city":"NISKU","zip":"T9E7W6","column_6":null,"column_7":null,"geo_score":0.0,"total":"12.4","country":"Canada","id":"a62rr2eo0zb3","geo_precision":"unmatched","state":"AB"},"type":"Feature","geometry":null},{"properties":{"city":"VANCOUVER","zip":"V6P4B7","column_6":null,"column_7":null,"geo_score":0.0,"total":"8.7","country":"Canada","id":"a62rr2kwjko4","geo_precision":"unmatched","state":"BC"},"type":"Feature","geometry":null},{"properties":{"city":"TEL AVIV","zip":"61574","column_6":null,"column_7":null,"geo_score":0.735,"total":"-","country":"Israel","id":"a62rr2kgcmqq","geo_precision":"city","state":null},"type":"Feature","geometry":{"type":"Point","coordinates":[-88.538609,38.081592]}},{"properties":{"city":"KUWAIT CITY","zip":"61003","column_6":null,"column_7":null,"geo_score":0.586,"total":"4.7","country":"Kuwait","id":"a62rr2n5xvti","geo_precision":"city","state":"AHMADI"},"type":"Feature","geometry":{"type":"Point","coordinates":[-94.749689,40.11277]}},{"properties":{"city":"GUADALAJARA","zip":null,"column_6":null,"column_7":null,"geo_score":0.0,"total":"118.4","country":"Mexico","id":"a62rr2rg19fz","geo_precision":"unmatched","state":null},"type":"Feature","geometry":null},{"properties":{"city":"GUADALAJARA","zip":"44130","column_6":null,"column_7":null,"geo_score":0.726,"total":"2.2","country":"Mexico","id":"a62rr2q1v7ij","geo_precision":"zip","state":"JALISCO"},"type":"Feature","geometry":{"type":"Point","coordinates":[-81.759577,41.390052]}},{"properties":{"city":"AZAIBA, MUSCAT","zip":null,"column_6":null,"column_7":null,"geo_score":0.583,"total":"771.9","country":"OMAN","id":"a62rr2um40rr","geo_precision":"city","state":null},"type":"Feature","geometry":{"type":"Point","coordinates":[-96.599159,32.766796]}},{"properties":{"city":"SULTANATE OF","zip":null,"column_6":null,"column_7":null,"geo_score":0.584,"total":"725.2","country":"OMAN","id":"a62rr2mgacm5","geo_precision":"city","state":null},"type":"Feature","geometry":{"type":"Point","coordinates":[-169.6775,-14.175278]}},{"properties":{"city":"KABACKIDUKI","zip":"18/108","column_6":null,"column_7":null,"geo_score":0.0,"total":"1.1","country":"POLAND","id":"a62rr2jtdvdy","geo_precision":"unmatched","state":null},"type":"Feature","geometry":null},{"properties":{"city":"LODZ","zip":"90-451","column_6":null,"column_7":null,"geo_score":0.629,"total":"34.3","country":"POLAND","id":"a62rr2rorrly","geo_precision":"city","state":null},"type":"Feature","geometry":{"type":"Point","coordinates":[-80.65672,28.24751]}},{"properties":{"city":"DOHA","zip":null,"column_6":null,"column_7":null,"geo_score":0.6,"total":"3.8","country":"QATAR","id":"a62rr2s9dbeu","geo_precision":"city","state":null},"type":"Feature","geometry":{"type":"Point","coordinates":[-112.466369,42.951581]}},{"properties":{"city":"BAR HILL","zip":"CB23 8SQ","column_6":null,"column_7":null,"geo_score":0.571,"total":"15.3","country":"U.K.","id":"a62rr2jzz7in","geo_precision":"city","state":"CAMBRIDGESHIRE"},"type":"Feature","geometry":{"type":"Point","coordinates":[-80.278106,25.857596]}},{"properties":{"city":"DUBAI","zip":null,"column_6":null,"column_7":null,"geo_score":0.6,"total":"8,438.4","country":"UNITED ARAB EMIRATES","id":"a62rr2lgxp11","geo_precision":"city","state":null},"type":"Feature","geometry":{"type":"Point","coordinates":[-103.611616,37.219186]}},{"properties":{"city":"BAKERSFIELD","zip":"93309","column_6":null,"column_7":null,"geo_score":1.0,"total":"1,179.8","country":"USA","id":"a62rr2gz6dsx","geo_precision":"zip","state":"CA"},"type":"Feature","geometry":{"type":"Point","coordinates":[-118.905173,35.294405]}},{"properties":{"city":"BAKERSFIELD","zip":"93311","column_6":null,"column_7":null,"geo_score":1.0,"total":"1,684.8","country":"USA","id":"a62rr2tj22ec","geo_precision":"zip","state":"CA"},"type":"Feature","geometry":{"type":"Point","coordinates":[-118.905173,35.294405]}},{"properties":{"city":"OXNARD","zip":null,"column_6":null,"column_7":null,"geo_score":0.792,"total":"28.7","country":"USA","id":"a62rr2jr6poh","geo_precision":"city","state":"CA"},"type":"Feature","geometry":{"type":"Point","coordinates":[-119.227886,34.163338]}},{"properties":{"city":"TRONA","zip":"93562","column_6":null,"column_7":null,"geo_score":0.878,"total":"11.2","country":"USA","id":"a62rr2ko5dlb","geo_precision":"zip","state":"CA"},"type":"Feature","geometry":{"type":"Point","coordinates":[-117.392279,35.7069]}},{"properties":{"city":"GONZALES","zip":"70737","column_6":null,"column_7":null,"geo_score":0.9,"total":"3.3","country":"USA","id":"a62rr2pxupbs","geo_precision":"zip","state":"LA"},"type":"Feature","geometry":{"type":"Point","coordinates":[-90.966767,30.241029]}},{"properties":{"city":"ALLENDALE","zip":"074011600","column_6":null,"column_7":null,"geo_score":1.0,"total":"6.1","country":"USA","id":"a62rr2t60tra","geo_precision":"zip","state":"NJ"},"type":"Feature","geometry":{"type":"Point","coordinates":[-74.062774,41.017446]}},{"properties":{"city":"HOUSTON","zip":"77032","column_6":null,"column_7":null,"geo_score":1.0,"total":"98.2","country":"USA","id":"a62rr2oz9998","geo_precision":"zip","state":"TX"},"type":"Feature","geometry":{"type":"Point","coordinates":[-95.434241,29.83399]}},{"properties":{"city":"STAFFORD","zip":"77477","column_6":null,"column_7":null,"geo_score":0.869,"total":"1,381.2","country":"USA","id":"a62rr2f89doq","geo_precision":"zip","state":"TX"},"type":"Feature","geometry":{"type":"Point","coordinates":[-95.588001,29.651344]}},{"properties":{"city":"TEXAS CITY","zip":"77590","column_6":null,"column_7":null,"geo_score":0.933,"total":"-","country":"USA","id":"a62rr2ghr65b","geo_precision":"zip","state":"TX"},"type":"Feature","geometry":{"type":"Point","coordinates":[-94.939368,29.349679]}},{"properties":{"city":null,"zip":null,"column_6":null,"column_7":null,"geo_score":0.0,"total":"14,980.7","country":"Grand Total","id":"a62rr2nj0cff","geo_precision":"unmatched","state":null},"type":"Feature","geometry":null}],"is_temporal":false,"author":{"url":"","metadata":"","contact_name":"","contact_address":"","source":"","contact_phone":""},"source":"","pagination":{"sort":null,"start":0,"total":26,"limit":1000000},"state":"complete","tags":"","published":"2014-08-13T05:15:35-04:00","id":105359}