{"type":"FeatureCollection","data_type":"Dataset","url_type":null,"permissions":[{"permissions":{"download":true,"view":true},"group_id":"everyone"}],"classification":null,"title":"Lp1 exports map","count":184,"stream_id":105477,"contributor":{"url":"http://geocommons.com/users/22774","name":"mcleodm02"},"data_attributes":null,"calculation_params":null,"icon_link":null,"link":"http://geocommons.com/overlays/105477.json","extent":[-122.419,28.5383,-67.8482,47.6062],"geometry_types":["point"],"unique_name":null,"name":"Lp1 exports map","feature_count":184,"description":"","next_feature":null,"is_raster":false,"short_classification":"Y","stats":{},"features":[{"properties":{"city":"Raleigh","geo_score":0.857,"id":"a6ok5z996ter","geo_precision":"city","state":"NC"},"type":"Feature","geometry":{"type":"Point","coordinates":[-78.638615,35.772096]}},{"properties":{"city":"Raleigh","geo_score":0.857,"id":"a6ok5z8xt0av","geo_precision":"city","state":"NC"},"type":"Feature","geometry":{"type":"Point","coordinates":[-78.638615,35.772096]}},{"properties":{"city":"Raleigh","geo_score":0.857,"id":"a6ok5z0ny7jb","geo_precision":"city","state":"NC"},"type":"Feature","geometry":{"type":"Point","coordinates":[-78.638615,35.772096]}},{"properties":{"city":"Raleigh","geo_score":0.857,"id":"a6ok5z6pntli","geo_precision":"city","state":"NC"},"type":"Feature","geometry":{"type":"Point","coordinates":[-78.638615,35.772096]}},{"properties":{"city":"Raleigh","geo_score":0.857,"id":"a6ok5yxrh5i6","geo_precision":"city","state":"NC"},"type":"Feature","geometry":{"type":"Point","coordinates":[-78.638615,35.772096]}},{"properties":{"city":"Raleigh","geo_score":0.857,"id":"a6ok5z1yc9t4","geo_precision":"city","state":"NC"},"type":"Feature","geometry":{"type":"Point","coordinates":[-78.638615,35.772096]}},{"properties":{"city":"Raleigh","geo_score":0.857,"id":"a6ok5zc7gtz1","geo_precision":"city","state":"NC"},"type":"Feature","geometry":{"type":"Point","coordinates":[-78.638615,35.772096]}},{"properties":{"city":"Raleigh","geo_score":0.857,"id":"a6ok5z2teux0","geo_precision":"city","state":"NC"},"type":"Feature","geometry":{"type":"Point","coordinates":[-78.638615,35.772096]}},{"properties":{"city":"Raleigh","geo_score":0.857,"id":"a6ok5zakvvvo","geo_precision":"city","state":"NC"},"type":"Feature","geometry":{"type":"Point","coordinates":[-78.638615,35.772096]}},{"properties":{"city":"Raleigh","geo_score":0.857,"id":"a6ok5z0zdsxi","geo_precision":"city","state":"NC"},"type":"Feature","geometry":{"type":"Point","coordinates":[-78.638615,35.772096]}},{"properties":{"city":"Raleigh","geo_score":0.857,"id":"a6ok5yxotvnm","geo_precision":"city","state":"NC"},"type":"Feature","geometry":{"type":"Point","coordinates":[-78.638615,35.772096]}},{"properties":{"city":"Raleigh","geo_score":0.857,"id":"a6ok5zbgrggl","geo_precision":"city","state":"NC"},"type":"Feature","geometry":{"type":"Point","coordinates":[-78.638615,35.772096]}},{"properties":{"city":"AtLAnta","geo_score":0.857,"id":"a6ok5z3as04u","geo_precision":"city","state":"GA"},"type":"Feature","geometry":{"type":"Point","coordinates":[-84.387982,33.748995]}},{"properties":{"city":"Doraville","geo_score":0.857,"id":"a6ok5z2s4qwh","geo_precision":"city","state":"GA"},"type":"Feature","geometry":{"type":"Point","coordinates":[-84.283256,33.898158]}},{"properties":{"city":"Raleigh","geo_score":0.857,"id":"a6ok5z5gif4i","geo_precision":"city","state":"NC"},"type":"Feature","geometry":{"type":"Point","coordinates":[-78.638615,35.772096]}},{"properties":{"city":"Raleigh","geo_score":0.857,"id":"a6ok5z6tzlv5","geo_precision":"city","state":"NC"},"type":"Feature","geometry":{"type":"Point","coordinates":[-78.638615,35.772096]}},{"properties":{"city":"Raleigh","geo_score":0.857,"id":"a6ok5z1htiqq","geo_precision":"city","state":"NC"},"type":"Feature","geometry":{"type":"Point","coordinates":[-78.638615,35.772096]}},{"properties":{"city":"Raleigh","geo_score":0.857,"id":"a6ok5z3317y0","geo_precision":"city","state":"NC"},"type":"Feature","geometry":{"type":"Point","coordinates":[-78.638615,35.772096]}},{"properties":{"city":"Raleigh","geo_score":0.857,"id":"a6ok5zax7d7j","geo_precision":"city","state":"NC"},"type":"Feature","geometry":{"type":"Point","coordinates":[-78.638615,35.772096]}},{"properties":{"city":"Raleigh","geo_score":0.857,"id":"a6ok5z8xqo0l","geo_precision":"city","state":"NC"},"type":"Feature","geometry":{"type":"Point","coordinates":[-78.638615,35.772096]}},{"properties":{"city":"OrLAndo","geo_score":0.857,"id":"a6ok5z16z1xe","geo_precision":"city","state":"FL"},"type":"Feature","geometry":{"type":"Point","coordinates":[-81.379237,28.538336]}},{"properties":{"city":"Lynchburg","geo_score":0.857,"id":"a6ok5z93od1p","geo_precision":"city","state":"VA"},"type":"Feature","geometry":{"type":"Point","coordinates":[-79.178326,37.383112]}},{"properties":{"city":"Presque Isle","geo_score":0.857,"id":"a6ok5z1cn2dj","geo_precision":"city","state":"ME"},"type":"Feature","geometry":{"type":"Point","coordinates":[-68.012557,46.715072]}},{"properties":{"city":"PortLAnd","geo_score":0.857,"id":"a6ok5yz6emua","geo_precision":"city","state":"ME"},"type":"Feature","geometry":{"type":"Point","coordinates":[-70.255326,43.661471]}},{"properties":{"city":"Presque Isle","geo_score":0.857,"id":"a6ok5zcmon1n","geo_precision":"city","state":"ME"},"type":"Feature","geometry":{"type":"Point","coordinates":[-68.012557,46.715072]}},{"properties":{"city":"new york","geo_score":0.857,"id":"a6ok5ywx3wra","geo_precision":"city","state":"NY"},"type":"Feature","geometry":{"type":"Point","coordinates":[-74.005973,40.714269]}},{"properties":{"city":"Boston","geo_score":0.857,"id":"a6ok5z5701bk","geo_precision":"city","state":"MA"},"type":"Feature","geometry":{"type":"Point","coordinates":[-71.059773,42.358431]}},{"properties":{"city":"Kernersville","geo_score":0.786,"id":"a6ok5z2kj8j8","geo_precision":"city","state":"NC"},"type":"Feature","geometry":{"type":"Point","coordinates":[-79.574196,35.404869]}},{"properties":{"city":"San Francisco","geo_score":0.857,"id":"a6ok5z3feijp","geo_precision":"city","state":"CA"},"type":"Feature","geometry":{"type":"Point","coordinates":[-122.419416,37.77493]}},{"properties":{"city":"Rustburg","geo_score":0.857,"id":"a6ok5z4wcvrm","geo_precision":"city","state":"VA"},"type":"Feature","geometry":{"type":"Point","coordinates":[-79.090832,37.283924]}},{"properties":{"city":"Rouse point","geo_score":0.771,"id":"a6ok5z7kvmum","geo_precision":"city","state":"NY"},"type":"Feature","geometry":{"type":"Point","coordinates":[-75.65495,44.37867]}},{"properties":{"city":"St. Louis","geo_score":0.0,"id":"a6ok5z09bpt9","geo_precision":"unmatched","state":"MO"},"type":"Feature","geometry":null},{"properties":{"city":"Lynchburg","geo_score":0.857,"id":"a6ok5yx3jkes","geo_precision":"city","state":"VA"},"type":"Feature","geometry":{"type":"Point","coordinates":[-79.178326,37.383112]}},{"properties":{"city":"Lynchburg","geo_score":0.857,"id":"a6ok5z2zcmlz","geo_precision":"city","state":"VA"},"type":"Feature","geometry":{"type":"Point","coordinates":[-79.178326,37.383112]}},{"properties":{"city":"Lynchburg","geo_score":0.857,"id":"a6ok5z69apcv","geo_precision":"city","state":"VA"},"type":"Feature","geometry":{"type":"Point","coordinates":[-79.178326,37.383112]}},{"properties":{"city":"Brewer","geo_score":0.857,"id":"a6ok5z9733uq","geo_precision":"city","state":"ME"},"type":"Feature","geometry":{"type":"Point","coordinates":[-68.783742,44.83561]}},{"properties":{"city":"Lynchburg","geo_score":0.857,"id":"a6ok5z6zopjp","geo_precision":"city","state":"VA"},"type":"Feature","geometry":{"type":"Point","coordinates":[-79.178326,37.383112]}},{"properties":{"city":"Orrington","geo_score":0.8,"id":"a6ok5yyeptxc","geo_precision":"city","state":"ME"},"type":"Feature","geometry":{"type":"Point","coordinates":[-68.788647,44.721183]}},{"properties":{"city":"Fairfield","geo_score":0.8,"id":"a6ok5z2qq6u7","geo_precision":"city","state":"ME"},"type":"Feature","geometry":{"type":"Point","coordinates":[-69.662825,44.606176]}},{"properties":{"city":"Lynchburg","geo_score":0.857,"id":"a6ok5z3tpma0","geo_precision":"city","state":"VA"},"type":"Feature","geometry":{"type":"Point","coordinates":[-79.178326,37.383112]}},{"properties":{"city":"Bangor","geo_score":0.857,"id":"a6ok5z6oo1a5","geo_precision":"city","state":"ME"},"type":"Feature","geometry":{"type":"Point","coordinates":[-68.878893,45.061744]}},{"properties":{"city":"Lynchburg","geo_score":0.857,"id":"a6ok5z029kxn","geo_precision":"city","state":"VA"},"type":"Feature","geometry":{"type":"Point","coordinates":[-79.178326,37.383112]}},{"properties":{"city":null,"geo_score":0.0,"id":"a6ok5z68ki97","geo_precision":"unmatched","state":"??"},"type":"Feature","geometry":null},{"properties":{"city":"Lynchburg","geo_score":0.857,"id":"a6ok5z63q6gi","geo_precision":"city","state":"VA"},"type":"Feature","geometry":{"type":"Point","coordinates":[-79.178326,37.383112]}},{"properties":{"city":"Phoenix","geo_score":0.857,"id":"a6ok5zbsw5wi","geo_precision":"city","state":"AZ"},"type":"Feature","geometry":{"type":"Point","coordinates":[-112.074037,33.448377]}},{"properties":{"city":"Bristol","geo_score":0.857,"id":"a6ok5z3b65re","geo_precision":"city","state":"TN"},"type":"Feature","geometry":{"type":"Point","coordinates":[-82.192545,36.531703]}},{"properties":{"city":"Bangor","geo_score":0.857,"id":"a6ok5yz9b6dd","geo_precision":"city","state":"ME"},"type":"Feature","geometry":{"type":"Point","coordinates":[-68.878893,45.061744]}},{"properties":{"city":"charlottesville","geo_score":0.857,"id":"a6ok5z5p2qni","geo_precision":"city","state":"VA"},"type":"Feature","geometry":{"type":"Point","coordinates":[-78.476678,38.029306]}},{"properties":{"city":"Bangor","geo_score":0.857,"id":"a6ok5z0u41jx","geo_precision":"city","state":"ME"},"type":"Feature","geometry":{"type":"Point","coordinates":[-68.878893,45.061744]}},{"properties":{"city":"Washington","geo_score":0.857,"id":"a6ok5yyfoxot","geo_precision":"city","state":"DC"},"type":"Feature","geometry":{"type":"Point","coordinates":[-77.036366,38.895112]}},{"properties":{"city":"Bangor","geo_score":0.857,"id":"a6ok5z6a8w1g","geo_precision":"city","state":"ME"},"type":"Feature","geometry":{"type":"Point","coordinates":[-68.878893,45.061744]}},{"properties":{"city":"Forest","geo_score":0.857,"id":"a6ok5z2ha4ox","geo_precision":"city","state":"VA"},"type":"Feature","geometry":{"type":"Point","coordinates":[-79.318718,37.372437]}},{"properties":{"city":"Lynchburg","geo_score":0.857,"id":"a6ok5zboabs0","geo_precision":"city","state":"VA"},"type":"Feature","geometry":{"type":"Point","coordinates":[-79.178326,37.383112]}},{"properties":{"city":"Bangor","geo_score":0.857,"id":"a6ok5z8p7tmr","geo_precision":"city","state":"ME"},"type":"Feature","geometry":{"type":"Point","coordinates":[-68.878893,45.061744]}},{"properties":{"city":"Forest","geo_score":0.857,"id":"a6ok5z4xqxek","geo_precision":"city","state":"VA"},"type":"Feature","geometry":{"type":"Point","coordinates":[-79.318718,37.372437]}},{"properties":{"city":"Lynchburg","geo_score":0.857,"id":"a6ok5ywxmstg","geo_precision":"city","state":"VA"},"type":"Feature","geometry":{"type":"Point","coordinates":[-79.178326,37.383112]}},{"properties":{"city":"Nashville","geo_score":0.857,"id":"a6ok5z85qse1","geo_precision":"city","state":"TN"},"type":"Feature","geometry":{"type":"Point","coordinates":[-86.784443,36.16589]}},{"properties":{"city":"BaltiMOre","geo_score":0.857,"id":"a6ok5z6cpzbk","geo_precision":"city","state":"MD"},"type":"Feature","geometry":{"type":"Point","coordinates":[-76.612189,39.290385]}},{"properties":{"city":"Hampton","geo_score":0.805,"id":"a6ok5ywgwwuu","geo_precision":"city","state":"NY"},"type":"Feature","geometry":{"type":"Point","coordinates":[-72.394252,40.909267]}},{"properties":{"city":"Bangor","geo_score":0.857,"id":"a6ok5z9a1vzu","geo_precision":"city","state":"ME"},"type":"Feature","geometry":{"type":"Point","coordinates":[-68.878893,45.061744]}},{"properties":{"city":"Houston","geo_score":0.816,"id":"a6ok5yxk30xg","geo_precision":"city","state":"TX"},"type":"Feature","geometry":{"type":"Point","coordinates":[-96.919704,29.845783]}},{"properties":{"city":"Bangor","geo_score":0.857,"id":"a6ok5z8f37yq","geo_precision":"city","state":"ME"},"type":"Feature","geometry":{"type":"Point","coordinates":[-68.878893,45.061744]}},{"properties":{"city":"OrLAndo","geo_score":0.857,"id":"a6ok5zb19idv","geo_precision":"city","state":"FL"},"type":"Feature","geometry":{"type":"Point","coordinates":[-81.379237,28.538336]}},{"properties":{"city":"Lynchburg","geo_score":0.857,"id":"a6ok5z4plfxy","geo_precision":"city","state":"VA"},"type":"Feature","geometry":{"type":"Point","coordinates":[-79.178326,37.383112]}},{"properties":{"city":"Lynchburg","geo_score":0.857,"id":"a6ok5z59nsxf","geo_precision":"city","state":"VA"},"type":"Feature","geometry":{"type":"Point","coordinates":[-79.178326,37.383112]}},{"properties":{"city":"Bangor","geo_score":0.857,"id":"a6ok5zc2fb1v","geo_precision":"city","state":"ME"},"type":"Feature","geometry":{"type":"Point","coordinates":[-68.878893,45.061744]}},{"properties":{"city":"New York","geo_score":0.857,"id":"a6ok5z3337px","geo_precision":"city","state":"NY"},"type":"Feature","geometry":{"type":"Point","coordinates":[-74.005973,40.714269]}},{"properties":{"city":"Bangor","geo_score":0.857,"id":"a6ok5zb5h63e","geo_precision":"city","state":"ME"},"type":"Feature","geometry":{"type":"Point","coordinates":[-68.878893,45.061744]}},{"properties":{"city":"PhiLAdelphia","geo_score":0.857,"id":"a6ok5yyr7prp","geo_precision":"city","state":"PA"},"type":"Feature","geometry":{"type":"Point","coordinates":[-75.163789,39.952335]}},{"properties":{"city":"Bedford","geo_score":0.857,"id":"a6ok5z89mlaz","geo_precision":"city","state":"VA"},"type":"Feature","geometry":{"type":"Point","coordinates":[-79.522585,37.336027]}},{"properties":{"city":"Nashville","geo_score":0.857,"id":"a6ok5z3vuaqy","geo_precision":"city","state":"TN"},"type":"Feature","geometry":{"type":"Point","coordinates":[-86.784443,36.16589]}},{"properties":{"city":"Forest","geo_score":0.857,"id":"a6ok5yz5iwa5","geo_precision":"city","state":"VA"},"type":"Feature","geometry":{"type":"Point","coordinates":[-79.318718,37.372437]}},{"properties":{"city":"Lynchburg","geo_score":0.857,"id":"a6ok5z50dnnq","geo_precision":"city","state":"VA"},"type":"Feature","geometry":{"type":"Point","coordinates":[-79.178326,37.383112]}},{"properties":{"city":"Raleigh","geo_score":0.857,"id":"a6ok5ywp8p7m","geo_precision":"city","state":"NC"},"type":"Feature","geometry":{"type":"Point","coordinates":[-78.638615,35.772096]}},{"properties":{"city":"San Diego","geo_score":0.857,"id":"a6ok5zbg8hdz","geo_precision":"city","state":"CA"},"type":"Feature","geometry":{"type":"Point","coordinates":[-117.157255,32.715329]}},{"properties":{"city":"Bangor","geo_score":0.857,"id":"a6ok5yzrpmth","geo_precision":"city","state":"ME"},"type":"Feature","geometry":{"type":"Point","coordinates":[-68.878893,45.061744]}},{"properties":{"city":"Bangor","geo_score":0.857,"id":"a6ok5yzqkyh3","geo_precision":"city","state":"ME"},"type":"Feature","geometry":{"type":"Point","coordinates":[-68.878893,45.061744]}},{"properties":{"city":"Lynchburg","geo_score":0.857,"id":"a6ok5z9ig31v","geo_precision":"city","state":"VA"},"type":"Feature","geometry":{"type":"Point","coordinates":[-79.178326,37.383112]}},{"properties":{"city":"Lynchburg","geo_score":0.857,"id":"a6ok5z2bpp03","geo_precision":"city","state":"VA"},"type":"Feature","geometry":{"type":"Point","coordinates":[-79.178326,37.383112]}},{"properties":{"city":"AtLAnta","geo_score":0.857,"id":"a6ok5z1o7v2i","geo_precision":"city","state":"GA"},"type":"Feature","geometry":{"type":"Point","coordinates":[-84.387982,33.748995]}},{"properties":{"city":"Lynchburg","geo_score":0.857,"id":"a6ok5z5hbvk2","geo_precision":"city","state":"VA"},"type":"Feature","geometry":{"type":"Point","coordinates":[-79.178326,37.383112]}},{"properties":{"city":"Lynchburg","geo_score":0.857,"id":"a6ok5yzr17si","geo_precision":"city","state":"VA"},"type":"Feature","geometry":{"type":"Point","coordinates":[-79.178326,37.383112]}},{"properties":{"city":"Veazie","geo_score":0.857,"id":"a6ok5z82jwfs","geo_precision":"city","state":"ME"},"type":"Feature","geometry":{"type":"Point","coordinates":[-68.705312,44.838681]}},{"properties":{"city":"OrLAndo","geo_score":0.857,"id":"a6ok5yxdfc24","geo_precision":"city","state":"FL"},"type":"Feature","geometry":{"type":"Point","coordinates":[-81.379237,28.538336]}},{"properties":{"city":"MAnsfield","geo_score":0.8,"id":"a6ok5z8zhx15","geo_precision":"city","state":"OH"},"type":"Feature","geometry":{"type":"Point","coordinates":[-82.242093,39.712291]}},{"properties":{"city":"Augusta","geo_score":0.857,"id":"a6ok5yzzt4cd","geo_precision":"city","state":"ME"},"type":"Feature","geometry":{"type":"Point","coordinates":[-69.803773,44.351642]}},{"properties":{"city":"Charlottesville","geo_score":0.857,"id":"a6ok5z86gx95","geo_precision":"city","state":"VA"},"type":"Feature","geometry":{"type":"Point","coordinates":[-78.476678,38.029306]}},{"properties":{"city":"Bangor","geo_score":0.857,"id":"a6ok5zakfzje","geo_precision":"city","state":"ME"},"type":"Feature","geometry":{"type":"Point","coordinates":[-68.878893,45.061744]}},{"properties":{"city":"Holden","geo_score":0.857,"id":"a6ok5yyv26pf","geo_precision":"city","state":"ME"},"type":"Feature","geometry":{"type":"Point","coordinates":[-68.818345,44.894294]}},{"properties":{"city":"Tulsa","geo_score":0.857,"id":"a6ok5zbrl7d7","geo_precision":"city","state":"OK"},"type":"Feature","geometry":{"type":"Point","coordinates":[-95.992775,36.153982]}},{"properties":{"city":null,"geo_score":0.0,"id":"a6ok5yw9i6ay","geo_precision":"unmatched","state":"NC"},"type":"Feature","geometry":null},{"properties":{"city":"Lynchburg","geo_score":0.857,"id":"a6ok5z716j78","geo_precision":"city","state":"VA"},"type":"Feature","geometry":{"type":"Point","coordinates":[-79.178326,37.383112]}},{"properties":{"city":"Boston","geo_score":0.857,"id":"a6ok5z3wa340","geo_precision":"city","state":"MA"},"type":"Feature","geometry":{"type":"Point","coordinates":[-71.059773,42.358431]}},{"properties":{"city":"Charlotte","geo_score":0.857,"id":"a6ok5z92fug0","geo_precision":"city","state":"NC"},"type":"Feature","geometry":{"type":"Point","coordinates":[-80.843127,35.227087]}},{"properties":{"city":"Greensboro","geo_score":0.857,"id":"a6ok5ywa6pij","geo_precision":"city","state":"NC"},"type":"Feature","geometry":{"type":"Point","coordinates":[-79.791975,36.072636]}},{"properties":{"city":"Ellsworth","geo_score":0.806,"id":"a6ok5yxrnjyp","geo_precision":"city","state":"ME"},"type":"Feature","geometry":{"type":"Point","coordinates":[-68.438632,44.562298]}},{"properties":{"city":"Lynchburg","geo_score":0.857,"id":"a6ok5z9fnp73","geo_precision":"city","state":"VA"},"type":"Feature","geometry":{"type":"Point","coordinates":[-79.178326,37.383112]}},{"properties":{"city":"Augusta","geo_score":0.857,"id":"a6ok5yyxsvso","geo_precision":"city","state":"ME"},"type":"Feature","geometry":{"type":"Point","coordinates":[-69.803773,44.351642]}},{"properties":{"city":"Lynchburg","geo_score":0.857,"id":"a6ok5z5tk5b7","geo_precision":"city","state":"VA"},"type":"Feature","geometry":{"type":"Point","coordinates":[-79.178326,37.383112]}},{"properties":{"city":"Bangor","geo_score":0.857,"id":"a6ok5z1ntj7g","geo_precision":"city","state":"ME"},"type":"Feature","geometry":{"type":"Point","coordinates":[-68.878893,45.061744]}},{"properties":{"city":"SPArtansburg","geo_score":0.845,"id":"a6ok5z3n50ie","geo_precision":"city","state":"SC"},"type":"Feature","geometry":{"type":"Point","coordinates":[-81.932048,34.949567]}},{"properties":{"city":"Charlottesville","geo_score":0.857,"id":"a6ok5z33o45y","geo_precision":"city","state":"VA"},"type":"Feature","geometry":{"type":"Point","coordinates":[-78.476678,38.029306]}},{"properties":{"city":"MAdison","geo_score":0.857,"id":"a6ok5yzefec2","geo_precision":"city","state":"WI"},"type":"Feature","geometry":{"type":"Point","coordinates":[-89.40123,43.073052]}},{"properties":{"city":"Bangor","geo_score":0.857,"id":"a6ok5z601kuq","geo_precision":"city","state":"ME"},"type":"Feature","geometry":{"type":"Point","coordinates":[-68.878893,45.061744]}},{"properties":{"city":"Bangor","geo_score":0.857,"id":"a6ok5zbxllvq","geo_precision":"city","state":"ME"},"type":"Feature","geometry":{"type":"Point","coordinates":[-68.878893,45.061744]}},{"properties":{"city":"OrLAndo","geo_score":0.857,"id":"a6ok5z9v58z0","geo_precision":"city","state":"FL"},"type":"Feature","geometry":{"type":"Point","coordinates":[-81.379237,28.538336]}},{"properties":{"city":"RedHook","geo_score":0.857,"id":"a6ok5z1tjm61","geo_precision":"city","state":"NY"},"type":"Feature","geometry":{"type":"Point","coordinates":[-74.009584,40.675103]}},{"properties":{"city":"PortLAnd","geo_score":0.857,"id":"a6ok5zaejmbs","geo_precision":"city","state":"ME"},"type":"Feature","geometry":{"type":"Point","coordinates":[-70.255326,43.661471]}},{"properties":{"city":"OrLAndo","geo_score":0.857,"id":"a6ok5z3ykqng","geo_precision":"city","state":"FL"},"type":"Feature","geometry":{"type":"Point","coordinates":[-81.379237,28.538336]}},{"properties":{"city":"Forest","geo_score":0.857,"id":"a6ok5yx9bpqw","geo_precision":"city","state":"VA"},"type":"Feature","geometry":{"type":"Point","coordinates":[-79.318718,37.372437]}},{"properties":{"city":"Lynchburg","geo_score":0.857,"id":"a6ok5yxlvp0k","geo_precision":"city","state":"VA"},"type":"Feature","geometry":{"type":"Point","coordinates":[-79.178326,37.383112]}},{"properties":{"city":"Hollywood","geo_score":0.857,"id":"a6ok5yxm12lp","geo_precision":"city","state":"CA"},"type":"Feature","geometry":{"type":"Point","coordinates":[-118.326743,34.098343]}},{"properties":{"city":"Bangor","geo_score":0.857,"id":"a6ok5ywi7pmi","geo_precision":"city","state":"ME"},"type":"Feature","geometry":{"type":"Point","coordinates":[-68.878893,45.061744]}},{"properties":{"city":"Bangor","geo_score":0.857,"id":"a6ok5yyikd4h","geo_precision":"city","state":"ME"},"type":"Feature","geometry":{"type":"Point","coordinates":[-68.878893,45.061744]}},{"properties":{"city":"Lynchburg","geo_score":0.857,"id":"a6ok5yxzvvin","geo_precision":"city","state":"VA"},"type":"Feature","geometry":{"type":"Point","coordinates":[-79.178326,37.383112]}},{"properties":{"city":"Lynchburg","geo_score":0.857,"id":"a6ok5z0ctjvv","geo_precision":"city","state":"VA"},"type":"Feature","geometry":{"type":"Point","coordinates":[-79.178326,37.383112]}},{"properties":{"city":"Veazie","geo_score":0.857,"id":"a6ok5zat3fwo","geo_precision":"city","state":"ME"},"type":"Feature","geometry":{"type":"Point","coordinates":[-68.705312,44.838681]}},{"properties":{"city":"forest","geo_score":0.857,"id":"a6ok5yyq2l05","geo_precision":"city","state":"VA"},"type":"Feature","geometry":{"type":"Point","coordinates":[-79.318718,37.372437]}},{"properties":{"city":"Bangor","geo_score":0.857,"id":"a6ok5zaxvkse","geo_precision":"city","state":"ME"},"type":"Feature","geometry":{"type":"Point","coordinates":[-68.878893,45.061744]}},{"properties":{"city":"Forest","geo_score":0.857,"id":"a6ok5z4187tz","geo_precision":"city","state":"VA"},"type":"Feature","geometry":{"type":"Point","coordinates":[-79.318718,37.372437]}},{"properties":{"city":"Bangor","geo_score":0.857,"id":"a6ok5z1ryp43","geo_precision":"city","state":"ME"},"type":"Feature","geometry":{"type":"Point","coordinates":[-68.878893,45.061744]}},{"properties":{"city":"Brewer","geo_score":0.857,"id":"a6ok5z9trt1a","geo_precision":"city","state":"ME"},"type":"Feature","geometry":{"type":"Point","coordinates":[-68.783742,44.83561]}},{"properties":{"city":"Nashville","geo_score":0.857,"id":"a6ok5z3la9b9","geo_precision":"city","state":"TN"},"type":"Feature","geometry":{"type":"Point","coordinates":[-86.784443,36.16589]}},{"properties":{"city":"Lynchburg","geo_score":0.857,"id":"a6ok5z9d1394","geo_precision":"city","state":"VA"},"type":"Feature","geometry":{"type":"Point","coordinates":[-79.178326,37.383112]}},{"properties":{"city":"Lynchburg","geo_score":0.857,"id":"a6ok5z5btaaj","geo_precision":"city","state":"VA"},"type":"Feature","geometry":{"type":"Point","coordinates":[-79.178326,37.383112]}},{"properties":{"city":"San Diego","geo_score":0.857,"id":"a6ok5yxvo5wc","geo_precision":"city","state":"CA"},"type":"Feature","geometry":{"type":"Point","coordinates":[-117.157255,32.715329]}},{"properties":{"city":"AtLAnta","geo_score":0.857,"id":"a6ok5zbpd8vz","geo_precision":"city","state":"GA"},"type":"Feature","geometry":{"type":"Point","coordinates":[-84.387982,33.748995]}},{"properties":{"city":"Lynchburg","geo_score":0.857,"id":"a6ok5z92zuee","geo_precision":"city","state":"VA"},"type":"Feature","geometry":{"type":"Point","coordinates":[-79.178326,37.383112]}},{"properties":{"city":"Lynchburg","geo_score":0.857,"id":"a6ok5yy3lwu2","geo_precision":"city","state":"VA"},"type":"Feature","geometry":{"type":"Point","coordinates":[-79.178326,37.383112]}},{"properties":{"city":"San Diego","geo_score":0.857,"id":"a6ok5z5yyhp3","geo_precision":"city","state":"CA"},"type":"Feature","geometry":{"type":"Point","coordinates":[-117.157255,32.715329]}},{"properties":{"city":"brewer","geo_score":0.857,"id":"a6ok5z9np01s","geo_precision":"city","state":"ME"},"type":"Feature","geometry":{"type":"Point","coordinates":[-68.783742,44.83561]}},{"properties":{"city":"Lynchburg","geo_score":0.857,"id":"a6ok5zcd4bgk","geo_precision":"city","state":"VA"},"type":"Feature","geometry":{"type":"Point","coordinates":[-79.178326,37.383112]}},{"properties":{"city":"Brewer","geo_score":0.857,"id":"a6ok5yx8pzib","geo_precision":"city","state":"ME"},"type":"Feature","geometry":{"type":"Point","coordinates":[-68.783742,44.83561]}},{"properties":{"city":"Forest","geo_score":0.857,"id":"a6ok5yze0rbk","geo_precision":"city","state":"VA"},"type":"Feature","geometry":{"type":"Point","coordinates":[-79.318718,37.372437]}},{"properties":{"city":"Orono","geo_score":0.857,"id":"a6ok5yxittzg","geo_precision":"city","state":"ME"},"type":"Feature","geometry":{"type":"Point","coordinates":[-68.63343,45.002798]}},{"properties":{"city":"Lynchburg","geo_score":0.857,"id":"a6ok5z5q9ain","geo_precision":"city","state":"VA"},"type":"Feature","geometry":{"type":"Point","coordinates":[-79.178326,37.383112]}},{"properties":{"city":"Bangor","geo_score":0.857,"id":"a6ok5z688i24","geo_precision":"city","state":"ME"},"type":"Feature","geometry":{"type":"Point","coordinates":[-68.878893,45.061744]}},{"properties":{"city":"Wilmington","geo_score":0.857,"id":"a6ok5zb5t32s","geo_precision":"city","state":"DE"},"type":"Feature","geometry":{"type":"Point","coordinates":[-75.546589,39.745947]}},{"properties":{"city":"Lynchburg","geo_score":0.857,"id":"a6ok5z2oaml7","geo_precision":"city","state":"VA"},"type":"Feature","geometry":{"type":"Point","coordinates":[-79.178326,37.383112]}},{"properties":{"city":"MArs Hill","geo_score":0.857,"id":"a6ok5z3yzfgo","geo_precision":"city","state":"ME"},"type":"Feature","geometry":{"type":"Point","coordinates":[-67.84817,46.551571]}},{"properties":{"city":"HerMOn","geo_score":0.857,"id":"a6ok5z2xvx5d","geo_precision":"city","state":"ME"},"type":"Feature","geometry":{"type":"Point","coordinates":[-68.913372,44.81007]}},{"properties":{"city":"forest","geo_score":0.857,"id":"a6ok5z5hou5t","geo_precision":"city","state":"VA"},"type":"Feature","geometry":{"type":"Point","coordinates":[-79.318718,37.372437]}},{"properties":{"city":"CArMEl","geo_score":0.857,"id":"a6ok5z10ygnq","geo_precision":"city","state":"ME"},"type":"Feature","geometry":{"type":"Point","coordinates":[-68.940624,44.808062]}},{"properties":{"city":"Dairy","geo_score":0.8,"id":"a6ok5yw7zmyk","geo_precision":"city","state":"NH"},"type":"Feature","geometry":{"type":"Point","coordinates":[-71.197169,42.950825]}},{"properties":{"city":"charlottesville","geo_score":0.857,"id":"a6ok5yyyy3za","geo_precision":"city","state":"VA"},"type":"Feature","geometry":{"type":"Point","coordinates":[-78.476678,38.029306]}},{"properties":{"city":"Lynchburg","geo_score":0.857,"id":"a6ok5z0uybd2","geo_precision":"city","state":"VA"},"type":"Feature","geometry":{"type":"Point","coordinates":[-79.178326,37.383112]}},{"properties":{"city":"Lynchburg","geo_score":0.857,"id":"a6ok5yxmxaoz","geo_precision":"city","state":"VA"},"type":"Feature","geometry":{"type":"Point","coordinates":[-79.178326,37.383112]}},{"properties":{"city":"San Diego","geo_score":0.857,"id":"a6ok5zb1pxq3","geo_precision":"city","state":"CA"},"type":"Feature","geometry":{"type":"Point","coordinates":[-117.157255,32.715329]}},{"properties":{"city":"kittery","geo_score":0.857,"id":"a6ok5z458l2y","geo_precision":"city","state":"ME"},"type":"Feature","geometry":{"type":"Point","coordinates":[-70.684607,43.191554]}},{"properties":{"city":"CAmbridge","geo_score":0.813,"id":"a6ok5z8pebmp","geo_precision":"city","state":"MA"},"type":"Feature","geometry":{"type":"Point","coordinates":[-71.103663,42.358431]}},{"properties":{"city":"Raleigh","geo_score":0.857,"id":"a6ok5z7wxz8r","geo_precision":"city","state":"NC"},"type":"Feature","geometry":{"type":"Point","coordinates":[-78.638615,35.772096]}},{"properties":{"city":"Lynchburg","geo_score":0.857,"id":"a6ok5zajinw2","geo_precision":"city","state":"VA"},"type":"Feature","geometry":{"type":"Point","coordinates":[-79.178326,37.383112]}},{"properties":{"city":"Lynchburg","geo_score":0.857,"id":"a6ok5ywy77wk","geo_precision":"city","state":"VA"},"type":"Feature","geometry":{"type":"Point","coordinates":[-79.178326,37.383112]}},{"properties":{"city":"Bangor","geo_score":0.857,"id":"a6ok5yyjpdle","geo_precision":"city","state":"ME"},"type":"Feature","geometry":{"type":"Point","coordinates":[-68.878893,45.061744]}},{"properties":{"city":"RichMOnd","geo_score":0.857,"id":"a6ok5ywvz9uu","geo_precision":"city","state":"VA"},"type":"Feature","geometry":{"type":"Point","coordinates":[-77.460262,37.553758]}},{"properties":{"city":"DalLAs","geo_score":0.857,"id":"a6ok5z09fvvz","geo_precision":"city","state":"TX"},"type":"Feature","geometry":{"type":"Point","coordinates":[-96.806667,32.783056]}},{"properties":{"city":"Colfax","geo_score":0.857,"id":"a6ok5z6pxtv3","geo_precision":"city","state":"LA"},"type":"Feature","geometry":{"type":"Point","coordinates":[-92.653269,31.527636]}},{"properties":{"city":"Lynchburg","geo_score":0.857,"id":"a6ok5z4mibfv","geo_precision":"city","state":"VA"},"type":"Feature","geometry":{"type":"Point","coordinates":[-79.178326,37.383112]}},{"properties":{"city":"Lynchburg","geo_score":0.857,"id":"a6ok5z8ojna4","geo_precision":"city","state":"VA"},"type":"Feature","geometry":{"type":"Point","coordinates":[-79.178326,37.383112]}},{"properties":{"city":"Wilmington","geo_score":0.857,"id":"a6ok5z39k4m8","geo_precision":"city","state":"DE"},"type":"Feature","geometry":{"type":"Point","coordinates":[-75.546589,39.745947]}},{"properties":{"city":"Seattle","geo_score":0.857,"id":"a6ok5ywaaeka","geo_precision":"city","state":"WA"},"type":"Feature","geometry":{"type":"Point","coordinates":[-122.332071,47.60621]}},{"properties":{"city":"crossville","geo_score":0.857,"id":"a6ok5z7wdipb","geo_precision":"city","state":"TN"},"type":"Feature","geometry":{"type":"Point","coordinates":[-85.030023,35.950993]}},{"properties":{"city":"aMEry","geo_score":0.857,"id":"a6ok5z2nordh","geo_precision":"city","state":"WI"},"type":"Feature","geometry":{"type":"Point","coordinates":[-92.401379,45.348566]}},{"properties":{"city":"Middletown","geo_score":0.857,"id":"a6ok5yz98gsd","geo_precision":"city","state":"DE"},"type":"Feature","geometry":{"type":"Point","coordinates":[-75.677535,39.485721]}},{"properties":{"city":"Lynchburg","geo_score":0.857,"id":"a6ok5zbmjndd","geo_precision":"city","state":"VA"},"type":"Feature","geometry":{"type":"Point","coordinates":[-79.178326,37.383112]}},{"properties":{"city":"Middletown","geo_score":0.857,"id":"a6ok5yy4jv92","geo_precision":"city","state":"DE"},"type":"Feature","geometry":{"type":"Point","coordinates":[-75.677535,39.485721]}},{"properties":{"city":null,"geo_score":0.0,"id":"a6ok5ywocnb1","geo_precision":"unmatched","state":"Australia"},"type":"Feature","geometry":null},{"properties":{"city":"Middletown","geo_score":0.857,"id":"a6ok5z8r9e2s","geo_precision":"city","state":"DE"},"type":"Feature","geometry":{"type":"Point","coordinates":[-75.677535,39.485721]}},{"properties":{"city":"Middletown","geo_score":0.857,"id":"a6ok5z1pd2f8","geo_precision":"city","state":"DE"},"type":"Feature","geometry":{"type":"Point","coordinates":[-75.677535,39.485721]}},{"properties":{"city":"GLAdys","geo_score":0.738,"id":"a6ok5zba6khq","geo_precision":"city","state":"VA"},"type":"Feature","geometry":{"type":"Point","coordinates":[-80.675624,37.342346]}},{"properties":{"city":"Lynchburg","geo_score":0.857,"id":"a6ok5z2xs1id","geo_precision":"city","state":"VA"},"type":"Feature","geometry":{"type":"Point","coordinates":[-79.178326,37.383112]}},{"properties":{"city":"Lynchburg","geo_score":0.857,"id":"a6ok5z8h9eoc","geo_precision":"city","state":"VA"},"type":"Feature","geometry":{"type":"Point","coordinates":[-79.178326,37.383112]}},{"properties":{"city":"Middletown","geo_score":0.857,"id":"a6ok5z7foeqn","geo_precision":"city","state":"DE"},"type":"Feature","geometry":{"type":"Point","coordinates":[-75.677535,39.485721]}},{"properties":{"city":"Lynchburg","geo_score":0.857,"id":"a6ok5z95qkn6","geo_precision":"city","state":"VA"},"type":"Feature","geometry":{"type":"Point","coordinates":[-79.178326,37.383112]}},{"properties":{"city":"Lynchburg","geo_score":0.857,"id":"a6ok5z44sgte","geo_precision":"city","state":"VA"},"type":"Feature","geometry":{"type":"Point","coordinates":[-79.178326,37.383112]}},{"properties":{"city":"Lynchburg","geo_score":0.857,"id":"a6ok5z0zjv4n","geo_precision":"city","state":"VA"},"type":"Feature","geometry":{"type":"Point","coordinates":[-79.178326,37.383112]}},{"properties":{"city":"Bedford","geo_score":0.857,"id":"a6ok5yyc36mx","geo_precision":"city","state":"VA"},"type":"Feature","geometry":{"type":"Point","coordinates":[-79.522585,37.336027]}},{"properties":{"city":"RichMOnd","geo_score":0.857,"id":"a6ok5z90dkcl","geo_precision":"city","state":"VA"},"type":"Feature","geometry":{"type":"Point","coordinates":[-77.460262,37.553758]}},{"properties":{"city":"AMEry","geo_score":0.857,"id":"a6ok5z847sbg","geo_precision":"city","state":"WI"},"type":"Feature","geometry":{"type":"Point","coordinates":[-92.401379,45.348566]}},{"properties":{"city":"Lynchburg","geo_score":0.857,"id":"a6ok5z4he3ke","geo_precision":"city","state":"VA"},"type":"Feature","geometry":{"type":"Point","coordinates":[-79.178326,37.383112]}},{"properties":{"city":"Middletown","geo_score":0.857,"id":"a6ok5yzr85h4","geo_precision":"city","state":"DE"},"type":"Feature","geometry":{"type":"Point","coordinates":[-75.677535,39.485721]}},{"properties":{"city":"Lynchburg","geo_score":0.857,"id":"a6ok5z477vgn","geo_precision":"city","state":"VA"},"type":"Feature","geometry":{"type":"Point","coordinates":[-79.178326,37.383112]}},{"properties":{"city":"Wilmington","geo_score":0.857,"id":"a6ok5yz5zs06","geo_precision":"city","state":"DE"},"type":"Feature","geometry":{"type":"Point","coordinates":[-75.546589,39.745947]}},{"properties":{"city":"Lynchburg","geo_score":0.857,"id":"a6ok5z39ihc3","geo_precision":"city","state":"VA"},"type":"Feature","geometry":{"type":"Point","coordinates":[-79.178326,37.383112]}}],"is_temporal":false,"author":{"url":"","metadata":"","contact_name":"","contact_address":"","source":"","contact_phone":""},"source":"","pagination":{"sort":null,"start":0,"total":184,"limit":1000000},"state":"complete","tags":"","published":"2014-08-13T05:25:47-04:00","id":105477}