{"type":"FeatureCollection","data_type":"Dataset","url_type":null,"permissions":[{"permissions":{"download":true,"view":true},"group_id":"everyone"}],"classification":null,"title":"janmar2011heatmapzips3 3","count":200,"stream_id":105420,"contributor":{"url":"http://geocommons.com/users/7156","name":"kate"},"data_attributes":null,"calculation_params":null,"icon_link":null,"link":"http://geocommons.com/overlays/105420.json","extent":[-71.5352,41.3148,-69.9665,42.5609],"geometry_types":["point"],"unique_name":null,"name":"janmar2011heatmapzips3 3","feature_count":200,"description":"","next_feature":null,"is_raster":false,"short_classification":"Y","stats":{"latitude":{"max":42.5609159473673,"mean":41.7369123859574,"variance":0.0344634952698964,"stdev":0.185643462771778,"min":41.3148331734204,"median":41.687314},"longitude":{"max":-69.966462,"mean":-70.3867266219103,"variance":0.0890639168907915,"stdev":0.298435783529374,"min":-71.5351785,"median":-70.349299}},"features":[{"properties":{"city":"Pocasset","latitude":41.691679,"zipcode":"02559","longitude":-70.6218689289705,"id":"a6km86bx5m6k"},"type":"Feature","geometry":{"type":"Point","coordinates":[-70.6218689289705,41.691679]}},{"properties":{"city":"Nantucket","latitude":null,"zipcode":"02584","longitude":null,"id":"a6km86c7hger"},"type":"Feature","geometry":null},{"properties":{"city":"N Truro","latitude":42.041378569275,"zipcode":"02652","longitude":-70.1006925272676,"id":"a6km86kv39os"},"type":"Feature","geometry":{"type":"Point","coordinates":[-70.1006925272676,42.041378569275]}},{"properties":{"city":"Cambridge","latitude":42.3644465,"zipcode":"02139","longitude":-71.1027465,"id":"a6km86ib70zx"},"type":"Feature","geometry":{"type":"Point","coordinates":[-71.1027465,42.3644465]}},{"properties":{"city":"S Yarmouth","latitude":41.6709788789798,"zipcode":"02664","longitude":-70.1945775,"id":"a6km86aay7sn"},"type":"Feature","geometry":{"type":"Point","coordinates":[-70.1945775,41.6709788789798]}},{"properties":{"city":"Centerville","latitude":41.6609385320023,"zipcode":"02632","longitude":-70.349299,"id":"a6km86g4mjmb"},"type":"Feature","geometry":{"type":"Point","coordinates":[-70.349299,41.6609385320023]}},{"properties":{"city":"Wellfleet","latitude":41.9214671194865,"zipcode":"02667","longitude":-70.0166015787075,"id":"a6km86dtu41l"},"type":"Feature","geometry":{"type":"Point","coordinates":[-70.0166015787075,41.9214671194865]}},{"properties":{"city":"Brewster","latitude":41.7480436614756,"zipcode":"02631","longitude":-70.069309,"id":"a6km86jbj2nh"},"type":"Feature","geometry":{"type":"Point","coordinates":[-70.069309,41.7480436614756]}},{"properties":{"city":"N Chatham","latitude":41.7060835,"zipcode":"02650","longitude":-69.966462,"id":"a6km86a24ec5"},"type":"Feature","geometry":{"type":"Point","coordinates":[-69.966462,41.7060835]}},{"properties":{"city":"Centerville","latitude":41.6609385320023,"zipcode":"02632","longitude":-70.349299,"id":"a6km86gvlpmy"},"type":"Feature","geometry":{"type":"Point","coordinates":[-70.349299,41.6609385320023]}},{"properties":{"city":"East Harwich","latitude":41.7029405,"zipcode":"02645","longitude":-70.0626675,"id":"a6km86icmgeb"},"type":"Feature","geometry":{"type":"Point","coordinates":[-70.0626675,41.7029405]}},{"properties":{"city":"Plymouth","latitude":41.8729763019684,"zipcode":"02360","longitude":-70.639363,"id":"a6km86brhsib"},"type":"Feature","geometry":{"type":"Point","coordinates":[-70.639363,41.8729763019684]}},{"properties":{"city":"Westport","latitude":41.614875,"zipcode":"02790","longitude":-71.0768448767306,"id":"a6km86eacx0p"},"type":"Feature","geometry":{"type":"Point","coordinates":[-71.0768448767306,41.614875]}},{"properties":{"city":"Vineyard Haven","latitude":41.419325,"zipcode":"02568","longitude":-70.6326472539503,"id":"a6km86m1pbaq"},"type":"Feature","geometry":{"type":"Point","coordinates":[-70.6326472539503,41.419325]}},{"properties":{"city":"Eastham","latitude":41.8394188226486,"zipcode":"02642","longitude":-69.9743935,"id":"a6km86cywzzr"},"type":"Feature","geometry":{"type":"Point","coordinates":[-69.9743935,41.8394188226486]}},{"properties":{"city":"Buzzards Bay","latitude":41.7726650356197,"zipcode":"02532","longitude":-70.5807022853116,"id":"a6km86e7zsg1"},"type":"Feature","geometry":{"type":"Point","coordinates":[-70.5807022853116,41.7726650356197]}},{"properties":{"city":"Yarmouth Port","latitude":null,"zipcode":"02678","longitude":null,"id":"a6km869rp1od"},"type":"Feature","geometry":null},{"properties":{"city":"Yarmouth Port","latitude":41.706215,"zipcode":"02675","longitude":-70.229891,"id":"a6km86mktyde"},"type":"Feature","geometry":{"type":"Point","coordinates":[-70.229891,41.706215]}},{"properties":{"city":"Osterville","latitude":41.6357633816461,"zipcode":"02655","longitude":-70.3949879113812,"id":"a6km86lwsjop"},"type":"Feature","geometry":{"type":"Point","coordinates":[-70.3949879113812,41.6357633816461]}},{"properties":{"city":"Marstons Mills","latitude":41.668623,"zipcode":"02648","longitude":-70.415987,"id":"a6km86ie3zdd"},"type":"Feature","geometry":{"type":"Point","coordinates":[-70.415987,41.668623]}},{"properties":{"city":"Centerville","latitude":41.661844228315,"zipcode":"02601","longitude":-70.293959,"id":"a6km8699n0iy"},"type":"Feature","geometry":{"type":"Point","coordinates":[-70.293959,41.661844228315]}},{"properties":{"city":"Buzzards Bay","latitude":41.7726650356197,"zipcode":"02532","longitude":-70.5807022853116,"id":"a6km86lphsd3"},"type":"Feature","geometry":{"type":"Point","coordinates":[-70.5807022853116,41.7726650356197]}},{"properties":{"city":"Cambridge","latitude":42.3644465,"zipcode":"02139","longitude":-71.1027465,"id":"a6km86b19hld"},"type":"Feature","geometry":{"type":"Point","coordinates":[-71.1027465,42.3644465]}},{"properties":{"city":"Raynham","latitude":41.939141,"zipcode":"02767","longitude":-71.0586485,"id":"a6km867omo7f"},"type":"Feature","geometry":{"type":"Point","coordinates":[-71.0586485,41.939141]}},{"properties":{"city":"Mashpee","latitude":41.6168520487206,"zipcode":"02649","longitude":-70.4930765,"id":"a6km86ix6b75"},"type":"Feature","geometry":{"type":"Point","coordinates":[-70.4930765,41.6168520487206]}},{"properties":{"city":"Orleans","latitude":41.7526648894689,"zipcode":"02653","longitude":-69.9749152032088,"id":"a6km86aj0tce"},"type":"Feature","geometry":{"type":"Point","coordinates":[-69.9749152032088,41.7526648894689]}},{"properties":{"city":"N Eastham","latitude":null,"zipcode":"02651","longitude":null,"id":"a6km86j8xmgk"},"type":"Feature","geometry":null},{"properties":{"city":"New Bedford","latitude":41.7057045,"zipcode":"02745","longitude":-70.946883,"id":"a6km86ka0hcf"},"type":"Feature","geometry":{"type":"Point","coordinates":[-70.946883,41.7057045]}},{"properties":{"city":"Southborough","latitude":42.297051,"zipcode":"01772","longitude":-71.5351785,"id":"a6km86bxbdfs"},"type":"Feature","geometry":{"type":"Point","coordinates":[-71.5351785,42.297051]}},{"properties":{"city":"Harwich","latitude":41.7029405,"zipcode":"02645","longitude":-70.0626675,"id":"a6km86et3etw"},"type":"Feature","geometry":{"type":"Point","coordinates":[-70.0626675,41.7029405]}},{"properties":{"city":"Dennis","latitude":41.7344862481227,"zipcode":"02638","longitude":-70.2011838888978,"id":"a6km86ayrg7b"},"type":"Feature","geometry":{"type":"Point","coordinates":[-70.2011838888978,41.7344862481227]}},{"properties":{"city":"West Yarmouth","latitude":41.648419,"zipcode":"02673","longitude":-70.2446921319246,"id":"a6km86a4af7u"},"type":"Feature","geometry":{"type":"Point","coordinates":[-70.2446921319246,41.648419]}},{"properties":{"city":"Centerville","latitude":41.6609385320023,"zipcode":"02632","longitude":-70.349299,"id":"a6km86csar6h"},"type":"Feature","geometry":{"type":"Point","coordinates":[-70.349299,41.6609385320023]}},{"properties":{"city":"West Yarmouth","latitude":41.648419,"zipcode":"02673","longitude":-70.2446921319246,"id":"a6km86gn4i9f"},"type":"Feature","geometry":{"type":"Point","coordinates":[-70.2446921319246,41.648419]}},{"properties":{"city":"Marstons Mills","latitude":41.668623,"zipcode":"02648","longitude":-70.415987,"id":"a6km86l0o2zf"},"type":"Feature","geometry":{"type":"Point","coordinates":[-70.415987,41.668623]}},{"properties":{"city":"West Yarmouth","latitude":41.648419,"zipcode":"02673","longitude":-70.2446921319246,"id":"a6km86n3y2x6"},"type":"Feature","geometry":{"type":"Point","coordinates":[-70.2446921319246,41.648419]}},{"properties":{"city":"Wareham","latitude":41.7598005,"zipcode":"02571","longitude":-70.702782,"id":"a6km86dogj6p"},"type":"Feature","geometry":{"type":"Point","coordinates":[-70.702782,41.7598005]}},{"properties":{"city":"Edgartown","latitude":41.3891348027569,"zipcode":"02539","longitude":-70.5350545,"id":"a6km86dxt4xr"},"type":"Feature","geometry":{"type":"Point","coordinates":[-70.5350545,41.3891348027569]}},{"properties":{"city":"Wellfleet","latitude":41.9214671194865,"zipcode":"02667","longitude":-70.0166015787075,"id":"a6km86k0wu8c"},"type":"Feature","geometry":{"type":"Point","coordinates":[-70.0166015787075,41.9214671194865]}},{"properties":{"city":"Forestdale","latitude":41.6856025,"zipcode":"02644","longitude":-70.5139435,"id":"a6km867px94l"},"type":"Feature","geometry":{"type":"Point","coordinates":[-70.5139435,41.6856025]}},{"properties":{"city":"Mashpee","latitude":41.6168520487206,"zipcode":"02649","longitude":-70.4930765,"id":"a6km86m2n3bi"},"type":"Feature","geometry":{"type":"Point","coordinates":[-70.4930765,41.6168520487206]}},{"properties":{"city":"Dennis","latitude":41.7344862481227,"zipcode":"02638","longitude":-70.2011838888978,"id":"a6km86701li2"},"type":"Feature","geometry":{"type":"Point","coordinates":[-70.2011838888978,41.7344862481227]}},{"properties":{"city":"Hyannis","latitude":41.661844228315,"zipcode":"02601","longitude":-70.293959,"id":"a6km86c52us4"},"type":"Feature","geometry":{"type":"Point","coordinates":[-70.293959,41.661844228315]}},{"properties":{"city":"Hyannis","latitude":41.661844228315,"zipcode":"02601","longitude":-70.293959,"id":"a6km868lk4n4"},"type":"Feature","geometry":{"type":"Point","coordinates":[-70.293959,41.661844228315]}},{"properties":{"city":"Dennisport","latitude":41.66865,"zipcode":"02639","longitude":-70.1378774077041,"id":"a6km86kexutw"},"type":"Feature","geometry":{"type":"Point","coordinates":[-70.1378774077041,41.66865]}},{"properties":{"city":"Dennisport","latitude":41.66865,"zipcode":"02639","longitude":-70.1378774077041,"id":"a6km86955be9"},"type":"Feature","geometry":{"type":"Point","coordinates":[-70.1378774077041,41.66865]}},{"properties":{"city":"Boston","latitude":42.366847,"zipcode":"02109","longitude":-71.054445,"id":"a6km86k7i956"},"type":"Feature","geometry":{"type":"Point","coordinates":[-71.054445,42.366847]}},{"properties":{"city":"Coutit","latitude":41.621851,"zipcode":"02635","longitude":-70.441234,"id":"a6km86b8olo3"},"type":"Feature","geometry":{"type":"Point","coordinates":[-70.441234,41.621851]}},{"properties":{"city":"East Sandwich","latitude":41.7277844193436,"zipcode":"02537","longitude":-70.4333266281403,"id":"a6km86ayhq2j"},"type":"Feature","geometry":{"type":"Point","coordinates":[-70.4333266281403,41.7277844193436]}},{"properties":{"city":"Truro","latitude":41.995301,"zipcode":"02666","longitude":-70.0402018249012,"id":"a6km86hb2y86"},"type":"Feature","geometry":{"type":"Point","coordinates":[-70.0402018249012,41.995301]}},{"properties":{"city":"Provincetown","latitude":42.0511204651991,"zipcode":"02657","longitude":-70.1961035,"id":"a6km86lqcx88"},"type":"Feature","geometry":{"type":"Point","coordinates":[-70.1961035,42.0511204651991]}},{"properties":{"city":"East Wareham","latitude":41.781104,"zipcode":"02538","longitude":-70.6473,"id":"a6km86bgbxc4"},"type":"Feature","geometry":{"type":"Point","coordinates":[-70.6473,41.781104]}},{"properties":{"city":"Buzzards Bay","latitude":41.7726650356197,"zipcode":"02532","longitude":-70.5807022853116,"id":"a6km86a9xwgp"},"type":"Feature","geometry":{"type":"Point","coordinates":[-70.5807022853116,41.7726650356197]}},{"properties":{"city":"Mashpee","latitude":41.6168520487206,"zipcode":"02649","longitude":-70.4930765,"id":"a6km86jtua60"},"type":"Feature","geometry":{"type":"Point","coordinates":[-70.4930765,41.6168520487206]}},{"properties":{"city":"Oaks Bluff","latitude":null,"zipcode":"02557","longitude":null,"id":"a6km86d0c6ur"},"type":"Feature","geometry":null},{"properties":{"city":"E Falmouth","latitude":41.600311274987,"zipcode":"02536","longitude":-70.563429,"id":"a6km86fnep3u"},"type":"Feature","geometry":{"type":"Point","coordinates":[-70.563429,41.600311274987]}},{"properties":{"city":"Fall River","latitude":41.692152,"zipcode":"02723","longitude":-71.1340885,"id":"a6km86im86ne"},"type":"Feature","geometry":{"type":"Point","coordinates":[-71.1340885,41.692152]}},{"properties":{"city":"Mashpee","latitude":41.6168520487206,"zipcode":"02649","longitude":-70.4930765,"id":"a6km86i7pi8q"},"type":"Feature","geometry":{"type":"Point","coordinates":[-70.4930765,41.6168520487206]}},{"properties":{"city":"Sandwich","latitude":41.7174445,"zipcode":"02563","longitude":-70.481305,"id":"a6km86cvl9lz"},"type":"Feature","geometry":{"type":"Point","coordinates":[-70.481305,41.7174445]}},{"properties":{"city":"North Eastham","latitude":null,"zipcode":"02651","longitude":null,"id":"a6km86jaqch0"},"type":"Feature","geometry":null},{"properties":{"city":"South Yarmouth","latitude":41.6709788789798,"zipcode":"02664","longitude":-70.1945775,"id":"a6km86bwgija"},"type":"Feature","geometry":{"type":"Point","coordinates":[-70.1945775,41.6709788789798]}},{"properties":{"city":"S Yarmouth","latitude":41.6709788789798,"zipcode":"02664","longitude":-70.1945775,"id":"a6km86f6zj5r"},"type":"Feature","geometry":{"type":"Point","coordinates":[-70.1945775,41.6709788789798]}},{"properties":{"city":"Mashpee","latitude":41.6168520487206,"zipcode":"02649","longitude":-70.4930765,"id":"a6km86g5wlwb"},"type":"Feature","geometry":{"type":"Point","coordinates":[-70.4930765,41.6168520487206]}},{"properties":{"city":"E Falmouth","latitude":41.600311274987,"zipcode":"02536","longitude":-70.563429,"id":"a6km86a4kmtx"},"type":"Feature","geometry":{"type":"Point","coordinates":[-70.563429,41.600311274987]}},{"properties":{"city":"Buzzards Bay","latitude":41.7726650356197,"zipcode":"02532","longitude":-70.5807022853116,"id":"a6km86j0yxmp"},"type":"Feature","geometry":{"type":"Point","coordinates":[-70.5807022853116,41.7726650356197]}},{"properties":{"city":"West Yarmouth","latitude":41.648419,"zipcode":"02673","longitude":-70.2446921319246,"id":"a6km86mlaa4v"},"type":"Feature","geometry":{"type":"Point","coordinates":[-70.2446921319246,41.648419]}},{"properties":{"city":"Quechee","latitude":null,"zipcode":"05059","longitude":null,"id":"a6km86a3hkze"},"type":"Feature","geometry":null},{"properties":{"city":"Plymouth","latitude":41.8729763019684,"zipcode":"02360","longitude":-70.639363,"id":"a6km86lw2x7c"},"type":"Feature","geometry":{"type":"Point","coordinates":[-70.639363,41.8729763019684]}},{"properties":{"city":"Yarmouth Port","latitude":41.706215,"zipcode":"02675","longitude":-70.229891,"id":"a6km86e1n6fw"},"type":"Feature","geometry":{"type":"Point","coordinates":[-70.229891,41.706215]}},{"properties":{"city":"Yarmouthport","latitude":41.706215,"zipcode":"02675","longitude":-70.229891,"id":"a6km86c69pcf"},"type":"Feature","geometry":{"type":"Point","coordinates":[-70.229891,41.706215]}},{"properties":{"city":"Dennisport","latitude":41.66865,"zipcode":"02639","longitude":-70.1378774077041,"id":"a6km866zi9rg"},"type":"Feature","geometry":{"type":"Point","coordinates":[-70.1378774077041,41.66865]}},{"properties":{"city":"West Yarmouth","latitude":41.648419,"zipcode":"02673","longitude":-70.2446921319246,"id":"a6km86b77fh3"},"type":"Feature","geometry":{"type":"Point","coordinates":[-70.2446921319246,41.648419]}},{"properties":{"city":"Middleboro","latitude":41.8810275,"zipcode":"02346","longitude":-70.879638,"id":"a6km86gz799y"},"type":"Feature","geometry":{"type":"Point","coordinates":[-70.879638,41.8810275]}},{"properties":{"city":"West Yarmouth","latitude":41.648419,"zipcode":"02673","longitude":-70.2446921319246,"id":"a6km86kg9tn4"},"type":"Feature","geometry":{"type":"Point","coordinates":[-70.2446921319246,41.648419]}},{"properties":{"city":"Sandwich","latitude":41.7174445,"zipcode":"02563","longitude":-70.481305,"id":"a6km86g5lt08"},"type":"Feature","geometry":{"type":"Point","coordinates":[-70.481305,41.7174445]}},{"properties":{"city":"Beverly","latitude":42.5609159473673,"zipcode":"01915","longitude":-70.857869,"id":"a6km86aqgc0n"},"type":"Feature","geometry":{"type":"Point","coordinates":[-70.857869,42.5609159473673]}},{"properties":{"city":"Forestdale","latitude":41.6856025,"zipcode":"02644","longitude":-70.5139435,"id":"a6km86m46ukf"},"type":"Feature","geometry":{"type":"Point","coordinates":[-70.5139435,41.6856025]}},{"properties":{"city":"Plymouth","latitude":41.8729763019684,"zipcode":"02360","longitude":-70.639363,"id":"a6km868rijuw"},"type":"Feature","geometry":{"type":"Point","coordinates":[-70.639363,41.8729763019684]}},{"properties":{"city":"Sandwich","latitude":41.7174445,"zipcode":"02563","longitude":-70.481305,"id":"a6km86n2tt31"},"type":"Feature","geometry":{"type":"Point","coordinates":[-70.481305,41.7174445]}},{"properties":{"city":"Orleans","latitude":41.7526648894689,"zipcode":"02653","longitude":-69.9749152032088,"id":"a6km869wy77k"},"type":"Feature","geometry":{"type":"Point","coordinates":[-69.9749152032088,41.7526648894689]}},{"properties":{"city":"Carver","latitude":41.8768225,"zipcode":"02330","longitude":-70.7713465,"id":"a6km86egc6in"},"type":"Feature","geometry":{"type":"Point","coordinates":[-70.7713465,41.8768225]}},{"properties":{"city":"Centerville","latitude":41.6609385320023,"zipcode":"02632","longitude":-70.349299,"id":"a6km8675mqgb"},"type":"Feature","geometry":{"type":"Point","coordinates":[-70.349299,41.6609385320023]}},{"properties":{"city":"Brewter","latitude":41.7480436614756,"zipcode":"02631","longitude":-70.069309,"id":"a6km86mzk4uc"},"type":"Feature","geometry":{"type":"Point","coordinates":[-70.069309,41.7480436614756]}},{"properties":{"city":"Brewster","latitude":41.7480436614756,"zipcode":"02631","longitude":-70.069309,"id":"a6km86m1y84d"},"type":"Feature","geometry":{"type":"Point","coordinates":[-70.069309,41.7480436614756]}},{"properties":{"city":"Chatham","latitude":41.687314,"zipcode":"02633","longitude":-69.9793955,"id":"a6km86m80jgc"},"type":"Feature","geometry":{"type":"Point","coordinates":[-69.9793955,41.687314]}},{"properties":{"city":"Plymouth","latitude":41.8729763019684,"zipcode":"02360","longitude":-70.639363,"id":"a6km86m9zqwt"},"type":"Feature","geometry":{"type":"Point","coordinates":[-70.639363,41.8729763019684]}},{"properties":{"city":"Forestdale","latitude":41.6856025,"zipcode":"02644","longitude":-70.5139435,"id":"a6km86bojtxf"},"type":"Feature","geometry":{"type":"Point","coordinates":[-70.5139435,41.6856025]}},{"properties":{"city":"West Barnstable","latitude":41.7081360788311,"zipcode":"02668","longitude":-70.337738207712,"id":"a6km86e6wz01"},"type":"Feature","geometry":{"type":"Point","coordinates":[-70.337738207712,41.7081360788311]}},{"properties":{"city":"Forestdale","latitude":41.6856025,"zipcode":"02644","longitude":-70.5139435,"id":"a6km86gm3sb9"},"type":"Feature","geometry":{"type":"Point","coordinates":[-70.5139435,41.6856025]}},{"properties":{"city":"Centerville","latitude":41.6609385320023,"zipcode":"02632","longitude":-70.349299,"id":"a6km86hwl8se"},"type":"Feature","geometry":{"type":"Point","coordinates":[-70.349299,41.6609385320023]}},{"properties":{"city":"Harwich","latitude":41.7029405,"zipcode":"02645","longitude":-70.0626675,"id":"a6km86mtozyt"},"type":"Feature","geometry":{"type":"Point","coordinates":[-70.0626675,41.7029405]}},{"properties":{"city":"S Yarmouth","latitude":41.6709788789798,"zipcode":"02664","longitude":-70.1945775,"id":"a6km86eaczn1"},"type":"Feature","geometry":{"type":"Point","coordinates":[-70.1945775,41.6709788789798]}},{"properties":{"city":"Plymouth","latitude":41.8729763019684,"zipcode":"02360","longitude":-70.639363,"id":"a6km86hrnvay"},"type":"Feature","geometry":{"type":"Point","coordinates":[-70.639363,41.8729763019684]}},{"properties":{"city":"S Yarmouth","latitude":41.6709788789798,"zipcode":"02664","longitude":-70.1945775,"id":"a6km86g19x2i"},"type":"Feature","geometry":{"type":"Point","coordinates":[-70.1945775,41.6709788789798]}},{"properties":{"city":"Osterville","latitude":41.6357633816461,"zipcode":"02655","longitude":-70.3949879113812,"id":"a6km86ll1yvb"},"type":"Feature","geometry":{"type":"Point","coordinates":[-70.3949879113812,41.6357633816461]}},{"properties":{"city":"W Yarmouth","latitude":41.648419,"zipcode":"02673","longitude":-70.2446921319246,"id":"a6km869aspgz"},"type":"Feature","geometry":{"type":"Point","coordinates":[-70.2446921319246,41.648419]}},{"properties":{"city":"New Bedford","latitude":41.60852,"zipcode":"02744","longitude":-70.9163815,"id":"a6km86h2nq16"},"type":"Feature","geometry":{"type":"Point","coordinates":[-70.9163815,41.60852]}},{"properties":{"city":"Brewster","latitude":41.7480436614756,"zipcode":"02631","longitude":-70.069309,"id":"a6km86bxmnha"},"type":"Feature","geometry":{"type":"Point","coordinates":[-70.069309,41.7480436614756]}},{"properties":{"city":"Wellfleet","latitude":41.9214671194865,"zipcode":"02667","longitude":-70.0166015787075,"id":"a6km868ecrxn"},"type":"Feature","geometry":{"type":"Point","coordinates":[-70.0166015787075,41.9214671194865]}},{"properties":{"city":"Centerville","latitude":41.6609385320023,"zipcode":"02632","longitude":-70.349299,"id":"a6km86bu03v1"},"type":"Feature","geometry":{"type":"Point","coordinates":[-70.349299,41.6609385320023]}},{"properties":{"city":"South Dennis","latitude":41.713665,"zipcode":"02660","longitude":-70.1559518502482,"id":"a6km8689b0pq"},"type":"Feature","geometry":{"type":"Point","coordinates":[-70.1559518502482,41.713665]}},{"properties":{"city":"Edgartown","latitude":41.3891348027569,"zipcode":"02539","longitude":-70.5350545,"id":"a6km86fg6rgm"},"type":"Feature","geometry":{"type":"Point","coordinates":[-70.5350545,41.3891348027569]}},{"properties":{"city":"Hyannis","latitude":41.661844228315,"zipcode":"02601","longitude":-70.293959,"id":"a6km86930m14"},"type":"Feature","geometry":{"type":"Point","coordinates":[-70.293959,41.661844228315]}},{"properties":{"city":"South Dennis","latitude":41.713665,"zipcode":"02660","longitude":-70.1559518502482,"id":"a6km86imfa32"},"type":"Feature","geometry":{"type":"Point","coordinates":[-70.1559518502482,41.713665]}},{"properties":{"city":"Medfield","latitude":42.18204,"zipcode":"02052","longitude":-71.309973,"id":"a6km86leuh7o"},"type":"Feature","geometry":{"type":"Point","coordinates":[-71.309973,42.18204]}},{"properties":{"city":"Centerville","latitude":41.6609385320023,"zipcode":"02632","longitude":-70.349299,"id":"a6km8684gcme"},"type":"Feature","geometry":{"type":"Point","coordinates":[-70.349299,41.6609385320023]}},{"properties":{"city":"East Falmouth","latitude":41.600311274987,"zipcode":"02536","longitude":-70.563429,"id":"a6km86g96a5j"},"type":"Feature","geometry":{"type":"Point","coordinates":[-70.563429,41.600311274987]}},{"properties":{"city":"Provincetown","latitude":42.0511204651991,"zipcode":"02657","longitude":-70.1961035,"id":"a6km86evanti"},"type":"Feature","geometry":{"type":"Point","coordinates":[-70.1961035,42.0511204651991]}},{"properties":{"city":"Forestdale","latitude":41.6856025,"zipcode":"02644","longitude":-70.5139435,"id":"a6km86kp209k"},"type":"Feature","geometry":{"type":"Point","coordinates":[-70.5139435,41.6856025]}},{"properties":{"city":"Marston Mills","latitude":41.668623,"zipcode":"02648","longitude":-70.415987,"id":"a6km86d4bpwb"},"type":"Feature","geometry":{"type":"Point","coordinates":[-70.415987,41.668623]}},{"properties":{"city":"Centerville","latitude":41.6609385320023,"zipcode":"02632","longitude":-70.349299,"id":"a6km86lr41fo"},"type":"Feature","geometry":{"type":"Point","coordinates":[-70.349299,41.6609385320023]}},{"properties":{"city":"Mashpee","latitude":41.6168520487206,"zipcode":"02649","longitude":-70.4930765,"id":"a6km8670ua5n"},"type":"Feature","geometry":{"type":"Point","coordinates":[-70.4930765,41.6168520487206]}},{"properties":{"city":"E Falmouth","latitude":41.600311274987,"zipcode":"02536","longitude":-70.563429,"id":"a6km86bm9rjk"},"type":"Feature","geometry":{"type":"Point","coordinates":[-70.563429,41.600311274987]}},{"properties":{"city":"South Dartmouth","latitude":41.5638739561906,"zipcode":"02748","longitude":-70.9841932142576,"id":"a6km86cz5all"},"type":"Feature","geometry":{"type":"Point","coordinates":[-70.9841932142576,41.5638739561906]}},{"properties":{"city":"Eastham","latitude":41.8394188226486,"zipcode":"02642","longitude":-69.9743935,"id":"a6km86n1bc9n"},"type":"Feature","geometry":{"type":"Point","coordinates":[-69.9743935,41.8394188226486]}},{"properties":{"city":"Orleans","latitude":41.7526648894689,"zipcode":"02653","longitude":-69.9749152032088,"id":"a6km86cjonyi"},"type":"Feature","geometry":{"type":"Point","coordinates":[-69.9749152032088,41.7526648894689]}},{"properties":{"city":"W. Yarmouth","latitude":41.648419,"zipcode":"02673","longitude":-70.2446921319246,"id":"a6km86mx7464"},"type":"Feature","geometry":{"type":"Point","coordinates":[-70.2446921319246,41.648419]}},{"properties":{"city":"Cataumet","latitude":41.666811,"zipcode":"02534","longitude":-70.617633683827,"id":"a6km86dn1agj"},"type":"Feature","geometry":{"type":"Point","coordinates":[-70.617633683827,41.666811]}},{"properties":{"city":"South Dennis","latitude":41.713665,"zipcode":"02660","longitude":-70.1559518502482,"id":"a6km86l8vx70"},"type":"Feature","geometry":{"type":"Point","coordinates":[-70.1559518502482,41.713665]}},{"properties":{"city":"Swamscott","latitude":42.4756955,"zipcode":"01907","longitude":-70.9068947578506,"id":"a6km86epknh2"},"type":"Feature","geometry":{"type":"Point","coordinates":[-70.9068947578506,42.4756955]}},{"properties":{"city":"Brewster","latitude":41.7480436614756,"zipcode":"02631","longitude":-70.069309,"id":"a6km86hjpcny"},"type":"Feature","geometry":{"type":"Point","coordinates":[-70.069309,41.7480436614756]}},{"properties":{"city":"Sandwich","latitude":41.7174445,"zipcode":"02563","longitude":-70.481305,"id":"a6km8676k3m0"},"type":"Feature","geometry":{"type":"Point","coordinates":[-70.481305,41.7174445]}},{"properties":{"city":"Hyannis","latitude":41.661844228315,"zipcode":"02601","longitude":-70.293959,"id":"a6km86m7g1kq"},"type":"Feature","geometry":{"type":"Point","coordinates":[-70.293959,41.661844228315]}},{"properties":{"city":"Chatham","latitude":41.687314,"zipcode":"02633","longitude":-69.9793955,"id":"a6km86cpiqre"},"type":"Feature","geometry":{"type":"Point","coordinates":[-69.9793955,41.687314]}},{"properties":{"city":"E Falmouth","latitude":41.600311274987,"zipcode":"02536","longitude":-70.563429,"id":"a6km86myc81b"},"type":"Feature","geometry":{"type":"Point","coordinates":[-70.563429,41.600311274987]}},{"properties":{"city":"Norton","latitude":41.9608995,"zipcode":"02766","longitude":-71.1803935,"id":"a6km86gzaqfu"},"type":"Feature","geometry":{"type":"Point","coordinates":[-71.1803935,41.9608995]}},{"properties":{"city":"Hyannis","latitude":41.661844228315,"zipcode":"02601","longitude":-70.293959,"id":"a6km866z5c6v"},"type":"Feature","geometry":{"type":"Point","coordinates":[-70.293959,41.661844228315]}},{"properties":{"city":"Centerville","latitude":41.6609385320023,"zipcode":"02632","longitude":-70.349299,"id":"a6km86fs43zz"},"type":"Feature","geometry":{"type":"Point","coordinates":[-70.349299,41.6609385320023]}},{"properties":{"city":"Nantucket","latitude":41.3148331734204,"zipcode":"02554","longitude":-70.1178535701226,"id":"a6km86j34tvz"},"type":"Feature","geometry":{"type":"Point","coordinates":[-70.1178535701226,41.3148331734204]}},{"properties":{"city":"Centerville","latitude":41.6609385320023,"zipcode":"02632","longitude":-70.349299,"id":"a6km86m8ic27"},"type":"Feature","geometry":{"type":"Point","coordinates":[-70.349299,41.6609385320023]}},{"properties":{"city":"Hyannis","latitude":41.661844228315,"zipcode":"02601","longitude":-70.293959,"id":"a6km86fhb1mg"},"type":"Feature","geometry":{"type":"Point","coordinates":[-70.293959,41.661844228315]}},{"properties":{"city":"South Chatham","latitude":41.6835786174021,"zipcode":"02659","longitude":-70.0190980590366,"id":"a6km86nb4gqq"},"type":"Feature","geometry":{"type":"Point","coordinates":[-70.0190980590366,41.6835786174021]}},{"properties":{"city":"Dennis","latitude":41.7344862481227,"zipcode":"02638","longitude":-70.2011838888978,"id":"a6km86b29fmj"},"type":"Feature","geometry":{"type":"Point","coordinates":[-70.2011838888978,41.7344862481227]}},{"properties":{"city":"S. Yarmouth","latitude":41.6709788789798,"zipcode":"02664","longitude":-70.1945775,"id":"a6km86giiyv1"},"type":"Feature","geometry":{"type":"Point","coordinates":[-70.1945775,41.6709788789798]}},{"properties":{"city":"Eastham","latitude":41.8394188226486,"zipcode":"02642","longitude":-69.9743935,"id":"a6km86mzjfzh"},"type":"Feature","geometry":{"type":"Point","coordinates":[-69.9743935,41.8394188226486]}},{"properties":{"city":"Monument Beach","latitude":null,"zipcode":"02553","longitude":null,"id":"a6km86gwilx8"},"type":"Feature","geometry":null},{"properties":{"city":"Brant Rock","latitude":null,"zipcode":"02020","longitude":null,"id":"a6km86ebp7v7"},"type":"Feature","geometry":null},{"properties":{"city":"Mattapoisett","latitude":41.6649655702206,"zipcode":"02739","longitude":-70.8114755,"id":"a6km866t4h6q"},"type":"Feature","geometry":{"type":"Point","coordinates":[-70.8114755,41.6649655702206]}},{"properties":{"city":"East Falmouth","latitude":41.600311274987,"zipcode":"02536","longitude":-70.563429,"id":"a6km86m5z7oi"},"type":"Feature","geometry":{"type":"Point","coordinates":[-70.563429,41.600311274987]}},{"properties":{"city":"Plymouth","latitude":41.8729763019684,"zipcode":"02360","longitude":-70.639363,"id":"a6km868iissz"},"type":"Feature","geometry":{"type":"Point","coordinates":[-70.639363,41.8729763019684]}},{"properties":{"city":"North Truro","latitude":42.041378569275,"zipcode":"02652","longitude":-70.1006925272676,"id":"a6km86m1nj2i"},"type":"Feature","geometry":{"type":"Point","coordinates":[-70.1006925272676,42.041378569275]}},{"properties":{"city":"South Easton","latitude":42.0261995,"zipcode":"02375","longitude":-71.1091915,"id":"a6km86hn4h8j"},"type":"Feature","geometry":{"type":"Point","coordinates":[-71.1091915,42.0261995]}},{"properties":{"city":"Dennis","latitude":41.7344862481227,"zipcode":"02638","longitude":-70.2011838888978,"id":"a6km86c7b9fc"},"type":"Feature","geometry":{"type":"Point","coordinates":[-70.2011838888978,41.7344862481227]}},{"properties":{"city":"Siasconset","latitude":null,"zipcode":"02564","longitude":null,"id":"a6km86c5phrt"},"type":"Feature","geometry":null},{"properties":{"city":"Montville","latitude":null,"zipcode":"06351","longitude":null,"id":"a6km86n59630"},"type":"Feature","geometry":null},{"properties":{"city":"Buzzards Bay","latitude":41.7726650356197,"zipcode":"02532","longitude":-70.5807022853116,"id":"a6km86frif9c"},"type":"Feature","geometry":{"type":"Point","coordinates":[-70.5807022853116,41.7726650356197]}},{"properties":{"city":"Provincetown","latitude":42.0511204651991,"zipcode":"02657","longitude":-70.1961035,"id":"a6km86f2gj81"},"type":"Feature","geometry":{"type":"Point","coordinates":[-70.1961035,42.0511204651991]}},{"properties":{"city":"Sandwich","latitude":41.7174445,"zipcode":"02563","longitude":-70.481305,"id":"a6km86lv2m4z"},"type":"Feature","geometry":{"type":"Point","coordinates":[-70.481305,41.7174445]}},{"properties":{"city":"Mashpee","latitude":41.6168520487206,"zipcode":"02649","longitude":-70.4930765,"id":"a6km86mrmool"},"type":"Feature","geometry":{"type":"Point","coordinates":[-70.4930765,41.6168520487206]}},{"properties":{"city":"Bourne","latitude":41.7726650356197,"zipcode":"02532","longitude":-70.5807022853116,"id":"a6km86atzi2m"},"type":"Feature","geometry":{"type":"Point","coordinates":[-70.5807022853116,41.7726650356197]}},{"properties":{"city":"Cotuit","latitude":41.621851,"zipcode":"02635","longitude":-70.441234,"id":"a6km86htonam"},"type":"Feature","geometry":{"type":"Point","coordinates":[-70.441234,41.621851]}},{"properties":{"city":"N Eastham","latitude":null,"zipcode":"02651","longitude":null,"id":"a6km86huu25b"},"type":"Feature","geometry":null},{"properties":{"city":"Yarmouth Port","latitude":41.706215,"zipcode":"02675","longitude":-70.229891,"id":"a6km86cf08mz"},"type":"Feature","geometry":{"type":"Point","coordinates":[-70.229891,41.706215]}},{"properties":{"city":"E. Sandwich","latitude":41.7277844193436,"zipcode":"02537","longitude":-70.4333266281403,"id":"a6km86kw2mtk"},"type":"Feature","geometry":{"type":"Point","coordinates":[-70.4333266281403,41.7277844193436]}},{"properties":{"city":"Hyannis","latitude":41.661844228315,"zipcode":"02601","longitude":-70.293959,"id":"a6km86l6ctpa"},"type":"Feature","geometry":{"type":"Point","coordinates":[-70.293959,41.661844228315]}},{"properties":{"city":"South Dennis","latitude":41.713665,"zipcode":"02660","longitude":-70.1559518502482,"id":"a6km86eqkehf"},"type":"Feature","geometry":{"type":"Point","coordinates":[-70.1559518502482,41.713665]}},{"properties":{"city":"Eastham","latitude":41.8394188226486,"zipcode":"02642","longitude":-69.9743935,"id":"a6km86a2x2xy"},"type":"Feature","geometry":{"type":"Point","coordinates":[-69.9743935,41.8394188226486]}},{"properties":{"city":"Hyannis","latitude":41.661844228315,"zipcode":"02601","longitude":-70.293959,"id":"a6km86dssvzv"},"type":"Feature","geometry":{"type":"Point","coordinates":[-70.293959,41.661844228315]}},{"properties":{"city":"Plymouth","latitude":41.8729763019684,"zipcode":"02360","longitude":-70.639363,"id":"a6km86dudseg"},"type":"Feature","geometry":{"type":"Point","coordinates":[-70.639363,41.8729763019684]}},{"properties":{"city":"S Yarmouth","latitude":41.6709788789798,"zipcode":"02664","longitude":-70.1945775,"id":"a6km86c5fizu"},"type":"Feature","geometry":{"type":"Point","coordinates":[-70.1945775,41.6709788789798]}},{"properties":{"city":"Plymouth","latitude":41.8729763019684,"zipcode":"02360","longitude":-70.639363,"id":"a6km86fpz1oa"},"type":"Feature","geometry":{"type":"Point","coordinates":[-70.639363,41.8729763019684]}},{"properties":{"city":"Mashpee","latitude":41.6168520487206,"zipcode":"02649","longitude":-70.4930765,"id":"a6km86h52wv2"},"type":"Feature","geometry":{"type":"Point","coordinates":[-70.4930765,41.6168520487206]}},{"properties":{"city":"W. Yarmouth","latitude":41.648419,"zipcode":"02673","longitude":-70.2446921319246,"id":"a6km86ci04io"},"type":"Feature","geometry":{"type":"Point","coordinates":[-70.2446921319246,41.648419]}},{"properties":{"city":"Boston","latitude":42.334598,"zipcode":"02127","longitude":-71.0364500829486,"id":"a6km86lxgcsd"},"type":"Feature","geometry":{"type":"Point","coordinates":[-71.0364500829486,42.334598]}},{"properties":{"city":"Chatham","latitude":41.687314,"zipcode":"02633","longitude":-69.9793955,"id":"a6km86diqtff"},"type":"Feature","geometry":{"type":"Point","coordinates":[-69.9793955,41.687314]}},{"properties":{"city":"Orleans","latitude":41.7526648894689,"zipcode":"02653","longitude":-69.9749152032088,"id":"a6km86a7rx2i"},"type":"Feature","geometry":{"type":"Point","coordinates":[-69.9749152032088,41.7526648894689]}},{"properties":{"city":"E Wareham","latitude":41.781104,"zipcode":"02538","longitude":-70.6473,"id":"a6km86bdvvpm"},"type":"Feature","geometry":{"type":"Point","coordinates":[-70.6473,41.781104]}},{"properties":{"city":"Hyannis","latitude":41.661844228315,"zipcode":"02601","longitude":-70.293959,"id":"a6km86kgzy9d"},"type":"Feature","geometry":{"type":"Point","coordinates":[-70.293959,41.661844228315]}},{"properties":{"city":"West Barnstable","latitude":41.7081360788311,"zipcode":"02668","longitude":-70.337738207712,"id":"a6km86en5q3w"},"type":"Feature","geometry":{"type":"Point","coordinates":[-70.337738207712,41.7081360788311]}},{"properties":{"city":"Yarmouth Port","latitude":41.706215,"zipcode":"02675","longitude":-70.229891,"id":"a6km86bwsm7j"},"type":"Feature","geometry":{"type":"Point","coordinates":[-70.229891,41.706215]}},{"properties":{"city":"W. Yarmouth","latitude":41.648419,"zipcode":"02673","longitude":-70.2446921319246,"id":"a6km86bqayjg"},"type":"Feature","geometry":{"type":"Point","coordinates":[-70.2446921319246,41.648419]}},{"properties":{"city":"Osterville","latitude":41.6357633816461,"zipcode":"02655","longitude":-70.3949879113812,"id":"a6km86e65jfz"},"type":"Feature","geometry":{"type":"Point","coordinates":[-70.3949879113812,41.6357633816461]}},{"properties":{"city":"Harwich","latitude":41.7029405,"zipcode":"02645","longitude":-70.0626675,"id":"a6km86ffm3qi"},"type":"Feature","geometry":{"type":"Point","coordinates":[-70.0626675,41.7029405]}},{"properties":{"city":"Barnstable","latitude":41.7001455,"zipcode":"02630","longitude":-70.309826,"id":"a6km86hgnjk0"},"type":"Feature","geometry":{"type":"Point","coordinates":[-70.309826,41.7001455]}},{"properties":{"city":"W.Yarmouth","latitude":41.6352545,"zipcode":"02672","longitude":-70.3192015,"id":"a6km86mkko19"},"type":"Feature","geometry":{"type":"Point","coordinates":[-70.3192015,41.6352545]}},{"properties":{"city":"Nantucket","latitude":41.3148331734204,"zipcode":"02554","longitude":-70.1178535701226,"id":"a6km86cup0cc"},"type":"Feature","geometry":{"type":"Point","coordinates":[-70.1178535701226,41.3148331734204]}},{"properties":{"city":"E Harwich","latitude":41.7029405,"zipcode":"02645","longitude":-70.0626675,"id":"a6km86gduj9a"},"type":"Feature","geometry":{"type":"Point","coordinates":[-70.0626675,41.7029405]}},{"properties":{"city":"Plymouth","latitude":41.8729763019684,"zipcode":"02360","longitude":-70.639363,"id":"a6km86n2nf02"},"type":"Feature","geometry":{"type":"Point","coordinates":[-70.639363,41.8729763019684]}},{"properties":{"city":"Centerville","latitude":41.6609385320023,"zipcode":"02632","longitude":-70.349299,"id":"a6km86iiol0d"},"type":"Feature","geometry":{"type":"Point","coordinates":[-70.349299,41.6609385320023]}},{"properties":{"city":"West Yarmouth","latitude":41.648419,"zipcode":"02673","longitude":-70.2446921319246,"id":"a6km86ea905z"},"type":"Feature","geometry":{"type":"Point","coordinates":[-70.2446921319246,41.648419]}},{"properties":{"city":"Centerville","latitude":41.6609385320023,"zipcode":"02632","longitude":-70.349299,"id":"a6km86d85a33"},"type":"Feature","geometry":{"type":"Point","coordinates":[-70.349299,41.6609385320023]}},{"properties":{"city":"Hyannis","latitude":41.661844228315,"zipcode":"02601","longitude":-70.293959,"id":"a6km86lrbck2"},"type":"Feature","geometry":{"type":"Point","coordinates":[-70.293959,41.661844228315]}},{"properties":{"city":"S Orleans","latitude":null,"zipcode":"02662","longitude":null,"id":"a6km8683mn2m"},"type":"Feature","geometry":null},{"properties":{"city":"South Yarmouth","latitude":41.6709788789798,"zipcode":"02664","longitude":-70.1945775,"id":"a6km8680hqrf"},"type":"Feature","geometry":{"type":"Point","coordinates":[-70.1945775,41.6709788789798]}},{"properties":{"city":"South Dennis","latitude":41.713665,"zipcode":"02660","longitude":-70.1559518502482,"id":"a6km86k36t2e"},"type":"Feature","geometry":{"type":"Point","coordinates":[-70.1559518502482,41.713665]}},{"properties":{"city":"Centerville","latitude":41.6609385320023,"zipcode":"02632","longitude":-70.349299,"id":"a6km86m08ipo"},"type":"Feature","geometry":{"type":"Point","coordinates":[-70.349299,41.6609385320023]}},{"properties":{"city":"Manomet","latitude":null,"zipcode":"02345","longitude":null,"id":"a6km86c2seat"},"type":"Feature","geometry":null},{"properties":{"city":"Marshfield","latitude":42.1086535,"zipcode":"02050","longitude":-70.7129305,"id":"a6km86m1wcec"},"type":"Feature","geometry":{"type":"Point","coordinates":[-70.7129305,42.1086535]}},{"properties":{"city":"Provincetown","latitude":42.0511204651991,"zipcode":"02657","longitude":-70.1961035,"id":"a6km867q4cs1"},"type":"Feature","geometry":{"type":"Point","coordinates":[-70.1961035,42.0511204651991]}},{"properties":{"city":"Hyannis","latitude":41.661844228315,"zipcode":"02601","longitude":-70.293959,"id":"a6km86h3sooc"},"type":"Feature","geometry":{"type":"Point","coordinates":[-70.293959,41.661844228315]}},{"properties":{"city":"Brewster","latitude":41.7480436614756,"zipcode":"02631","longitude":-70.069309,"id":"a6km86knwbbz"},"type":"Feature","geometry":{"type":"Point","coordinates":[-70.069309,41.7480436614756]}},{"properties":{"city":"Nantucket","latitude":41.3148331734204,"zipcode":"02554","longitude":-70.1178535701226,"id":"a6km86hewt7k"},"type":"Feature","geometry":{"type":"Point","coordinates":[-70.1178535701226,41.3148331734204]}},{"properties":{"city":"Brewster","latitude":41.7480436614756,"zipcode":"02631","longitude":-70.069309,"id":"a6km86ffox2t"},"type":"Feature","geometry":{"type":"Point","coordinates":[-70.069309,41.7480436614756]}},{"properties":{"city":"East Falmouth","latitude":41.600311274987,"zipcode":"02536","longitude":-70.563429,"id":"a6km8684kurt"},"type":"Feature","geometry":{"type":"Point","coordinates":[-70.563429,41.600311274987]}},{"properties":{"city":"Sandwich","latitude":41.7174445,"zipcode":"02563","longitude":-70.481305,"id":"a6km86cn3nz8"},"type":"Feature","geometry":{"type":"Point","coordinates":[-70.481305,41.7174445]}},{"properties":{"city":"Nantucket","latitude":41.3148331734204,"zipcode":"02554","longitude":-70.1178535701226,"id":"a6km86bt7cew"},"type":"Feature","geometry":{"type":"Point","coordinates":[-70.1178535701226,41.3148331734204]}},{"properties":{"city":"Sandwich","latitude":41.7174445,"zipcode":"02563","longitude":-70.481305,"id":"a6km86a5tfk5"},"type":"Feature","geometry":{"type":"Point","coordinates":[-70.481305,41.7174445]}},{"properties":{"city":"Mashpee","latitude":41.6168520487206,"zipcode":"02649","longitude":-70.4930765,"id":"a6km867jvfmt"},"type":"Feature","geometry":{"type":"Point","coordinates":[-70.4930765,41.6168520487206]}},{"properties":{"city":"W Yarmouth","latitude":41.648419,"zipcode":"02673","longitude":-70.2446921319246,"id":"a6km86cgrvw8"},"type":"Feature","geometry":{"type":"Point","coordinates":[-70.2446921319246,41.648419]}},{"properties":{"city":"Harwich Port","latitude":41.6710908307983,"zipcode":"02646","longitude":-70.06874,"id":"a6km86n0rfq3"},"type":"Feature","geometry":{"type":"Point","coordinates":[-70.06874,41.6710908307983]}}],"is_temporal":false,"author":{"url":"","metadata":"","contact_name":"","contact_address":"","source":"","contact_phone":""},"source":"","pagination":{"sort":null,"start":0,"total":200,"limit":1000000},"state":"complete","tags":"","published":"2014-08-13T05:22:45-04:00","id":105420}