{"type":"FeatureCollection","data_attributes":null,"calculation_params":null,"title":"50 Fortune 1000 Companies that Fell in Rank, 2006","count":50,"icon_link":null,"extent":[-122.333,29.4923,-70.2591,47.6061],"geometry_types":["point"],"unique_name":null,"feature_count":50,"link":"http://geocommons.com/overlays/10567.json","next_feature":null,"features":[{"properties":{"company":"AGCO","city":"Duluth","fivehundrank":421,"zip":30096,"ohsixrank":399,"website":"www.agcocorp.com","street":"4205 River Green Pkwy","phone":"770-813-9200","rankloss":-22,"id":"a62hguhyhlfd","lat":34.016545,"state":"GA","long":-84.164473},"type":"Feature","geometry":{"type":"Point","coordinates":[-84.164473,34.016545]}},{"properties":{"company":"Advanced Micro Devices","city":"Sunnyvale","fivehundrank":407,"zip":94085,"ohsixrank":367,"website":"www.amd.com","street":"1 AMD Place","phone":"408-749-4000","rankloss":-40,"id":"a62hgur3c4vh","lat":37.386766,"state":"CA","long":-121.998567},"type":"Feature","geometry":{"type":"Point","coordinates":[-121.998567,37.386766]}},{"properties":{"company":"Agilent Technologies","city":"Santa Clara","fivehundrank":387,"zip":95051,"ohsixrank":319,"website":"www.agilent.com","street":"5301 Stevens Creek Blvd","phone":"408-553-7777","rankloss":-68,"id":"a62hgumw9ce0","lat":37.323174,"state":"CA","long":-121.996575},"type":"Feature","geometry":{"type":"Point","coordinates":[-121.996575,37.323174]}},{"properties":{"company":"Asbury Automotive Group","city":"New York","fivehundrank":391,"zip":10017,"ohsixrank":364,"website":"www.asburyauto.com","street":"622 Third Ave","phone":"212-885-2500","rankloss":-27,"id":"a62hguu7qn2w","lat":40.749675,"state":"NY","long":-73.975426},"type":"Feature","geometry":{"type":"Point","coordinates":[-73.975426,40.749675]}},{"properties":{"company":"Autoliv","city":"Auburn Hills","fivehundrank":376,"zip":48326,"ohsixrank":351,"website":"www.autoliv.com","street":"1320 Pacific Dr","phone":"248-475-9000","rankloss":-25,"id":"a62hgup420wx","lat":42.69549,"state":"MI","long":-83.272762},"type":"Feature","geometry":{"type":"Point","coordinates":[-83.272762,42.69549]}},{"properties":{"company":"Avis Budget Group","city":"Parsippany","fivehundrank":405,"zip":7054,"ohsixrank":114,"website":"www.avisbudgetgroup.com","street":"6 Sylvan Way","phone":"973-496-4700","rankloss":-291,"id":"a62hgukjcc4z","lat":40.84782,"state":"NJ","long":-74.451477},"type":"Feature","geometry":{"type":"Point","coordinates":[-74.451477,40.84782]}},{"properties":{"company":"Black &amp; Decker","city":"Towson","fivehundrank":356,"zip":21286,"ohsixrank":330,"website":"www.bdk.com","street":"701 E Joppa Rd","phone":"410-716-3900","rankloss":-26,"id":"a62hguks0j7j","lat":39.399559,"state":"MD","long":-76.589266},"type":"Feature","geometry":{"type":"Point","coordinates":[-76.589266,39.399559]}},{"properties":{"company":"Blockbuster","city":"Dallas","fivehundrank":410,"zip":75270,"ohsixrank":366,"website":"www.blockbuster.com","street":"1201 Elm St","phone":"214-854-3000","rankloss":-44,"id":"a62hgul0xzh3","lat":32.781004,"state":"TX","long":-96.801884},"type":"Feature","geometry":{"type":"Point","coordinates":[-96.801884,32.781004]}},{"properties":{"company":"BlueLinx Holdings","city":"Atlanta","fivehundrank":456,"zip":30339,"ohsixrank":387,"website":"www.bluelinxco.com","street":"4300 Wildwood Pkwy","phone":"770-953-7000","rankloss":-69,"id":"a62hgupzpg47","lat":33.914778,"state":"GA","long":-84.456249},"type":"Feature","geometry":{"type":"Point","coordinates":[-84.456249,33.914778]}},{"properties":{"company":"Calpine","city":"San Jose","fivehundrank":344,"zip":95113,"ohsixrank":275,"website":"www.calpine.com","street":"50 W San Fernando St","phone":"408-995-5115","rankloss":-69,"id":"a62hgusp68sl","lat":37.333849,"state":"CA","long":-121.889859},"type":"Feature","geometry":{"type":"Point","coordinates":[-121.889859,37.333849]}},{"properties":{"company":"CenterPoint Energy","city":"Houston","fivehundrank":270,"zip":77002,"ohsixrank":244,"website":"www.centerpointenergy.com","street":"1111 Louisiana St","phone":"713-207-1111","rankloss":-26,"id":"a62hguki3lrr","lat":29.757565,"state":"TX","long":-95.368083},"type":"Feature","geometry":{"type":"Point","coordinates":[-95.368083,29.757565]}},{"properties":{"company":"Clear Channel Communications","city":"San Antonio","fivehundrank":330,"zip":78209,"ohsixrank":252,"website":"www.clearchannel.com","street":"200 E Basse Rd","phone":"210-822-2828","rankloss":-78,"id":"a62hgutc1lpt","lat":29.492329,"state":"TX","long":-98.479857},"type":"Feature","geometry":{"type":"Point","coordinates":[-98.479857,29.492329]}},{"properties":{"company":"Computer Sciences","city":"Falls Church","fivehundrank":163,"zip":22042,"ohsixrank":141,"website":"www.csc.com","street":"3170 Fairview Park Dr","phone":"703-876-1000","rankloss":-22,"id":"a62hguwo3ilf","lat":38.860418,"state":"VA","long":-77.214796},"type":"Feature","geometry":{"type":"Point","coordinates":[-77.214796,38.860418]}},{"properties":{"company":"ConAgra Foods","city":"Omaha","fivehundrank":173,"zip":68102,"ohsixrank":143,"website":"www.conagrafoods.com","street":"1 ConAgra Dr","phone":"402-595-4000","rankloss":-30,"id":"a62hgurluw67","lat":41.25636,"state":"NE","long":-95.927243},"type":"Feature","geometry":{"type":"Point","coordinates":[-95.927243,41.25636]}},{"properties":{"company":"Dean Foods","city":"Dallas","fivehundrank":246,"zip":75201,"ohsixrank":216,"website":"www.deanfoods.com","street":"2515 McKinney Ave","phone":"214-303-3400","rankloss":-30,"id":"a62hguljcs6h","lat":32.795458,"state":"TX","long":-96.802177},"type":"Feature","geometry":{"type":"Point","coordinates":[-96.802177,32.795458]}},{"properties":{"company":"Duke Energy","city":"Charlotte","fivehundrank":143,"zip":28202,"ohsixrank":117,"website":"www.duke-energy.com","street":"526 S Church St","phone":"704-594-6200","rankloss":-26,"id":"a62hgujw606s","lat":35.224794,"state":"NC","long":-80.849194},"type":"Feature","geometry":{"type":"Point","coordinates":[-80.849194,35.224794]}},{"properties":{"company":"Eastman Kodak","city":"Rochester","fivehundrank":182,"zip":14650,"ohsixrank":155,"website":"www.kodak.com","street":"343 State St","phone":"585-724-4000","rankloss":-27,"id":"a62hgutkt9jt","lat":43.161245,"state":"NY","long":-77.619368},"type":"Feature","geometry":{"type":"Point","coordinates":[-77.619368,43.161245]}},{"properties":{"company":"Energy East","city":"New Gloucester","fivehundrank":434,"zip":4260,"ohsixrank":405,"website":"www.energyeast.com","street":"52 Farm View Dr","phone":"207-688-6300","rankloss":-29,"id":"a62hgur8iw3l","lat":43.904449,"state":"ME","long":-70.259125},"type":"Feature","geometry":{"type":"Point","coordinates":[-70.259125,43.904449]}},{"properties":{"company":"Erie Insurance Group","city":"Erie","fivehundrank":463,"zip":16530,"ohsixrank":421,"website":"www.erieinsurance.com","street":"100 Erie Insurance Place","phone":"814-870-2000","rankloss":-42,"id":"a62hgujvm6sp","lat":42.130249,"state":"PA","long":-80.084099},"type":"Feature","geometry":{"type":"Point","coordinates":[-80.084099,42.130249]}},{"properties":{"company":"First Data","city":"Greenwood Village","fivehundrank":331,"zip":80111,"ohsixrank":224,"website":"www.firstdatacorp.com","street":"6200 S Quebec St","phone":"303-967-8000","rankloss":-107,"id":"a62hgujfku45","lat":39.603693,"state":"CO","long":-104.903866},"type":"Feature","geometry":{"type":"Point","coordinates":[-104.903866,39.603693]}},{"properties":{"company":"FirstEnergy","city":"Akron","fivehundrank":212,"zip":44308,"ohsixrank":184,"website":"www.firstenergycorp.com","street":"76 S Main St","phone":"800-736-3402","rankloss":-28,"id":"a62hguw1nq10","lat":41.083314,"state":"OH","long":-81.517807},"type":"Feature","geometry":{"type":"Point","coordinates":[-81.517807,41.083314]}},{"properties":{"company":"IAC/InterActiveCorp","city":"New York","fivehundrank":345,"zip":10011,"ohsixrank":313,"website":"www.iac.com","street":"555 W 18th St","phone":"212-314-7300","rankloss":-32,"id":"a62hguvsfskr","lat":40.745162,"state":"NY","long":-74.007254},"type":"Feature","geometry":{"type":"Point","coordinates":[-74.007254,40.745162]}},{"properties":{"company":"Jones Apparel Group","city":"New York","fivehundrank":470,"zip":10018,"ohsixrank":425,"website":"www.jny.com","street":"1411 Broadway","phone":"212-642-3860","rankloss":-45,"id":"a62hgus1eups","lat":40.753728,"state":"NY","long":-73.987163},"type":"Feature","geometry":{"type":"Point","coordinates":[-73.987163,40.753728]}},{"properties":{"company":"KeySpan","city":"Brooklyn","fivehundrank":326,"zip":11201,"ohsixrank":295,"website":"Website: http://www.keyspanenergy.com","street":"1 MetroTech Center","phone":"Phone: 718-403-1000","rankloss":-31,"id":"a62hguwg2crz","lat":40.692593,"state":"NY","long":-73.987087},"type":"Feature","geometry":{"type":"Point","coordinates":[-73.987087,40.692593]}},{"properties":{"company":"Land O'Lakes","city":"Arden Hills","fivehundrank":329,"zip":55126,"ohsixrank":301,"website":"www.landolakesinc.com","street":"4001 Lexington Ave N","phone":"651-481-2222","rankloss":-28,"id":"a62hgunh9j1p","lat":45.061604,"state":"MN","long":-93.147403},"type":"Feature","geometry":{"type":"Point","coordinates":[-93.147403,45.061604]}},{"properties":{"company":"Lexmark International","city":"Lexington","fivehundrank":442,"zip":40550,"ohsixrank":415,"website":"www.lexmark.com","street":"740 W New Circle Rd","phone":"859-232-2000","rankloss":-27,"id":"a62hguw1o4jr","lat":38.073492,"state":"KY","long":-84.489429},"type":"Feature","geometry":{"type":"Point","coordinates":[-84.489429,38.073492]}},{"properties":{"company":"Lucent Technologies","city":"Murray Hill","fivehundrank":282,"zip":7974,"ohsixrank":255,"website":"Website: http://www.alcatel-lucent.com","street":"600 Mountain Ave.","phone":"908-582-8500","rankloss":-27,"id":"a62hguhjrvq8","lat":40.686569,"state":"NJ","long":-74.399963},"type":"Feature","geometry":{"type":"Point","coordinates":[-74.399963,40.686569]}},{"properties":{"company":"MDC Holdings","city":"Denver","fivehundrank":461,"zip":80237,"ohsixrank":437,"website":"www.richmondamerican.com","street":"4350 S Monaco St","phone":"303-773-1100","rankloss":-24,"id":"a62hgurqcaps","lat":39.63693,"state":"CO","long":-104.912734},"type":"Feature","geometry":{"type":"Point","coordinates":[-104.912734,39.63693]}},{"properties":{"company":"MeadWestvaco","city":"Glen Allen","fivehundrank":350,"zip":23060,"ohsixrank":322,"website":"www.meadwestvaco.com","street":"11013 W Broad St","phone":"804 327-5200","rankloss":-28,"id":"a62hguhyuohl","lat":37.647276,"state":"VA","long":-77.587405},"type":"Feature","geometry":{"type":"Point","coordinates":[-77.587405,37.647276]}},{"properties":{"company":"NiSource","city":"Merrillville","fivehundrank":320,"zip":46410,"ohsixrank":289,"website":"www.nisource.com","street":"801 E 86th Ave","phone":"877-647-5990","rankloss":-31,"id":"a62hguni7cf7","lat":41.463589,"state":"IN","long":-87.326026},"type":"Feature","geometry":{"type":"Point","coordinates":[-87.326026,41.463589]}},{"properties":{"company":"Northeast Utilities","city":"Berlin","fivehundrank":337,"zip":6037,"ohsixrank":304,"website":"www.nu.com","street":"107 Selden St","phone":"860-665-5000","rankloss":-33,"id":"a62hguhag4b2","lat":41.64835,"state":"CT","long":-72.727737},"type":"Feature","geometry":{"type":"Point","coordinates":[-72.727737,41.64835]}},{"properties":{"company":"ONEOK","city":"Tulsa","fivehundrank":208,"zip":74103,"ohsixrank":176,"website":"www.oneok.com","street":"100 W Fifth St","phone":"918-588-7000","rankloss":-32,"id":"a62hguum4ak8","lat":36.150935,"state":"OK","long":-95.99135},"type":"Feature","geometry":{"type":"Point","coordinates":[-95.99135,36.150935]}},{"properties":{"company":"OfficeMax","city":"Naperville","fivehundrank":280,"zip":60563,"ohsixrank":258,"website":"www.officemax.com","street":"263 Shuman Blvd","phone":"630-438-7800","rankloss":-22,"id":"a62hgujqarkx","lat":41.803515,"state":"IL","long":-88.151333},"type":"Feature","geometry":{"type":"Point","coordinates":[-88.151333,41.803515]}},{"properties":{"company":"Performance Food Group","city":"Richmond","fivehundrank":393,"zip":23238,"ohsixrank":349,"website":"www.pfgc.com","street":"12500 W Creek Pkwy","phone":"804-484-7700","rankloss":-44,"id":"a62hgusrmbis","lat":37.605495,"state":"VA","long":-77.645093},"type":"Feature","geometry":{"type":"Point","coordinates":[-77.645093,37.605495]}},{"properties":{"company":"Pilgrim's Pride","city":"Pittsburg","fivehundrank":432,"zip":75686,"ohsixrank":382,"website":"www.pilgrimspride.com","street":"4845 US Highway 271 N","phone":"903-434-1000","rankloss":-50,"id":"a62hguk74bwo","lat":33.068087,"state":"TX","long":-94.964452},"type":"Feature","geometry":{"type":"Point","coordinates":[-94.964452,33.068087]}},{"properties":{"company":"Plains All Amer. Pipeline","city":"Houston","fivehundrank":103,"zip":77002,"ohsixrank":65,"website":"www.paalp.com","street":"333 Clay St","phone":"713-646-4100","rankloss":-38,"id":"a62hgumx3icq","lat":29.7575801,"state":"TX","long":-95.37248},"type":"Feature","geometry":{"type":"Point","coordinates":[-95.37248,29.7575801]}},{"properties":{"company":"Pulte Homes","city":"Bloomfield Hills","fivehundrank":170,"zip":48304,"ohsixrank":147,"website":"www.pulte.com","street":"100 Bloomfield Hills Pkwy","phone":"248-647-2750","rankloss":-23,"id":"a62hgunqg0ai","lat":42.582493,"state":"MI","long":-83.236664},"type":"Feature","geometry":{"type":"Point","coordinates":[-83.236664,42.582493]}},{"properties":{"company":"RadioShack","city":"Fort Worth","fivehundrank":466,"zip":76102,"ohsixrank":423,"website":"www.radioshackcorporation.com","street":"300 RadioShack Circle","phone":"817-415-3011","rankloss":-43,"id":"a62hguvs8o3s","lat":32.756776,"state":"TX","long":-97.337577},"type":"Feature","geometry":{"type":"Point","coordinates":[-97.337577,32.756776]}},{"properties":{"company":"Ryland Group","city":"Calabasas","fivehundrank":467,"zip":91302,"ohsixrank":444,"website":"www.ryland.com","street":"24025 Park Sorrento","phone":"818-223-7500","rankloss":-23,"id":"a62hgujmbd1p","lat":34.152194,"state":"CA","long":-118.649055},"type":"Feature","geometry":{"type":"Point","coordinates":[-118.649055,34.152194]}},{"properties":{"company":"SCANA","city":"Columbia","fivehundrank":483,"zip":29201,"ohsixrank":447,"website":"www.scana.com","street":"1426 Main St","phone":"803-217-9000","rankloss":-36,"id":"a62hgui2txyb","lat":34.004424,"state":"SC","long":-81.034836},"type":"Feature","geometry":{"type":"Point","coordinates":[-81.034836,34.004424]}},{"properties":{"company":"SPX","city":"Charlotte","fivehundrank":471,"zip":28277,"ohsixrank":446,"website":"www.spx.com","street":"13515 Ballantyne Corporate Place","phone":"704-752-4400","rankloss":-25,"id":"a62hgur9phjb","lat":35.060923,"state":"NC","long":-80.848605},"type":"Feature","geometry":{"type":"Point","coordinates":[-80.848605,35.060923]}},{"properties":{"company":"Safeco","city":"Seattle","fivehundrank":363,"zip":98154,"ohsixrank":339,"website":"www.safeco.com","street":"1001 Fourth Ave","phone":"206-545-5000","rankloss":-24,"id":"a62hguu1k425","lat":47.606105,"state":"WA","long":-122.33294},"type":"Feature","geometry":{"type":"Point","coordinates":[-122.33294,47.606105]}},{"properties":{"company":"Sanmina-SCI","city":"San Jose","fivehundrank":230,"zip":95134,"ohsixrank":198,"website":"www.sanmina-sci.com","street":"2700 N First St","phone":"408-964-3500","rankloss":-32,"id":"a62hguldfh9i","lat":37.388897,"state":"CA","long":-121.929612},"type":"Feature","geometry":{"type":"Point","coordinates":[-121.929612,37.388897]}},{"properties":{"company":"Smurfit-Stone Container","city":"Chicago","fivehundrank":303,"zip":60601,"ohsixrank":274,"website":"www.smurfit-stone.com","street":"150 N Michigan Ave","phone":"312-346-6600","rankloss":-29,"id":"a62hgung0y92","lat":41.884603,"state":"IL","long":-87.624604},"type":"Feature","geometry":{"type":"Point","coordinates":[-87.624604,41.884603]}},{"properties":{"company":"Tenet Healthcare","city":"Dallas","fivehundrank":258,"zip":75240,"ohsixrank":236,"website":"www.tenethealth.com","street":"13737 Noel Rd","phone":"469-893-2200","rankloss":-22,"id":"a62hguojgtnl","lat":32.935237,"state":"TX","long":-96.818165},"type":"Feature","geometry":{"type":"Point","coordinates":[-96.818165,32.935237]}},{"properties":{"company":"Tribune","city":"Chicago","fivehundrank":413,"zip":60611,"ohsixrank":388,"website":"Website: http://www.tribune.com","street":"435 N. Michigan Ave.","phone":"312-222-9100","rankloss":-25,"id":"a62hguol9vww","lat":41.89015,"state":"IL","long":-87.624048},"type":"Feature","geometry":{"type":"Point","coordinates":[-87.624048,41.89015]}},{"properties":{"company":"Unisys","city":"Blue Bell","fivehundrank":400,"zip":19424,"ohsixrank":372,"website":"www.unisys.com","street":"Unisys Way","phone":"215-986-4011","rankloss":-28,"id":"a62hguoulxul","lat":40.142777,"state":"PA","long":-75.284917},"type":"Feature","geometry":{"type":"Point","coordinates":[-75.284917,40.142777]}},{"properties":{"company":"Visteon","city":"Van Buren Township","fivehundrank":219,"zip":48111,"ohsixrank":128,"website":"www.visteon.com","street":"1 Village Center Dr","phone":"800-847-8366","rankloss":-91,"id":"a62hguuhav4g","lat":42.2424,"state":"MI","long":-83.433768},"type":"Feature","geometry":{"type":"Point","coordinates":[-83.433768,42.2424]}},{"properties":{"company":"Williams","city":"Tulsa","fivehundrank":211,"zip":74172,"ohsixrank":180,"website":"www.williams.com","street":"1 Williams Center","phone":"918-573-2000","rankloss":-31,"id":"a62hguhyf2aq","lat":36.149761,"state":"OK","long":-95.993309},"type":"Feature","geometry":{"type":"Point","coordinates":[-95.993309,36.149761]}},{"properties":{"company":"Winn-Dixie Stores","city":"Jacksonville","fivehundrank":305,"zip":32254,"ohsixrank":231,"website":"www.winn-dixie.com","street":"5050 Edgewood Court","phone":"904-783-5000","rankloss":-74,"id":"a62hgujsj9pd","lat":30.325049,"state":"FL","long":-81.732653},"type":"Feature","geometry":{"type":"Point","coordinates":[-81.732653,30.325049]}}],"is_raster":false,"name":"50 Fortune 1000 Companies that Fell in Rank, 2006","state":"complete","short_classification":"Y","published":"2007-04-30T12:00:00Z","description":"This is a list of 50 companies that fell down the ranks of the Fortune list from 2005 to 2006. The locations were geocoded and uploaded into Geocommons as a csv.","stats":{"fivehundrank":{"max":483,"mean":334.74,"variance":10432.2779591837,"stdev":102.138523384586,"median":345,"min":103},"zip":{"max":98154,"mean":49067.14,"variance":900409548.286122,"stdev":30006.8250284185,"median":48304,"min":4260},"ohsixrank":{"max":447,"mean":292.26,"variance":11035.8289795918,"stdev":105.051553913266,"median":304,"min":65},"rankloss":{"max":-22,"mean":-42.48,"variance":1650.33632653061,"stdev":40.6243317056492,"median":-30,"min":-291},"lat":{"max":47.606105,"mean":38.152704562,"variance":18.6916027609622,"stdev":4.32337862799018,"median":39.399559,"min":29.492329},"long":{"max":-70.259125,"mean":-89.6239963,"variance":220.565488208992,"stdev":14.8514473439121,"median":-84.456249,"min":-122.33294}},"is_temporal":false,"pagination":{"sort":null,"start":0,"limit":1000000,"total":50},"author":{"metadata":"http://money.cnn.com/magazines/fortune/fortune500/2007/faq/","contact_name":"","url":"http://money.cnn.com/magazines/fortune/fortune500/2007/fiftyfifty/1.html","contact_address":"","contact_phone":"","source":"CNNMoney.com"},"source":"http://money.cnn.com/magazines/fortune/fortune500/2007/fiftyfifty/1.html","data_type":"Dataset","url_type":null,"permissions":[{"group_id":"everyone","permissions":{"download":true,"view":true}}],"classification":null,"tags":"2006,business,cnn,companies,economy,finance,fortune,fortune1000,money,profits,revenue","id":10567,"stream_id":10567,"contributor":{"name":"Margot","url":"http://geocommons.com/users/2943"}}