{"type":"FeatureCollection","data_type":"Dataset","url_type":null,"permissions":[{"permissions":{"download":true,"view":true},"group_id":"everyone"}],"classification":null,"title":"LA-NC zipcount","count":336,"stream_id":105758,"contributor":{"url":"http://geocommons.com/users/19501","name":"TroyJmorris"},"data_attributes":null,"calculation_params":null,"icon_link":null,"link":"http://geocommons.com/overlays/105758.json","extent":[-157.829,21.2828,-72.0007,47.6945],"geometry_types":["point"],"unique_name":null,"name":"LA-NC zipcount","feature_count":336,"description":"","next_feature":null,"is_raster":false,"short_classification":"Y","stats":{"count":{"max":710,"mean":4.23880597014925,"variance":1498.846992582,"stdev":38.7149453387448,"min":1,"median":1}},"features":[{"properties":{"zip":"900","geo_score":0.0,"count":1,"id":"a6gean28dhi7","geo_precision":"unmatched"},"type":"Feature","geometry":null},{"properties":{"zip":"6355","geo_score":0.714,"count":1,"id":"a6gean5asqpy","geo_precision":"zip"},"type":"Feature","geometry":{"type":"Point","coordinates":[-72.000748,41.485188]}},{"properties":{"zip":"6405","geo_score":0.714,"count":1,"id":"a6geamvfb52w","geo_precision":"zip"},"type":"Feature","geometry":{"type":"Point","coordinates":[-72.777042,41.267041]}},{"properties":{"zip":"7024","geo_score":0.714,"count":1,"id":"a6geamyvgas5","geo_precision":"zip"},"type":"Feature","geometry":{"type":"Point","coordinates":[-73.962082,40.864267]}},{"properties":{"zip":"9631","geo_score":0.0,"count":1,"id":"a6gean624ljl","geo_precision":"unmatched"},"type":"Feature","geometry":null},{"properties":{"zip":"18902","geo_score":0.0,"count":1,"id":"a6geamq87j7x","geo_precision":"unmatched"},"type":"Feature","geometry":null},{"properties":{"zip":"22044","geo_score":0.714,"count":1,"id":"a6gean0kflvn","geo_precision":"zip"},"type":"Feature","geometry":{"type":"Point","coordinates":[-77.171091,38.882334]}},{"properties":{"zip":"32570","geo_score":0.714,"count":1,"id":"a6geamt3igx9","geo_precision":"zip"},"type":"Feature","geometry":{"type":"Point","coordinates":[-87.179971,30.677414]}},{"properties":{"zip":"32835","geo_score":0.714,"count":1,"id":"a6gean3u1wi5","geo_precision":"zip"},"type":"Feature","geometry":{"type":"Point","coordinates":[-81.483543,28.52038]}},{"properties":{"zip":"34219","geo_score":0.714,"count":1,"id":"a6gean2073uf","geo_precision":"zip"},"type":"Feature","geometry":{"type":"Point","coordinates":[-82.269458,27.566457]}},{"properties":{"zip":"37064","geo_score":0.714,"count":1,"id":"a6gean3gwlju","geo_precision":"zip"},"type":"Feature","geometry":{"type":"Point","coordinates":[-86.926391,35.892565]}},{"properties":{"zip":"48030","geo_score":0.714,"count":1,"id":"a6geamuwkq6j","geo_precision":"zip"},"type":"Feature","geometry":{"type":"Point","coordinates":[-83.098474,42.496485]}},{"properties":{"zip":"48322","geo_score":0.714,"count":1,"id":"a6geamu8oasj","geo_precision":"zip"},"type":"Feature","geometry":{"type":"Point","coordinates":[-83.379535,42.542715]}},{"properties":{"zip":"55337","geo_score":0.714,"count":1,"id":"a6gean0carcw","geo_precision":"zip"},"type":"Feature","geometry":{"type":"Point","coordinates":[-93.226258,44.771547]}},{"properties":{"zip":"64138","geo_score":0.714,"count":1,"id":"a6geamu6vary","geo_precision":"zip"},"type":"Feature","geometry":{"type":"Point","coordinates":[-94.404673,38.904174]}},{"properties":{"zip":"70130","geo_score":0.714,"count":1,"id":"a6geamrixxpo","geo_precision":"zip"},"type":"Feature","geometry":{"type":"Point","coordinates":[-90.074122,29.939504]}},{"properties":{"zip":"70460","geo_score":0.714,"count":1,"id":"a6geamub4awc","geo_precision":"zip"},"type":"Feature","geometry":{"type":"Point","coordinates":[-89.89507,30.394083]}},{"properties":{"zip":"75077","geo_score":0.714,"count":1,"id":"a6gean2uhf4p","geo_precision":"zip"},"type":"Feature","geometry":{"type":"Point","coordinates":[-96.449707,33.204838]}},{"properties":{"zip":"76082","geo_score":0.714,"count":1,"id":"a6geamsepu9g","geo_precision":"zip"},"type":"Feature","geometry":{"type":"Point","coordinates":[-97.788642,32.979289]}},{"properties":{"zip":"80209","geo_score":0.714,"count":1,"id":"a6gean33vgwz","geo_precision":"zip"},"type":"Feature","geometry":{"type":"Point","coordinates":[-104.964236,39.707332]}},{"properties":{"zip":"81739","geo_score":0.0,"count":1,"id":"a6geamx6mt9k","geo_precision":"unmatched"},"type":"Feature","geometry":null},{"properties":{"zip":"85208","geo_score":0.714,"count":1,"id":"a6geamqyj9it","geo_precision":"zip"},"type":"Feature","geometry":{"type":"Point","coordinates":[-111.663655,33.395932]}},{"properties":{"zip":"85259","geo_score":0.714,"count":1,"id":"a6geamq0mu30","geo_precision":"zip"},"type":"Feature","geometry":{"type":"Point","coordinates":[-112.18717,33.276539]}},{"properties":{"zip":"86442","geo_score":0.714,"count":1,"id":"a6geamzvia1b","geo_precision":"zip"},"type":"Feature","geometry":{"type":"Point","coordinates":[-114.621355,35.100833]}},{"properties":{"zip":"87401","geo_score":0.714,"count":1,"id":"a6gean0u59em","geo_precision":"zip"},"type":"Feature","geometry":{"type":"Point","coordinates":[-107.326157,35.840021]}},{"properties":{"zip":"89144","geo_score":0.714,"count":1,"id":"a6geamxo4v37","geo_precision":"zip"},"type":"Feature","geometry":{"type":"Point","coordinates":[-115.31835,36.178088]}},{"properties":{"zip":"90003","geo_score":0.714,"count":3,"id":"a6geamsjff00","geo_precision":"zip"},"type":"Feature","geometry":{"type":"Point","coordinates":[-118.273156,33.949164]}},{"properties":{"zip":"90004","geo_score":0.714,"count":5,"id":"a6geamuzlrpy","geo_precision":"zip"},"type":"Feature","geometry":{"type":"Point","coordinates":[-118.298662,33.786594]}},{"properties":{"zip":"90005","geo_score":0.714,"count":2,"id":"a6geamstomys","geo_precision":"zip"},"type":"Feature","geometry":{"type":"Point","coordinates":[-118.298662,33.786594]}},{"properties":{"zip":"90006","geo_score":0.714,"count":2,"id":"a6gean2hibrc","geo_precision":"zip"},"type":"Feature","geometry":{"type":"Point","coordinates":[-118.298662,33.786594]}},{"properties":{"zip":"90007","geo_score":0.714,"count":2,"id":"a6gean47ui3f","geo_precision":"zip"},"type":"Feature","geometry":{"type":"Point","coordinates":[-118.298662,33.786594]}},{"properties":{"zip":"90008","geo_score":0.714,"count":5,"id":"a6gean3boobp","geo_precision":"zip"},"type":"Feature","geometry":{"type":"Point","coordinates":[-118.298662,33.786594]}},{"properties":{"zip":"90010","geo_score":0.714,"count":2,"id":"a6geamqdt03x","geo_precision":"zip"},"type":"Feature","geometry":{"type":"Point","coordinates":[-118.298662,33.786594]}},{"properties":{"zip":"90011","geo_score":0.714,"count":1,"id":"a6geamxr9i7c","geo_precision":"zip"},"type":"Feature","geometry":{"type":"Point","coordinates":[-118.250056,33.989264]}},{"properties":{"zip":"90012","geo_score":0.714,"count":2,"id":"a6gean1jitka","geo_precision":"zip"},"type":"Feature","geometry":{"type":"Point","coordinates":[-118.298662,33.786594]}},{"properties":{"zip":"90013","geo_score":0.714,"count":1,"id":"a6gean4bkx7v","geo_precision":"zip"},"type":"Feature","geometry":{"type":"Point","coordinates":[-118.298662,33.786594]}},{"properties":{"zip":"90015","geo_score":0.714,"count":1,"id":"a6geamrwmmrq","geo_precision":"zip"},"type":"Feature","geometry":{"type":"Point","coordinates":[-118.656478,34.419441]}},{"properties":{"zip":"90016","geo_score":0.714,"count":7,"id":"a6geamys9xco","geo_precision":"zip"},"type":"Feature","geometry":{"type":"Point","coordinates":[-118.298662,33.786594]}},{"properties":{"zip":"90017","geo_score":0.714,"count":3,"id":"a6gean1eny60","geo_precision":"zip"},"type":"Feature","geometry":{"type":"Point","coordinates":[-118.298662,33.786594]}},{"properties":{"zip":"90018","geo_score":0.714,"count":4,"id":"a6geamycwgln","geo_precision":"zip"},"type":"Feature","geometry":{"type":"Point","coordinates":[-118.298662,33.786594]}},{"properties":{"zip":"90019","geo_score":0.714,"count":9,"id":"a6geamqzpgop","geo_precision":"zip"},"type":"Feature","geometry":{"type":"Point","coordinates":[-118.298662,33.786594]}},{"properties":{"zip":"90020","geo_score":0.714,"count":7,"id":"a6gean59w3tr","geo_precision":"zip"},"type":"Feature","geometry":{"type":"Point","coordinates":[-118.298662,33.786594]}},{"properties":{"zip":"90022","geo_score":0.714,"count":4,"id":"a6gean0fvrsd","geo_precision":"zip"},"type":"Feature","geometry":{"type":"Point","coordinates":[-118.162849,34.02779]}},{"properties":{"zip":"90023","geo_score":0.714,"count":1,"id":"a6geamqb8kdo","geo_precision":"zip"},"type":"Feature","geometry":{"type":"Point","coordinates":[-118.196055,34.008262]}},{"properties":{"zip":"90024","geo_score":0.714,"count":3,"id":"a6gean36yes7","geo_precision":"zip"},"type":"Feature","geometry":{"type":"Point","coordinates":[-118.298662,33.786594]}},{"properties":{"zip":"90025","geo_score":0.714,"count":9,"id":"a6gean1du0tp","geo_precision":"zip"},"type":"Feature","geometry":{"type":"Point","coordinates":[-118.448135,34.046399]}},{"properties":{"zip":"90026","geo_score":0.714,"count":5,"id":"a6gean16e2u0","geo_precision":"zip"},"type":"Feature","geometry":{"type":"Point","coordinates":[-118.259241,34.09001]}},{"properties":{"zip":"90027","geo_score":0.714,"count":10,"id":"a6geamzxtx9l","geo_precision":"zip"},"type":"Feature","geometry":{"type":"Point","coordinates":[-118.298662,33.786594]}},{"properties":{"zip":"90028","geo_score":0.714,"count":7,"id":"a6geamulrhlv","geo_precision":"zip"},"type":"Feature","geometry":{"type":"Point","coordinates":[-118.326743,34.098343]}},{"properties":{"zip":"90029","geo_score":0.714,"count":2,"id":"a6geamrnpjcr","geo_precision":"zip"},"type":"Feature","geometry":{"type":"Point","coordinates":[-118.298662,33.786594]}},{"properties":{"zip":"90032","geo_score":0.714,"count":5,"id":"a6gean3317mu","geo_precision":"zip"},"type":"Feature","geometry":{"type":"Point","coordinates":[-118.17785,34.081121]}},{"properties":{"zip":"90034","geo_score":0.714,"count":7,"id":"a6geamu7iqnz","geo_precision":"zip"},"type":"Feature","geometry":{"type":"Point","coordinates":[-118.405633,34.022789]}},{"properties":{"zip":"90035","geo_score":0.714,"count":7,"id":"a6gean3kfb1s","geo_precision":"zip"},"type":"Feature","geometry":{"type":"Point","coordinates":[-118.298662,33.786594]}},{"properties":{"zip":"90036","geo_score":0.714,"count":9,"id":"a6geamy70cdj","geo_precision":"zip"},"type":"Feature","geometry":{"type":"Point","coordinates":[-118.298662,33.786594]}},{"properties":{"zip":"90037","geo_score":0.714,"count":1,"id":"a6gean0foiya","geo_precision":"zip"},"type":"Feature","geometry":{"type":"Point","coordinates":[-118.298662,33.786594]}},{"properties":{"zip":"90038","geo_score":0.714,"count":1,"id":"a6geamy4ni3n","geo_precision":"zip"},"type":"Feature","geometry":{"type":"Point","coordinates":[-118.298662,33.786594]}},{"properties":{"zip":"90039","geo_score":0.714,"count":3,"id":"a6gean41nae5","geo_precision":"zip"},"type":"Feature","geometry":{"type":"Point","coordinates":[-118.298662,33.786594]}},{"properties":{"zip":"90040","geo_score":0.714,"count":1,"id":"a6geams45fe7","geo_precision":"zip"},"type":"Feature","geometry":{"type":"Point","coordinates":[-118.159793,34.000569]}},{"properties":{"zip":"90041","geo_score":0.714,"count":1,"id":"a6geamsr9zg7","geo_precision":"zip"},"type":"Feature","geometry":{"type":"Point","coordinates":[-118.213962,34.138897]}},{"properties":{"zip":"90042","geo_score":0.714,"count":6,"id":"a6geams1hfko","geo_precision":"zip"},"type":"Feature","geometry":{"type":"Point","coordinates":[-118.198962,34.111953]}},{"properties":{"zip":"90043","geo_score":0.714,"count":8,"id":"a6geamxygt0j","geo_precision":"zip"},"type":"Feature","geometry":{"type":"Point","coordinates":[-118.342576,33.998902]}},{"properties":{"zip":"90044","geo_score":0.714,"count":5,"id":"a6gean4guinw","geo_precision":"zip"},"type":"Feature","geometry":{"type":"Point","coordinates":[-118.302296,33.941404]}},{"properties":{"zip":"90045","geo_score":0.714,"count":2,"id":"a6gean4banvc","geo_precision":"zip"},"type":"Feature","geometry":{"type":"Point","coordinates":[-118.375354,33.994179]}},{"properties":{"zip":"90046","geo_score":0.714,"count":9,"id":"a6geamu9hgte","geo_precision":"zip"},"type":"Feature","geometry":{"type":"Point","coordinates":[-118.298662,33.786594]}},{"properties":{"zip":"90047","geo_score":0.714,"count":4,"id":"a6gean51zj9e","geo_precision":"zip"},"type":"Feature","geometry":{"type":"Point","coordinates":[-118.281184,33.920015]}},{"properties":{"zip":"90048","geo_score":0.714,"count":5,"id":"a6gean2pua3d","geo_precision":"zip"},"type":"Feature","geometry":{"type":"Point","coordinates":[-118.298662,33.786594]}},{"properties":{"zip":"90049","geo_score":0.714,"count":6,"id":"a6geamqkggl1","geo_precision":"zip"},"type":"Feature","geometry":{"type":"Point","coordinates":[-118.473969,34.051954]}},{"properties":{"zip":"90056","geo_score":0.714,"count":2,"id":"a6geamrc5zvx","geo_precision":"zip"},"type":"Feature","geometry":{"type":"Point","coordinates":[-118.353965,33.988902]}},{"properties":{"zip":"90057","geo_score":0.714,"count":3,"id":"a6geamw325x9","geo_precision":"zip"},"type":"Feature","geometry":{"type":"Point","coordinates":[-118.298662,33.786594]}},{"properties":{"zip":"90059","geo_score":0.714,"count":1,"id":"a6geamr07iqn","geo_precision":"zip"},"type":"Feature","geometry":{"type":"Point","coordinates":[-118.244955,33.921065]}},{"properties":{"zip":"90061","geo_score":0.714,"count":3,"id":"a6geamr1rjaf","geo_precision":"zip"},"type":"Feature","geometry":{"type":"Point","coordinates":[-118.275356,33.920965]}},{"properties":{"zip":"90063","geo_score":0.714,"count":1,"id":"a6gean3q1ue0","geo_precision":"zip"},"type":"Feature","geometry":{"type":"Point","coordinates":[-118.18285,34.050012]}},{"properties":{"zip":"90064","geo_score":0.714,"count":5,"id":"a6geamsvnreg","geo_precision":"zip"},"type":"Feature","geometry":{"type":"Point","coordinates":[-118.298662,33.786594]}},{"properties":{"zip":"90065","geo_score":0.714,"count":3,"id":"a6geamurp9ht","geo_precision":"zip"},"type":"Feature","geometry":{"type":"Point","coordinates":[-118.298662,33.786594]}},{"properties":{"zip":"90066","geo_score":0.714,"count":9,"id":"a6geamuf6l4r","geo_precision":"zip"},"type":"Feature","geometry":{"type":"Point","coordinates":[-118.430912,34.004734]}},{"properties":{"zip":"90068","geo_score":0.714,"count":3,"id":"a6gean5bz80u","geo_precision":"zip"},"type":"Feature","geometry":{"type":"Point","coordinates":[-118.298662,33.786594]}},{"properties":{"zip":"90069","geo_score":0.714,"count":2,"id":"a6gean23b8y9","geo_precision":"zip"},"type":"Feature","geometry":{"type":"Point","coordinates":[-118.298662,33.786594]}},{"properties":{"zip":"90094","geo_score":0.714,"count":1,"id":"a6geamrznng1","geo_precision":"zip"},"type":"Feature","geometry":{"type":"Point","coordinates":[-118.427578,33.97279]}},{"properties":{"zip":"90201","geo_score":0.714,"count":1,"id":"a6geamv5euha","geo_precision":"zip"},"type":"Feature","geometry":{"type":"Point","coordinates":[-118.172849,33.980292]}},{"properties":{"zip":"90210","geo_score":0.714,"count":2,"id":"a6geamq96vir","geo_precision":"zip"},"type":"Feature","geometry":{"type":"Point","coordinates":[-118.298662,33.786594]}},{"properties":{"zip":"90211","geo_score":0.714,"count":1,"id":"a6geamwpr5qh","geo_precision":"zip"},"type":"Feature","geometry":{"type":"Point","coordinates":[-118.298662,33.786594]}},{"properties":{"zip":"90212","geo_score":0.714,"count":3,"id":"a6geamswhnye","geo_precision":"zip"},"type":"Feature","geometry":{"type":"Point","coordinates":[-118.298662,33.786594]}},{"properties":{"zip":"90220","geo_score":0.714,"count":4,"id":"a6gean0avd25","geo_precision":"zip"},"type":"Feature","geometry":{"type":"Point","coordinates":[-118.240208,33.874815]}},{"properties":{"zip":"90221","geo_score":0.714,"count":1,"id":"a6gean1fbx5b","geo_precision":"zip"},"type":"Feature","geometry":{"type":"Point","coordinates":[-118.195348,33.898071]}},{"properties":{"zip":"90230","geo_score":0.714,"count":3,"id":"a6gean5p0a2f","geo_precision":"zip"},"type":"Feature","geometry":{"type":"Point","coordinates":[-118.298662,33.786594]}},{"properties":{"zip":"90232","geo_score":0.714,"count":2,"id":"a6geamwj4668","geo_precision":"zip"},"type":"Feature","geometry":{"type":"Point","coordinates":[-118.298662,33.786594]}},{"properties":{"zip":"90241","geo_score":0.714,"count":4,"id":"a6gean3maqjf","geo_precision":"zip"},"type":"Feature","geometry":{"type":"Point","coordinates":[-118.125851,33.939164]}},{"properties":{"zip":"90242","geo_score":0.714,"count":1,"id":"a6gean0fmb1q","geo_precision":"zip"},"type":"Feature","geometry":{"type":"Point","coordinates":[-118.139969,33.922714]}},{"properties":{"zip":"90247","geo_score":0.714,"count":2,"id":"a6geamyjie24","geo_precision":"zip"},"type":"Feature","geometry":{"type":"Point","coordinates":[-118.303407,33.923348]}},{"properties":{"zip":"90248","geo_score":0.714,"count":3,"id":"a6gean2z3orj","geo_precision":"zip"},"type":"Feature","geometry":{"type":"Point","coordinates":[-118.269605,33.877165]}},{"properties":{"zip":"90250","geo_score":0.714,"count":7,"id":"a6geamqw6v07","geo_precision":"zip"},"type":"Feature","geometry":{"type":"Point","coordinates":[-118.298662,33.786594]}},{"properties":{"zip":"90254","geo_score":0.714,"count":2,"id":"a6geamy1bnw5","geo_precision":"zip"},"type":"Feature","geometry":{"type":"Point","coordinates":[-118.298662,33.786594]}},{"properties":{"zip":"90260","geo_score":0.714,"count":1,"id":"a6geamum4qm4","geo_precision":"zip"},"type":"Feature","geometry":{"type":"Point","coordinates":[-118.298662,33.786594]}},{"properties":{"zip":"90262","geo_score":0.714,"count":1,"id":"a6geamz5ti7q","geo_precision":"zip"},"type":"Feature","geometry":{"type":"Point","coordinates":[-118.192015,33.910293]}},{"properties":{"zip":"90266","geo_score":0.714,"count":3,"id":"a6geamxvn0or","geo_precision":"zip"},"type":"Feature","geometry":{"type":"Point","coordinates":[-118.298662,33.786594]}},{"properties":{"zip":"90267","geo_score":0.714,"count":1,"id":"a6geampznj0i","geo_precision":"zip"},"type":"Feature","geometry":{"type":"Point","coordinates":[-118.298662,33.786594]}},{"properties":{"zip":"90270","geo_score":0.714,"count":1,"id":"a6geamvvjqg1","geo_precision":"zip"},"type":"Feature","geometry":{"type":"Point","coordinates":[-118.187376,33.988463]}},{"properties":{"zip":"90272","geo_score":0.714,"count":3,"id":"a6geamusp3kr","geo_precision":"zip"},"type":"Feature","geometry":{"type":"Point","coordinates":[-118.561194,34.042509]}},{"properties":{"zip":"90277","geo_score":0.714,"count":3,"id":"a6gean5bvz52","geo_precision":"zip"},"type":"Feature","geometry":{"type":"Point","coordinates":[-118.379796,33.827515]}},{"properties":{"zip":"90278","geo_score":0.714,"count":1,"id":"a6gean0sf5kr","geo_precision":"zip"},"type":"Feature","geometry":{"type":"Point","coordinates":[-118.179754,33.987613]}},{"properties":{"zip":"90280","geo_score":0.714,"count":2,"id":"a6gean5x5nqe","geo_precision":"zip"},"type":"Feature","geometry":{"type":"Point","coordinates":[-118.168125,33.929737]}},{"properties":{"zip":"90290","geo_score":0.714,"count":1,"id":"a6geamujrtxy","geo_precision":"zip"},"type":"Feature","geometry":{"type":"Point","coordinates":[-118.629252,34.107507]}},{"properties":{"zip":"90291","geo_score":0.714,"count":2,"id":"a6geamru48mn","geo_precision":"zip"},"type":"Feature","geometry":{"type":"Point","coordinates":[-118.298662,33.786594]}},{"properties":{"zip":"90292","geo_score":0.714,"count":2,"id":"a6geamqb8fns","geo_precision":"zip"},"type":"Feature","geometry":{"type":"Point","coordinates":[-118.298662,33.786594]}},{"properties":{"zip":"90302","geo_score":0.714,"count":2,"id":"a6geamqbry4u","geo_precision":"zip"},"type":"Feature","geometry":{"type":"Point","coordinates":[-118.298662,33.786594]}},{"properties":{"zip":"90303","geo_score":0.714,"count":6,"id":"a6geamr085tl","geo_precision":"zip"},"type":"Feature","geometry":{"type":"Point","coordinates":[-118.298662,33.786594]}},{"properties":{"zip":"90304","geo_score":0.714,"count":1,"id":"a6geampygxfd","geo_precision":"zip"},"type":"Feature","geometry":{"type":"Point","coordinates":[-118.352575,33.93807]}},{"properties":{"zip":"90305","geo_score":0.714,"count":1,"id":"a6gean5m5885","geo_precision":"zip"},"type":"Feature","geometry":{"type":"Point","coordinates":[-118.326464,33.959736]}},{"properties":{"zip":"90401","geo_score":0.714,"count":3,"id":"a6geamqj9ewj","geo_precision":"zip"},"type":"Feature","geometry":{"type":"Point","coordinates":[-118.298662,33.786594]}},{"properties":{"zip":"90402","geo_score":0.714,"count":4,"id":"a6geamyovbzc","geo_precision":"zip"},"type":"Feature","geometry":{"type":"Point","coordinates":[-118.298662,33.786594]}},{"properties":{"zip":"90403","geo_score":0.714,"count":5,"id":"a6geamsp3j3a","geo_precision":"zip"},"type":"Feature","geometry":{"type":"Point","coordinates":[-118.298662,33.786594]}},{"properties":{"zip":"90404","geo_score":0.714,"count":2,"id":"a6geamv5aut9","geo_precision":"zip"},"type":"Feature","geometry":{"type":"Point","coordinates":[-118.298662,33.786594]}},{"properties":{"zip":"90405","geo_score":0.714,"count":5,"id":"a6gean02iyn7","geo_precision":"zip"},"type":"Feature","geometry":{"type":"Point","coordinates":[-118.483691,34.002233]}},{"properties":{"zip":"90406","geo_score":0.714,"count":1,"id":"a6gean3aopx8","geo_precision":"zip"},"type":"Feature","geometry":{"type":"Point","coordinates":[-118.298662,33.786594]}},{"properties":{"zip":"90503","geo_score":0.714,"count":1,"id":"a6geamv6pfln","geo_precision":"zip"},"type":"Feature","geometry":{"type":"Point","coordinates":[-118.210348,33.846406]}},{"properties":{"zip":"90504","geo_score":0.714,"count":1,"id":"a6gean3risum","geo_precision":"zip"},"type":"Feature","geometry":{"type":"Point","coordinates":[-118.298662,33.786594]}},{"properties":{"zip":"90505","geo_score":0.714,"count":2,"id":"a6gean1vn2ae","geo_precision":"zip"},"type":"Feature","geometry":{"type":"Point","coordinates":[-118.298662,33.786594]}},{"properties":{"zip":"90601","geo_score":0.714,"count":2,"id":"a6gean4ng77m","geo_precision":"zip"},"type":"Feature","geometry":{"type":"Point","coordinates":[-118.0441,34.004311]}},{"properties":{"zip":"90605","geo_score":0.714,"count":1,"id":"a6geamzsxcq3","geo_precision":"zip"},"type":"Feature","geometry":{"type":"Point","coordinates":[-118.041733,33.960846]}},{"properties":{"zip":"90620","geo_score":0.714,"count":1,"id":"a6gean3iah9m","geo_precision":"zip"},"type":"Feature","geometry":{"type":"Point","coordinates":[-117.769442,33.640302]}},{"properties":{"zip":"90631","geo_score":0.714,"count":3,"id":"a6geamx7dw2m","geo_precision":"zip"},"type":"Feature","geometry":{"type":"Point","coordinates":[-117.950619,33.960846]}},{"properties":{"zip":"90640","geo_score":0.714,"count":1,"id":"a6geamz9tfta","geo_precision":"zip"},"type":"Feature","geometry":{"type":"Point","coordinates":[-118.298662,33.786594]}},{"properties":{"zip":"90650","geo_score":0.714,"count":6,"id":"a6geamtu5o08","geo_precision":"zip"},"type":"Feature","geometry":{"type":"Point","coordinates":[-118.096178,33.919737]}},{"properties":{"zip":"90703","geo_score":0.714,"count":2,"id":"a6geamychj6y","geo_precision":"zip"},"type":"Feature","geometry":{"type":"Point","coordinates":[-118.068648,33.866914]}},{"properties":{"zip":"90706","geo_score":0.714,"count":4,"id":"a6geampvxhce","geo_precision":"zip"},"type":"Feature","geometry":{"type":"Point","coordinates":[-118.12965,33.888014]}},{"properties":{"zip":"90710","geo_score":0.714,"count":1,"id":"a6gean05y8yr","geo_precision":"zip"},"type":"Feature","geometry":{"type":"Point","coordinates":[-118.251554,33.791267]}},{"properties":{"zip":"90712","geo_score":0.714,"count":1,"id":"a6gean0iga2u","geo_precision":"zip"},"type":"Feature","geometry":{"type":"Point","coordinates":[-118.14645,33.845624]}},{"properties":{"zip":"90716","geo_score":0.714,"count":1,"id":"a6gean5r69bi","geo_precision":"zip"},"type":"Feature","geometry":{"type":"Point","coordinates":[-118.072796,33.830967]}},{"properties":{"zip":"90717","geo_score":0.714,"count":1,"id":"a6geamwtqjsn","geo_precision":"zip"},"type":"Feature","geometry":{"type":"Point","coordinates":[-118.298662,33.786594]}},{"properties":{"zip":"90723","geo_score":0.714,"count":3,"id":"a6geamwf70tl","geo_precision":"zip"},"type":"Feature","geometry":{"type":"Point","coordinates":[-118.165152,33.899015]}},{"properties":{"zip":"90731","geo_score":0.714,"count":2,"id":"a6gean3hpl8o","geo_precision":"zip"},"type":"Feature","geometry":{"type":"Point","coordinates":[-118.253053,33.753088]}},{"properties":{"zip":"90732","geo_score":0.714,"count":1,"id":"a6geamzz0ndb","geo_precision":"zip"},"type":"Feature","geometry":{"type":"Point","coordinates":[-118.298662,33.786594]}},{"properties":{"zip":"90744","geo_score":0.714,"count":1,"id":"a6geamxhdbbd","geo_precision":"zip"},"type":"Feature","geometry":{"type":"Point","coordinates":[-118.234793,33.808351]}},{"properties":{"zip":"90745","geo_score":0.714,"count":5,"id":"a6geamxhvt7s","geo_precision":"zip"},"type":"Feature","geometry":{"type":"Point","coordinates":[-118.261154,33.813317]}},{"properties":{"zip":"90802","geo_score":0.714,"count":1,"id":"a6geamxzuhyx","geo_precision":"zip"},"type":"Feature","geometry":{"type":"Point","coordinates":[-118.201101,33.756024]}},{"properties":{"zip":"90803","geo_score":0.714,"count":1,"id":"a6geamuaxmc0","geo_precision":"zip"},"type":"Feature","geometry":{"type":"Point","coordinates":[-118.123676,33.754462]}},{"properties":{"zip":"90805","geo_score":0.714,"count":1,"id":"a6gean34axum","geo_precision":"zip"},"type":"Feature","geometry":{"type":"Point","coordinates":[-118.185625,33.860016]}},{"properties":{"zip":"90806","geo_score":0.714,"count":2,"id":"a6geamy6xuie","geo_precision":"zip"},"type":"Feature","geometry":{"type":"Point","coordinates":[-118.167846,33.804461]}},{"properties":{"zip":"90807","geo_score":0.714,"count":4,"id":"a6gean1ute50","geo_precision":"zip"},"type":"Feature","geometry":{"type":"Point","coordinates":[-118.181102,33.831466]}},{"properties":{"zip":"90808","geo_score":0.714,"count":3,"id":"a6gean5p5cxr","geo_precision":"zip"},"type":"Feature","geometry":{"type":"Point","coordinates":[-118.106132,33.800266]}},{"properties":{"zip":"90810","geo_score":0.714,"count":3,"id":"a6gean4569lr","geo_precision":"zip"},"type":"Feature","geometry":{"type":"Point","coordinates":[-118.222848,33.827795]}},{"properties":{"zip":"90813","geo_score":0.714,"count":2,"id":"a6gean2afeug","geo_precision":"zip"},"type":"Feature","geometry":{"type":"Point","coordinates":[-118.183701,33.780017]}},{"properties":{"zip":"90814","geo_score":0.714,"count":2,"id":"a6gean16zn5f","geo_precision":"zip"},"type":"Feature","geometry":{"type":"Point","coordinates":[-118.142654,33.771301]}},{"properties":{"zip":"90815","geo_score":0.714,"count":3,"id":"a6geamrvpky4","geo_precision":"zip"},"type":"Feature","geometry":{"type":"Point","coordinates":[-118.114612,33.793516]}},{"properties":{"zip":"91001","geo_score":0.714,"count":1,"id":"a6gean3fhe1o","geo_precision":"zip"},"type":"Feature","geometry":{"type":"Point","coordinates":[-118.298662,33.786594]}},{"properties":{"zip":"91003","geo_score":0.714,"count":1,"id":"a6geamryamym","geo_precision":"zip"},"type":"Feature","geometry":{"type":"Point","coordinates":[-118.298662,33.786594]}},{"properties":{"zip":"91006","geo_score":0.714,"count":1,"id":"a6geamyj1ubq","geo_precision":"zip"},"type":"Feature","geometry":{"type":"Point","coordinates":[-118.017567,34.105564]}},{"properties":{"zip":"91007","geo_score":0.714,"count":4,"id":"a6geamuqgtkx","geo_precision":"zip"},"type":"Feature","geometry":{"type":"Point","coordinates":[-118.298662,33.786594]}},{"properties":{"zip":"91010","geo_score":0.714,"count":1,"id":"a6gean1lhrom","geo_precision":"zip"},"type":"Feature","geometry":{"type":"Point","coordinates":[-117.970898,34.146951]}},{"properties":{"zip":"91011","geo_score":0.714,"count":1,"id":"a6gean3mzszv","geo_precision":"zip"},"type":"Feature","geometry":{"type":"Point","coordinates":[-118.298662,33.786594]}},{"properties":{"zip":"91016","geo_score":0.714,"count":1,"id":"a6geamthvjja","geo_precision":"zip"},"type":"Feature","geometry":{"type":"Point","coordinates":[-118.009788,34.115008]}},{"properties":{"zip":"91024","geo_score":0.714,"count":1,"id":"a6gean0s0d2g","geo_precision":"zip"},"type":"Feature","geometry":{"type":"Point","coordinates":[-118.298662,33.786594]}},{"properties":{"zip":"91030","geo_score":0.714,"count":1,"id":"a6geamrvgmnl","geo_precision":"zip"},"type":"Feature","geometry":{"type":"Point","coordinates":[-118.298662,33.786594]}},{"properties":{"zip":"91040","geo_score":0.714,"count":2,"id":"a6geamtjvppb","geo_precision":"zip"},"type":"Feature","geometry":{"type":"Point","coordinates":[-118.298662,33.786594]}},{"properties":{"zip":"91042","geo_score":0.714,"count":3,"id":"a6geamrwdodb","geo_precision":"zip"},"type":"Feature","geometry":{"type":"Point","coordinates":[-118.298662,33.786594]}},{"properties":{"zip":"91101","geo_score":0.714,"count":1,"id":"a6geamy99vl1","geo_precision":"zip"},"type":"Feature","geometry":{"type":"Point","coordinates":[-118.298662,33.786594]}},{"properties":{"zip":"91104","geo_score":0.714,"count":1,"id":"a6geamvykegs","geo_precision":"zip"},"type":"Feature","geometry":{"type":"Point","coordinates":[-118.298662,33.786594]}},{"properties":{"zip":"91106","geo_score":0.714,"count":1,"id":"a6geamu5ybcn","geo_precision":"zip"},"type":"Feature","geometry":{"type":"Point","coordinates":[-118.298662,33.786594]}},{"properties":{"zip":"91201","geo_score":0.714,"count":2,"id":"a6gean043do8","geo_precision":"zip"},"type":"Feature","geometry":{"type":"Point","coordinates":[-118.298662,33.786594]}},{"properties":{"zip":"91203","geo_score":0.714,"count":1,"id":"a6geamr0qijy","geo_precision":"zip"},"type":"Feature","geometry":{"type":"Point","coordinates":[-118.298662,33.786594]}},{"properties":{"zip":"91205","geo_score":0.714,"count":1,"id":"a6gean2yleq9","geo_precision":"zip"},"type":"Feature","geometry":{"type":"Point","coordinates":[-118.298662,33.786594]}},{"properties":{"zip":"91206","geo_score":0.714,"count":4,"id":"a6geamr2wmvh","geo_precision":"zip"},"type":"Feature","geometry":{"type":"Point","coordinates":[-118.298662,33.786594]}},{"properties":{"zip":"91208","geo_score":0.714,"count":1,"id":"a6gean2x98cn","geo_precision":"zip"},"type":"Feature","geometry":{"type":"Point","coordinates":[-118.298662,33.786594]}},{"properties":{"zip":"91214","geo_score":0.714,"count":1,"id":"a6gean5vbcws","geo_precision":"zip"},"type":"Feature","geometry":{"type":"Point","coordinates":[-118.298662,33.786594]}},{"properties":{"zip":"91301","geo_score":0.714,"count":1,"id":"a6geamw110ix","geo_precision":"zip"},"type":"Feature","geometry":{"type":"Point","coordinates":[-118.777868,34.11445]}},{"properties":{"zip":"91302","geo_score":0.714,"count":1,"id":"a6geamqrxf5w","geo_precision":"zip"},"type":"Feature","geometry":{"type":"Point","coordinates":[-118.687031,34.08084]}},{"properties":{"zip":"91303","geo_score":0.714,"count":4,"id":"a6gean2k4y1j","geo_precision":"zip"},"type":"Feature","geometry":{"type":"Point","coordinates":[-118.298662,33.786594]}},{"properties":{"zip":"91304","geo_score":0.714,"count":2,"id":"a6gean4wlnkg","geo_precision":"zip"},"type":"Feature","geometry":{"type":"Point","coordinates":[-118.298662,33.786594]}},{"properties":{"zip":"91306","geo_score":0.714,"count":2,"id":"a6gean0efy1a","geo_precision":"zip"},"type":"Feature","geometry":{"type":"Point","coordinates":[-118.298662,33.786594]}},{"properties":{"zip":"91307","geo_score":0.714,"count":1,"id":"a6geamz7srqq","geo_precision":"zip"},"type":"Feature","geometry":{"type":"Point","coordinates":[-118.298662,33.786594]}},{"properties":{"zip":"91311","geo_score":0.714,"count":1,"id":"a6geamy49aq4","geo_precision":"zip"},"type":"Feature","geometry":{"type":"Point","coordinates":[-118.298662,33.786594]}},{"properties":{"zip":"91316","geo_score":0.714,"count":1,"id":"a6gean0tkhml","geo_precision":"zip"},"type":"Feature","geometry":{"type":"Point","coordinates":[-118.298662,33.786594]}},{"properties":{"zip":"91321","geo_score":0.714,"count":1,"id":"a6gean13wxqo","geo_precision":"zip"},"type":"Feature","geometry":{"type":"Point","coordinates":[-118.298662,33.786594]}},{"properties":{"zip":"91324","geo_score":0.714,"count":2,"id":"a6geamxkqizo","geo_precision":"zip"},"type":"Feature","geometry":{"type":"Point","coordinates":[-118.298662,33.786594]}},{"properties":{"zip":"91325","geo_score":0.714,"count":4,"id":"a6gean0lw2es","geo_precision":"zip"},"type":"Feature","geometry":{"type":"Point","coordinates":[-118.298662,33.786594]}},{"properties":{"zip":"91331","geo_score":0.714,"count":2,"id":"a6gean2n9ydn","geo_precision":"zip"},"type":"Feature","geometry":{"type":"Point","coordinates":[-118.298662,33.786594]}},{"properties":{"zip":"91334","geo_score":0.714,"count":1,"id":"a6geamymyhwb","geo_precision":"zip"},"type":"Feature","geometry":{"type":"Point","coordinates":[-118.298662,33.786594]}},{"properties":{"zip":"91335","geo_score":0.714,"count":7,"id":"a6geamxc5a2k","geo_precision":"zip"},"type":"Feature","geometry":{"type":"Point","coordinates":[-118.298662,33.786594]}},{"properties":{"zip":"91340","geo_score":0.714,"count":1,"id":"a6geamzoxhgl","geo_precision":"zip"},"type":"Feature","geometry":{"type":"Point","coordinates":[-118.298662,33.786594]}},{"properties":{"zip":"91342","geo_score":0.714,"count":2,"id":"a6geamv2ea7u","geo_precision":"zip"},"type":"Feature","geometry":{"type":"Point","coordinates":[-118.298662,33.786594]}},{"properties":{"zip":"91343","geo_score":0.714,"count":3,"id":"a6geamqi9b2p","geo_precision":"zip"},"type":"Feature","geometry":{"type":"Point","coordinates":[-118.484722,34.236389]}},{"properties":{"zip":"91344","geo_score":0.714,"count":4,"id":"a6gean01srnf","geo_precision":"zip"},"type":"Feature","geometry":{"type":"Point","coordinates":[-118.298662,33.786594]}},{"properties":{"zip":"91351","geo_score":0.714,"count":1,"id":"a6gean3vpyri","geo_precision":"zip"},"type":"Feature","geometry":{"type":"Point","coordinates":[-118.298662,33.786594]}},{"properties":{"zip":"91352","geo_score":0.714,"count":2,"id":"a6geamwpm1im","geo_precision":"zip"},"type":"Feature","geometry":{"type":"Point","coordinates":[-118.351746,34.261947]}},{"properties":{"zip":"91354","geo_score":0.714,"count":1,"id":"a6gean0xenq2","geo_precision":"zip"},"type":"Feature","geometry":{"type":"Point","coordinates":[-118.298662,33.786594]}},{"properties":{"zip":"91356","geo_score":0.714,"count":4,"id":"a6gean4fkaxp","geo_precision":"zip"},"type":"Feature","geometry":{"type":"Point","coordinates":[-118.298662,33.786594]}},{"properties":{"zip":"91361","geo_score":0.714,"count":1,"id":"a6geampum5bl","geo_precision":"zip"},"type":"Feature","geometry":{"type":"Point","coordinates":[-118.82193,34.137015]}},{"properties":{"zip":"91362","geo_score":0.714,"count":2,"id":"a6gean46o8h6","geo_precision":"zip"},"type":"Feature","geometry":{"type":"Point","coordinates":[-118.823177,34.194756]}},{"properties":{"zip":"91364","geo_score":0.714,"count":5,"id":"a6gean0m7fq4","geo_precision":"zip"},"type":"Feature","geometry":{"type":"Point","coordinates":[-118.645364,34.130839]}},{"properties":{"zip":"91367","geo_score":0.714,"count":2,"id":"a6geampvtzx1","geo_precision":"zip"},"type":"Feature","geometry":{"type":"Point","coordinates":[-118.298662,33.786594]}},{"properties":{"zip":"91381","geo_score":0.714,"count":1,"id":"a6gean1rxkk9","geo_precision":"zip"},"type":"Feature","geometry":{"type":"Point","coordinates":[-118.298662,33.786594]}},{"properties":{"zip":"91384","geo_score":0.714,"count":1,"id":"a6gean2ikpj8","geo_precision":"zip"},"type":"Feature","geometry":{"type":"Point","coordinates":[-118.298662,33.786594]}},{"properties":{"zip":"91387","geo_score":0.714,"count":3,"id":"a6geamzpoyr8","geo_precision":"zip"},"type":"Feature","geometry":{"type":"Point","coordinates":[-118.39882,34.401969]}},{"properties":{"zip":"91390","geo_score":0.714,"count":1,"id":"a6geamyjntbx","geo_precision":"zip"},"type":"Feature","geometry":{"type":"Point","coordinates":[-118.503225,34.411231]}},{"properties":{"zip":"91401","geo_score":0.714,"count":4,"id":"a6gean27hx67","geo_precision":"zip"},"type":"Feature","geometry":{"type":"Point","coordinates":[-118.298662,33.786594]}},{"properties":{"zip":"91402","geo_score":0.714,"count":4,"id":"a6gean197yi5","geo_precision":"zip"},"type":"Feature","geometry":{"type":"Point","coordinates":[-118.298662,33.786594]}},{"properties":{"zip":"91405","geo_score":0.714,"count":1,"id":"a6geamznny0r","geo_precision":"zip"},"type":"Feature","geometry":{"type":"Point","coordinates":[-118.424248,34.174172]}},{"properties":{"zip":"91406","geo_score":0.714,"count":3,"id":"a6gean49c22f","geo_precision":"zip"},"type":"Feature","geometry":{"type":"Point","coordinates":[-118.298662,33.786594]}},{"properties":{"zip":"91411","geo_score":0.714,"count":1,"id":"a6geamskhta3","geo_precision":"zip"},"type":"Feature","geometry":{"type":"Point","coordinates":[-118.298662,33.786594]}},{"properties":{"zip":"91423","geo_score":0.714,"count":9,"id":"a6geamv3vwgu","geo_precision":"zip"},"type":"Feature","geometry":{"type":"Point","coordinates":[-118.298662,33.786594]}},{"properties":{"zip":"91436","geo_score":0.714,"count":1,"id":"a6geamtrgwn0","geo_precision":"zip"},"type":"Feature","geometry":{"type":"Point","coordinates":[-118.298662,33.786594]}},{"properties":{"zip":"91501","geo_score":0.714,"count":2,"id":"a6geamxh57jb","geo_precision":"zip"},"type":"Feature","geometry":{"type":"Point","coordinates":[-118.298662,33.786594]}},{"properties":{"zip":"91504","geo_score":0.714,"count":2,"id":"a6geamwugf2a","geo_precision":"zip"},"type":"Feature","geometry":{"type":"Point","coordinates":[-118.298662,33.786594]}},{"properties":{"zip":"91505","geo_score":0.714,"count":2,"id":"a6geamwaji0q","geo_precision":"zip"},"type":"Feature","geometry":{"type":"Point","coordinates":[-118.347301,34.167784]}},{"properties":{"zip":"91601","geo_score":0.714,"count":4,"id":"a6geamvacr1l","geo_precision":"zip"},"type":"Feature","geometry":{"type":"Point","coordinates":[-118.298662,33.786594]}},{"properties":{"zip":"91602","geo_score":0.714,"count":2,"id":"a6geamsrgx8n","geo_precision":"zip"},"type":"Feature","geometry":{"type":"Point","coordinates":[-118.298662,33.786594]}},{"properties":{"zip":"91605","geo_score":0.714,"count":3,"id":"a6geamzlqdt9","geo_precision":"zip"},"type":"Feature","geometry":{"type":"Point","coordinates":[-118.298662,33.786594]}},{"properties":{"zip":"91607","geo_score":0.714,"count":2,"id":"a6geamz7ck5q","geo_precision":"zip"},"type":"Feature","geometry":{"type":"Point","coordinates":[-118.298662,33.786594]}},{"properties":{"zip":"91701","geo_score":0.714,"count":3,"id":"a6geampxqfim","geo_precision":"zip"},"type":"Feature","geometry":{"type":"Point","coordinates":[-115.967051,34.839964]}},{"properties":{"zip":"91702","geo_score":0.714,"count":2,"id":"a6geamzz02mu","geo_precision":"zip"},"type":"Feature","geometry":{"type":"Point","coordinates":[-118.298662,33.786594]}},{"properties":{"zip":"91706","geo_score":0.714,"count":3,"id":"a6geamypjge3","geo_precision":"zip"},"type":"Feature","geometry":{"type":"Point","coordinates":[-117.935341,34.106953]}},{"properties":{"zip":"91709","geo_score":0.714,"count":1,"id":"a6geamrp3h07","geo_precision":"zip"},"type":"Feature","geometry":{"type":"Point","coordinates":[-117.708111,33.972791]}},{"properties":{"zip":"91710","geo_score":0.714,"count":1,"id":"a6geamr394xc","geo_precision":"zip"},"type":"Feature","geometry":{"type":"Point","coordinates":[-117.778668,33.947792]}},{"properties":{"zip":"91711","geo_score":0.714,"count":1,"id":"a6geamwwnfde","geo_precision":"zip"},"type":"Feature","geometry":{"type":"Point","coordinates":[-118.298662,33.786594]}},{"properties":{"zip":"91722","geo_score":0.714,"count":3,"id":"a6geamxvgubr","geo_precision":"zip"},"type":"Feature","geometry":{"type":"Point","coordinates":[-118.298662,33.786594]}},{"properties":{"zip":"91723","geo_score":0.714,"count":2,"id":"a6geamw0jq4j","geo_precision":"zip"},"type":"Feature","geometry":{"type":"Point","coordinates":[-118.298662,33.786594]}},{"properties":{"zip":"91730","geo_score":0.714,"count":4,"id":"a6geamsie467","geo_precision":"zip"},"type":"Feature","geometry":{"type":"Point","coordinates":[-115.967051,34.839964]}},{"properties":{"zip":"91732","geo_score":0.714,"count":2,"id":"a6geampxn4it","geo_precision":"zip"},"type":"Feature","geometry":{"type":"Point","coordinates":[-118.298662,33.786594]}},{"properties":{"zip":"91737","geo_score":0.714,"count":2,"id":"a6geamyr3idm","geo_precision":"zip"},"type":"Feature","geometry":{"type":"Point","coordinates":[-115.967051,34.839964]}},{"properties":{"zip":"91740","geo_score":0.714,"count":2,"id":"a6gean2dfree","geo_precision":"zip"},"type":"Feature","geometry":{"type":"Point","coordinates":[-117.881451,34.138896]}},{"properties":{"zip":"91741","geo_score":0.714,"count":1,"id":"a6geamy3gqf7","geo_precision":"zip"},"type":"Feature","geometry":{"type":"Point","coordinates":[-118.298662,33.786594]}},{"properties":{"zip":"91744","geo_score":0.714,"count":2,"id":"a6geamsgfua2","geo_precision":"zip"},"type":"Feature","geometry":{"type":"Point","coordinates":[-117.968398,34.051677]}},{"properties":{"zip":"91750","geo_score":0.714,"count":1,"id":"a6geamwjdlu2","geo_precision":"zip"},"type":"Feature","geometry":{"type":"Point","coordinates":[-118.298662,33.786594]}},{"properties":{"zip":"91752","geo_score":0.714,"count":1,"id":"a6geamv302l9","geo_precision":"zip"},"type":"Feature","geometry":{"type":"Point","coordinates":[-116.055617,33.752886]}},{"properties":{"zip":"91754","geo_score":0.714,"count":2,"id":"a6geamrunp8m","geo_precision":"zip"},"type":"Feature","geometry":{"type":"Point","coordinates":[-118.298662,33.786594]}},{"properties":{"zip":"91755","geo_score":0.714,"count":1,"id":"a6gean3dy81c","geo_precision":"zip"},"type":"Feature","geometry":{"type":"Point","coordinates":[-118.298662,33.786594]}},{"properties":{"zip":"91761","geo_score":0.714,"count":2,"id":"a6gean4ipm37","geo_precision":"zip"},"type":"Feature","geometry":{"type":"Point","coordinates":[-115.967051,34.839964]}},{"properties":{"zip":"91762","geo_score":0.714,"count":2,"id":"a6geamx2g2lv","geo_precision":"zip"},"type":"Feature","geometry":{"type":"Point","coordinates":[-115.967051,34.839964]}},{"properties":{"zip":"91763","geo_score":0.714,"count":1,"id":"a6gean3jfn39","geo_precision":"zip"},"type":"Feature","geometry":{"type":"Point","coordinates":[-115.967051,34.839964]}},{"properties":{"zip":"91764","geo_score":0.714,"count":1,"id":"a6gean1qw93b","geo_precision":"zip"},"type":"Feature","geometry":{"type":"Point","coordinates":[-115.967051,34.839964]}},{"properties":{"zip":"91765","geo_score":0.714,"count":2,"id":"a6gean06nr4s","geo_precision":"zip"},"type":"Feature","geometry":{"type":"Point","coordinates":[-118.298662,33.786594]}},{"properties":{"zip":"91766","geo_score":0.714,"count":4,"id":"a6gean2yiiz9","geo_precision":"zip"},"type":"Feature","geometry":{"type":"Point","coordinates":[-119.382338,35.888009]}},{"properties":{"zip":"91767","geo_score":0.714,"count":3,"id":"a6geamtvbmdf","geo_precision":"zip"},"type":"Feature","geometry":{"type":"Point","coordinates":[-118.298662,33.786594]}},{"properties":{"zip":"91770","geo_score":0.714,"count":2,"id":"a6geamwyyeyp","geo_precision":"zip"},"type":"Feature","geometry":{"type":"Point","coordinates":[-118.090347,34.06251]}},{"properties":{"zip":"91773","geo_score":0.714,"count":1,"id":"a6gean487yth","geo_precision":"zip"},"type":"Feature","geometry":{"type":"Point","coordinates":[-118.298662,33.786594]}},{"properties":{"zip":"91775","geo_score":0.714,"count":1,"id":"a6gean19rf7p","geo_precision":"zip"},"type":"Feature","geometry":{"type":"Point","coordinates":[-118.298662,33.786594]}},{"properties":{"zip":"91784","geo_score":0.714,"count":1,"id":"a6geamv9d36y","geo_precision":"zip"},"type":"Feature","geometry":{"type":"Point","coordinates":[-116.246997,34.128118]}},{"properties":{"zip":"91785","geo_score":0.714,"count":1,"id":"a6geamu2yz5y","geo_precision":"zip"},"type":"Feature","geometry":{"type":"Point","coordinates":[-115.967051,34.839964]}},{"properties":{"zip":"91786","geo_score":0.714,"count":3,"id":"a6geamzlzvwl","geo_precision":"zip"},"type":"Feature","geometry":{"type":"Point","coordinates":[-117.656444,34.155564]}},{"properties":{"zip":"91790","geo_score":0.714,"count":1,"id":"a6geams7vscb","geo_precision":"zip"},"type":"Feature","geometry":{"type":"Point","coordinates":[-118.298662,33.786594]}},{"properties":{"zip":"91791","geo_score":0.714,"count":1,"id":"a6gean3cwg5m","geo_precision":"zip"},"type":"Feature","geometry":{"type":"Point","coordinates":[-118.298662,33.786594]}},{"properties":{"zip":"91792","geo_score":0.714,"count":1,"id":"a6gean2t8kyl","geo_precision":"zip"},"type":"Feature","geometry":{"type":"Point","coordinates":[-118.298662,33.786594]}},{"properties":{"zip":"91801","geo_score":0.714,"count":3,"id":"a6geamw50hia","geo_precision":"zip"},"type":"Feature","geometry":{"type":"Point","coordinates":[-118.298662,33.786594]}},{"properties":{"zip":"92057","geo_score":0.714,"count":1,"id":"a6geams4i218","geo_precision":"zip"},"type":"Feature","geometry":{"type":"Point","coordinates":[-116.846046,33.016928]}},{"properties":{"zip":"92058","geo_score":0.714,"count":1,"id":"a6geamqbax2h","geo_precision":"zip"},"type":"Feature","geometry":{"type":"Point","coordinates":[-116.846046,33.016928]}},{"properties":{"zip":"92301","geo_score":0.714,"count":2,"id":"a6geamtu8jrq","geo_precision":"zip"},"type":"Feature","geometry":{"type":"Point","coordinates":[-117.631168,34.602213]}},{"properties":{"zip":"92307","geo_score":0.714,"count":1,"id":"a6geamqeqxvf","geo_precision":"zip"},"type":"Feature","geometry":{"type":"Point","coordinates":[-117.171709,34.471388]}},{"properties":{"zip":"92313","geo_score":0.714,"count":2,"id":"a6geamqa1bmm","geo_precision":"zip"},"type":"Feature","geometry":{"type":"Point","coordinates":[-115.967051,34.839964]}},{"properties":{"zip":"92320","geo_score":0.714,"count":2,"id":"a6geamq15dvu","geo_precision":"zip"},"type":"Feature","geometry":{"type":"Point","coordinates":[-117.038262,33.976814]}},{"properties":{"zip":"92325","geo_score":0.714,"count":1,"id":"a6geamz65bj0","geo_precision":"zip"},"type":"Feature","geometry":{"type":"Point","coordinates":[-117.304767,34.246673]}},{"properties":{"zip":"92335","geo_score":0.714,"count":1,"id":"a6geamrclp10","geo_precision":"zip"},"type":"Feature","geometry":{"type":"Point","coordinates":[-117.488939,34.06279]}},{"properties":{"zip":"92336","geo_score":0.714,"count":2,"id":"a6gean4dq86e","geo_precision":"zip"},"type":"Feature","geometry":{"type":"Point","coordinates":[-116.247005,34.122307]}},{"properties":{"zip":"92337","geo_score":0.714,"count":1,"id":"a6gean1f2eh0","geo_precision":"zip"},"type":"Feature","geometry":{"type":"Point","coordinates":[-115.967051,34.839964]}},{"properties":{"zip":"92342","geo_score":0.714,"count":1,"id":"a6gean2ozej9","geo_precision":"zip"},"type":"Feature","geometry":{"type":"Point","coordinates":[-116.378323,34.496921]}},{"properties":{"zip":"92344","geo_score":0.0,"count":1,"id":"a6geamvoxes8","geo_precision":"unmatched"},"type":"Feature","geometry":null},{"properties":{"zip":"92345","geo_score":0.714,"count":4,"id":"a6gean1ehanp","geo_precision":"zip"},"type":"Feature","geometry":{"type":"Point","coordinates":[-115.967051,34.839964]}},{"properties":{"zip":"92352","geo_score":0.714,"count":2,"id":"a6geamwr6mi2","geo_precision":"zip"},"type":"Feature","geometry":{"type":"Point","coordinates":[-117.129213,34.209221]}},{"properties":{"zip":"92374","geo_score":0.714,"count":2,"id":"a6geamuqb025","geo_precision":"zip"},"type":"Feature","geometry":{"type":"Point","coordinates":[-116.898232,34.153575]}},{"properties":{"zip":"92377","geo_score":0.714,"count":1,"id":"a6geamrraz7f","geo_precision":"zip"},"type":"Feature","geometry":{"type":"Point","coordinates":[-116.982871,34.141501]}},{"properties":{"zip":"92391","geo_score":0.714,"count":1,"id":"a6geamq2s0ni","geo_precision":"zip"},"type":"Feature","geometry":{"type":"Point","coordinates":[-115.967051,34.839964]}},{"properties":{"zip":"92392","geo_score":0.714,"count":2,"id":"a6gean52glkv","geo_precision":"zip"},"type":"Feature","geometry":{"type":"Point","coordinates":[-114.754916,34.491985]}},{"properties":{"zip":"92394","geo_score":0.714,"count":1,"id":"a6gean0q1k77","geo_precision":"zip"},"type":"Feature","geometry":{"type":"Point","coordinates":[-115.172471,34.527103]}},{"properties":{"zip":"92395","geo_score":0.0,"count":2,"id":"a6gean4ijghj","geo_precision":"unmatched"},"type":"Feature","geometry":null},{"properties":{"zip":"92404","geo_score":0.714,"count":2,"id":"a6gean3iab0k","geo_precision":"zip"},"type":"Feature","geometry":{"type":"Point","coordinates":[-117.243375,34.148899]}},{"properties":{"zip":"92410","geo_score":0.714,"count":1,"id":"a6gean0i32yt","geo_precision":"zip"},"type":"Feature","geometry":{"type":"Point","coordinates":[-116.479963,34.095956]}},{"properties":{"zip":"92508","geo_score":0.714,"count":1,"id":"a6gean6b6kwg","geo_precision":"zip"},"type":"Feature","geometry":{"type":"Point","coordinates":[-117.2631,33.892091]}},{"properties":{"zip":"92530","geo_score":0.714,"count":3,"id":"a6geamvyvfl3","geo_precision":"zip"},"type":"Feature","geometry":{"type":"Point","coordinates":[-116.649216,33.658068]}},{"properties":{"zip":"92543","geo_score":0.714,"count":1,"id":"a6geamstasbr","geo_precision":"zip"},"type":"Feature","geometry":{"type":"Point","coordinates":[-116.777014,33.651652]}},{"properties":{"zip":"92544","geo_score":0.714,"count":1,"id":"a6geamwyxg9u","geo_precision":"zip"},"type":"Feature","geometry":{"type":"Point","coordinates":[-116.786275,33.617074]}},{"properties":{"zip":"92545","geo_score":0.714,"count":1,"id":"a6geamv1mh7x","geo_precision":"zip"},"type":"Feature","geometry":{"type":"Point","coordinates":[-116.055617,33.752886]}},{"properties":{"zip":"92553","geo_score":0.714,"count":2,"id":"a6gean0cx90t","geo_precision":"zip"},"type":"Feature","geometry":{"type":"Point","coordinates":[-116.505017,32.679501]}},{"properties":{"zip":"92555","geo_score":0.714,"count":2,"id":"a6geamygrecx","geo_precision":"zip"},"type":"Feature","geometry":{"type":"Point","coordinates":[-116.920413,33.855098]}},{"properties":{"zip":"92557","geo_score":0.714,"count":2,"id":"a6geamxgtvel","geo_precision":"zip"},"type":"Feature","geometry":{"type":"Point","coordinates":[-116.055617,33.752886]}},{"properties":{"zip":"92562","geo_score":0.714,"count":1,"id":"a6gean3cpiux","geo_precision":"zip"},"type":"Feature","geometry":{"type":"Point","coordinates":[-116.861027,33.44204]}},{"properties":{"zip":"92563","geo_score":0.714,"count":3,"id":"a6gean3ejhba","geo_precision":"zip"},"type":"Feature","geometry":{"type":"Point","coordinates":[-117.158088,33.560581]}},{"properties":{"zip":"92570","geo_score":0.714,"count":2,"id":"a6gean0bvvrf","geo_precision":"zip"},"type":"Feature","geometry":{"type":"Point","coordinates":[-116.055617,33.752886]}},{"properties":{"zip":"92571","geo_score":0.714,"count":1,"id":"a6geamq77w8j","geo_precision":"zip"},"type":"Feature","geometry":{"type":"Point","coordinates":[-116.055617,33.752886]}},{"properties":{"zip":"92582","geo_score":0.714,"count":1,"id":"a6gean1l8he9","geo_precision":"zip"},"type":"Feature","geometry":{"type":"Point","coordinates":[-116.055617,33.752886]}},{"properties":{"zip":"92584","geo_score":0.714,"count":2,"id":"a6geamraqyrn","geo_precision":"zip"},"type":"Feature","geometry":{"type":"Point","coordinates":[-116.055617,33.752886]}},{"properties":{"zip":"92587","geo_score":0.714,"count":1,"id":"a6gean1udas3","geo_precision":"zip"},"type":"Feature","geometry":{"type":"Point","coordinates":[-117.273093,33.685022]}},{"properties":{"zip":"92595","geo_score":0.714,"count":1,"id":"a6geamxfwj47","geo_precision":"zip"},"type":"Feature","geometry":{"type":"Point","coordinates":[-116.055617,33.752886]}},{"properties":{"zip":"92602","geo_score":0.714,"count":1,"id":"a6geamsv1ulv","geo_precision":"zip"},"type":"Feature","geometry":{"type":"Point","coordinates":[-117.72222,33.718018]}},{"properties":{"zip":"92626","geo_score":0.714,"count":1,"id":"a6geamwwqblp","geo_precision":"zip"},"type":"Feature","geometry":{"type":"Point","coordinates":[-117.778398,33.6829]}},{"properties":{"zip":"92627","geo_score":0.714,"count":1,"id":"a6gean5jsu9x","geo_precision":"zip"},"type":"Feature","geometry":{"type":"Point","coordinates":[-117.763886,33.685069]}},{"properties":{"zip":"92630","geo_score":0.714,"count":2,"id":"a6geamu0azr5","geo_precision":"zip"},"type":"Feature","geometry":{"type":"Point","coordinates":[-117.683662,33.646966]}},{"properties":{"zip":"92647","geo_score":0.714,"count":1,"id":"a6gean1qlr47","geo_precision":"zip"},"type":"Feature","geometry":{"type":"Point","coordinates":[-117.769442,33.640302]}},{"properties":{"zip":"92649","geo_score":0.714,"count":1,"id":"a6geamsbx98g","geo_precision":"zip"},"type":"Feature","geometry":{"type":"Point","coordinates":[-117.769442,33.640302]}},{"properties":{"zip":"92656","geo_score":0.714,"count":1,"id":"a6geamuwpzik","geo_precision":"zip"},"type":"Feature","geometry":{"type":"Point","coordinates":[-117.751341,33.603459]}},{"properties":{"zip":"92663","geo_score":0.714,"count":1,"id":"a6gean22nu44","geo_precision":"zip"},"type":"Feature","geometry":{"type":"Point","coordinates":[-117.91709,33.61837]}},{"properties":{"zip":"92677","geo_score":0.714,"count":1,"id":"a6gean00p566","geo_precision":"zip"},"type":"Feature","geometry":{"type":"Point","coordinates":[-117.732276,33.490861]}},{"properties":{"zip":"92683","geo_score":0.714,"count":2,"id":"a6geamywjiea","geo_precision":"zip"},"type":"Feature","geometry":{"type":"Point","coordinates":[-118.024228,33.758905]}},{"properties":{"zip":"92692","geo_score":0.714,"count":1,"id":"a6geamr0u7tp","geo_precision":"zip"},"type":"Feature","geometry":{"type":"Point","coordinates":[-117.659899,33.575026]}},{"properties":{"zip":"92704","geo_score":0.714,"count":1,"id":"a6gean56famu","geo_precision":"zip"},"type":"Feature","geometry":{"type":"Point","coordinates":[-117.769442,33.640302]}},{"properties":{"zip":"92706","geo_score":0.714,"count":1,"id":"a6geamz9zavl","geo_precision":"zip"},"type":"Feature","geometry":{"type":"Point","coordinates":[-117.769442,33.640302]}},{"properties":{"zip":"92780","geo_score":0.714,"count":1,"id":"a6gean1joabr","geo_precision":"zip"},"type":"Feature","geometry":{"type":"Point","coordinates":[-117.731534,33.579122]}},{"properties":{"zip":"92805","geo_score":0.714,"count":2,"id":"a6geamqrejcs","geo_precision":"zip"},"type":"Feature","geometry":{"type":"Point","coordinates":[-117.769442,33.640302]}},{"properties":{"zip":"92806","geo_score":0.714,"count":1,"id":"a6geamsvnrb8","geo_precision":"zip"},"type":"Feature","geometry":{"type":"Point","coordinates":[-117.769442,33.640302]}},{"properties":{"zip":"92807","geo_score":0.714,"count":4,"id":"a6gean5h9dyq","geo_precision":"zip"},"type":"Feature","geometry":{"type":"Point","coordinates":[-117.777277,33.84446]}},{"properties":{"zip":"92831","geo_score":0.714,"count":1,"id":"a6geamyqmt4f","geo_precision":"zip"},"type":"Feature","geometry":{"type":"Point","coordinates":[-117.769442,33.640302]}},{"properties":{"zip":"92832","geo_score":0.714,"count":1,"id":"a6geamzi8ea5","geo_precision":"zip"},"type":"Feature","geometry":{"type":"Point","coordinates":[-117.769442,33.640302]}},{"properties":{"zip":"92833","geo_score":0.714,"count":1,"id":"a6geamx9qhit","geo_precision":"zip"},"type":"Feature","geometry":{"type":"Point","coordinates":[-117.769442,33.640302]}},{"properties":{"zip":"92835","geo_score":0.714,"count":1,"id":"a6gean0i15ky","geo_precision":"zip"},"type":"Feature","geometry":{"type":"Point","coordinates":[-117.769442,33.640302]}},{"properties":{"zip":"92844","geo_score":0.714,"count":1,"id":"a6geamvno2ey","geo_precision":"zip"},"type":"Feature","geometry":{"type":"Point","coordinates":[-117.769442,33.640302]}},{"properties":{"zip":"92861","geo_score":0.714,"count":1,"id":"a6geamvaw0i0","geo_precision":"zip"},"type":"Feature","geometry":{"type":"Point","coordinates":[-117.769442,33.640302]}},{"properties":{"zip":"92880","geo_score":0.714,"count":1,"id":"a6geamw3jlyk","geo_precision":"zip"},"type":"Feature","geometry":{"type":"Point","coordinates":[-116.055617,33.752886]}},{"properties":{"zip":"92882","geo_score":0.714,"count":1,"id":"a6geamsuia9u","geo_precision":"zip"},"type":"Feature","geometry":{"type":"Point","coordinates":[-116.055617,33.752886]}},{"properties":{"zip":"92883","geo_score":0.714,"count":1,"id":"a6geamrddas0","geo_precision":"zip"},"type":"Feature","geometry":{"type":"Point","coordinates":[-116.055617,33.752886]}},{"properties":{"zip":"92886","geo_score":0.714,"count":1,"id":"a6geamw1hbej","geo_precision":"zip"},"type":"Feature","geometry":{"type":"Point","coordinates":[-117.588233,33.674044]}},{"properties":{"zip":"93010","geo_score":0.714,"count":1,"id":"a6geamzs17yh","geo_precision":"zip"},"type":"Feature","geometry":{"type":"Point","coordinates":[-119.095938,34.22056]}},{"properties":{"zip":"93030","geo_score":0.714,"count":2,"id":"a6geamzsom89","geo_precision":"zip"},"type":"Feature","geometry":{"type":"Point","coordinates":[-119.16383,34.235783]}},{"properties":{"zip":"93035","geo_score":0.714,"count":1,"id":"a6geamwtw7t6","geo_precision":"zip"},"type":"Feature","geometry":{"type":"Point","coordinates":[-119.218442,34.152783]}},{"properties":{"zip":"93053","geo_score":0.0,"count":1,"id":"a6geamt9tgy9","geo_precision":"unmatched"},"type":"Feature","geometry":null},{"properties":{"zip":"93309","geo_score":0.714,"count":1,"id":"a6gean56m6eu","geo_precision":"zip"},"type":"Feature","geometry":{"type":"Point","coordinates":[-118.905173,35.294405]}},{"properties":{"zip":"93401","geo_score":0.714,"count":1,"id":"a6gean4n0g5x","geo_precision":"zip"},"type":"Feature","geometry":{"type":"Point","coordinates":[-120.846846,35.318308]}},{"properties":{"zip":"93420","geo_score":0.714,"count":1,"id":"a6geamw7ot5q","geo_precision":"zip"},"type":"Feature","geometry":{"type":"Point","coordinates":[-120.542668,35.078865]}},{"properties":{"zip":"93534","geo_score":0.714,"count":2,"id":"a6geamws9lb5","geo_precision":"zip"},"type":"Feature","geometry":{"type":"Point","coordinates":[-117.825619,34.667766]}},{"properties":{"zip":"93535","geo_score":0.714,"count":2,"id":"a6gean0tnonh","geo_precision":"zip"},"type":"Feature","geometry":{"type":"Point","coordinates":[-117.777285,34.734986]}},{"properties":{"zip":"93536","geo_score":0.714,"count":4,"id":"a6geamwl1bft","geo_precision":"zip"},"type":"Feature","geometry":{"type":"Point","coordinates":[-118.288688,34.689707]}},{"properties":{"zip":"93551","geo_score":0.714,"count":3,"id":"a6geamxdrpzf","geo_precision":"zip"},"type":"Feature","geometry":{"type":"Point","coordinates":[-118.298662,33.786594]}},{"properties":{"zip":"93552","geo_score":0.714,"count":1,"id":"a6gean4ipduh","geo_precision":"zip"},"type":"Feature","geometry":{"type":"Point","coordinates":[-118.298662,33.786594]}},{"properties":{"zip":"93591","geo_score":0.714,"count":2,"id":"a6geamubbryz","geo_precision":"zip"},"type":"Feature","geometry":{"type":"Point","coordinates":[-118.298662,33.786594]}},{"properties":{"zip":"94040","geo_score":0.714,"count":1,"id":"a6geamvw2xj1","geo_precision":"zip"},"type":"Feature","geometry":{"type":"Point","coordinates":[-121.705327,37.189396]}},{"properties":{"zip":"94560","geo_score":0.714,"count":1,"id":"a6geamxfde1l","geo_precision":"zip"},"type":"Feature","geometry":{"type":"Point","coordinates":[-122.025352,37.534102]}},{"properties":{"zip":"95125","geo_score":0.714,"count":1,"id":"a6gean1ykw7b","geo_precision":"zip"},"type":"Feature","geometry":{"type":"Point","coordinates":[-121.705327,37.189396]}},{"properties":{"zip":"95632","geo_score":0.714,"count":1,"id":"a6gean4ub85y","geo_precision":"zip"},"type":"Feature","geometry":{"type":"Point","coordinates":[-121.31106,38.291025]}},{"properties":{"zip":"95833","geo_score":0.714,"count":1,"id":"a6geamv95a0v","geo_precision":"zip"},"type":"Feature","geometry":{"type":"Point","coordinates":[-121.514016,38.621802]}},{"properties":{"zip":"95843","geo_score":0.714,"count":1,"id":"a6gean5rwc52","geo_precision":"zip"},"type":"Feature","geometry":{"type":"Point","coordinates":[-121.366613,38.716091]}},{"properties":{"zip":"95901","geo_score":0.714,"count":1,"id":"a6gean4ok7sw","geo_precision":"zip"},"type":"Feature","geometry":{"type":"Point","coordinates":[-121.417742,39.311835]}},{"properties":{"zip":"96815","geo_score":0.714,"count":1,"id":"a6gean4e91ze","geo_precision":"zip"},"type":"Feature","geometry":{"type":"Point","coordinates":[-157.829444,21.282778]}},{"properties":{"zip":"97018","geo_score":0.714,"count":1,"id":"a6geamwr0v0p","geo_precision":"zip"},"type":"Feature","geometry":{"type":"Point","coordinates":[-122.814191,45.892304]}},{"properties":{"zip":"98117","geo_score":0.714,"count":1,"id":"a6geamux73ci","geo_precision":"zip"},"type":"Feature","geometry":{"type":"Point","coordinates":[-122.375407,47.694542]}},{"properties":{"zip":"247341","geo_score":0.0,"count":1,"id":"a6gean1d9v11","geo_precision":"unmatched"},"type":"Feature","geometry":null},{"properties":{"zip":"900473","geo_score":0.0,"count":1,"id":"a6gean4ruo1e","geo_precision":"unmatched"},"type":"Feature","geometry":null},{"properties":{"zip":"90230-5515","geo_score":0.714,"count":1,"id":"a6gean6at6nn","geo_precision":"zip"},"type":"Feature","geometry":{"type":"Point","coordinates":[-118.298662,33.786594]}},{"properties":{"zip":"(blank)","geo_score":0.0,"count":null,"id":"a6geamysm16b","geo_precision":"unmatched"},"type":"Feature","geometry":null},{"properties":{"zip":"Grand Total","geo_score":0.0,"count":710,"id":"a6gean4nqtf9","geo_precision":"unmatched"},"type":"Feature","geometry":null}],"is_temporal":false,"author":{"url":"","metadata":"","contact_name":"","contact_address":"","source":"","contact_phone":""},"source":"","pagination":{"sort":null,"start":0,"total":336,"limit":1000000},"state":"complete","tags":"","published":"2014-08-13T05:54:46-04:00","id":105758}