{"type":"FeatureCollection","data_type":"Dataset","url_type":null,"permissions":[{"permissions":{"download":true,"view":true},"group_id":"everyone"}],"classification":null,"title":"HeatmapDataMarch2011","count":23,"stream_id":107156,"contributor":{"url":"http://geocommons.com/users/24062","name":"vb9594"},"data_attributes":null,"calculation_params":null,"icon_link":null,"link":"http://geocommons.com/overlays/107156.json","extent":[-73.2139,41.1927,-70.0822,42.2779],"geometry_types":["point"],"unique_name":null,"name":"HeatmapDataMarch2011","feature_count":23,"description":"","next_feature":null,"is_raster":false,"short_classification":"Y","stats":{},"features":[{"properties":{"city":"N Easton","zipcode":"02356","geo_score":0.74,"id":"a6p7zzn0qkc6","geo_precision":"zip"},"type":"Feature","geometry":{"type":"Point","coordinates":[-71.120326,42.023711]}},{"properties":{"city":"Cohasset","zipcode":"02025","geo_score":0.802,"id":"a6p7zzrqz6wi","geo_precision":"zip"},"type":"Feature","geometry":{"type":"Point","coordinates":[-70.842545,42.258434]}},{"properties":{"city":"Mashpee","zipcode":"02649","geo_score":0.798,"id":"a6p7zzudny65","geo_precision":"zip"},"type":"Feature","geometry":{"type":"Point","coordinates":[-70.476972,41.58261]}},{"properties":{"city":"Taunton","zipcode":"02780","geo_score":0.786,"id":"a6p7zzzemi6n","geo_precision":"zip"},"type":"Feature","geometry":{"type":"Point","coordinates":[-71.093935,41.925101]}},{"properties":{"city":"Pawcatuck","zipcode":"06379","geo_score":0.762,"id":"a6p7zzuuyto2","geo_precision":"zip"},"type":"Feature","geometry":{"type":"Point","coordinates":[-71.879237,41.358988]}},{"properties":{"city":"Uxbridge","zipcode":"01569","geo_score":0.736,"id":"a6p7zzlteba8","geo_precision":"zip"},"type":"Feature","geometry":{"type":"Point","coordinates":[-71.614788,42.080653]}},{"properties":{"city":"West Roxbury","zipcode":"02132","geo_score":0.857,"id":"a6p7zzzlmpgg","geo_precision":"zip"},"type":"Feature","geometry":{"type":"Point","coordinates":[-71.155833,42.277897]}},{"properties":{"city":"Bridgewater","zipcode":"02324","geo_score":0.857,"id":"a6p7zzrymhcu","geo_precision":"zip"},"type":"Feature","geometry":{"type":"Point","coordinates":[-70.976558,41.973741]}},{"properties":{"city":"Taunton","zipcode":"02780","geo_score":0.786,"id":"a6p7zznlj8io","geo_precision":"zip"},"type":"Feature","geometry":{"type":"Point","coordinates":[-71.093935,41.925101]}},{"properties":{"city":"Fall River","zipcode":"02724","geo_score":0.857,"id":"a6p7zzye2y62","geo_precision":"zip"},"type":"Feature","geometry":{"type":"Point","coordinates":[-71.175139,41.684202]}},{"properties":{"city":"Hingham","zipcode":"02043","geo_score":0.805,"id":"a6p7zzwp51iu","geo_precision":"zip"},"type":"Feature","geometry":{"type":"Point","coordinates":[-70.902823,42.2376]}},{"properties":{"city":"Bridgeport","zipcode":"06604","geo_score":0.857,"id":"a6p7zznsiiia","geo_precision":"zip"},"type":"Feature","geometry":{"type":"Point","coordinates":[-73.213907,41.192746]}},{"properties":{"city":"Seekonk","zipcode":"02771-5602","geo_score":0.798,"id":"a6p7zzwopfg4","geo_precision":"zip"},"type":"Feature","geometry":{"type":"Point","coordinates":[-71.330054,41.889267]}},{"properties":{"city":"Hyannis","zipcode":"02601","geo_score":0.732,"id":"a6p7zzz8dqth","geo_precision":"zip"},"type":"Feature","geometry":{"type":"Point","coordinates":[-70.228631,41.705666]}},{"properties":{"city":"Sterling","zipcode":"06377","geo_score":0.857,"id":"a6p7zzzvsvfq","geo_precision":"zip"},"type":"Feature","geometry":{"type":"Point","coordinates":[-71.823184,41.719948]}},{"properties":{"city":"Waterford","zipcode":"06385","geo_score":0.736,"id":"a6p7zznv0r5m","geo_precision":"zip"},"type":"Feature","geometry":{"type":"Point","coordinates":[-72.145355,41.310098]}},{"properties":{"city":"Chicopee","zipcode":"01020","geo_score":0.857,"id":"a6p7zzyis1zr","geo_precision":"zip"},"type":"Feature","geometry":{"type":"Point","coordinates":[-72.562563,42.177492]}},{"properties":{"city":"N Brookfield","zipcode":"015351206","geo_score":0.819,"id":"a6p8000ye6b3","geo_precision":"zip"},"type":"Feature","geometry":{"type":"Point","coordinates":[-72.089338,42.275382]}},{"properties":{"city":"Ansonia","zipcode":"06401","geo_score":0.857,"id":"a6p7zzq19j7h","geo_precision":"zip"},"type":"Feature","geometry":{"type":"Point","coordinates":[-73.070301,41.342514]}},{"properties":{"city":"Attleboro","zipcode":"02703","geo_score":0.75,"id":"a6p7zzoaf173","geo_precision":"zip"},"type":"Feature","geometry":{"type":"Point","coordinates":[-71.307831,41.908433]}},{"properties":{"city":"Attleboro","zipcode":"02703","geo_score":0.75,"id":"a6p7zzpi22pv","geo_precision":"zip"},"type":"Feature","geometry":{"type":"Point","coordinates":[-71.307831,41.908433]}},{"properties":{"city":"Willimantic","zipcode":"06226","geo_score":0.727,"id":"a6p7zzvujlj0","geo_precision":"zip"},"type":"Feature","geometry":{"type":"Point","coordinates":[-72.202022,41.73871]}},{"properties":{"city":"Harwich","zipcode":"02645","geo_score":0.726,"id":"a6p7zzn24utk","geo_precision":"zip"},"type":"Feature","geometry":{"type":"Point","coordinates":[-70.08224,41.713999]}}],"is_temporal":false,"author":{"url":"","metadata":"","contact_name":"","contact_address":"","source":"","contact_phone":""},"source":"","pagination":{"sort":null,"start":0,"total":23,"limit":1000000},"state":"complete","tags":"","published":"2014-08-13T08:06:26-04:00","id":107156}