{"type":"FeatureCollection","data_type":"Dataset","url_type":null,"permissions":[{"permissions":{"download":true,"view":true},"group_id":"everyone"}],"classification":null,"title":"MAP DATA","count":33,"stream_id":107481,"contributor":{"url":"http://geocommons.com/users/25097","name":"fitfutures"},"data_attributes":null,"calculation_params":null,"icon_link":null,"link":"http://geocommons.com/overlays/107481.json","extent":[0.0,0.0,0.0,0.0],"geometry_types":null,"unique_name":null,"name":"MAP DATA","feature_count":33,"description":"Fit Futures Location for Soccer &amp; Sport Stars Term 2","next_feature":null,"is_raster":false,"short_classification":"Y","stats":{},"features":[{"properties":{"name":"Harold West Reserve","city":"Sydney","geo_score":0.0,"sportstars":"Friday AM","soccerstars":"Monday AM","id":"a6226u0ohywj","geo_precision":"unmatched","group":"Northern Districts &amp; Hills","address":"Vickery Ave, Carlingford"},"type":"Feature","geometry":null},{"properties":{"name":"Sutherland Basketball Stadium","city":"Sydney","geo_score":0.0,"sportstars":"Friday AM","soccerstars":"Monday AM","id":"a6226tvk0nt8","geo_precision":"unmatched","group":"Sutherland","address":"Rawson Ave Sutherland"},"type":"Feature","geometry":null},{"properties":{"name":"Queens Park,","city":"Sydney","geo_score":0.0,"sportstars":"Friday AM","soccerstars":"Monday AM","id":"a6226tzmhpmg","geo_precision":"unmatched","group":"Eastern Suburbs","address":"Darley Rd Waverley College Playing Fields"},"type":"Feature","geometry":null},{"properties":{"name":"Lysaght Park","city":"Sydney","geo_score":0.0,"sportstars":"Friday AM","soccerstars":"Saturday AM","id":"a6226u3ru3nt","geo_precision":"unmatched","group":"Inner West","address":"Bay Road 2046"},"type":"Feature","geometry":null},{"properties":{"name":"Mosman Drill Hall","city":"Sydney","geo_score":0.0,"sportstars":"Friday AM","soccerstars":"Thursday AM","id":"a6226tvaiaq2","geo_precision":"unmatched","group":"Northern Beaches","address":"Cross St, Mosman NSW 2088"},"type":"Feature","geometry":null},{"properties":{"name":"Thorpe Park","city":"Sydney","geo_score":0.0,"sportstars":"Friday AM","soccerstars":"Thursday AM","id":"a6226tvootme","geo_precision":"unmatched","group":"St.George","address":"Lyle St, Hurstville"},"type":"Feature","geometry":null},{"properties":{"name":"Bella Vista Oval","city":"Sydney","geo_score":0.0,"sportstars":"Friday AM","soccerstars":"Tuesday AM","id":"a6226trf8gpl","geo_precision":"unmatched","group":"Northern Districts &amp; Hills","address":"Bella Vista Drive, Bella Vista"},"type":"Feature","geometry":null},{"properties":{"name":"Heffron Park","city":"Sydney","geo_score":0.0,"sportstars":"Monday AM","soccerstars":"Friday AM","id":"a6226u471kz0","geo_precision":"unmatched","group":"Eastern Suburbs","address":"Robey Street"},"type":"Feature","geometry":null},{"properties":{"name":"Ramsgate Progress Hall","city":"Sydney","geo_score":0.0,"sportstars":"Monday AM","soccerstars":"Friday AM","id":"a6226tv22qxg","geo_precision":"unmatched","group":"St.George","address":"43 Ramsgate Rd Kogarah Bay 2217"},"type":"Feature","geometry":null},{"properties":{"name":"War Memorial Park","city":"Sydney","geo_score":0.0,"sportstars":"Monday AM","soccerstars":"Wednesday AM","id":"a6226twp2qvw","geo_precision":"unmatched","group":"Inner West","address":"Catherine St, Annandale"},"type":"Feature","geometry":null},{"properties":{"name":"James Morgan Reserve","city":"Sydney","geo_score":0.0,"sportstars":"Monday AM","soccerstars":"Wednesday AM","id":"a6226tyqkhjt","geo_precision":"unmatched","group":"Northern Beaches","address":"Fisher Rd North, Cromer"},"type":"Feature","geometry":null},{"properties":{"name":"Gunnamatta Pavillion","city":"Sydney","geo_score":0.0,"sportstars":"Monday AM","soccerstars":"Wednesday AM","id":"a6226trdrrjv","geo_precision":"unmatched","group":"Sutherland","address":"Nicholson Parade Cronulla 2230"},"type":"Feature","geometry":null},{"properties":{"name":"Cooper Park","city":"Sydney","geo_score":0.0,"sportstars":"Saturday AM","soccerstars":"Saturday AM","id":"a6226tvj0332","geo_precision":"unmatched","group":"Eastern Suburbs","address":"12 Cooper Park Rd, Bellevue Hill 2023"},"type":"Feature","geometry":null},{"properties":{"name":"North Harbour Reserve","city":"Sydney","geo_score":0.0,"sportstars":"Saturday AM","soccerstars":"Saturday AM","id":"a6226tuzy11d","geo_precision":"unmatched","group":"Northern Beaches","address":"Condamine St, Balgowlah"},"type":"Feature","geometry":null},{"properties":{"name":"Lakeside Park","city":"Sydney","geo_score":0.0,"sportstars":"Saturday AM","soccerstars":"Saturday AM","id":"a6226tsplevp","geo_precision":"unmatched","group":"Liverpool","address":"Wattlegrove"},"type":"Feature","geometry":null},{"properties":{"name":"Wentworth Park","city":"Sydney","geo_score":0.0,"sportstars":"Saturday AM","soccerstars":"Thursday AM","id":"a6226u1g78sf","geo_precision":"unmatched","group":"Inner West","address":"Wentworth Park Rd Glebe"},"type":"Feature","geometry":null},{"properties":{"name":"Mortdale Pensioner Hall","city":"Sydney","geo_score":0.0,"sportstars":"Saturday AM","soccerstars":"Tuesday AM","id":"a6226u0f5eqm","geo_precision":"unmatched","group":"St.George","address":"Pitt Street Mortdale 2223"},"type":"Feature","geometry":null},{"properties":{"name":"St Oswalds Church Hall","city":"Sydney","geo_score":0.0,"sportstars":"Thursday AM","soccerstars":"Tuesday AM","id":"a6226tuowx7o","geo_precision":"unmatched","group":"Inner West","address":"10 Dickson St Haberfield"},"type":"Feature","geometry":null},{"properties":{"name":"Winnererremy Bay Reserve","city":"Sydney","geo_score":0.0,"sportstars":"Thursday AM","soccerstars":"Tuesday &amp; Saturday","id":"a6226u0m17tm","geo_precision":"unmatched","group":"Northern Beaches","address":"Mona St, Mona Vale"},"type":"Feature","geometry":null},{"properties":{"name":"Paine Reserve","city":"Sydney","geo_score":0.0,"sportstars":"Thursday AM","soccerstars":"Wednesday AM","id":"a6226tzn2m0y","geo_precision":"unmatched","group":"Eastern Suburbs","address":"Rainbow St, Kingsford"},"type":"Feature","geometry":null},{"properties":{"name":"Morrison Bay Park","city":"Sydney","geo_score":0.0,"sportstars":"Thursday AM","soccerstars":"Wednesday AM","id":"a6226u1xuqdo","geo_precision":"unmatched","group":"Northern Districts &amp; Hills","address":"Frances Rd, Putney"},"type":"Feature","geometry":null},{"properties":{"name":"Lyne Park","city":"Sydney","geo_score":0.0,"sportstars":"Tuesday AM","soccerstars":"Thursday AM","id":"a6226trz6xqj","geo_precision":"unmatched","group":"Eastern Suburbs","address":"Rose Bay"},"type":"Feature","geometry":null},{"properties":{"name":"Central Park","city":"Sydney","geo_score":0.0,"sportstars":"Tuesday AM","soccerstars":"Thursday AM","id":"a6226tsgryfs","geo_precision":"unmatched","group":"Inner West","address":"Wellbank St Concord 2137"},"type":"Feature","geometry":null},{"properties":{"name":"Bales Park,","city":"Sydney","geo_score":0.0,"sportstars":"Tuesday AM","soccerstars":"Thursday AM","id":"a6226tvxfy9g","geo_precision":"unmatched","group":"Northern Districts &amp; Hills","address":"Btw Sydney and Stanley St Chatswood"},"type":"Feature","geometry":null},{"properties":{"name":"Sylvania Heights","city":"Sydney","geo_score":0.0,"sportstars":"Tuesday AM","soccerstars":"Thursday AM","id":"a6226u246z31","geo_precision":"unmatched","group":"Sutherland","address":"288R Box Rd Sylvania 2224"},"type":"Feature","geometry":null},{"properties":{"name":"Oatley Scout Hall","city":"Sydney","geo_score":0.0,"sportstars":"Tuesday AM","soccerstars":"Thursday, Friday &amp; Saturday","id":"a6226tphcugx","geo_precision":"unmatched","group":"St.George","address":"Neville Street Oatley 2223"},"type":"Feature","geometry":null},{"properties":{"name":"All Saints Anglican Churc","city":"Sydney","geo_score":0.0,"sportstars":"Wednesday AM","soccerstars":"Monday AM","id":"a6226txu446t","geo_precision":"unmatched","group":"Inner West","address":"325 Stanmore Rd, Petersham 2049"},"type":"Feature","geometry":null},{"properties":{"name":"Rodney Reserve","city":"Sydney","geo_score":0.0,"sportstars":"Wednesday AM","soccerstars":"Tuesday AM","id":"a6226tsbc096","geo_precision":"unmatched","group":"Eastern Suburbs","address":"Dover Rd, Dover Heights"},"type":"Feature","geometry":null},{"properties":{"name":"Miranda RSL Hall","city":"Sydney","geo_score":0.0,"sportstars":"Wednesday &amp; Saturday","soccerstars":"Tuesday, Friday &amp; Saturday","id":"a6226tq2m9la","geo_precision":"unmatched","group":"Sutherland","address":"2R Central Rd 2228"},"type":"Feature","geometry":null},{"properties":{"name":"Drummoyne Presbyterian","city":"Sydney","geo_score":0.0,"sportstars":null,"soccerstars":"Friday AM","id":"a6226tpny5up","geo_precision":"unmatched","group":"Inner West","address":"63 College St Drummoyne 2047"},"type":"Feature","geometry":null},{"properties":{"name":"Balgowlah Oval,","city":"Sydney","geo_score":0.0,"sportstars":null,"soccerstars":"Friday AM","id":"a6226u3c4kvg","geo_precision":"unmatched","group":"Northern Beaches","address":"Pickworth Ave Balgowlah 2093"},"type":"Feature","geometry":null},{"properties":{"name":"Glen Road Scout Hall","city":"Sydney","geo_score":0.0,"sportstars":null,"soccerstars":"Monday AM","id":"a6226u1qgq1s","geo_precision":"unmatched","group":"St.George","address":"Glen Road Oatley 2223"},"type":"Feature","geometry":null},{"properties":{"name":"Sportsworld Indoor","city":"Sydney","geo_score":0.0,"sportstars":null,"soccerstars":"Wednesday AM","id":"a6226tpfpcmf","geo_precision":"unmatched","group":"St.George","address":"1/707 Forest Road Peakhurst 2210"},"type":"Feature","geometry":null}],"is_temporal":false,"author":{"url":"","metadata":"","contact_name":"","contact_address":"","source":"","contact_phone":""},"source":"","pagination":{"sort":null,"start":0,"total":33,"limit":1000000},"state":"complete","tags":"preschool,soccer,sydney","published":"2011-04-11T03:12:42Z","id":107481}