{"type":"FeatureCollection","data_attributes":null,"calculation_params":null,"title":"sudan states","count":25,"icon_link":null,"extent":[23.2656,4.7556,35.9247,20.0717],"geometry_types":["point"],"unique_name":null,"feature_count":25,"link":"http://geocommons.com/overlays/107783.json","next_feature":null,"features":[{"properties":{"id":"a630gi096vmq","state":"White Nile"},"type":"Feature","geometry":{"type":"Point","coordinates":[32.3896164,13.59752835]}},{"properties":{"id":"a630ghuqbnur","state":"Southern Kordofan"},"type":"Feature","geometry":{"type":"Point","coordinates":[29.86263402,11.04696022]}},{"properties":{"id":"a630ghv3f6bk","state":"Northern Kordofan"},"type":"Feature","geometry":{"type":"Point","coordinates":[29.65099477,13.97217597]}},{"properties":{"id":"a630ghlbwwn1","state":"Sennar"},"type":"Feature","geometry":{"type":"Point","coordinates":[34.31334102,12.92180991]}},{"properties":{"id":"a630ghkvbafh","state":"Red Sea"},"type":"Feature","geometry":{"type":"Point","coordinates":[35.92470903,20.0717316]}},{"properties":{"id":"a630ghwa1zeh","state":"Northern"},"type":"Feature","geometry":{"type":"Point","coordinates":[28.82017583,19.3696721]}},{"properties":{"id":"a630ghn8m99l","state":"Nile"},"type":"Feature","geometry":{"type":"Point","coordinates":[33.77375577,18.9822596]}},{"properties":{"id":"a630ghyy1vap","state":"Khartoum"},"type":"Feature","geometry":{"type":"Point","coordinates":[32.99955177,15.92066385]}},{"properties":{"id":"a630ghqi1nf2","state":"Kassala"},"type":"Feature","geometry":{"type":"Point","coordinates":[35.6145489,16.05683916]}},{"properties":{"id":"a630ghwxqy8i","state":"Gedaref"},"type":"Feature","geometry":{"type":"Point","coordinates":[35.06453503,14.21035691]}},{"properties":{"id":"a630ghs0g70m","state":"Blue Nile"},"type":"Feature","geometry":{"type":"Point","coordinates":[34.11290452,11.03168603]}},{"properties":{"id":"a630ghmwkdi1","state":"El Gezira"},"type":"Feature","geometry":{"type":"Point","coordinates":[33.36682027,14.5359016]}},{"properties":{"id":"a630ghogmu59","state":"Western Darfur"},"type":"Feature","geometry":{"type":"Point","coordinates":[23.26561458,12.83285266]}},{"properties":{"id":"a630gi0jnscj","state":"Southern Darfur"},"type":"Feature","geometry":{"type":"Point","coordinates":[25.47639789,10.88705328]}},{"properties":{"id":"a630ghyln91g","state":"Northern Darfur"},"type":"Feature","geometry":{"type":"Point","coordinates":[25.14907577,15.86102397]}},{"properties":{"id":"a630ghksf1dn","state":"Lakes"},"type":"Feature","geometry":{"type":"Point","coordinates":[30.08525753,6.771409512]}},{"properties":{"id":"a630ghuo4sr1","state":"Bahr El Jabal"},"type":"Feature","geometry":{"type":"Point","coordinates":[31.00949955,4.871999502]}},{"properties":{"id":"a630ghokz84m","state":"Eastern Equatoria"},"type":"Feature","geometry":{"type":"Point","coordinates":[33.83100128,4.755597472]}},{"properties":{"id":"a630ghq7d89j","state":"Upper Nile"},"type":"Feature","geometry":{"type":"Point","coordinates":[32.44785023,10.11083603]}},{"properties":{"id":"a630ghxo5pfp","state":"Western Bahr El Ghazal"},"type":"Feature","geometry":{"type":"Point","coordinates":[26.33717442,8.54246068]}},{"properties":{"id":"a630ghsf968n","state":"Unity"},"type":"Feature","geometry":{"type":"Point","coordinates":[29.70953083,8.677661657]}},{"properties":{"id":"a630ghto1pke","state":"Northern Bahr El Ghazal"},"type":"Feature","geometry":{"type":"Point","coordinates":[27.08747101,8.900920153]}},{"properties":{"id":"a630ghtb4hj9","state":"Jonglei"},"type":"Feature","geometry":{"type":"Point","coordinates":[32.60426712,7.632499456]}},{"properties":{"id":"a630ghvaivz9","state":"Warrab"},"type":"Feature","geometry":{"type":"Point","coordinates":[28.7192564,7.868948221]}},{"properties":{"id":"a630ghu30g3p","state":"Western Equatoria"},"type":"Feature","geometry":{"type":"Point","coordinates":[28.64249992,5.537498951]}}],"is_raster":false,"name":"sudan states","state":"complete","short_classification":"Y","published":"2014-08-31T23:34:22-04:00","description":"","stats":{},"is_temporal":false,"pagination":{"sort":null,"start":0,"limit":1000000,"total":25},"author":{"metadata":"","contact_name":"","url":"","contact_address":"","contact_phone":"","source":""},"source":"","data_type":"Dataset","url_type":null,"permissions":[{"group_id":"everyone","permissions":{"download":true,"view":true}}],"classification":null,"tags":"sudan","id":107783,"stream_id":107783,"contributor":{"name":"oana","url":"http://geocommons.com/users/19036"}}