{"type":"FeatureCollection","data_type":"Dataset","url_type":null,"permissions":[{"permissions":{"download":true,"view":true},"group_id":"everyone"}],"classification":null,"title":"postnummer","count":1000,"stream_id":108187,"contributor":{"url":"http://geocommons.com/users/25191","name":"lars.birkeland"},"data_attributes":null,"calculation_params":null,"icon_link":null,"link":"http://geocommons.com/overlays/108187.json","extent":[-74.2738,17.7342,-64.7347,44.2703],"geometry_types":["point"],"unique_name":null,"name":"postnummer","feature_count":1000,"description":"","next_feature":null,"is_raster":false,"short_classification":"Y","stats":{},"features":[{"properties":{"zipcode":"152","geo_score":0.0,"id":"a66dgfqa3yll","geo_precision":"unmatched"},"type":"Feature","geometry":null},{"properties":{"zipcode":"164","geo_score":0.0,"id":"a66dgfo25nv5","geo_precision":"unmatched"},"type":"Feature","geometry":null},{"properties":{"zipcode":"165","geo_score":0.0,"id":"a66dgflm7vpl","geo_precision":"unmatched"},"type":"Feature","geometry":null},{"properties":{"zipcode":"166","geo_score":0.0,"id":"a66dgfuf2igg","geo_precision":"unmatched"},"type":"Feature","geometry":null},{"properties":{"zipcode":"166","geo_score":0.0,"id":"a66dgg0euz3k","geo_precision":"unmatched"},"type":"Feature","geometry":null},{"properties":{"zipcode":"168","geo_score":0.0,"id":"a66dgfrk7pse","geo_precision":"unmatched"},"type":"Feature","geometry":null},{"properties":{"zipcode":"169","geo_score":0.0,"id":"a66dgfm3kkex","geo_precision":"unmatched"},"type":"Feature","geometry":null},{"properties":{"zipcode":"173","geo_score":0.0,"id":"a66dgfmpq51c","geo_precision":"unmatched"},"type":"Feature","geometry":null},{"properties":{"zipcode":"176","geo_score":0.0,"id":"a66dgfqr6v7r","geo_precision":"unmatched"},"type":"Feature","geometry":null},{"properties":{"zipcode":"177","geo_score":0.0,"id":"a66dgfwh30my","geo_precision":"unmatched"},"type":"Feature","geometry":null},{"properties":{"zipcode":"182","geo_score":0.0,"id":"a66dgfvnl8zk","geo_precision":"unmatched"},"type":"Feature","geometry":null},{"properties":{"zipcode":"182","geo_score":0.0,"id":"a66dgfv9u9vq","geo_precision":"unmatched"},"type":"Feature","geometry":null},{"properties":{"zipcode":"186","geo_score":0.0,"id":"a66dgfos9hjg","geo_precision":"unmatched"},"type":"Feature","geometry":null},{"properties":{"zipcode":"186","geo_score":0.0,"id":"a66dgfli7fl7","geo_precision":"unmatched"},"type":"Feature","geometry":null},{"properties":{"zipcode":"187","geo_score":0.0,"id":"a66dgfssur5r","geo_precision":"unmatched"},"type":"Feature","geometry":null},{"properties":{"zipcode":"187","geo_score":0.0,"id":"a66dgfn9r73p","geo_precision":"unmatched"},"type":"Feature","geometry":null},{"properties":{"zipcode":"192","geo_score":0.0,"id":"a66dgfm9vsvm","geo_precision":"unmatched"},"type":"Feature","geometry":null},{"properties":{"zipcode":"192","geo_score":0.0,"id":"a66dgfsi2feh","geo_precision":"unmatched"},"type":"Feature","geometry":null},{"properties":{"zipcode":"196","geo_score":0.0,"id":"a66dgfv4j83d","geo_precision":"unmatched"},"type":"Feature","geometry":null},{"properties":{"zipcode":"250","geo_score":0.0,"id":"a66dgflfd9kz","geo_precision":"unmatched"},"type":"Feature","geometry":null},{"properties":{"zipcode":"253","geo_score":0.0,"id":"a66dgfuuwcdo","geo_precision":"unmatched"},"type":"Feature","geometry":null},{"properties":{"zipcode":"254","geo_score":0.0,"id":"a66dgfteuav7","geo_precision":"unmatched"},"type":"Feature","geometry":null},{"properties":{"zipcode":"257","geo_score":0.0,"id":"a66dgfyxvnpe","geo_precision":"unmatched"},"type":"Feature","geometry":null},{"properties":{"zipcode":"258","geo_score":0.0,"id":"a66dgfpsaazi","geo_precision":"unmatched"},"type":"Feature","geometry":null},{"properties":{"zipcode":"259","geo_score":0.0,"id":"a66dgfwy73lh","geo_precision":"unmatched"},"type":"Feature","geometry":null},{"properties":{"zipcode":"260","geo_score":0.0,"id":"a66dgfqo4iyt","geo_precision":"unmatched"},"type":"Feature","geometry":null},{"properties":{"zipcode":"262","geo_score":0.0,"id":"a66dgfxjj99q","geo_precision":"unmatched"},"type":"Feature","geometry":null},{"properties":{"zipcode":"264","geo_score":0.0,"id":"a66dgg12t5jv","geo_precision":"unmatched"},"type":"Feature","geometry":null},{"properties":{"zipcode":"265","geo_score":0.0,"id":"a66dgfv07xp8","geo_precision":"unmatched"},"type":"Feature","geometry":null},{"properties":{"zipcode":"265","geo_score":0.0,"id":"a66dgfn0ecu9","geo_precision":"unmatched"},"type":"Feature","geometry":null},{"properties":{"zipcode":"266","geo_score":0.0,"id":"a66dgfv9rkav","geo_precision":"unmatched"},"type":"Feature","geometry":null},{"properties":{"zipcode":"271","geo_score":0.0,"id":"a66dgfvi19rw","geo_precision":"unmatched"},"type":"Feature","geometry":null},{"properties":{"zipcode":"271","geo_score":0.0,"id":"a66dgfx7zdaw","geo_precision":"unmatched"},"type":"Feature","geometry":null},{"properties":{"zipcode":"280","geo_score":0.0,"id":"a66dgfuqyxwn","geo_precision":"unmatched"},"type":"Feature","geometry":null},{"properties":{"zipcode":"301","geo_score":0.0,"id":"a66dgfnszrnu","geo_precision":"unmatched"},"type":"Feature","geometry":null},{"properties":{"zipcode":"350","geo_score":0.0,"id":"a66dgfzsk16k","geo_precision":"unmatched"},"type":"Feature","geometry":null},{"properties":{"zipcode":"352","geo_score":0.0,"id":"a66dgfnfc4vb","geo_precision":"unmatched"},"type":"Feature","geometry":null},{"properties":{"zipcode":"354","geo_score":0.0,"id":"a66dgg0jo42f","geo_precision":"unmatched"},"type":"Feature","geometry":null},{"properties":{"zipcode":"358","geo_score":0.0,"id":"a66dgfq9zq7f","geo_precision":"unmatched"},"type":"Feature","geometry":null},{"properties":{"zipcode":"358","geo_score":0.0,"id":"a66dgfveu72u","geo_precision":"unmatched"},"type":"Feature","geometry":null},{"properties":{"zipcode":"360","geo_score":0.0,"id":"a66dgg0g8f46","geo_precision":"unmatched"},"type":"Feature","geometry":null},{"properties":{"zipcode":"361","geo_score":0.0,"id":"a66dgfmkp4n4","geo_precision":"unmatched"},"type":"Feature","geometry":null},{"properties":{"zipcode":"361","geo_score":0.0,"id":"a66dgfonq720","geo_precision":"unmatched"},"type":"Feature","geometry":null},{"properties":{"zipcode":"361","geo_score":0.0,"id":"a66dgft2ckx9","geo_precision":"unmatched"},"type":"Feature","geometry":null},{"properties":{"zipcode":"363","geo_score":0.0,"id":"a66dgfvohymp","geo_precision":"unmatched"},"type":"Feature","geometry":null},{"properties":{"zipcode":"363","geo_score":0.0,"id":"a66dgfriueqh","geo_precision":"unmatched"},"type":"Feature","geometry":null},{"properties":{"zipcode":"364","geo_score":0.0,"id":"a66dgfw9enui","geo_precision":"unmatched"},"type":"Feature","geometry":null},{"properties":{"zipcode":"365","geo_score":0.0,"id":"a66dgfm65tw8","geo_precision":"unmatched"},"type":"Feature","geometry":null},{"properties":{"zipcode":"367","geo_score":0.0,"id":"a66dgfs33z2f","geo_precision":"unmatched"},"type":"Feature","geometry":null},{"properties":{"zipcode":"370","geo_score":0.0,"id":"a66dgfvliowg","geo_precision":"unmatched"},"type":"Feature","geometry":null},{"properties":{"zipcode":"372","geo_score":0.0,"id":"a66dgftu56xn","geo_precision":"unmatched"},"type":"Feature","geometry":null},{"properties":{"zipcode":"374","geo_score":0.0,"id":"a66dgfts4fdk","geo_precision":"unmatched"},"type":"Feature","geometry":null},{"properties":{"zipcode":"380","geo_score":0.0,"id":"a66dgft5cakl","geo_precision":"unmatched"},"type":"Feature","geometry":null},{"properties":{"zipcode":"380","geo_score":0.0,"id":"a66dgfwol5jd","geo_precision":"unmatched"},"type":"Feature","geometry":null},{"properties":{"zipcode":"380","geo_score":0.0,"id":"a66dgfys6p1v","geo_precision":"unmatched"},"type":"Feature","geometry":null},{"properties":{"zipcode":"381","geo_score":0.0,"id":"a66dgfxxlfp5","geo_precision":"unmatched"},"type":"Feature","geometry":null},{"properties":{"zipcode":"381","geo_score":0.0,"id":"a66dgfvx0996","geo_precision":"unmatched"},"type":"Feature","geometry":null},{"properties":{"zipcode":"381","geo_score":0.0,"id":"a66dgfp31mi2","geo_precision":"unmatched"},"type":"Feature","geometry":null},{"properties":{"zipcode":"382","geo_score":0.0,"id":"a66dgfu7da1k","geo_precision":"unmatched"},"type":"Feature","geometry":null},{"properties":{"zipcode":"451","geo_score":0.0,"id":"a66dgfvjtoxj","geo_precision":"unmatched"},"type":"Feature","geometry":null},{"properties":{"zipcode":"451","geo_score":0.0,"id":"a66dgfs4z3ou","geo_precision":"unmatched"},"type":"Feature","geometry":null},{"properties":{"zipcode":"454","geo_score":0.0,"id":"a66dgfv68jvb","geo_precision":"unmatched"},"type":"Feature","geometry":null},{"properties":{"zipcode":"455","geo_score":0.0,"id":"a66dgflvg0t8","geo_precision":"unmatched"},"type":"Feature","geometry":null},{"properties":{"zipcode":"456","geo_score":0.0,"id":"a66dgfvyi4ru","geo_precision":"unmatched"},"type":"Feature","geometry":null},{"properties":{"zipcode":"456","geo_score":0.0,"id":"a66dgfx3k0nb","geo_precision":"unmatched"},"type":"Feature","geometry":null},{"properties":{"zipcode":"457","geo_score":0.0,"id":"a66dgfy9m2hg","geo_precision":"unmatched"},"type":"Feature","geometry":null},{"properties":{"zipcode":"457","geo_score":0.0,"id":"a66dgfutwj3q","geo_precision":"unmatched"},"type":"Feature","geometry":null},{"properties":{"zipcode":"460","geo_score":0.0,"id":"a66dgfm60r2a","geo_precision":"unmatched"},"type":"Feature","geometry":null},{"properties":{"zipcode":"460","geo_score":0.0,"id":"a66dgfmk1auc","geo_precision":"unmatched"},"type":"Feature","geometry":null},{"properties":{"zipcode":"461","geo_score":0.0,"id":"a66dgg1b8no3","geo_precision":"unmatched"},"type":"Feature","geometry":null},{"properties":{"zipcode":"467","geo_score":0.0,"id":"a66dgg1nh7tj","geo_precision":"unmatched"},"type":"Feature","geometry":null},{"properties":{"zipcode":"467","geo_score":0.0,"id":"a66dgfz1r5rb","geo_precision":"unmatched"},"type":"Feature","geometry":null},{"properties":{"zipcode":"467","geo_score":0.0,"id":"a66dgfow152q","geo_precision":"unmatched"},"type":"Feature","geometry":null},{"properties":{"zipcode":"468","geo_score":0.0,"id":"a66dgfzmvu1r","geo_precision":"unmatched"},"type":"Feature","geometry":null},{"properties":{"zipcode":"468","geo_score":0.0,"id":"a66dgfq9mu16","geo_precision":"unmatched"},"type":"Feature","geometry":null},{"properties":{"zipcode":"468","geo_score":0.0,"id":"a66dgfp7v29l","geo_precision":"unmatched"},"type":"Feature","geometry":null},{"properties":{"zipcode":"469","geo_score":0.0,"id":"a66dgfoxqozk","geo_precision":"unmatched"},"type":"Feature","geometry":null},{"properties":{"zipcode":"469","geo_score":0.0,"id":"a66dgfnkjma9","geo_precision":"unmatched"},"type":"Feature","geometry":null},{"properties":{"zipcode":"473","geo_score":0.0,"id":"a66dgfytrqdu","geo_precision":"unmatched"},"type":"Feature","geometry":null},{"properties":{"zipcode":"473","geo_score":0.0,"id":"a66dgg0s3nmj","geo_precision":"unmatched"},"type":"Feature","geometry":null},{"properties":{"zipcode":"474","geo_score":0.0,"id":"a66dgfoggoip","geo_precision":"unmatched"},"type":"Feature","geometry":null},{"properties":{"zipcode":"475","geo_score":0.0,"id":"a66dgfwkdqte","geo_precision":"unmatched"},"type":"Feature","geometry":null},{"properties":{"zipcode":"476","geo_score":0.0,"id":"a66dgfvnl6fw","geo_precision":"unmatched"},"type":"Feature","geometry":null},{"properties":{"zipcode":"478","geo_score":0.0,"id":"a66dgfzvrgh3","geo_precision":"unmatched"},"type":"Feature","geometry":null},{"properties":{"zipcode":"481","geo_score":0.0,"id":"a66dgfqho2nu","geo_precision":"unmatched"},"type":"Feature","geometry":null},{"properties":{"zipcode":"481","geo_score":0.0,"id":"a66dgfxqbfn7","geo_precision":"unmatched"},"type":"Feature","geometry":null},{"properties":{"zipcode":"482","geo_score":0.0,"id":"a66dgft7kzgj","geo_precision":"unmatched"},"type":"Feature","geometry":null},{"properties":{"zipcode":"482","geo_score":0.0,"id":"a66dgfulo85x","geo_precision":"unmatched"},"type":"Feature","geometry":null},{"properties":{"zipcode":"482","geo_score":0.0,"id":"a66dgfob4i50","geo_precision":"unmatched"},"type":"Feature","geometry":null},{"properties":{"zipcode":"484","geo_score":0.0,"id":"a66dgg0pwbmb","geo_precision":"unmatched"},"type":"Feature","geometry":null},{"properties":{"zipcode":"484","geo_score":0.0,"id":"a66dgfwjor83","geo_precision":"unmatched"},"type":"Feature","geometry":null},{"properties":{"zipcode":"484","geo_score":0.0,"id":"a66dgfto1szh","geo_precision":"unmatched"},"type":"Feature","geometry":null},{"properties":{"zipcode":"484","geo_score":0.0,"id":"a66dgfrrs613","geo_precision":"unmatched"},"type":"Feature","geometry":null},{"properties":{"zipcode":"484","geo_score":0.0,"id":"a66dgfujahfr","geo_precision":"unmatched"},"type":"Feature","geometry":null},{"properties":{"zipcode":"484","geo_score":0.0,"id":"a66dgfr6436w","geo_precision":"unmatched"},"type":"Feature","geometry":null},{"properties":{"zipcode":"485","geo_score":0.0,"id":"a66dgfou26k1","geo_precision":"unmatched"},"type":"Feature","geometry":null},{"properties":{"zipcode":"485","geo_score":0.0,"id":"a66dgfp0br4z","geo_precision":"unmatched"},"type":"Feature","geometry":null},{"properties":{"zipcode":"486","geo_score":0.0,"id":"a66dgfxnmzku","geo_precision":"unmatched"},"type":"Feature","geometry":null},{"properties":{"zipcode":"487","geo_score":0.0,"id":"a66dgfml8b8g","geo_precision":"unmatched"},"type":"Feature","geometry":null},{"properties":{"zipcode":"489","geo_score":0.0,"id":"a66dgftaidyh","geo_precision":"unmatched"},"type":"Feature","geometry":null},{"properties":{"zipcode":"490","geo_score":0.0,"id":"a66dgfwrglz4","geo_precision":"unmatched"},"type":"Feature","geometry":null},{"properties":{"zipcode":"491","geo_score":0.0,"id":"a66dgfxan5tn","geo_precision":"unmatched"},"type":"Feature","geometry":null},{"properties":{"zipcode":"494","geo_score":0.0,"id":"a66dgfmtiy42","geo_precision":"unmatched"},"type":"Feature","geometry":null},{"properties":{"zipcode":"495","geo_score":0.0,"id":"a66dgfz4v6t4","geo_precision":"unmatched"},"type":"Feature","geometry":null},{"properties":{"zipcode":"495","geo_score":0.0,"id":"a66dgfybf0c2","geo_precision":"unmatched"},"type":"Feature","geometry":null},{"properties":{"zipcode":"495","geo_score":0.0,"id":"a66dgfz26k50","geo_precision":"unmatched"},"type":"Feature","geometry":null},{"properties":{"zipcode":"550","geo_score":0.0,"id":"a66dgfnw028p","geo_precision":"unmatched"},"type":"Feature","geometry":null},{"properties":{"zipcode":"553","geo_score":0.0,"id":"a66dgg1qbvmm","geo_precision":"unmatched"},"type":"Feature","geometry":null},{"properties":{"zipcode":"554","geo_score":0.0,"id":"a66dgfqsi9zv","geo_precision":"unmatched"},"type":"Feature","geometry":null},{"properties":{"zipcode":"555","geo_score":0.0,"id":"a66dgfrropx0","geo_precision":"unmatched"},"type":"Feature","geometry":null},{"properties":{"zipcode":"555","geo_score":0.0,"id":"a66dgfys7lte","geo_precision":"unmatched"},"type":"Feature","geometry":null},{"properties":{"zipcode":"555","geo_score":0.0,"id":"a66dgfqkg5nj","geo_precision":"unmatched"},"type":"Feature","geometry":null},{"properties":{"zipcode":"556","geo_score":0.0,"id":"a66dgfwg2svy","geo_precision":"unmatched"},"type":"Feature","geometry":null},{"properties":{"zipcode":"556","geo_score":0.0,"id":"a66dgfsmn4up","geo_precision":"unmatched"},"type":"Feature","geometry":null},{"properties":{"zipcode":"558","geo_score":0.0,"id":"a66dgfxcattg","geo_precision":"unmatched"},"type":"Feature","geometry":null},{"properties":{"zipcode":"559","geo_score":0.0,"id":"a66dgfxbr0is","geo_precision":"unmatched"},"type":"Feature","geometry":null},{"properties":{"zipcode":"559","geo_score":0.0,"id":"a66dgg1hyhmi","geo_precision":"unmatched"},"type":"Feature","geometry":null},{"properties":{"zipcode":"560","geo_score":0.0,"id":"a66dgfwmlys2","geo_precision":"unmatched"},"type":"Feature","geometry":null},{"properties":{"zipcode":"560","geo_score":0.0,"id":"a66dgfzzbkcw","geo_precision":"unmatched"},"type":"Feature","geometry":null},{"properties":{"zipcode":"560","geo_score":0.0,"id":"a66dgfr928lg","geo_precision":"unmatched"},"type":"Feature","geometry":null},{"properties":{"zipcode":"561","geo_score":0.0,"id":"a66dgfznc334","geo_precision":"unmatched"},"type":"Feature","geometry":null},{"properties":{"zipcode":"561","geo_score":0.0,"id":"a66dgfvev1s1","geo_precision":"unmatched"},"type":"Feature","geometry":null},{"properties":{"zipcode":"561","geo_score":0.0,"id":"a66dgg1me3gi","geo_precision":"unmatched"},"type":"Feature","geometry":null},{"properties":{"zipcode":"561","geo_score":0.0,"id":"a66dgfu65ksl","geo_precision":"unmatched"},"type":"Feature","geometry":null},{"properties":{"zipcode":"561","geo_score":0.0,"id":"a66dgfp3jl5y","geo_precision":"unmatched"},"type":"Feature","geometry":null},{"properties":{"zipcode":"563","geo_score":0.0,"id":"a66dgfvifokk","geo_precision":"unmatched"},"type":"Feature","geometry":null},{"properties":{"zipcode":"564","geo_score":0.0,"id":"a66dgfo8veff","geo_precision":"unmatched"},"type":"Feature","geometry":null},{"properties":{"zipcode":"564","geo_score":0.0,"id":"a66dgg064rjt","geo_precision":"unmatched"},"type":"Feature","geometry":null},{"properties":{"zipcode":"564","geo_score":0.0,"id":"a66dgfqxka5a","geo_precision":"unmatched"},"type":"Feature","geometry":null},{"properties":{"zipcode":"564","geo_score":0.0,"id":"a66dgfvocjtt","geo_precision":"unmatched"},"type":"Feature","geometry":null},{"properties":{"zipcode":"565","geo_score":0.0,"id":"a66dgfw1pajm","geo_precision":"unmatched"},"type":"Feature","geometry":null},{"properties":{"zipcode":"566","geo_score":0.0,"id":"a66dgfzkkuu1","geo_precision":"unmatched"},"type":"Feature","geometry":null},{"properties":{"zipcode":"566","geo_score":0.0,"id":"a66dgfnaaiay","geo_precision":"unmatched"},"type":"Feature","geometry":null},{"properties":{"zipcode":"566","geo_score":0.0,"id":"a66dgfyxrtvg","geo_precision":"unmatched"},"type":"Feature","geometry":null},{"properties":{"zipcode":"567","geo_score":0.0,"id":"a66dgfos9f5f","geo_precision":"unmatched"},"type":"Feature","geometry":null},{"properties":{"zipcode":"568","geo_score":0.0,"id":"a66dgg0sf5qd","geo_precision":"unmatched"},"type":"Feature","geometry":null},{"properties":{"zipcode":"569","geo_score":0.0,"id":"a66dgfsyskgr","geo_precision":"unmatched"},"type":"Feature","geometry":null},{"properties":{"zipcode":"570","geo_score":0.0,"id":"a66dgfxodgrf","geo_precision":"unmatched"},"type":"Feature","geometry":null},{"properties":{"zipcode":"570","geo_score":0.0,"id":"a66dgfscjmwu","geo_precision":"unmatched"},"type":"Feature","geometry":null},{"properties":{"zipcode":"571","geo_score":0.0,"id":"a66dgfq1p3aw","geo_precision":"unmatched"},"type":"Feature","geometry":null},{"properties":{"zipcode":"573","geo_score":0.0,"id":"a66dgfmtlsgx","geo_precision":"unmatched"},"type":"Feature","geometry":null},{"properties":{"zipcode":"574","geo_score":0.0,"id":"a66dgft5bli9","geo_precision":"unmatched"},"type":"Feature","geometry":null},{"properties":{"zipcode":"575","geo_score":0.0,"id":"a66dgfzhupp6","geo_precision":"unmatched"},"type":"Feature","geometry":null},{"properties":{"zipcode":"580","geo_score":0.0,"id":"a66dgfxb7fpq","geo_precision":"unmatched"},"type":"Feature","geometry":null},{"properties":{"zipcode":"580","geo_score":0.0,"id":"a66dgfxcfjtl","geo_precision":"unmatched"},"type":"Feature","geometry":null},{"properties":{"zipcode":"580","geo_score":0.0,"id":"a66dgfzqz3eg","geo_precision":"unmatched"},"type":"Feature","geometry":null},{"properties":{"zipcode":"584","geo_score":0.0,"id":"a66dgfxpefnk","geo_precision":"unmatched"},"type":"Feature","geometry":null},{"properties":{"zipcode":"585","geo_score":0.0,"id":"a66dgg1uxowr","geo_precision":"unmatched"},"type":"Feature","geometry":null},{"properties":{"zipcode":"585","geo_score":0.0,"id":"a66dgft1f83e","geo_precision":"unmatched"},"type":"Feature","geometry":null},{"properties":{"zipcode":"585","geo_score":0.0,"id":"a66dgfzl08nr","geo_precision":"unmatched"},"type":"Feature","geometry":null},{"properties":{"zipcode":"586","geo_score":0.0,"id":"a66dgfvbwhtl","geo_precision":"unmatched"},"type":"Feature","geometry":null},{"properties":{"zipcode":"586","geo_score":0.0,"id":"a66dgfovt8eb","geo_precision":"unmatched"},"type":"Feature","geometry":null},{"properties":{"zipcode":"589","geo_score":0.0,"id":"a66dgflmeu0e","geo_precision":"unmatched"},"type":"Feature","geometry":null},{"properties":{"zipcode":"592","geo_score":0.0,"id":"a66dgftrt52g","geo_precision":"unmatched"},"type":"Feature","geometry":null},{"properties":{"zipcode":"592","geo_score":0.0,"id":"a66dgfu5qpzh","geo_precision":"unmatched"},"type":"Feature","geometry":null},{"properties":{"zipcode":"593","geo_score":0.0,"id":"a66dgfrmcmoy","geo_precision":"unmatched"},"type":"Feature","geometry":null},{"properties":{"zipcode":"593","geo_score":0.0,"id":"a66dgfp708ms","geo_precision":"unmatched"},"type":"Feature","geometry":null},{"properties":{"zipcode":"593","geo_score":0.0,"id":"a66dgfryst35","geo_precision":"unmatched"},"type":"Feature","geometry":null},{"properties":{"zipcode":"593","geo_score":0.0,"id":"a66dgfrfeg6g","geo_precision":"unmatched"},"type":"Feature","geometry":null},{"properties":{"zipcode":"595","geo_score":0.0,"id":"a66dgg1hd8xc","geo_precision":"unmatched"},"type":"Feature","geometry":null},{"properties":{"zipcode":"595","geo_score":0.0,"id":"a66dgfyg3ibs","geo_precision":"unmatched"},"type":"Feature","geometry":null},{"properties":{"zipcode":"597","geo_score":0.0,"id":"a66dgfuj15qy","geo_precision":"unmatched"},"type":"Feature","geometry":null},{"properties":{"zipcode":"598","geo_score":0.0,"id":"a66dgfxx27fj","geo_precision":"unmatched"},"type":"Feature","geometry":null},{"properties":{"zipcode":"598","geo_score":0.0,"id":"a66dgfwr5okd","geo_precision":"unmatched"},"type":"Feature","geometry":null},{"properties":{"zipcode":"598","geo_score":0.0,"id":"a66dgfwnujpk","geo_precision":"unmatched"},"type":"Feature","geometry":null},{"properties":{"zipcode":"598","geo_score":0.0,"id":"a66dgfo1zfsw","geo_precision":"unmatched"},"type":"Feature","geometry":null},{"properties":{"zipcode":"651","geo_score":0.0,"id":"a66dgfnz36cz","geo_precision":"unmatched"},"type":"Feature","geometry":null},{"properties":{"zipcode":"653","geo_score":0.714,"id":"a66dgfyoo7h4","geo_precision":"zip"},"type":"Feature","geometry":{"type":"Point","coordinates":[-66.898661,17.972468]}},{"properties":{"zipcode":"653","geo_score":0.714,"id":"a66dgfsepw10","geo_precision":"zip"},"type":"Feature","geometry":{"type":"Point","coordinates":[-66.898661,17.972468]}},{"properties":{"zipcode":"654","geo_score":0.0,"id":"a66dgfzwwnm2","geo_precision":"unmatched"},"type":"Feature","geometry":null},{"properties":{"zipcode":"654","geo_score":0.0,"id":"a66dgfuz2hkx","geo_precision":"unmatched"},"type":"Feature","geometry":null},{"properties":{"zipcode":"654","geo_score":0.0,"id":"a66dgfx8y3aa","geo_precision":"unmatched"},"type":"Feature","geometry":null},{"properties":{"zipcode":"655","geo_score":0.0,"id":"a66dgfr2u7mk","geo_precision":"unmatched"},"type":"Feature","geometry":null},{"properties":{"zipcode":"655","geo_score":0.0,"id":"a66dgfw7yw29","geo_precision":"unmatched"},"type":"Feature","geometry":null},{"properties":{"zipcode":"656","geo_score":0.714,"id":"a66dgfv2ide4","geo_precision":"zip"},"type":"Feature","geometry":{"type":"Point","coordinates":[-66.769064,18.017465]}},{"properties":{"zipcode":"656","geo_score":0.714,"id":"a66dgfx2yj3f","geo_precision":"zip"},"type":"Feature","geometry":{"type":"Point","coordinates":[-66.769064,18.017465]}},{"properties":{"zipcode":"656","geo_score":0.714,"id":"a66dgfn76472","geo_precision":"zip"},"type":"Feature","geometry":{"type":"Point","coordinates":[-66.769064,18.017465]}},{"properties":{"zipcode":"659","geo_score":0.714,"id":"a66dgfptg1ur","geo_precision":"zip"},"type":"Feature","geometry":{"type":"Point","coordinates":[-66.808696,18.481391]}},{"properties":{"zipcode":"659","geo_score":0.714,"id":"a66dgfpiwj9h","geo_precision":"zip"},"type":"Feature","geometry":{"type":"Point","coordinates":[-66.808696,18.481391]}},{"properties":{"zipcode":"659","geo_score":0.714,"id":"a66dgg1azszd","geo_precision":"zip"},"type":"Feature","geometry":{"type":"Point","coordinates":[-66.808696,18.481391]}},{"properties":{"zipcode":"660","geo_score":0.714,"id":"a66dgfwrjaup","geo_precision":"zip"},"type":"Feature","geometry":{"type":"Point","coordinates":[-67.135323,18.145486]}},{"properties":{"zipcode":"660","geo_score":0.714,"id":"a66dgfljpbnm","geo_precision":"zip"},"type":"Feature","geometry":{"type":"Point","coordinates":[-67.135323,18.145486]}},{"properties":{"zipcode":"661","geo_score":0.0,"id":"a66dgfptwcqu","geo_precision":"unmatched"},"type":"Feature","geometry":null},{"properties":{"zipcode":"661","geo_score":0.0,"id":"a66dgfyyjmt5","geo_precision":"unmatched"},"type":"Feature","geometry":null},{"properties":{"zipcode":"661","geo_score":0.0,"id":"a66dgfn8ayfw","geo_precision":"unmatched"},"type":"Feature","geometry":null},{"properties":{"zipcode":"662","geo_score":0.714,"id":"a66dgfw8cwpf","geo_precision":"zip"},"type":"Feature","geometry":{"type":"Point","coordinates":[-67.028155,18.480285]}},{"properties":{"zipcode":"662","geo_score":0.714,"id":"a66dgfoo9ytu","geo_precision":"zip"},"type":"Feature","geometry":{"type":"Point","coordinates":[-67.028155,18.480285]}},{"properties":{"zipcode":"662","geo_score":0.714,"id":"a66dgfnexo9y","geo_precision":"zip"},"type":"Feature","geometry":{"type":"Point","coordinates":[-67.028155,18.480285]}},{"properties":{"zipcode":"662","geo_score":0.714,"id":"a66dgfzlqc0q","geo_precision":"zip"},"type":"Feature","geometry":{"type":"Point","coordinates":[-67.028155,18.480285]}},{"properties":{"zipcode":"663","geo_score":0.0,"id":"a66dgflgekmx","geo_precision":"unmatched"},"type":"Feature","geometry":null},{"properties":{"zipcode":"664","geo_score":0.714,"id":"a66dgflfk9ds","geo_precision":"zip"},"type":"Feature","geometry":{"type":"Point","coordinates":[-66.598306,18.217606]}},{"properties":{"zipcode":"665","geo_score":0.0,"id":"a66dgfmmlocb","geo_precision":"unmatched"},"type":"Feature","geometry":null},{"properties":{"zipcode":"667","geo_score":0.714,"id":"a66dgfzwm6eb","geo_precision":"zip"},"type":"Feature","geometry":{"type":"Point","coordinates":[-67.055973,18.015099]}},{"properties":{"zipcode":"667","geo_score":0.714,"id":"a66dgfnwevxz","geo_precision":"zip"},"type":"Feature","geometry":{"type":"Point","coordinates":[-67.055973,18.015099]}},{"properties":{"zipcode":"667","geo_score":0.714,"id":"a66dgfxoqwbk","geo_precision":"zip"},"type":"Feature","geometry":{"type":"Point","coordinates":[-67.055973,18.015099]}},{"properties":{"zipcode":"668","geo_score":0.0,"id":"a66dgfud2syc","geo_precision":"unmatched"},"type":"Feature","geometry":null},{"properties":{"zipcode":"668","geo_score":0.0,"id":"a66dgfzjb9om","geo_precision":"unmatched"},"type":"Feature","geometry":null},{"properties":{"zipcode":"669","geo_score":0.714,"id":"a66dgfvyfq7y","geo_precision":"zip"},"type":"Feature","geometry":{"type":"Point","coordinates":[-66.881925,18.295952]}},{"properties":{"zipcode":"670","geo_score":0.714,"id":"a66dgfo3xf93","geo_precision":"zip"},"type":"Feature","geometry":{"type":"Point","coordinates":[-67.146291,18.293284]}},{"properties":{"zipcode":"672","geo_score":0.0,"id":"a66dgfxfqsqf","geo_precision":"unmatched"},"type":"Feature","geometry":null},{"properties":{"zipcode":"673","geo_score":0.0,"id":"a66dgfy84fg4","geo_precision":"unmatched"},"type":"Feature","geometry":null},{"properties":{"zipcode":"673","geo_score":0.0,"id":"a66dgfza5ae0","geo_precision":"unmatched"},"type":"Feature","geometry":null},{"properties":{"zipcode":"674","geo_score":0.714,"id":"a66dgfu9t05h","geo_precision":"zip"},"type":"Feature","geometry":{"type":"Point","coordinates":[-66.490268,18.44553]}},{"properties":{"zipcode":"678","geo_score":0.714,"id":"a66dgfmv6xi2","geo_precision":"zip"},"type":"Feature","geometry":{"type":"Point","coordinates":[-66.933689,18.45303]}},{"properties":{"zipcode":"680","geo_score":0.714,"id":"a66dgg0unj7k","geo_precision":"zip"},"type":"Feature","geometry":{"type":"Point","coordinates":[-67.508068,18.219023]}},{"properties":{"zipcode":"680","geo_score":0.714,"id":"a66dgfy9fn6f","geo_precision":"zip"},"type":"Feature","geometry":{"type":"Point","coordinates":[-67.508068,18.219023]}},{"properties":{"zipcode":"681","geo_score":0.714,"id":"a66dgg011lko","geo_precision":"zip"},"type":"Feature","geometry":{"type":"Point","coordinates":[-67.508068,18.219023]}},{"properties":{"zipcode":"681","geo_score":0.714,"id":"a66dgfwyzx9j","geo_precision":"zip"},"type":"Feature","geometry":{"type":"Point","coordinates":[-67.508068,18.219023]}},{"properties":{"zipcode":"683","geo_score":0.714,"id":"a66dgfy4pmv4","geo_precision":"zip"},"type":"Feature","geometry":{"type":"Point","coordinates":[-67.039706,18.113284]}},{"properties":{"zipcode":"683","geo_score":0.714,"id":"a66dgfymayvz","geo_precision":"zip"},"type":"Feature","geometry":{"type":"Point","coordinates":[-67.039706,18.113284]}},{"properties":{"zipcode":"684","geo_score":0.0,"id":"a66dgfvfhgz2","geo_precision":"unmatched"},"type":"Feature","geometry":null},{"properties":{"zipcode":"685","geo_score":0.714,"id":"a66dgfz4pif9","geo_precision":"zip"},"type":"Feature","geometry":{"type":"Point","coordinates":[-66.972227,18.3236]}},{"properties":{"zipcode":"685","geo_score":0.714,"id":"a66dgfv7frxk","geo_precision":"zip"},"type":"Feature","geometry":{"type":"Point","coordinates":[-66.972227,18.3236]}},{"properties":{"zipcode":"685","geo_score":0.714,"id":"a66dgfyqyjv9","geo_precision":"zip"},"type":"Feature","geometry":{"type":"Point","coordinates":[-66.972227,18.3236]}},{"properties":{"zipcode":"686","geo_score":0.0,"id":"a66dgfsapbuh","geo_precision":"unmatched"},"type":"Feature","geometry":null},{"properties":{"zipcode":"688","geo_score":0.714,"id":"a66dgfq3nq3l","geo_precision":"zip"},"type":"Feature","geometry":{"type":"Point","coordinates":[-66.674506,18.429675]}},{"properties":{"zipcode":"688","geo_score":0.714,"id":"a66dgfmzquvq","geo_precision":"zip"},"type":"Feature","geometry":{"type":"Point","coordinates":[-66.674506,18.429675]}},{"properties":{"zipcode":"689","geo_score":0.0,"id":"a66dgfliq5rr","geo_precision":"unmatched"},"type":"Feature","geometry":null},{"properties":{"zipcode":"689","geo_score":0.0,"id":"a66dgfnn5ch1","geo_precision":"unmatched"},"type":"Feature","geometry":null},{"properties":{"zipcode":"691","geo_score":0.0,"id":"a66dgfodtm4m","geo_precision":"unmatched"},"type":"Feature","geometry":null},{"properties":{"zipcode":"692","geo_score":0.714,"id":"a66dgfs1yrzz","geo_precision":"zip"},"type":"Feature","geometry":{"type":"Point","coordinates":[-66.338523,18.435818]}},{"properties":{"zipcode":"693","geo_score":0.714,"id":"a66dgfpr9uyn","geo_precision":"zip"},"type":"Feature","geometry":{"type":"Point","coordinates":[-66.398302,18.443109]}},{"properties":{"zipcode":"694","geo_score":0.714,"id":"a66dgfsb7bg8","geo_precision":"zip"},"type":"Feature","geometry":{"type":"Point","coordinates":[-66.398302,18.443109]}},{"properties":{"zipcode":"750","geo_score":0.0,"id":"a66dgfxe9zfc","geo_precision":"unmatched"},"type":"Feature","geometry":null},{"properties":{"zipcode":"751","geo_score":0.714,"id":"a66dgflmjw87","geo_precision":"zip"},"type":"Feature","geometry":{"type":"Point","coordinates":[-66.264825,17.99852]}},{"properties":{"zipcode":"751","geo_score":0.714,"id":"a66dgfxgb0k7","geo_precision":"zip"},"type":"Feature","geometry":{"type":"Point","coordinates":[-66.264825,17.99852]}},{"properties":{"zipcode":"755","geo_score":0.0,"id":"a66dgfyeqmdv","geo_precision":"unmatched"},"type":"Feature","geometry":null},{"properties":{"zipcode":"760","geo_score":0.0,"id":"a66dgfojir18","geo_precision":"unmatched"},"type":"Feature","geometry":null},{"properties":{"zipcode":"765","geo_score":0.714,"id":"a66dgfn0sf8u","geo_precision":"zip"},"type":"Feature","geometry":{"type":"Point","coordinates":[-65.432103,18.152185]}},{"properties":{"zipcode":"768","geo_score":0.714,"id":"a66dgfuy2nu1","geo_precision":"zip"},"type":"Feature","geometry":{"type":"Point","coordinates":[-66.873232,18.013576]}},{"properties":{"zipcode":"770","geo_score":0.0,"id":"a66dgfugyw5d","geo_precision":"unmatched"},"type":"Feature","geometry":null},{"properties":{"zipcode":"770","geo_score":0.0,"id":"a66dgfsp03gu","geo_precision":"unmatched"},"type":"Feature","geometry":null},{"properties":{"zipcode":"770","geo_score":0.0,"id":"a66dgg0y137d","geo_precision":"unmatched"},"type":"Feature","geometry":null},{"properties":{"zipcode":"779","geo_score":0.0,"id":"a66dgfncqc7g","geo_precision":"unmatched"},"type":"Feature","geometry":null},{"properties":{"zipcode":"785","geo_score":0.714,"id":"a66dgfy8fepi","geo_precision":"zip"},"type":"Feature","geometry":{"type":"Point","coordinates":[-66.795603,18.018822]}},{"properties":{"zipcode":"787","geo_score":0.0,"id":"a66dgfrppmsj","geo_precision":"unmatched"},"type":"Feature","geometry":null},{"properties":{"zipcode":"788","geo_score":0.0,"id":"a66dgg03cqlj","geo_precision":"unmatched"},"type":"Feature","geometry":null},{"properties":{"zipcode":"850","geo_score":0.714,"id":"a66dgfoh72w2","geo_precision":"zip"},"type":"Feature","geometry":{"type":"Point","coordinates":[-64.734694,17.734211]}},{"properties":{"zipcode":"855","geo_score":0.0,"id":"a66dgfwwr3us","geo_precision":"unmatched"},"type":"Feature","geometry":null},{"properties":{"zipcode":"858","geo_score":0.0,"id":"a66dgfv5lwgj","geo_precision":"unmatched"},"type":"Feature","geometry":null},{"properties":{"zipcode":"860","geo_score":0.0,"id":"a66dgfv72f65","geo_precision":"unmatched"},"type":"Feature","geometry":null},{"properties":{"zipcode":"864","geo_score":0.0,"id":"a66dgg1qcghb","geo_precision":"unmatched"},"type":"Feature","geometry":null},{"properties":{"zipcode":"870","geo_score":0.0,"id":"a66dgg1mlyds","geo_precision":"unmatched"},"type":"Feature","geometry":null},{"properties":{"zipcode":"873","geo_score":0.0,"id":"a66dgfymdw00","geo_precision":"unmatched"},"type":"Feature","geometry":null},{"properties":{"zipcode":"882","geo_score":0.0,"id":"a66dgfnwqtsl","geo_precision":"unmatched"},"type":"Feature","geometry":null},{"properties":{"zipcode":"882","geo_score":0.0,"id":"a66dgfv2w84p","geo_precision":"unmatched"},"type":"Feature","geometry":null},{"properties":{"zipcode":"952","geo_score":0.714,"id":"a66dgfme0cyf","geo_precision":"zip"},"type":"Feature","geometry":{"type":"Point","coordinates":[-66.196503,18.457761]}},{"properties":{"zipcode":"953","geo_score":0.714,"id":"a66dgflst1i0","geo_precision":"zip"},"type":"Feature","geometry":{"type":"Point","coordinates":[-66.25701,18.356795]}},{"properties":{"zipcode":"956","geo_score":0.714,"id":"a66dgfoj8knp","geo_precision":"zip"},"type":"Feature","geometry":{"type":"Point","coordinates":[-66.174176,18.326702]}},{"properties":{"zipcode":"957","geo_score":0.714,"id":"a66dgg0lblzo","geo_precision":"zip"},"type":"Feature","geometry":{"type":"Point","coordinates":[-66.183907,18.366645]}},{"properties":{"zipcode":"958","geo_score":0.714,"id":"a66dgftdxz3r","geo_precision":"zip"},"type":"Feature","geometry":{"type":"Point","coordinates":[-66.166014,18.34487]}},{"properties":{"zipcode":"958","geo_score":0.714,"id":"a66dgfxb2nm4","geo_precision":"zip"},"type":"Feature","geometry":{"type":"Point","coordinates":[-66.166014,18.34487]}},{"properties":{"zipcode":"959","geo_score":0.714,"id":"a66dgg0dkr3s","geo_precision":"zip"},"type":"Feature","geometry":{"type":"Point","coordinates":[-66.159044,18.387058]}},{"properties":{"zipcode":"960","geo_score":0.714,"id":"a66dgfs3nsmb","geo_precision":"zip"},"type":"Feature","geometry":{"type":"Point","coordinates":[-66.166014,18.34487]}},{"properties":{"zipcode":"960","geo_score":0.714,"id":"a66dgfza610v","geo_precision":"zip"},"type":"Feature","geometry":{"type":"Point","coordinates":[-66.166014,18.34487]}},{"properties":{"zipcode":"960","geo_score":0.714,"id":"a66dgfyrrm0j","geo_precision":"zip"},"type":"Feature","geometry":{"type":"Point","coordinates":[-66.166014,18.34487]}},{"properties":{"zipcode":"962","geo_score":0.714,"id":"a66dgfr1e3sw","geo_precision":"zip"},"type":"Feature","geometry":{"type":"Point","coordinates":[-66.140407,18.437644]}},{"properties":{"zipcode":"963","geo_score":0.714,"id":"a66dgg1v62h2","geo_precision":"zip"},"type":"Feature","geometry":{"type":"Point","coordinates":[-66.139293,18.443217]}},{"properties":{"zipcode":"963","geo_score":0.714,"id":"a66dgft815w9","geo_precision":"zip"},"type":"Feature","geometry":{"type":"Point","coordinates":[-66.139293,18.443217]}},{"properties":{"zipcode":"968","geo_score":0.714,"id":"a66dgfnvaoei","geo_precision":"zip"},"type":"Feature","geometry":{"type":"Point","coordinates":[-66.060533,18.410462]}},{"properties":{"zipcode":"969","geo_score":0.714,"id":"a66dgftavosd","geo_precision":"zip"},"type":"Feature","geometry":{"type":"Point","coordinates":[-66.113729,18.362322]}},{"properties":{"zipcode":"970","geo_score":0.714,"id":"a66dgg0ecn3m","geo_precision":"zip"},"type":"Feature","geometry":{"type":"Point","coordinates":[-66.112295,18.359143]}},{"properties":{"zipcode":"973","geo_score":0.0,"id":"a66dgfz84hpv","geo_precision":"unmatched"},"type":"Feature","geometry":null},{"properties":{"zipcode":"975","geo_score":0.714,"id":"a66dgfyedb0t","geo_precision":"zip"},"type":"Feature","geometry":{"type":"Point","coordinates":[-66.060533,18.410462]}},{"properties":{"zipcode":"977","geo_score":0.714,"id":"a66dgfpcl4ax","geo_precision":"zip"},"type":"Feature","geometry":{"type":"Point","coordinates":[-65.990099,18.337004]}},{"properties":{"zipcode":"979","geo_score":0.714,"id":"a66dgflqr0a5","geo_precision":"zip"},"type":"Feature","geometry":{"type":"Point","coordinates":[-66.060533,18.410462]}},{"properties":{"zipcode":"981","geo_score":0.714,"id":"a66dgfwwekxk","geo_precision":"zip"},"type":"Feature","geometry":{"type":"Point","coordinates":[-66.060533,18.410462]}},{"properties":{"zipcode":"983","geo_score":0.714,"id":"a66dgfyhzaxp","geo_precision":"zip"},"type":"Feature","geometry":{"type":"Point","coordinates":[-65.977659,18.413452]}},{"properties":{"zipcode":"986","geo_score":0.714,"id":"a66dgfx1996u","geo_precision":"zip"},"type":"Feature","geometry":{"type":"Point","coordinates":[-65.972495,18.393355]}},{"properties":{"zipcode":"1052","geo_score":0.0,"id":"a66dgfsxqtny","geo_precision":"unmatched"},"type":"Feature","geometry":null},{"properties":{"zipcode":"1052","geo_score":0.0,"id":"a66dgfxbnxvv","geo_precision":"unmatched"},"type":"Feature","geometry":null},{"properties":{"zipcode":"1053","geo_score":0.714,"id":"a66dgfrbl4w1","geo_precision":"zip"},"type":"Feature","geometry":{"type":"Point","coordinates":[-72.704385,42.353838]}},{"properties":{"zipcode":"1054","geo_score":0.714,"id":"a66dgg0nlev4","geo_precision":"zip"},"type":"Feature","geometry":{"type":"Point","coordinates":[-72.492587,42.508421]}},{"properties":{"zipcode":"1054","geo_score":0.714,"id":"a66dgfszzywt","geo_precision":"zip"},"type":"Feature","geometry":{"type":"Point","coordinates":[-72.492587,42.508421]}},{"properties":{"zipcode":"1056","geo_score":0.714,"id":"a66dgfyboc0z","geo_precision":"zip"},"type":"Feature","geometry":{"type":"Point","coordinates":[-72.459252,42.19176]}},{"properties":{"zipcode":"1067","geo_score":0.0,"id":"a66dgflmijvb","geo_precision":"unmatched"},"type":"Feature","geometry":null},{"properties":{"zipcode":"1067","geo_score":0.0,"id":"a66dgfpb7yt6","geo_precision":"unmatched"},"type":"Feature","geometry":null},{"properties":{"zipcode":"1067","geo_score":0.0,"id":"a66dgfq42k7w","geo_precision":"unmatched"},"type":"Feature","geometry":null},{"properties":{"zipcode":"1068","geo_score":0.714,"id":"a66dgfms8da6","geo_precision":"zip"},"type":"Feature","geometry":{"type":"Point","coordinates":[-72.058847,42.346144]}},{"properties":{"zipcode":"1068","geo_score":0.714,"id":"a66dgg15n95u","geo_precision":"zip"},"type":"Feature","geometry":{"type":"Point","coordinates":[-72.058847,42.346144]}},{"properties":{"zipcode":"1068","geo_score":0.714,"id":"a66dgg12jon2","geo_precision":"zip"},"type":"Feature","geometry":{"type":"Point","coordinates":[-72.058847,42.346144]}},{"properties":{"zipcode":"1068","geo_score":0.714,"id":"a66dgfuwmer7","geo_precision":"zip"},"type":"Feature","geometry":{"type":"Point","coordinates":[-72.058847,42.346144]}},{"properties":{"zipcode":"1084","geo_score":0.714,"id":"a66dgfwa3sev","geo_precision":"zip"},"type":"Feature","geometry":{"type":"Point","coordinates":[-72.870857,42.390303]}},{"properties":{"zipcode":"1088","geo_score":0.714,"id":"a66dgfq9geuu","geo_precision":"zip"},"type":"Feature","geometry":{"type":"Point","coordinates":[-72.646894,42.390583]}},{"properties":{"zipcode":"1089","geo_score":0.714,"id":"a66dgfzvnquj","geo_precision":"zip"},"type":"Feature","geometry":{"type":"Point","coordinates":[-72.624534,42.11676]}},{"properties":{"zipcode":"1152","geo_score":0.714,"id":"a66dgfzhfy1e","geo_precision":"zip"},"type":"Feature","geometry":{"type":"Point","coordinates":[-72.604842,42.170731]}},{"properties":{"zipcode":"1157","geo_score":0.714,"id":"a66dgfsvoywe","geo_precision":"zip"},"type":"Feature","geometry":{"type":"Point","coordinates":[-72.589811,42.101483]}},{"properties":{"zipcode":"1157","geo_score":0.714,"id":"a66dgfmf5mz5","geo_precision":"zip"},"type":"Feature","geometry":{"type":"Point","coordinates":[-72.589811,42.101483]}},{"properties":{"zipcode":"1166","geo_score":0.714,"id":"a66dgfysrftq","geo_precision":"zip"},"type":"Feature","geometry":{"type":"Point","coordinates":[-72.589811,42.101483]}},{"properties":{"zipcode":"1168","geo_score":0.714,"id":"a66dgftp42w2","geo_precision":"zip"},"type":"Feature","geometry":{"type":"Point","coordinates":[-72.589811,42.101483]}},{"properties":{"zipcode":"1176","geo_score":0.714,"id":"a66dgg12npsx","geo_precision":"zip"},"type":"Feature","geometry":{"type":"Point","coordinates":[-72.589811,42.101483]}},{"properties":{"zipcode":"1177","geo_score":0.714,"id":"a66dgfouzsm7","geo_precision":"zip"},"type":"Feature","geometry":{"type":"Point","coordinates":[-72.589811,42.101483]}},{"properties":{"zipcode":"1177","geo_score":0.714,"id":"a66dgfqh2zsd","geo_precision":"zip"},"type":"Feature","geometry":{"type":"Point","coordinates":[-72.589811,42.101483]}},{"properties":{"zipcode":"1177","geo_score":0.714,"id":"a66dgg1jbnip","geo_precision":"zip"},"type":"Feature","geometry":{"type":"Point","coordinates":[-72.589811,42.101483]}},{"properties":{"zipcode":"1177","geo_score":0.714,"id":"a66dgfliua7p","geo_precision":"zip"},"type":"Feature","geometry":{"type":"Point","coordinates":[-72.589811,42.101483]}},{"properties":{"zipcode":"1178","geo_score":0.714,"id":"a66dgfw979wl","geo_precision":"zip"},"type":"Feature","geometry":{"type":"Point","coordinates":[-72.589811,42.101483]}},{"properties":{"zipcode":"1182","geo_score":0.714,"id":"a66dgg1n3f8z","geo_precision":"zip"},"type":"Feature","geometry":{"type":"Point","coordinates":[-72.589811,42.101483]}},{"properties":{"zipcode":"1182","geo_score":0.714,"id":"a66dgg16zgua","geo_precision":"zip"},"type":"Feature","geometry":{"type":"Point","coordinates":[-72.589811,42.101483]}},{"properties":{"zipcode":"1182","geo_score":0.714,"id":"a66dgflx6fg8","geo_precision":"zip"},"type":"Feature","geometry":{"type":"Point","coordinates":[-72.589811,42.101483]}},{"properties":{"zipcode":"1256","geo_score":0.714,"id":"a66dgfmfrzxb","geo_precision":"zip"},"type":"Feature","geometry":{"type":"Point","coordinates":[-73.128528,42.367341]}},{"properties":{"zipcode":"1270","geo_score":0.714,"id":"a66dgfzhaqi1","geo_precision":"zip"},"type":"Feature","geometry":{"type":"Point","coordinates":[-72.985654,42.477864]}},{"properties":{"zipcode":"1272","geo_score":0.0,"id":"a66dgfns9qj7","geo_precision":"unmatched"},"type":"Feature","geometry":null},{"properties":{"zipcode":"1279","geo_score":0.0,"id":"a66dgfr7v2hv","geo_precision":"unmatched"},"type":"Feature","geometry":null},{"properties":{"zipcode":"1281","geo_score":0.0,"id":"a66dgfqe9c8k","geo_precision":"unmatched"},"type":"Feature","geometry":null},{"properties":{"zipcode":"1337","geo_score":0.714,"id":"a66dgfz4r2fg","geo_precision":"zip"},"type":"Feature","geometry":{"type":"Point","coordinates":[-72.664814,42.701473]}},{"properties":{"zipcode":"1338","geo_score":0.714,"id":"a66dgfzvmwsf","geo_precision":"zip"},"type":"Feature","geometry":{"type":"Point","coordinates":[-72.769487,42.573832]}},{"properties":{"zipcode":"1339","geo_score":0.714,"id":"a66dgfqtg6pr","geo_precision":"zip"},"type":"Feature","geometry":{"type":"Point","coordinates":[-72.946764,42.527585]}},{"properties":{"zipcode":"1339","geo_score":0.714,"id":"a66dgfpb6008","geo_precision":"zip"},"type":"Feature","geometry":{"type":"Point","coordinates":[-72.946764,42.527585]}},{"properties":{"zipcode":"1340","geo_score":0.714,"id":"a66dgfofmu57","geo_precision":"zip"},"type":"Feature","geometry":{"type":"Point","coordinates":[-72.71537,42.672306]}},{"properties":{"zipcode":"1341","geo_score":0.714,"id":"a66dgfm9wiyn","geo_precision":"zip"},"type":"Feature","geometry":{"type":"Point","coordinates":[-72.712035,42.506475]}},{"properties":{"zipcode":"1344","geo_score":0.714,"id":"a66dgfv3fgih","geo_precision":"zip"},"type":"Feature","geometry":{"type":"Point","coordinates":[-72.382864,42.59592]}},{"properties":{"zipcode":"1344","geo_score":0.714,"id":"a66dgg1g41ni","geo_precision":"zip"},"type":"Feature","geometry":{"type":"Point","coordinates":[-72.382864,42.59592]}},{"properties":{"zipcode":"1344","geo_score":0.714,"id":"a66dgfu1ezhz","geo_precision":"zip"},"type":"Feature","geometry":{"type":"Point","coordinates":[-72.382864,42.59592]}},{"properties":{"zipcode":"1344","geo_score":0.714,"id":"a66dgfzigsps","geo_precision":"zip"},"type":"Feature","geometry":{"type":"Point","coordinates":[-72.382864,42.59592]}},{"properties":{"zipcode":"1344","geo_score":0.714,"id":"a66dgfqq6bd5","geo_precision":"zip"},"type":"Feature","geometry":{"type":"Point","coordinates":[-72.382864,42.59592]}},{"properties":{"zipcode":"1344","geo_score":0.714,"id":"a66dgftf0zx8","geo_precision":"zip"},"type":"Feature","geometry":{"type":"Point","coordinates":[-72.382864,42.59592]}},{"properties":{"zipcode":"1344","geo_score":0.714,"id":"a66dgftq70ie","geo_precision":"zip"},"type":"Feature","geometry":{"type":"Point","coordinates":[-72.382864,42.59592]}},{"properties":{"zipcode":"1346","geo_score":0.714,"id":"a66dgflmxzr1","geo_precision":"zip"},"type":"Feature","geometry":{"type":"Point","coordinates":[-72.788896,42.618011]}},{"properties":{"zipcode":"1346","geo_score":0.714,"id":"a66dgfw7qphq","geo_precision":"zip"},"type":"Feature","geometry":{"type":"Point","coordinates":[-72.788896,42.618011]}},{"properties":{"zipcode":"1346","geo_score":0.714,"id":"a66dgg11yyhy","geo_precision":"zip"},"type":"Feature","geometry":{"type":"Point","coordinates":[-72.788896,42.618011]}},{"properties":{"zipcode":"1346","geo_score":0.714,"id":"a66dgfy10i5e","geo_precision":"zip"},"type":"Feature","geometry":{"type":"Point","coordinates":[-72.788896,42.618011]}},{"properties":{"zipcode":"1346","geo_score":0.714,"id":"a66dgfnoc450","geo_precision":"zip"},"type":"Feature","geometry":{"type":"Point","coordinates":[-72.788896,42.618011]}},{"properties":{"zipcode":"1348","geo_score":0.0,"id":"a66dgfy2xd9p","geo_precision":"unmatched"},"type":"Feature","geometry":null},{"properties":{"zipcode":"1349","geo_score":0.714,"id":"a66dgfyzdc5k","geo_precision":"zip"},"type":"Feature","geometry":{"type":"Point","coordinates":[-72.492588,42.582031]}},{"properties":{"zipcode":"1349","geo_score":0.714,"id":"a66dgfvvidik","geo_precision":"zip"},"type":"Feature","geometry":{"type":"Point","coordinates":[-72.492588,42.582031]}},{"properties":{"zipcode":"1349","geo_score":0.714,"id":"a66dgfpsystn","geo_precision":"zip"},"type":"Feature","geometry":{"type":"Point","coordinates":[-72.492588,42.582031]}},{"properties":{"zipcode":"1349","geo_score":0.714,"id":"a66dgg0vck9a","geo_precision":"zip"},"type":"Feature","geometry":{"type":"Point","coordinates":[-72.492588,42.582031]}},{"properties":{"zipcode":"1349","geo_score":0.714,"id":"a66dgfzcfn8p","geo_precision":"zip"},"type":"Feature","geometry":{"type":"Point","coordinates":[-72.492588,42.582031]}},{"properties":{"zipcode":"1350","geo_score":0.714,"id":"a66dgfwhrq9j","geo_precision":"zip"},"type":"Feature","geometry":{"type":"Point","coordinates":[-72.976204,42.721456]}},{"properties":{"zipcode":"1350","geo_score":0.714,"id":"a66dgfsmzdra","geo_precision":"zip"},"type":"Feature","geometry":{"type":"Point","coordinates":[-72.976204,42.721456]}},{"properties":{"zipcode":"1350","geo_score":0.714,"id":"a66dgfujcitz","geo_precision":"zip"},"type":"Feature","geometry":{"type":"Point","coordinates":[-72.976204,42.721456]}},{"properties":{"zipcode":"1350","geo_score":0.714,"id":"a66dgfp32go9","geo_precision":"zip"},"type":"Feature","geometry":{"type":"Point","coordinates":[-72.976204,42.721456]}},{"properties":{"zipcode":"1350","geo_score":0.714,"id":"a66dgfsdx2sf","geo_precision":"zip"},"type":"Feature","geometry":{"type":"Point","coordinates":[-72.976204,42.721456]}},{"properties":{"zipcode":"1350","geo_score":0.714,"id":"a66dgfmhoba3","geo_precision":"zip"},"type":"Feature","geometry":{"type":"Point","coordinates":[-72.976204,42.721456]}},{"properties":{"zipcode":"1350","geo_score":0.714,"id":"a66dgfo3enzm","geo_precision":"zip"},"type":"Feature","geometry":{"type":"Point","coordinates":[-72.976204,42.721456]}},{"properties":{"zipcode":"1350","geo_score":0.714,"id":"a66dgg1adrhb","geo_precision":"zip"},"type":"Feature","geometry":{"type":"Point","coordinates":[-72.976204,42.721456]}},{"properties":{"zipcode":"1350","geo_score":0.714,"id":"a66dgforaazd","geo_precision":"zip"},"type":"Feature","geometry":{"type":"Point","coordinates":[-72.976204,42.721456]}},{"properties":{"zipcode":"1350","geo_score":0.714,"id":"a66dgfsdy87s","geo_precision":"zip"},"type":"Feature","geometry":{"type":"Point","coordinates":[-72.976204,42.721456]}},{"properties":{"zipcode":"1350","geo_score":0.714,"id":"a66dgg095q8r","geo_precision":"zip"},"type":"Feature","geometry":{"type":"Point","coordinates":[-72.976204,42.721456]}},{"properties":{"zipcode":"1350","geo_score":0.714,"id":"a66dgfocc8bv","geo_precision":"zip"},"type":"Feature","geometry":{"type":"Point","coordinates":[-72.976204,42.721456]}},{"properties":{"zipcode":"1350","geo_score":0.714,"id":"a66dgfma8shz","geo_precision":"zip"},"type":"Feature","geometry":{"type":"Point","coordinates":[-72.976204,42.721456]}},{"properties":{"zipcode":"1351","geo_score":0.714,"id":"a66dgflr70x3","geo_precision":"zip"},"type":"Feature","geometry":{"type":"Point","coordinates":[-72.48693,42.548107]}},{"properties":{"zipcode":"1351","geo_score":0.714,"id":"a66dgfuuamkv","geo_precision":"zip"},"type":"Feature","geometry":{"type":"Point","coordinates":[-72.48693,42.548107]}},{"properties":{"zipcode":"1352","geo_score":0.0,"id":"a66dgfy5qcsx","geo_precision":"unmatched"},"type":"Feature","geometry":null},{"properties":{"zipcode":"1352","geo_score":0.0,"id":"a66dgfsluwi2","geo_precision":"unmatched"},"type":"Feature","geometry":null},{"properties":{"zipcode":"1353","geo_score":0.0,"id":"a66dgfy5iln9","geo_precision":"unmatched"},"type":"Feature","geometry":null},{"properties":{"zipcode":"1353","geo_score":0.0,"id":"a66dgfph7pti","geo_precision":"unmatched"},"type":"Feature","geometry":null},{"properties":{"zipcode":"1354","geo_score":0.714,"id":"a66dgfvdf3cx","geo_precision":"zip"},"type":"Feature","geometry":{"type":"Point","coordinates":[-72.485366,42.66814]}},{"properties":{"zipcode":"1354","geo_score":0.714,"id":"a66dgfz1xkye","geo_precision":"zip"},"type":"Feature","geometry":{"type":"Point","coordinates":[-72.485366,42.66814]}},{"properties":{"zipcode":"1356","geo_score":0.0,"id":"a66dgfrg7fqt","geo_precision":"unmatched"},"type":"Feature","geometry":null},{"properties":{"zipcode":"1356","geo_score":0.0,"id":"a66dgfls2995","geo_precision":"unmatched"},"type":"Feature","geometry":null},{"properties":{"zipcode":"1356","geo_score":0.0,"id":"a66dgfqnx28c","geo_precision":"unmatched"},"type":"Feature","geometry":null},{"properties":{"zipcode":"1357","geo_score":0.0,"id":"a66dgfuxaygh","geo_precision":"unmatched"},"type":"Feature","geometry":null},{"properties":{"zipcode":"1358","geo_score":0.0,"id":"a66dgfxvftkm","geo_precision":"unmatched"},"type":"Feature","geometry":null},{"properties":{"zipcode":"1358","geo_score":0.0,"id":"a66dgfp4pjp3","geo_precision":"unmatched"},"type":"Feature","geometry":null},{"properties":{"zipcode":"1358","geo_score":0.0,"id":"a66dgfthrq9x","geo_precision":"unmatched"},"type":"Feature","geometry":null},{"properties":{"zipcode":"1358","geo_score":0.0,"id":"a66dgfmvtzy4","geo_precision":"unmatched"},"type":"Feature","geometry":null},{"properties":{"zipcode":"1358","geo_score":0.0,"id":"a66dgfos3hur","geo_precision":"unmatched"},"type":"Feature","geometry":null},{"properties":{"zipcode":"1359","geo_score":0.0,"id":"a66dgfz6kjbf","geo_precision":"unmatched"},"type":"Feature","geometry":null},{"properties":{"zipcode":"1359","geo_score":0.0,"id":"a66dgft7l7rp","geo_precision":"unmatched"},"type":"Feature","geometry":null},{"properties":{"zipcode":"1359","geo_score":0.0,"id":"a66dgfppvf7b","geo_precision":"unmatched"},"type":"Feature","geometry":null},{"properties":{"zipcode":"1361","geo_score":0.0,"id":"a66dgg096ifr","geo_precision":"unmatched"},"type":"Feature","geometry":null},{"properties":{"zipcode":"1361","geo_score":0.0,"id":"a66dgfzbunv3","geo_precision":"unmatched"},"type":"Feature","geometry":null},{"properties":{"zipcode":"1361","geo_score":0.0,"id":"a66dgfo4gu7s","geo_precision":"unmatched"},"type":"Feature","geometry":null},{"properties":{"zipcode":"1361","geo_score":0.0,"id":"a66dgfr24ngt","geo_precision":"unmatched"},"type":"Feature","geometry":null},{"properties":{"zipcode":"1362","geo_score":0.0,"id":"a66dgfp9b23z","geo_precision":"unmatched"},"type":"Feature","geometry":null},{"properties":{"zipcode":"1362","geo_score":0.0,"id":"a66dgfn57qie","geo_precision":"unmatched"},"type":"Feature","geometry":null},{"properties":{"zipcode":"1362","geo_score":0.0,"id":"a66dgfrkqsq4","geo_precision":"unmatched"},"type":"Feature","geometry":null},{"properties":{"zipcode":"1362","geo_score":0.0,"id":"a66dgfu75j1h","geo_precision":"unmatched"},"type":"Feature","geometry":null},{"properties":{"zipcode":"1362","geo_score":0.0,"id":"a66dgfpfmfiw","geo_precision":"unmatched"},"type":"Feature","geometry":null},{"properties":{"zipcode":"1362","geo_score":0.0,"id":"a66dgfzsjhpd","geo_precision":"unmatched"},"type":"Feature","geometry":null},{"properties":{"zipcode":"1362","geo_score":0.0,"id":"a66dgfqpbtnb","geo_precision":"unmatched"},"type":"Feature","geometry":null},{"properties":{"zipcode":"1362","geo_score":0.0,"id":"a66dgfw51tyq","geo_precision":"unmatched"},"type":"Feature","geometry":null},{"properties":{"zipcode":"1363","geo_score":0.0,"id":"a66dgfvz54tw","geo_precision":"unmatched"},"type":"Feature","geometry":null},{"properties":{"zipcode":"1363","geo_score":0.0,"id":"a66dgfxq2am8","geo_precision":"unmatched"},"type":"Feature","geometry":null},{"properties":{"zipcode":"1365","geo_score":0.0,"id":"a66dgfnuglaz","geo_precision":"unmatched"},"type":"Feature","geometry":null},{"properties":{"zipcode":"1366","geo_score":0.714,"id":"a66dgfp8vwt1","geo_precision":"zip"},"type":"Feature","geometry":{"type":"Point","coordinates":[-72.182962,42.459632]}},{"properties":{"zipcode":"1368","geo_score":0.714,"id":"a66dgfmgdchz","geo_precision":"zip"},"type":"Feature","geometry":{"type":"Point","coordinates":[-72.196376,42.672182]}},{"properties":{"zipcode":"1368","geo_score":0.714,"id":"a66dgfumdr7r","geo_precision":"zip"},"type":"Feature","geometry":{"type":"Point","coordinates":[-72.196376,42.672182]}},{"properties":{"zipcode":"1369","geo_score":0.714,"id":"a66dgfsmgret","geo_precision":"zip"},"type":"Feature","geometry":{"type":"Point","coordinates":[-72.624164,42.522178]}},{"properties":{"zipcode":"1383","geo_score":0.0,"id":"a66dgfwhyl2n","geo_precision":"unmatched"},"type":"Feature","geometry":null},{"properties":{"zipcode":"1383","geo_score":0.0,"id":"a66dgg0aiw3n","geo_precision":"unmatched"},"type":"Feature","geometry":null},{"properties":{"zipcode":"1383","geo_score":0.0,"id":"a66dgfnz2iy6","geo_precision":"unmatched"},"type":"Feature","geometry":null},{"properties":{"zipcode":"1385","geo_score":0.0,"id":"a66dgftyaquy","geo_precision":"unmatched"},"type":"Feature","geometry":null},{"properties":{"zipcode":"1388","geo_score":0.0,"id":"a66dgfydmj62","geo_precision":"unmatched"},"type":"Feature","geometry":null},{"properties":{"zipcode":"1388","geo_score":0.0,"id":"a66dgg0zse6s","geo_precision":"unmatched"},"type":"Feature","geometry":null},{"properties":{"zipcode":"1388","geo_score":0.0,"id":"a66dgg1h7of5","geo_precision":"unmatched"},"type":"Feature","geometry":null},{"properties":{"zipcode":"1389","geo_score":0.0,"id":"a66dgfvjttje","geo_precision":"unmatched"},"type":"Feature","geometry":null},{"properties":{"zipcode":"1396","geo_score":0.0,"id":"a66dgg0xsypl","geo_precision":"unmatched"},"type":"Feature","geometry":null},{"properties":{"zipcode":"1400","geo_score":0.0,"id":"a66dgfma5ajw","geo_precision":"unmatched"},"type":"Feature","geometry":null},{"properties":{"zipcode":"1400","geo_score":0.0,"id":"a66dgfzdlp3f","geo_precision":"unmatched"},"type":"Feature","geometry":null},{"properties":{"zipcode":"1405","geo_score":0.0,"id":"a66dgfqm642g","geo_precision":"unmatched"},"type":"Feature","geometry":null},{"properties":{"zipcode":"1405","geo_score":0.0,"id":"a66dgfvvxczw","geo_precision":"unmatched"},"type":"Feature","geometry":null},{"properties":{"zipcode":"1405","geo_score":0.0,"id":"a66dgfu2z7my","geo_precision":"unmatched"},"type":"Feature","geometry":null},{"properties":{"zipcode":"1405","geo_score":0.0,"id":"a66dgfwp8fes","geo_precision":"unmatched"},"type":"Feature","geometry":null},{"properties":{"zipcode":"1405","geo_score":0.0,"id":"a66dgft57aqz","geo_precision":"unmatched"},"type":"Feature","geometry":null},{"properties":{"zipcode":"1405","geo_score":0.0,"id":"a66dgfnjgp89","geo_precision":"unmatched"},"type":"Feature","geometry":null},{"properties":{"zipcode":"1405","geo_score":0.0,"id":"a66dgg0f1oqm","geo_precision":"unmatched"},"type":"Feature","geometry":null},{"properties":{"zipcode":"1406","geo_score":0.0,"id":"a66dgfs6bghf","geo_precision":"unmatched"},"type":"Feature","geometry":null},{"properties":{"zipcode":"1407","geo_score":0.0,"id":"a66dgfx1051x","geo_precision":"unmatched"},"type":"Feature","geometry":null},{"properties":{"zipcode":"1407","geo_score":0.0,"id":"a66dgg0swv2o","geo_precision":"unmatched"},"type":"Feature","geometry":null},{"properties":{"zipcode":"1407","geo_score":0.0,"id":"a66dgfwx2enk","geo_precision":"unmatched"},"type":"Feature","geometry":null},{"properties":{"zipcode":"1414","geo_score":0.0,"id":"a66dgfp1ckhd","geo_precision":"unmatched"},"type":"Feature","geometry":null},{"properties":{"zipcode":"1415","geo_score":0.0,"id":"a66dgfrr75bn","geo_precision":"unmatched"},"type":"Feature","geometry":null},{"properties":{"zipcode":"1470","geo_score":0.714,"id":"a66dgfqw0k9r","geo_precision":"zip"},"type":"Feature","geometry":{"type":"Point","coordinates":[-71.459405,42.446396]}},{"properties":{"zipcode":"1470","geo_score":0.714,"id":"a66dgfty4tpj","geo_precision":"zip"},"type":"Feature","geometry":{"type":"Point","coordinates":[-71.459405,42.446396]}},{"properties":{"zipcode":"1470","geo_score":0.714,"id":"a66dgftn72xz","geo_precision":"zip"},"type":"Feature","geometry":{"type":"Point","coordinates":[-71.459405,42.446396]}},{"properties":{"zipcode":"1470","geo_score":0.714,"id":"a66dgfmh37mz","geo_precision":"zip"},"type":"Feature","geometry":{"type":"Point","coordinates":[-71.459405,42.446396]}},{"properties":{"zipcode":"1470","geo_score":0.714,"id":"a66dgfu4r47z","geo_precision":"zip"},"type":"Feature","geometry":{"type":"Point","coordinates":[-71.459405,42.446396]}},{"properties":{"zipcode":"1472","geo_score":0.714,"id":"a66dgfsge7k6","geo_precision":"zip"},"type":"Feature","geometry":{"type":"Point","coordinates":[-71.459405,42.446396]}},{"properties":{"zipcode":"1472","geo_score":0.714,"id":"a66dgfthw0pp","geo_precision":"zip"},"type":"Feature","geometry":{"type":"Point","coordinates":[-71.459405,42.446396]}},{"properties":{"zipcode":"1472","geo_score":0.714,"id":"a66dgfnuihcm","geo_precision":"zip"},"type":"Feature","geometry":{"type":"Point","coordinates":[-71.459405,42.446396]}},{"properties":{"zipcode":"1472","geo_score":0.714,"id":"a66dgft6ihq4","geo_precision":"zip"},"type":"Feature","geometry":{"type":"Point","coordinates":[-71.459405,42.446396]}},{"properties":{"zipcode":"1472","geo_score":0.714,"id":"a66dgfw3wkja","geo_precision":"zip"},"type":"Feature","geometry":{"type":"Point","coordinates":[-71.459405,42.446396]}},{"properties":{"zipcode":"1472","geo_score":0.714,"id":"a66dgfpzuwvd","geo_precision":"zip"},"type":"Feature","geometry":{"type":"Point","coordinates":[-71.459405,42.446396]}},{"properties":{"zipcode":"1472","geo_score":0.714,"id":"a66dgfwlvda1","geo_precision":"zip"},"type":"Feature","geometry":{"type":"Point","coordinates":[-71.459405,42.446396]}},{"properties":{"zipcode":"1473","geo_score":0.714,"id":"a66dgflrgucs","geo_precision":"zip"},"type":"Feature","geometry":{"type":"Point","coordinates":[-71.877297,42.52509]}},{"properties":{"zipcode":"1473","geo_score":0.714,"id":"a66dgg0a6r5u","geo_precision":"zip"},"type":"Feature","geometry":{"type":"Point","coordinates":[-71.877297,42.52509]}},{"properties":{"zipcode":"1473","geo_score":0.714,"id":"a66dgfx07wx2","geo_precision":"zip"},"type":"Feature","geometry":{"type":"Point","coordinates":[-71.877297,42.52509]}},{"properties":{"zipcode":"1473","geo_score":0.714,"id":"a66dgfvlj7pr","geo_precision":"zip"},"type":"Feature","geometry":{"type":"Point","coordinates":[-71.877297,42.52509]}},{"properties":{"zipcode":"1474","geo_score":0.714,"id":"a66dgfsduzqi","geo_precision":"zip"},"type":"Feature","geometry":{"type":"Point","coordinates":[-71.729517,42.637589]}},{"properties":{"zipcode":"1474","geo_score":0.714,"id":"a66dgfwohllg","geo_precision":"zip"},"type":"Feature","geometry":{"type":"Point","coordinates":[-71.729517,42.637589]}},{"properties":{"zipcode":"1474","geo_score":0.714,"id":"a66dgfpvakp5","geo_precision":"zip"},"type":"Feature","geometry":{"type":"Point","coordinates":[-71.729517,42.637589]}},{"properties":{"zipcode":"1474","geo_score":0.714,"id":"a66dgfrtv0o7","geo_precision":"zip"},"type":"Feature","geometry":{"type":"Point","coordinates":[-71.729517,42.637589]}},{"properties":{"zipcode":"1475","geo_score":0.714,"id":"a66dgfsx9qqn","geo_precision":"zip"},"type":"Feature","geometry":{"type":"Point","coordinates":[-72.06758,42.675086]}},{"properties":{"zipcode":"1475","geo_score":0.714,"id":"a66dgg0wd8h1","geo_precision":"zip"},"type":"Feature","geometry":{"type":"Point","coordinates":[-72.06758,42.675086]}},{"properties":{"zipcode":"1475","geo_score":0.714,"id":"a66dgfsaucyx","geo_precision":"zip"},"type":"Feature","geometry":{"type":"Point","coordinates":[-72.06758,42.675086]}},{"properties":{"zipcode":"1476","geo_score":0.0,"id":"a66dgftcm758","geo_precision":"unmatched"},"type":"Feature","geometry":null},{"properties":{"zipcode":"1476","geo_score":0.0,"id":"a66dgfsg7rln","geo_precision":"unmatched"},"type":"Feature","geometry":null},{"properties":{"zipcode":"1476","geo_score":0.0,"id":"a66dgfwl6iah","geo_precision":"unmatched"},"type":"Feature","geometry":null},{"properties":{"zipcode":"1476","geo_score":0.0,"id":"a66dgfvya5jn","geo_precision":"unmatched"},"type":"Feature","geometry":null},{"properties":{"zipcode":"1476","geo_score":0.0,"id":"a66dgfy4va22","geo_precision":"unmatched"},"type":"Feature","geometry":null},{"properties":{"zipcode":"1476","geo_score":0.0,"id":"a66dgfmanwfi","geo_precision":"unmatched"},"type":"Feature","geometry":null},{"properties":{"zipcode":"1476","geo_score":0.0,"id":"a66dgfzfmf93","geo_precision":"unmatched"},"type":"Feature","geometry":null},{"properties":{"zipcode":"1477","geo_score":0.714,"id":"a66dgfwktnmk","geo_precision":"zip"},"type":"Feature","geometry":{"type":"Point","coordinates":[-71.896868,42.364807]}},{"properties":{"zipcode":"1481","geo_score":0.0,"id":"a66dgfotj78j","geo_precision":"unmatched"},"type":"Feature","geometry":null},{"properties":{"zipcode":"1481","geo_score":0.0,"id":"a66dgfx1bp3v","geo_precision":"unmatched"},"type":"Feature","geometry":null},{"properties":{"zipcode":"1481","geo_score":0.0,"id":"a66dgfs5zo6e","geo_precision":"unmatched"},"type":"Feature","geometry":null},{"properties":{"zipcode":"1481","geo_score":0.0,"id":"a66dgfwy22qw","geo_precision":"unmatched"},"type":"Feature","geometry":null},{"properties":{"zipcode":"1511","geo_score":0.0,"id":"a66dgfp0ecip","geo_precision":"unmatched"},"type":"Feature","geometry":null},{"properties":{"zipcode":"1513","geo_score":0.0,"id":"a66dgfyxy6mm","geo_precision":"unmatched"},"type":"Feature","geometry":null},{"properties":{"zipcode":"1516","geo_score":0.714,"id":"a66dgfr3ricd","geo_precision":"zip"},"type":"Feature","geometry":{"type":"Point","coordinates":[-71.712013,42.100096]}},{"properties":{"zipcode":"1516","geo_score":0.714,"id":"a66dgfpysbs3","geo_precision":"zip"},"type":"Feature","geometry":{"type":"Point","coordinates":[-71.712013,42.100096]}},{"properties":{"zipcode":"1517","geo_score":0.714,"id":"a66dgfrirezx","geo_precision":"zip"},"type":"Feature","geometry":{"type":"Point","coordinates":[-71.896868,42.364807]}},{"properties":{"zipcode":"1519","geo_score":0.714,"id":"a66dgfuop4my","geo_precision":"zip"},"type":"Feature","geometry":{"type":"Point","coordinates":[-71.682862,42.203944]}},{"properties":{"zipcode":"1523","geo_score":0.714,"id":"a66dgfzmr97o","geo_precision":"zip"},"type":"Feature","geometry":{"type":"Point","coordinates":[-71.687014,42.481203]}},{"properties":{"zipcode":"1524","geo_score":0.714,"id":"a66dgfv3a9xr","geo_precision":"zip"},"type":"Feature","geometry":{"type":"Point","coordinates":[-72.012379,42.238192]}},{"properties":{"zipcode":"1526","geo_score":0.714,"id":"a66dgfv025ei","geo_precision":"zip"},"type":"Feature","geometry":{"type":"Point","coordinates":[-71.896868,42.364807]}},{"properties":{"zipcode":"1529","geo_score":0.714,"id":"a66dgfxr5apd","geo_precision":"zip"},"type":"Feature","geometry":{"type":"Point","coordinates":[-71.846943,42.124662]}},{"properties":{"zipcode":"1529","geo_score":0.714,"id":"a66dgfq87bja","geo_precision":"zip"},"type":"Feature","geometry":{"type":"Point","coordinates":[-71.846943,42.124662]}},{"properties":{"zipcode":"1530","geo_score":0.0,"id":"a66dgfp9dp6v","geo_precision":"unmatched"},"type":"Feature","geometry":null},{"properties":{"zipcode":"1532","geo_score":0.714,"id":"a66dgfv78hz1","geo_precision":"zip"},"type":"Feature","geometry":{"type":"Point","coordinates":[-71.629234,42.330094]}},{"properties":{"zipcode":"1534","geo_score":0.714,"id":"a66dgfo5tgon","geo_precision":"zip"},"type":"Feature","geometry":{"type":"Point","coordinates":[-71.639233,42.138429]}},{"properties":{"zipcode":"1534","geo_score":0.714,"id":"a66dgfods4hc","geo_precision":"zip"},"type":"Feature","geometry":{"type":"Point","coordinates":[-71.639233,42.138429]}},{"properties":{"zipcode":"1534","geo_score":0.714,"id":"a66dgfrzvlk5","geo_precision":"zip"},"type":"Feature","geometry":{"type":"Point","coordinates":[-71.639233,42.138429]}},{"properties":{"zipcode":"1536","geo_score":0.714,"id":"a66dgfolpnc0","geo_precision":"zip"},"type":"Feature","geometry":{"type":"Point","coordinates":[-71.724514,42.227316]}},{"properties":{"zipcode":"1537","geo_score":0.714,"id":"a66dgfs3vxkk","geo_precision":"zip"},"type":"Feature","geometry":{"type":"Point","coordinates":[-71.892295,42.165372]}},{"properties":{"zipcode":"1538","geo_score":0.714,"id":"a66dgfntl775","geo_precision":"zip"},"type":"Feature","geometry":{"type":"Point","coordinates":[-71.896868,42.364807]}},{"properties":{"zipcode":"1539","geo_score":0.714,"id":"a66dgfpuvhzf","geo_precision":"zip"},"type":"Feature","geometry":{"type":"Point","coordinates":[-71.793405,42.39037]}},{"properties":{"zipcode":"1539","geo_score":0.714,"id":"a66dgfvctxdz","geo_precision":"zip"},"type":"Feature","geometry":{"type":"Point","coordinates":[-71.793405,42.39037]}},{"properties":{"zipcode":"1555","geo_score":0.0,"id":"a66dgfva06nw","geo_precision":"unmatched"},"type":"Feature","geometry":null},{"properties":{"zipcode":"1596","geo_score":0.0,"id":"a66dgfoeyht5","geo_precision":"unmatched"},"type":"Feature","geometry":null},{"properties":{"zipcode":"1596","geo_score":0.0,"id":"a66dgflojyqb","geo_precision":"unmatched"},"type":"Feature","geometry":null},{"properties":{"zipcode":"1597","geo_score":0.0,"id":"a66dgfy1kpjh","geo_precision":"unmatched"},"type":"Feature","geometry":null},{"properties":{"zipcode":"1598","geo_score":0.0,"id":"a66dgfr606ez","geo_precision":"unmatched"},"type":"Feature","geometry":null},{"properties":{"zipcode":"1601","geo_score":0.714,"id":"a66dgfnxgmsz","geo_precision":"zip"},"type":"Feature","geometry":{"type":"Point","coordinates":[-71.879415,42.265275]}},{"properties":{"zipcode":"1604","geo_score":0.714,"id":"a66dgfs95yw0","geo_precision":"zip"},"type":"Feature","geometry":{"type":"Point","coordinates":[-71.76678,42.247955]}},{"properties":{"zipcode":"1604","geo_score":0.714,"id":"a66dgfzilyoe","geo_precision":"zip"},"type":"Feature","geometry":{"type":"Point","coordinates":[-71.76678,42.247955]}},{"properties":{"zipcode":"1604","geo_score":0.714,"id":"a66dgfthnyfp","geo_precision":"zip"},"type":"Feature","geometry":{"type":"Point","coordinates":[-71.76678,42.247955]}},{"properties":{"zipcode":"1604","geo_score":0.714,"id":"a66dgfymcezj","geo_precision":"zip"},"type":"Feature","geometry":{"type":"Point","coordinates":[-71.76678,42.247955]}},{"properties":{"zipcode":"1604","geo_score":0.714,"id":"a66dgg0ubzxt","geo_precision":"zip"},"type":"Feature","geometry":{"type":"Point","coordinates":[-71.76678,42.247955]}},{"properties":{"zipcode":"1605","geo_score":0.714,"id":"a66dgflyuuhm","geo_precision":"zip"},"type":"Feature","geometry":{"type":"Point","coordinates":[-71.796128,42.288792]}},{"properties":{"zipcode":"1605","geo_score":0.714,"id":"a66dgfutks87","geo_precision":"zip"},"type":"Feature","geometry":{"type":"Point","coordinates":[-71.796128,42.288792]}},{"properties":{"zipcode":"1605","geo_score":0.714,"id":"a66dgg13i0yp","geo_precision":"zip"},"type":"Feature","geometry":{"type":"Point","coordinates":[-71.796128,42.288792]}},{"properties":{"zipcode":"1607","geo_score":0.714,"id":"a66dgfv288d2","geo_precision":"zip"},"type":"Feature","geometry":{"type":"Point","coordinates":[-71.792506,42.226452]}},{"properties":{"zipcode":"1608","geo_score":0.714,"id":"a66dgfrqsi8x","geo_precision":"zip"},"type":"Feature","geometry":{"type":"Point","coordinates":[-71.925696,42.293501]}},{"properties":{"zipcode":"1608","geo_score":0.714,"id":"a66dgfmwlfqt","geo_precision":"zip"},"type":"Feature","geometry":{"type":"Point","coordinates":[-71.925696,42.293501]}},{"properties":{"zipcode":"1608","geo_score":0.714,"id":"a66dgfz2nj71","geo_precision":"zip"},"type":"Feature","geometry":{"type":"Point","coordinates":[-71.925696,42.293501]}},{"properties":{"zipcode":"1610","geo_score":0.714,"id":"a66dgflv7qus","geo_precision":"zip"},"type":"Feature","geometry":{"type":"Point","coordinates":[-71.808915,42.246483]}},{"properties":{"zipcode":"1613","geo_score":0.714,"id":"a66dgfnkbvtn","geo_precision":"zip"},"type":"Feature","geometry":{"type":"Point","coordinates":[-71.801971,42.293316]}},{"properties":{"zipcode":"1613","geo_score":0.714,"id":"a66dgfq8ytlm","geo_precision":"zip"},"type":"Feature","geometry":{"type":"Point","coordinates":[-71.801971,42.293316]}},{"properties":{"zipcode":"1614","geo_score":0.714,"id":"a66dgfpkzclt","geo_precision":"zip"},"type":"Feature","geometry":{"type":"Point","coordinates":[-71.896868,42.364807]}},{"properties":{"zipcode":"1614","geo_score":0.714,"id":"a66dgfui9cpj","geo_precision":"zip"},"type":"Feature","geometry":{"type":"Point","coordinates":[-71.896868,42.364807]}},{"properties":{"zipcode":"1614","geo_score":0.714,"id":"a66dgfwrwl50","geo_precision":"zip"},"type":"Feature","geometry":{"type":"Point","coordinates":[-71.896868,42.364807]}},{"properties":{"zipcode":"1615","geo_score":0.714,"id":"a66dgfr5m85e","geo_precision":"zip"},"type":"Feature","geometry":{"type":"Point","coordinates":[-71.896868,42.364807]}},{"properties":{"zipcode":"1615","geo_score":0.714,"id":"a66dgfsrx777","geo_precision":"zip"},"type":"Feature","geometry":{"type":"Point","coordinates":[-71.896868,42.364807]}},{"properties":{"zipcode":"1615","geo_score":0.714,"id":"a66dgflipkjx","geo_precision":"zip"},"type":"Feature","geometry":{"type":"Point","coordinates":[-71.896868,42.364807]}},{"properties":{"zipcode":"1615","geo_score":0.714,"id":"a66dgfywo9tv","geo_precision":"zip"},"type":"Feature","geometry":{"type":"Point","coordinates":[-71.896868,42.364807]}},{"properties":{"zipcode":"1615","geo_score":0.714,"id":"a66dgg0oygjv","geo_precision":"zip"},"type":"Feature","geometry":{"type":"Point","coordinates":[-71.896868,42.364807]}},{"properties":{"zipcode":"1617","geo_score":0.714,"id":"a66dgfxtfcqu","geo_precision":"zip"},"type":"Feature","geometry":{"type":"Point","coordinates":[-71.802293,42.262593]}},{"properties":{"zipcode":"1618","geo_score":0.714,"id":"a66dgfubx99u","geo_precision":"zip"},"type":"Feature","geometry":{"type":"Point","coordinates":[-71.802293,42.262593]}},{"properties":{"zipcode":"1618","geo_score":0.714,"id":"a66dgfszitpl","geo_precision":"zip"},"type":"Feature","geometry":{"type":"Point","coordinates":[-71.802293,42.262593]}},{"properties":{"zipcode":"1621","geo_score":0.714,"id":"a66dgfqm8n2r","geo_precision":"zip"},"type":"Feature","geometry":{"type":"Point","coordinates":[-71.802293,42.262593]}},{"properties":{"zipcode":"1621","geo_score":0.714,"id":"a66dgfnyyl2w","geo_precision":"zip"},"type":"Feature","geometry":{"type":"Point","coordinates":[-71.802293,42.262593]}},{"properties":{"zipcode":"1621","geo_score":0.714,"id":"a66dgfyx8m8c","geo_precision":"zip"},"type":"Feature","geometry":{"type":"Point","coordinates":[-71.802293,42.262593]}},{"properties":{"zipcode":"1621","geo_score":0.714,"id":"a66dgfolwrhz","geo_precision":"zip"},"type":"Feature","geometry":{"type":"Point","coordinates":[-71.802293,42.262593]}},{"properties":{"zipcode":"1621","geo_score":0.714,"id":"a66dgfzwpqr8","geo_precision":"zip"},"type":"Feature","geometry":{"type":"Point","coordinates":[-71.802293,42.262593]}},{"properties":{"zipcode":"1621","geo_score":0.714,"id":"a66dgfmglp9n","geo_precision":"zip"},"type":"Feature","geometry":{"type":"Point","coordinates":[-71.802293,42.262593]}},{"properties":{"zipcode":"1621","geo_score":0.714,"id":"a66dgfxoiqqb","geo_precision":"zip"},"type":"Feature","geometry":{"type":"Point","coordinates":[-71.802293,42.262593]}},{"properties":{"zipcode":"1621","geo_score":0.714,"id":"a66dgfzu4r9c","geo_precision":"zip"},"type":"Feature","geometry":{"type":"Point","coordinates":[-71.802293,42.262593]}},{"properties":{"zipcode":"1621","geo_score":0.714,"id":"a66dgfrqc0fy","geo_precision":"zip"},"type":"Feature","geometry":{"type":"Point","coordinates":[-71.802293,42.262593]}},{"properties":{"zipcode":"1624","geo_score":0.714,"id":"a66dgfqw3a32","geo_precision":"zip"},"type":"Feature","geometry":{"type":"Point","coordinates":[-71.802293,42.262593]}},{"properties":{"zipcode":"1624","geo_score":0.714,"id":"a66dgfs2x3ty","geo_precision":"zip"},"type":"Feature","geometry":{"type":"Point","coordinates":[-71.802293,42.262593]}},{"properties":{"zipcode":"1628","geo_score":0.714,"id":"a66dgfxup94m","geo_precision":"zip"},"type":"Feature","geometry":{"type":"Point","coordinates":[-71.802293,42.262593]}},{"properties":{"zipcode":"1630","geo_score":0.714,"id":"a66dgfpw0p3z","geo_precision":"zip"},"type":"Feature","geometry":{"type":"Point","coordinates":[-71.802293,42.262593]}},{"properties":{"zipcode":"1632","geo_score":0.714,"id":"a66dgfm9qrha","geo_precision":"zip"},"type":"Feature","geometry":{"type":"Point","coordinates":[-71.802293,42.262593]}},{"properties":{"zipcode":"1637","geo_score":0.714,"id":"a66dgfyzbrrd","geo_precision":"zip"},"type":"Feature","geometry":{"type":"Point","coordinates":[-71.802293,42.262593]}},{"properties":{"zipcode":"1639","geo_score":0.714,"id":"a66dgfut4tgu","geo_precision":"zip"},"type":"Feature","geometry":{"type":"Point","coordinates":[-71.802293,42.262593]}},{"properties":{"zipcode":"1659","geo_score":0.714,"id":"a66dgfsw6h36","geo_precision":"zip"},"type":"Feature","geometry":{"type":"Point","coordinates":[-71.802293,42.262593]}},{"properties":{"zipcode":"1659","geo_score":0.714,"id":"a66dgfptw2oc","geo_precision":"zip"},"type":"Feature","geometry":{"type":"Point","coordinates":[-71.802293,42.262593]}},{"properties":{"zipcode":"1659","geo_score":0.714,"id":"a66dgfuz857b","geo_precision":"zip"},"type":"Feature","geometry":{"type":"Point","coordinates":[-71.802293,42.262593]}},{"properties":{"zipcode":"1664","geo_score":0.714,"id":"a66dgfz7a2ju","geo_precision":"zip"},"type":"Feature","geometry":{"type":"Point","coordinates":[-71.802293,42.262593]}},{"properties":{"zipcode":"1667","geo_score":0.714,"id":"a66dgfzruvl3","geo_precision":"zip"},"type":"Feature","geometry":{"type":"Point","coordinates":[-71.802293,42.262593]}},{"properties":{"zipcode":"1667","geo_score":0.714,"id":"a66dgfzf3ctr","geo_precision":"zip"},"type":"Feature","geometry":{"type":"Point","coordinates":[-71.802293,42.262593]}},{"properties":{"zipcode":"1672","geo_score":0.714,"id":"a66dgfpgllkf","geo_precision":"zip"},"type":"Feature","geometry":{"type":"Point","coordinates":[-71.802293,42.262593]}},{"properties":{"zipcode":"1701","geo_score":0.714,"id":"a66dgfy9j93k","geo_precision":"zip"},"type":"Feature","geometry":{"type":"Point","coordinates":[-71.436451,42.329262]}},{"properties":{"zipcode":"1707","geo_score":0.0,"id":"a66dgfog97ce","geo_precision":"unmatched"},"type":"Feature","geometry":null},{"properties":{"zipcode":"1710","geo_score":0.0,"id":"a66dgfzprffe","geo_precision":"unmatched"},"type":"Feature","geometry":null},{"properties":{"zipcode":"1715","geo_score":0.0,"id":"a66dgfnr6eyk","geo_precision":"unmatched"},"type":"Feature","geometry":null},{"properties":{"zipcode":"1715","geo_score":0.0,"id":"a66dgfuyl9x2","geo_precision":"unmatched"},"type":"Feature","geometry":null},{"properties":{"zipcode":"1718","geo_score":0.714,"id":"a66dgflynprh","geo_precision":"zip"},"type":"Feature","geometry":{"type":"Point","coordinates":[-71.459405,42.446396]}},{"properties":{"zipcode":"1718","geo_score":0.714,"id":"a66dgfnd9kke","geo_precision":"zip"},"type":"Feature","geometry":{"type":"Point","coordinates":[-71.459405,42.446396]}},{"properties":{"zipcode":"1719","geo_score":0.714,"id":"a66dgfox2cln","geo_precision":"zip"},"type":"Feature","geometry":{"type":"Point","coordinates":[-71.459405,42.446396]}},{"properties":{"zipcode":"1719","geo_score":0.714,"id":"a66dgfx63p0k","geo_precision":"zip"},"type":"Feature","geometry":{"type":"Point","coordinates":[-71.459405,42.446396]}},{"properties":{"zipcode":"1721","geo_score":0.714,"id":"a66dgg1o6ke1","geo_precision":"zip"},"type":"Feature","geometry":{"type":"Point","coordinates":[-71.459405,42.446396]}},{"properties":{"zipcode":"1722","geo_score":0.0,"id":"a66dgfpdh0c9","geo_precision":"unmatched"},"type":"Feature","geometry":null},{"properties":{"zipcode":"1723","geo_score":0.0,"id":"a66dgfuzrz8i","geo_precision":"unmatched"},"type":"Feature","geometry":null},{"properties":{"zipcode":"1724","geo_score":0.0,"id":"a66dgfnsigx0","geo_precision":"unmatched"},"type":"Feature","geometry":null},{"properties":{"zipcode":"1724","geo_score":0.0,"id":"a66dgfv1pf8r","geo_precision":"unmatched"},"type":"Feature","geometry":null},{"properties":{"zipcode":"1738","geo_score":0.0,"id":"a66dgfmo2kp6","geo_precision":"unmatched"},"type":"Feature","geometry":null},{"properties":{"zipcode":"1738","geo_score":0.0,"id":"a66dgfrfy6rt","geo_precision":"unmatched"},"type":"Feature","geometry":null},{"properties":{"zipcode":"1738","geo_score":0.0,"id":"a66dgfli3blq","geo_precision":"unmatched"},"type":"Feature","geometry":null},{"properties":{"zipcode":"1738","geo_score":0.0,"id":"a66dgfwjxxom","geo_precision":"unmatched"},"type":"Feature","geometry":null},{"properties":{"zipcode":"1738","geo_score":0.0,"id":"a66dgfrran9u","geo_precision":"unmatched"},"type":"Feature","geometry":null},{"properties":{"zipcode":"1739","geo_score":0.0,"id":"a66dgfmroh7f","geo_precision":"unmatched"},"type":"Feature","geometry":null},{"properties":{"zipcode":"1739","geo_score":0.0,"id":"a66dgfwyv9de","geo_precision":"unmatched"},"type":"Feature","geometry":null},{"properties":{"zipcode":"1739","geo_score":0.0,"id":"a66dgfqb94vp","geo_precision":"unmatched"},"type":"Feature","geometry":null},{"properties":{"zipcode":"1743","geo_score":0.0,"id":"a66dgfzgxj2d","geo_precision":"unmatched"},"type":"Feature","geometry":null},{"properties":{"zipcode":"1743","geo_score":0.0,"id":"a66dgfo8yrqh","geo_precision":"unmatched"},"type":"Feature","geometry":null},{"properties":{"zipcode":"1743","geo_score":0.0,"id":"a66dgfpxhiak","geo_precision":"unmatched"},"type":"Feature","geometry":null},{"properties":{"zipcode":"1746","geo_score":0.714,"id":"a66dgfpv0dvx","geo_precision":"zip"},"type":"Feature","geometry":{"type":"Point","coordinates":[-71.445339,42.18343]}},{"properties":{"zipcode":"1747","geo_score":0.714,"id":"a66dgfzkvm86","geo_precision":"zip"},"type":"Feature","geometry":{"type":"Point","coordinates":[-71.541175,42.120375]}},{"properties":{"zipcode":"1812","geo_score":0.714,"id":"a66dgfn9ajdj","geo_precision":"zip"},"type":"Feature","geometry":{"type":"Point","coordinates":[-71.184202,42.647191]}},{"properties":{"zipcode":"1900","geo_score":0.0,"id":"a66dgftd3lxd","geo_precision":"unmatched"},"type":"Feature","geometry":null},{"properties":{"zipcode":"1900","geo_score":0.0,"id":"a66dgfzqqyt7","geo_precision":"unmatched"},"type":"Feature","geometry":null},{"properties":{"zipcode":"1900","geo_score":0.0,"id":"a66dgfrhmkxf","geo_precision":"unmatched"},"type":"Feature","geometry":null},{"properties":{"zipcode":"1900","geo_score":0.0,"id":"a66dgfrxostc","geo_precision":"unmatched"},"type":"Feature","geometry":null},{"properties":{"zipcode":"1900","geo_score":0.0,"id":"a66dgfqgk91q","geo_precision":"unmatched"},"type":"Feature","geometry":null},{"properties":{"zipcode":"1900","geo_score":0.0,"id":"a66dgfpbswsq","geo_precision":"unmatched"},"type":"Feature","geometry":null},{"properties":{"zipcode":"1900","geo_score":0.0,"id":"a66dgg1g9zrd","geo_precision":"unmatched"},"type":"Feature","geometry":null},{"properties":{"zipcode":"1900","geo_score":0.0,"id":"a66dgfo3d0fd","geo_precision":"unmatched"},"type":"Feature","geometry":null},{"properties":{"zipcode":"1900","geo_score":0.0,"id":"a66dgfq7acbq","geo_precision":"unmatched"},"type":"Feature","geometry":null},{"properties":{"zipcode":"1900","geo_score":0.0,"id":"a66dgfs5j342","geo_precision":"unmatched"},"type":"Feature","geometry":null},{"properties":{"zipcode":"1900","geo_score":0.0,"id":"a66dgflgftx2","geo_precision":"unmatched"},"type":"Feature","geometry":null},{"properties":{"zipcode":"1900","geo_score":0.0,"id":"a66dgfspcvb8","geo_precision":"unmatched"},"type":"Feature","geometry":null},{"properties":{"zipcode":"1903","geo_score":0.714,"id":"a66dgfwscoqj","geo_precision":"zip"},"type":"Feature","geometry":{"type":"Point","coordinates":[-70.879123,42.635443]}},{"properties":{"zipcode":"1903","geo_score":0.714,"id":"a66dgfqcu3rx","geo_precision":"zip"},"type":"Feature","geometry":{"type":"Point","coordinates":[-70.879123,42.635443]}},{"properties":{"zipcode":"1903","geo_score":0.714,"id":"a66dgfwx58yq","geo_precision":"zip"},"type":"Feature","geometry":{"type":"Point","coordinates":[-70.879123,42.635443]}},{"properties":{"zipcode":"1903","geo_score":0.714,"id":"a66dgfom6jx6","geo_precision":"zip"},"type":"Feature","geometry":{"type":"Point","coordinates":[-70.879123,42.635443]}},{"properties":{"zipcode":"1929","geo_score":0.714,"id":"a66dgftr1tes","geo_precision":"zip"},"type":"Feature","geometry":{"type":"Point","coordinates":[-70.768936,42.629261]}},{"properties":{"zipcode":"2000","geo_score":0.0,"id":"a66dgfwvvhcg","geo_precision":"unmatched"},"type":"Feature","geometry":null},{"properties":{"zipcode":"2000","geo_score":0.0,"id":"a66dgfo4w8ax","geo_precision":"unmatched"},"type":"Feature","geometry":null},{"properties":{"zipcode":"2000","geo_score":0.0,"id":"a66dgfnwrnfl","geo_precision":"unmatched"},"type":"Feature","geometry":null},{"properties":{"zipcode":"2000","geo_score":0.0,"id":"a66dgfy56uez","geo_precision":"unmatched"},"type":"Feature","geometry":null},{"properties":{"zipcode":"2000","geo_score":0.0,"id":"a66dgg1oig9k","geo_precision":"unmatched"},"type":"Feature","geometry":null},{"properties":{"zipcode":"2000","geo_score":0.0,"id":"a66dgfzlufgw","geo_precision":"unmatched"},"type":"Feature","geometry":null},{"properties":{"zipcode":"2003","geo_score":0.0,"id":"a66dgflg0ye3","geo_precision":"unmatched"},"type":"Feature","geometry":null},{"properties":{"zipcode":"2003","geo_score":0.0,"id":"a66dgfshf6nm","geo_precision":"unmatched"},"type":"Feature","geometry":null},{"properties":{"zipcode":"2003","geo_score":0.0,"id":"a66dgfpu9vyl","geo_precision":"unmatched"},"type":"Feature","geometry":null},{"properties":{"zipcode":"2003","geo_score":0.0,"id":"a66dgfsv0isq","geo_precision":"unmatched"},"type":"Feature","geometry":null},{"properties":{"zipcode":"2003","geo_score":0.0,"id":"a66dgfzyczyh","geo_precision":"unmatched"},"type":"Feature","geometry":null},{"properties":{"zipcode":"2004","geo_score":0.0,"id":"a66dgfou1djm","geo_precision":"unmatched"},"type":"Feature","geometry":null},{"properties":{"zipcode":"2004","geo_score":0.0,"id":"a66dgfvgx67b","geo_precision":"unmatched"},"type":"Feature","geometry":null},{"properties":{"zipcode":"2004","geo_score":0.0,"id":"a66dgfruply8","geo_precision":"unmatched"},"type":"Feature","geometry":null},{"properties":{"zipcode":"2004","geo_score":0.0,"id":"a66dgfp9g500","geo_precision":"unmatched"},"type":"Feature","geometry":null},{"properties":{"zipcode":"2004","geo_score":0.0,"id":"a66dgfqhfxdc","geo_precision":"unmatched"},"type":"Feature","geometry":null},{"properties":{"zipcode":"2004","geo_score":0.0,"id":"a66dgg06twsh","geo_precision":"unmatched"},"type":"Feature","geometry":null},{"properties":{"zipcode":"2004","geo_score":0.0,"id":"a66dgfvscrim","geo_precision":"unmatched"},"type":"Feature","geometry":null},{"properties":{"zipcode":"2005","geo_score":0.0,"id":"a66dgg0x6hc4","geo_precision":"unmatched"},"type":"Feature","geometry":null},{"properties":{"zipcode":"2005","geo_score":0.0,"id":"a66dgfy93od2","geo_precision":"unmatched"},"type":"Feature","geometry":null},{"properties":{"zipcode":"2006","geo_score":0.0,"id":"a66dgfpodt8x","geo_precision":"unmatched"},"type":"Feature","geometry":null},{"properties":{"zipcode":"2006","geo_score":0.0,"id":"a66dgfuxp5wg","geo_precision":"unmatched"},"type":"Feature","geometry":null},{"properties":{"zipcode":"2006","geo_score":0.0,"id":"a66dgfuhvaly","geo_precision":"unmatched"},"type":"Feature","geometry":null},{"properties":{"zipcode":"2006","geo_score":0.0,"id":"a66dgfm63mge","geo_precision":"unmatched"},"type":"Feature","geometry":null},{"properties":{"zipcode":"2006","geo_score":0.0,"id":"a66dgfpfcgje","geo_precision":"unmatched"},"type":"Feature","geometry":null},{"properties":{"zipcode":"2006","geo_score":0.0,"id":"a66dgfu045hx","geo_precision":"unmatched"},"type":"Feature","geometry":null},{"properties":{"zipcode":"2006","geo_score":0.0,"id":"a66dgfyuxki1","geo_precision":"unmatched"},"type":"Feature","geometry":null},{"properties":{"zipcode":"2007","geo_score":0.0,"id":"a66dgfndufdq","geo_precision":"unmatched"},"type":"Feature","geometry":null},{"properties":{"zipcode":"2007","geo_score":0.0,"id":"a66dgg04u9zl","geo_precision":"unmatched"},"type":"Feature","geometry":null},{"properties":{"zipcode":"2007","geo_score":0.0,"id":"a66dgfmtw4yv","geo_precision":"unmatched"},"type":"Feature","geometry":null},{"properties":{"zipcode":"2007","geo_score":0.0,"id":"a66dgfxafk1c","geo_precision":"unmatched"},"type":"Feature","geometry":null},{"properties":{"zipcode":"2007","geo_score":0.0,"id":"a66dgg1rh6i9","geo_precision":"unmatched"},"type":"Feature","geometry":null},{"properties":{"zipcode":"2007","geo_score":0.0,"id":"a66dgfosw3vn","geo_precision":"unmatched"},"type":"Feature","geometry":null},{"properties":{"zipcode":"2007","geo_score":0.0,"id":"a66dgg1rodnp","geo_precision":"unmatched"},"type":"Feature","geometry":null},{"properties":{"zipcode":"2007","geo_score":0.0,"id":"a66dgfuctky1","geo_precision":"unmatched"},"type":"Feature","geometry":null},{"properties":{"zipcode":"2007","geo_score":0.0,"id":"a66dgfyp1tmq","geo_precision":"unmatched"},"type":"Feature","geometry":null},{"properties":{"zipcode":"2008","geo_score":0.0,"id":"a66dgfpczmhg","geo_precision":"unmatched"},"type":"Feature","geometry":null},{"properties":{"zipcode":"2008","geo_score":0.0,"id":"a66dgfvjbo8y","geo_precision":"unmatched"},"type":"Feature","geometry":null},{"properties":{"zipcode":"2008","geo_score":0.0,"id":"a66dgfmfay5f","geo_precision":"unmatched"},"type":"Feature","geometry":null},{"properties":{"zipcode":"2008","geo_score":0.0,"id":"a66dgfo5xxfg","geo_precision":"unmatched"},"type":"Feature","geometry":null},{"properties":{"zipcode":"2008","geo_score":0.0,"id":"a66dgfyneowr","geo_precision":"unmatched"},"type":"Feature","geometry":null},{"properties":{"zipcode":"2008","geo_score":0.0,"id":"a66dgfprcro9","geo_precision":"unmatched"},"type":"Feature","geometry":null},{"properties":{"zipcode":"2008","geo_score":0.0,"id":"a66dgfxdyjtz","geo_precision":"unmatched"},"type":"Feature","geometry":null},{"properties":{"zipcode":"2008","geo_score":0.0,"id":"a66dgfztold5","geo_precision":"unmatched"},"type":"Feature","geometry":null},{"properties":{"zipcode":"2008","geo_score":0.0,"id":"a66dgfwmoj8a","geo_precision":"unmatched"},"type":"Feature","geometry":null},{"properties":{"zipcode":"2008","geo_score":0.0,"id":"a66dgft4i6p9","geo_precision":"unmatched"},"type":"Feature","geometry":null},{"properties":{"zipcode":"2008","geo_score":0.0,"id":"a66dgfm1arrn","geo_precision":"unmatched"},"type":"Feature","geometry":null},{"properties":{"zipcode":"2008","geo_score":0.0,"id":"a66dgfz20rjr","geo_precision":"unmatched"},"type":"Feature","geometry":null},{"properties":{"zipcode":"2010","geo_score":0.0,"id":"a66dgfvko9k6","geo_precision":"unmatched"},"type":"Feature","geometry":null},{"properties":{"zipcode":"2010","geo_score":0.0,"id":"a66dgg0d5f6d","geo_precision":"unmatched"},"type":"Feature","geometry":null},{"properties":{"zipcode":"2010","geo_score":0.0,"id":"a66dgfybrg5o","geo_precision":"unmatched"},"type":"Feature","geometry":null},{"properties":{"zipcode":"2010","geo_score":0.0,"id":"a66dgfx4jfbg","geo_precision":"unmatched"},"type":"Feature","geometry":null},{"properties":{"zipcode":"2010","geo_score":0.0,"id":"a66dgfslfu27","geo_precision":"unmatched"},"type":"Feature","geometry":null},{"properties":{"zipcode":"2010","geo_score":0.0,"id":"a66dgfvrl4bb","geo_precision":"unmatched"},"type":"Feature","geometry":null},{"properties":{"zipcode":"2010","geo_score":0.0,"id":"a66dgfz9xo91","geo_precision":"unmatched"},"type":"Feature","geometry":null},{"properties":{"zipcode":"2010","geo_score":0.0,"id":"a66dgfrmv9xc","geo_precision":"unmatched"},"type":"Feature","geometry":null},{"properties":{"zipcode":"2010","geo_score":0.0,"id":"a66dgfnd5ufm","geo_precision":"unmatched"},"type":"Feature","geometry":null},{"properties":{"zipcode":"2010","geo_score":0.0,"id":"a66dgflf1tro","geo_precision":"unmatched"},"type":"Feature","geometry":null},{"properties":{"zipcode":"2010","geo_score":0.0,"id":"a66dgfx85ep3","geo_precision":"unmatched"},"type":"Feature","geometry":null},{"properties":{"zipcode":"2010","geo_score":0.0,"id":"a66dgfy00dfo","geo_precision":"unmatched"},"type":"Feature","geometry":null},{"properties":{"zipcode":"2010","geo_score":0.0,"id":"a66dgfxpdwc8","geo_precision":"unmatched"},"type":"Feature","geometry":null},{"properties":{"zipcode":"2010","geo_score":0.0,"id":"a66dgfyyfoav","geo_precision":"unmatched"},"type":"Feature","geometry":null},{"properties":{"zipcode":"2010","geo_score":0.0,"id":"a66dgfubo374","geo_precision":"unmatched"},"type":"Feature","geometry":null},{"properties":{"zipcode":"2010","geo_score":0.0,"id":"a66dgfrrf80s","geo_precision":"unmatched"},"type":"Feature","geometry":null},{"properties":{"zipcode":"2010","geo_score":0.0,"id":"a66dgflkyc01","geo_precision":"unmatched"},"type":"Feature","geometry":null},{"properties":{"zipcode":"2010","geo_score":0.0,"id":"a66dgfm2ncgy","geo_precision":"unmatched"},"type":"Feature","geometry":null},{"properties":{"zipcode":"2010","geo_score":0.0,"id":"a66dgfx1f77r","geo_precision":"unmatched"},"type":"Feature","geometry":null},{"properties":{"zipcode":"2010","geo_score":0.0,"id":"a66dgfpsfamj","geo_precision":"unmatched"},"type":"Feature","geometry":null},{"properties":{"zipcode":"2013","geo_score":0.0,"id":"a66dgfzjl4fd","geo_precision":"unmatched"},"type":"Feature","geometry":null},{"properties":{"zipcode":"2013","geo_score":0.0,"id":"a66dgfz2b4nj","geo_precision":"unmatched"},"type":"Feature","geometry":null},{"properties":{"zipcode":"2013","geo_score":0.0,"id":"a66dgfn16a50","geo_precision":"unmatched"},"type":"Feature","geometry":null},{"properties":{"zipcode":"2013","geo_score":0.0,"id":"a66dgfsn658l","geo_precision":"unmatched"},"type":"Feature","geometry":null},{"properties":{"zipcode":"2013","geo_score":0.0,"id":"a66dgfuw5w5c","geo_precision":"unmatched"},"type":"Feature","geometry":null},{"properties":{"zipcode":"2013","geo_score":0.0,"id":"a66dgfny54j8","geo_precision":"unmatched"},"type":"Feature","geometry":null},{"properties":{"zipcode":"2013","geo_score":0.0,"id":"a66dgfp2n4b0","geo_precision":"unmatched"},"type":"Feature","geometry":null},{"properties":{"zipcode":"2013","geo_score":0.0,"id":"a66dgfopekmr","geo_precision":"unmatched"},"type":"Feature","geometry":null},{"properties":{"zipcode":"2013","geo_score":0.0,"id":"a66dgftecnea","geo_precision":"unmatched"},"type":"Feature","geometry":null},{"properties":{"zipcode":"2013","geo_score":0.0,"id":"a66dgfzf9a9h","geo_precision":"unmatched"},"type":"Feature","geometry":null},{"properties":{"zipcode":"2013","geo_score":0.0,"id":"a66dgfqu2ah1","geo_precision":"unmatched"},"type":"Feature","geometry":null},{"properties":{"zipcode":"2014","geo_score":0.0,"id":"a66dgfxuc99p","geo_precision":"unmatched"},"type":"Feature","geometry":null},{"properties":{"zipcode":"2014","geo_score":0.0,"id":"a66dgfm8d1ui","geo_precision":"unmatched"},"type":"Feature","geometry":null},{"properties":{"zipcode":"2014","geo_score":0.0,"id":"a66dgfx69kcm","geo_precision":"unmatched"},"type":"Feature","geometry":null},{"properties":{"zipcode":"2014","geo_score":0.0,"id":"a66dgg0mif2h","geo_precision":"unmatched"},"type":"Feature","geometry":null},{"properties":{"zipcode":"2014","geo_score":0.0,"id":"a66dgfli6j1k","geo_precision":"unmatched"},"type":"Feature","geometry":null},{"properties":{"zipcode":"2015","geo_score":0.0,"id":"a66dgfwip4sj","geo_precision":"unmatched"},"type":"Feature","geometry":null},{"properties":{"zipcode":"2015","geo_score":0.0,"id":"a66dgfyjp3nc","geo_precision":"unmatched"},"type":"Feature","geometry":null},{"properties":{"zipcode":"2015","geo_score":0.0,"id":"a66dgfzmv71w","geo_precision":"unmatched"},"type":"Feature","geometry":null},{"properties":{"zipcode":"2015","geo_score":0.0,"id":"a66dgfnc1ova","geo_precision":"unmatched"},"type":"Feature","geometry":null},{"properties":{"zipcode":"2015","geo_score":0.0,"id":"a66dgg1fcp87","geo_precision":"unmatched"},"type":"Feature","geometry":null},{"properties":{"zipcode":"2015","geo_score":0.0,"id":"a66dgfwgw226","geo_precision":"unmatched"},"type":"Feature","geometry":null},{"properties":{"zipcode":"2015","geo_score":0.0,"id":"a66dgg0f5tom","geo_precision":"unmatched"},"type":"Feature","geometry":null},{"properties":{"zipcode":"2015","geo_score":0.0,"id":"a66dgfwroq4e","geo_precision":"unmatched"},"type":"Feature","geometry":null},{"properties":{"zipcode":"2016","geo_score":0.0,"id":"a66dgfrun9ac","geo_precision":"unmatched"},"type":"Feature","geometry":null},{"properties":{"zipcode":"2016","geo_score":0.0,"id":"a66dgfwkrj63","geo_precision":"unmatched"},"type":"Feature","geometry":null},{"properties":{"zipcode":"2016","geo_score":0.0,"id":"a66dgfse54n2","geo_precision":"unmatched"},"type":"Feature","geometry":null},{"properties":{"zipcode":"2016","geo_score":0.0,"id":"a66dgfnvbkgj","geo_precision":"unmatched"},"type":"Feature","geometry":null},{"properties":{"zipcode":"2016","geo_score":0.0,"id":"a66dgfnm41ek","geo_precision":"unmatched"},"type":"Feature","geometry":null},{"properties":{"zipcode":"2019","geo_score":0.714,"id":"a66dgflezeut","geo_precision":"zip"},"type":"Feature","geometry":{"type":"Point","coordinates":[-71.474506,42.102875]}},{"properties":{"zipcode":"2019","geo_score":0.714,"id":"a66dgfwivm8x","geo_precision":"zip"},"type":"Feature","geometry":{"type":"Point","coordinates":[-71.474506,42.102875]}},{"properties":{"zipcode":"2019","geo_score":0.714,"id":"a66dgfm5j4tm","geo_precision":"zip"},"type":"Feature","geometry":{"type":"Point","coordinates":[-71.474506,42.102875]}},{"properties":{"zipcode":"2019","geo_score":0.714,"id":"a66dgfoet4fu","geo_precision":"zip"},"type":"Feature","geometry":{"type":"Point","coordinates":[-71.474506,42.102875]}},{"properties":{"zipcode":"2019","geo_score":0.714,"id":"a66dgfliz5pv","geo_precision":"zip"},"type":"Feature","geometry":{"type":"Point","coordinates":[-71.474506,42.102875]}},{"properties":{"zipcode":"2019","geo_score":0.714,"id":"a66dgftkfgqr","geo_precision":"zip"},"type":"Feature","geometry":{"type":"Point","coordinates":[-71.474506,42.102875]}},{"properties":{"zipcode":"2019","geo_score":0.714,"id":"a66dgfwp8psh","geo_precision":"zip"},"type":"Feature","geometry":{"type":"Point","coordinates":[-71.474506,42.102875]}},{"properties":{"zipcode":"2019","geo_score":0.714,"id":"a66dgfsvxt39","geo_precision":"zip"},"type":"Feature","geometry":{"type":"Point","coordinates":[-71.474506,42.102875]}},{"properties":{"zipcode":"2019","geo_score":0.714,"id":"a66dgg16dbmg","geo_precision":"zip"},"type":"Feature","geometry":{"type":"Point","coordinates":[-71.474506,42.102875]}},{"properties":{"zipcode":"2019","geo_score":0.714,"id":"a66dgfm1oux0","geo_precision":"zip"},"type":"Feature","geometry":{"type":"Point","coordinates":[-71.474506,42.102875]}},{"properties":{"zipcode":"2019","geo_score":0.714,"id":"a66dgfqhjapk","geo_precision":"zip"},"type":"Feature","geometry":{"type":"Point","coordinates":[-71.474506,42.102875]}},{"properties":{"zipcode":"2019","geo_score":0.714,"id":"a66dgfyt2yb0","geo_precision":"zip"},"type":"Feature","geometry":{"type":"Point","coordinates":[-71.474506,42.102875]}},{"properties":{"zipcode":"2019","geo_score":0.714,"id":"a66dgfxwim5l","geo_precision":"zip"},"type":"Feature","geometry":{"type":"Point","coordinates":[-71.474506,42.102875]}},{"properties":{"zipcode":"2019","geo_score":0.714,"id":"a66dgfyt83v0","geo_precision":"zip"},"type":"Feature","geometry":{"type":"Point","coordinates":[-71.474506,42.102875]}},{"properties":{"zipcode":"2019","geo_score":0.714,"id":"a66dgfocetn8","geo_precision":"zip"},"type":"Feature","geometry":{"type":"Point","coordinates":[-71.474506,42.102875]}},{"properties":{"zipcode":"2020","geo_score":0.714,"id":"a66dgft2ew59","geo_precision":"zip"},"type":"Feature","geometry":{"type":"Point","coordinates":[-70.643868,42.081825]}},{"properties":{"zipcode":"2020","geo_score":0.714,"id":"a66dgfqenfwp","geo_precision":"zip"},"type":"Feature","geometry":{"type":"Point","coordinates":[-70.643868,42.081825]}},{"properties":{"zipcode":"2020","geo_score":0.714,"id":"a66dgfldhqkk","geo_precision":"zip"},"type":"Feature","geometry":{"type":"Point","coordinates":[-70.643868,42.081825]}},{"properties":{"zipcode":"2020","geo_score":0.714,"id":"a66dgft8xfl7","geo_precision":"zip"},"type":"Feature","geometry":{"type":"Point","coordinates":[-70.643868,42.081825]}},{"properties":{"zipcode":"2020","geo_score":0.714,"id":"a66dgg1pgvi2","geo_precision":"zip"},"type":"Feature","geometry":{"type":"Point","coordinates":[-70.643868,42.081825]}},{"properties":{"zipcode":"2020","geo_score":0.714,"id":"a66dgfwxtoft","geo_precision":"zip"},"type":"Feature","geometry":{"type":"Point","coordinates":[-70.643868,42.081825]}},{"properties":{"zipcode":"2020","geo_score":0.714,"id":"a66dgfpoac8m","geo_precision":"zip"},"type":"Feature","geometry":{"type":"Point","coordinates":[-70.643868,42.081825]}},{"properties":{"zipcode":"2020","geo_score":0.714,"id":"a66dgfnwawv5","geo_precision":"zip"},"type":"Feature","geometry":{"type":"Point","coordinates":[-70.643868,42.081825]}},{"properties":{"zipcode":"2020","geo_score":0.714,"id":"a66dgfzl0hfu","geo_precision":"zip"},"type":"Feature","geometry":{"type":"Point","coordinates":[-70.643868,42.081825]}},{"properties":{"zipcode":"2032","geo_score":0.714,"id":"a66dgfvidkp5","geo_precision":"zip"},"type":"Feature","geometry":{"type":"Point","coordinates":[-71.224498,42.141765]}},{"properties":{"zipcode":"2040","geo_score":0.714,"id":"a66dgg11pmkp","geo_precision":"zip"},"type":"Feature","geometry":{"type":"Point","coordinates":[-70.701357,41.970474]}},{"properties":{"zipcode":"2150","geo_score":0.714,"id":"a66dgft7exdc","geo_precision":"zip"},"type":"Feature","geometry":{"type":"Point","coordinates":[-71.038894,42.378197]}},{"properties":{"zipcode":"2160","geo_score":0.714,"id":"a66dgfxp8gh1","geo_precision":"zip"},"type":"Feature","geometry":{"type":"Point","coordinates":[-71.203666,42.350097]}},{"properties":{"zipcode":"2322","geo_score":0.714,"id":"a66dgfm96n2d","geo_precision":"zip"},"type":"Feature","geometry":{"type":"Point","coordinates":[-71.048216,42.126049]}},{"properties":{"zipcode":"2322","geo_score":0.714,"id":"a66dgfub7lnf","geo_precision":"zip"},"type":"Feature","geometry":{"type":"Point","coordinates":[-71.048216,42.126049]}},{"properties":{"zipcode":"2815","geo_score":0.714,"id":"a66dgfunnshh","geo_precision":"zip"},"type":"Feature","geometry":{"type":"Point","coordinates":[-71.65585,41.770525]}},{"properties":{"zipcode":"2815","geo_score":0.714,"id":"a66dgfws2a25","geo_precision":"zip"},"type":"Feature","geometry":{"type":"Point","coordinates":[-71.65585,41.770525]}},{"properties":{"zipcode":"2817","geo_score":0.714,"id":"a66dgg1dl3kf","geo_precision":"zip"},"type":"Feature","geometry":{"type":"Point","coordinates":[-71.667165,41.631168]}},{"properties":{"zipcode":"2818","geo_score":0.714,"id":"a66dgfptzrsw","geo_precision":"zip"},"type":"Feature","geometry":{"type":"Point","coordinates":[-71.474503,41.647879]}},{"properties":{"zipcode":"2818","geo_score":0.714,"id":"a66dgfuxhd8h","geo_precision":"zip"},"type":"Feature","geometry":{"type":"Point","coordinates":[-71.474503,41.647879]}},{"properties":{"zipcode":"2818","geo_score":0.714,"id":"a66dgfsqigsd","geo_precision":"zip"},"type":"Feature","geometry":{"type":"Point","coordinates":[-71.474503,41.647879]}},{"properties":{"zipcode":"2819","geo_score":0.0,"id":"a66dgfn8d3fy","geo_precision":"unmatched"},"type":"Feature","geometry":null},{"properties":{"zipcode":"2821","geo_score":0.0,"id":"a66dgfxfpolc","geo_precision":"unmatched"},"type":"Feature","geometry":null},{"properties":{"zipcode":"2821","geo_score":0.0,"id":"a66dgfykjiny","geo_precision":"unmatched"},"type":"Feature","geometry":null},{"properties":{"zipcode":"2821","geo_score":0.0,"id":"a66dgfxbecid","geo_precision":"unmatched"},"type":"Feature","geometry":null},{"properties":{"zipcode":"2821","geo_score":0.0,"id":"a66dgfn8zckz","geo_precision":"unmatched"},"type":"Feature","geometry":null},{"properties":{"zipcode":"3011","geo_score":0.0,"id":"a66dgfonwuwr","geo_precision":"unmatched"},"type":"Feature","geometry":null},{"properties":{"zipcode":"3011","geo_score":0.0,"id":"a66dgfpmnz1l","geo_precision":"unmatched"},"type":"Feature","geometry":null},{"properties":{"zipcode":"3012","geo_score":0.0,"id":"a66dgfmdgtzd","geo_precision":"unmatched"},"type":"Feature","geometry":null},{"properties":{"zipcode":"3014","geo_score":0.0,"id":"a66dgfvsr8k2","geo_precision":"unmatched"},"type":"Feature","geometry":null},{"properties":{"zipcode":"3015","geo_score":0.0,"id":"a66dgfs6oapo","geo_precision":"unmatched"},"type":"Feature","geometry":null},{"properties":{"zipcode":"3015","geo_score":0.0,"id":"a66dgg1a00qy","geo_precision":"unmatched"},"type":"Feature","geometry":null},{"properties":{"zipcode":"3015","geo_score":0.0,"id":"a66dgfsxw90d","geo_precision":"unmatched"},"type":"Feature","geometry":null},{"properties":{"zipcode":"3018","geo_score":0.0,"id":"a66dgg0bnj2z","geo_precision":"unmatched"},"type":"Feature","geometry":null},{"properties":{"zipcode":"3019","geo_score":0.0,"id":"a66dgfovtg5o","geo_precision":"unmatched"},"type":"Feature","geometry":null},{"properties":{"zipcode":"3019","geo_score":0.0,"id":"a66dgfpgvzk2","geo_precision":"unmatched"},"type":"Feature","geometry":null},{"properties":{"zipcode":"3019","geo_score":0.0,"id":"a66dgfz0w3qa","geo_precision":"unmatched"},"type":"Feature","geometry":null},{"properties":{"zipcode":"3021","geo_score":0.0,"id":"a66dgfn2ij62","geo_precision":"unmatched"},"type":"Feature","geometry":null},{"properties":{"zipcode":"3022","geo_score":0.0,"id":"a66dgfsa4zqz","geo_precision":"unmatched"},"type":"Feature","geometry":null},{"properties":{"zipcode":"3022","geo_score":0.0,"id":"a66dgfld32az","geo_precision":"unmatched"},"type":"Feature","geometry":null},{"properties":{"zipcode":"3023","geo_score":0.0,"id":"a66dgfmzo19z","geo_precision":"unmatched"},"type":"Feature","geometry":null},{"properties":{"zipcode":"3023","geo_score":0.0,"id":"a66dgfolbfni","geo_precision":"unmatched"},"type":"Feature","geometry":null},{"properties":{"zipcode":"3023","geo_score":0.0,"id":"a66dgfx2yknv","geo_precision":"unmatched"},"type":"Feature","geometry":null},{"properties":{"zipcode":"3024","geo_score":0.0,"id":"a66dgfvukh18","geo_precision":"unmatched"},"type":"Feature","geometry":null},{"properties":{"zipcode":"3024","geo_score":0.0,"id":"a66dgftj4h8l","geo_precision":"unmatched"},"type":"Feature","geometry":null},{"properties":{"zipcode":"3024","geo_score":0.0,"id":"a66dgfuncf19","geo_precision":"unmatched"},"type":"Feature","geometry":null},{"properties":{"zipcode":"3024","geo_score":0.0,"id":"a66dgfyjr50m","geo_precision":"unmatched"},"type":"Feature","geometry":null},{"properties":{"zipcode":"3024","geo_score":0.0,"id":"a66dgfsr2hj6","geo_precision":"unmatched"},"type":"Feature","geometry":null},{"properties":{"zipcode":"3024","geo_score":0.0,"id":"a66dgfmy9e54","geo_precision":"unmatched"},"type":"Feature","geometry":null},{"properties":{"zipcode":"3024","geo_score":0.0,"id":"a66dgfvcs16g","geo_precision":"unmatched"},"type":"Feature","geometry":null},{"properties":{"zipcode":"3025","geo_score":0.0,"id":"a66dgg0zm1fh","geo_precision":"unmatched"},"type":"Feature","geometry":null},{"properties":{"zipcode":"3025","geo_score":0.0,"id":"a66dgflel0vp","geo_precision":"unmatched"},"type":"Feature","geometry":null},{"properties":{"zipcode":"3025","geo_score":0.0,"id":"a66dgfpfi709","geo_precision":"unmatched"},"type":"Feature","geometry":null},{"properties":{"zipcode":"3025","geo_score":0.0,"id":"a66dgfovi6qz","geo_precision":"unmatched"},"type":"Feature","geometry":null},{"properties":{"zipcode":"3028","geo_score":0.0,"id":"a66dgfprt7kx","geo_precision":"unmatched"},"type":"Feature","geometry":null},{"properties":{"zipcode":"3028","geo_score":0.0,"id":"a66dgg1qakhj","geo_precision":"unmatched"},"type":"Feature","geometry":null},{"properties":{"zipcode":"3028","geo_score":0.0,"id":"a66dgfluw3l8","geo_precision":"unmatched"},"type":"Feature","geometry":null},{"properties":{"zipcode":"3029","geo_score":0.0,"id":"a66dgfya4j6v","geo_precision":"unmatched"},"type":"Feature","geometry":null},{"properties":{"zipcode":"3030","geo_score":0.0,"id":"a66dgfnt5dll","geo_precision":"unmatched"},"type":"Feature","geometry":null},{"properties":{"zipcode":"3030","geo_score":0.0,"id":"a66dgfz4lre6","geo_precision":"unmatched"},"type":"Feature","geometry":null},{"properties":{"zipcode":"3031","geo_score":0.714,"id":"a66dgfz97xpl","geo_precision":"zip"},"type":"Feature","geometry":{"type":"Point","coordinates":[-71.595626,42.842031]}},{"properties":{"zipcode":"3031","geo_score":0.714,"id":"a66dgfr4nw2v","geo_precision":"zip"},"type":"Feature","geometry":{"type":"Point","coordinates":[-71.595626,42.842031]}},{"properties":{"zipcode":"3033","geo_score":0.714,"id":"a66dgfun5ol3","geo_precision":"zip"},"type":"Feature","geometry":{"type":"Point","coordinates":[-71.661182,42.715644]}},{"properties":{"zipcode":"3033","geo_score":0.714,"id":"a66dgg181dui","geo_precision":"zip"},"type":"Feature","geometry":{"type":"Point","coordinates":[-71.661182,42.715644]}},{"properties":{"zipcode":"3033","geo_score":0.714,"id":"a66dgfw5om2v","geo_precision":"zip"},"type":"Feature","geometry":{"type":"Point","coordinates":[-71.661182,42.715644]}},{"properties":{"zipcode":"3034","geo_score":0.714,"id":"a66dgfx4szbu","geo_precision":"zip"},"type":"Feature","geometry":{"type":"Point","coordinates":[-71.290342,43.119805]}},{"properties":{"zipcode":"3034","geo_score":0.714,"id":"a66dgfz08l7p","geo_precision":"zip"},"type":"Feature","geometry":{"type":"Point","coordinates":[-71.290342,43.119805]}},{"properties":{"zipcode":"3034","geo_score":0.714,"id":"a66dgfo30doa","geo_precision":"zip"},"type":"Feature","geometry":{"type":"Point","coordinates":[-71.290342,43.119805]}},{"properties":{"zipcode":"3035","geo_score":0.0,"id":"a66dgfql5fe6","geo_precision":"unmatched"},"type":"Feature","geometry":null},{"properties":{"zipcode":"3035","geo_score":0.0,"id":"a66dgfnninpg","geo_precision":"unmatched"},"type":"Feature","geometry":null},{"properties":{"zipcode":"3035","geo_score":0.0,"id":"a66dgfnwvfup","geo_precision":"unmatched"},"type":"Feature","geometry":null},{"properties":{"zipcode":"3035","geo_score":0.0,"id":"a66dgfnpl1yv","geo_precision":"unmatched"},"type":"Feature","geometry":null},{"properties":{"zipcode":"3035","geo_score":0.0,"id":"a66dgfxpcfee","geo_precision":"unmatched"},"type":"Feature","geometry":null},{"properties":{"zipcode":"3036","geo_score":0.714,"id":"a66dgg0e5pk5","geo_precision":"zip"},"type":"Feature","geometry":{"type":"Point","coordinates":[-71.251021,42.961606]}},{"properties":{"zipcode":"3036","geo_score":0.714,"id":"a66dgflzo2dk","geo_precision":"zip"},"type":"Feature","geometry":{"type":"Point","coordinates":[-71.251021,42.961606]}},{"properties":{"zipcode":"3039","geo_score":0.0,"id":"a66dgfouvtuk","geo_precision":"unmatched"},"type":"Feature","geometry":null},{"properties":{"zipcode":"3039","geo_score":0.0,"id":"a66dgfxkmm6r","geo_precision":"unmatched"},"type":"Feature","geometry":null},{"properties":{"zipcode":"3040","geo_score":0.714,"id":"a66dgg133j24","geo_precision":"zip"},"type":"Feature","geometry":{"type":"Point","coordinates":[-71.013202,43.005895]}},{"properties":{"zipcode":"3040","geo_score":0.714,"id":"a66dgfw1tuxh","geo_precision":"zip"},"type":"Feature","geometry":{"type":"Point","coordinates":[-71.013202,43.005895]}},{"properties":{"zipcode":"3040","geo_score":0.714,"id":"a66dgfz1s3re","geo_precision":"zip"},"type":"Feature","geometry":{"type":"Point","coordinates":[-71.013202,43.005895]}},{"properties":{"zipcode":"3040","geo_score":0.714,"id":"a66dgfqrnpwz","geo_precision":"zip"},"type":"Feature","geometry":{"type":"Point","coordinates":[-71.013202,43.005895]}},{"properties":{"zipcode":"3040","geo_score":0.714,"id":"a66dgfz3klim","geo_precision":"zip"},"type":"Feature","geometry":{"type":"Point","coordinates":[-71.013202,43.005895]}},{"properties":{"zipcode":"3040","geo_score":0.714,"id":"a66dgfq96epa","geo_precision":"zip"},"type":"Feature","geometry":{"type":"Point","coordinates":[-71.013202,43.005895]}},{"properties":{"zipcode":"3040","geo_score":0.714,"id":"a66dgfvu2vh0","geo_precision":"zip"},"type":"Feature","geometry":{"type":"Point","coordinates":[-71.013202,43.005895]}},{"properties":{"zipcode":"3040","geo_score":0.714,"id":"a66dgfxmtrsm","geo_precision":"zip"},"type":"Feature","geometry":{"type":"Point","coordinates":[-71.013202,43.005895]}},{"properties":{"zipcode":"3041","geo_score":0.714,"id":"a66dgflib9vj","geo_precision":"zip"},"type":"Feature","geometry":{"type":"Point","coordinates":[-71.013202,43.005895]}},{"properties":{"zipcode":"3041","geo_score":0.714,"id":"a66dgfx446i6","geo_precision":"zip"},"type":"Feature","geometry":{"type":"Point","coordinates":[-71.013202,43.005895]}},{"properties":{"zipcode":"3041","geo_score":0.714,"id":"a66dgg0jvgk7","geo_precision":"zip"},"type":"Feature","geometry":{"type":"Point","coordinates":[-71.013202,43.005895]}},{"properties":{"zipcode":"3041","geo_score":0.714,"id":"a66dgfw61s4g","geo_precision":"zip"},"type":"Feature","geometry":{"type":"Point","coordinates":[-71.013202,43.005895]}},{"properties":{"zipcode":"3043","geo_score":0.714,"id":"a66dgfsbvi16","geo_precision":"zip"},"type":"Feature","geometry":{"type":"Point","coordinates":[-71.816505,42.916233]}},{"properties":{"zipcode":"3044","geo_score":0.714,"id":"a66dgfqcrh6v","geo_precision":"zip"},"type":"Feature","geometry":{"type":"Point","coordinates":[-71.113393,42.945643]}},{"properties":{"zipcode":"3044","geo_score":0.714,"id":"a66dgg1996bh","geo_precision":"zip"},"type":"Feature","geometry":{"type":"Point","coordinates":[-71.113393,42.945643]}},{"properties":{"zipcode":"3044","geo_score":0.714,"id":"a66dgfrz9kkk","geo_precision":"zip"},"type":"Feature","geometry":{"type":"Point","coordinates":[-71.113393,42.945643]}},{"properties":{"zipcode":"3044","geo_score":0.714,"id":"a66dgfmp0nip","geo_precision":"zip"},"type":"Feature","geometry":{"type":"Point","coordinates":[-71.113393,42.945643]}},{"properties":{"zipcode":"3045","geo_score":0.714,"id":"a66dgft5640b","geo_precision":"zip"},"type":"Feature","geometry":{"type":"Point","coordinates":[-71.645073,43.032027]}},{"properties":{"zipcode":"3045","geo_score":0.714,"id":"a66dgg0lblo2","geo_precision":"zip"},"type":"Feature","geometry":{"type":"Point","coordinates":[-71.645073,43.032027]}},{"properties":{"zipcode":"3045","geo_score":0.714,"id":"a66dgfyo0jcd","geo_precision":"zip"},"type":"Feature","geometry":{"type":"Point","coordinates":[-71.645073,43.032027]}},{"properties":{"zipcode":"3045","geo_score":0.714,"id":"a66dgfy29iae","geo_precision":"zip"},"type":"Feature","geometry":{"type":"Point","coordinates":[-71.645073,43.032027]}},{"properties":{"zipcode":"3045","geo_score":0.714,"id":"a66dgfqjzj41","geo_precision":"zip"},"type":"Feature","geometry":{"type":"Point","coordinates":[-71.645073,43.032027]}},{"properties":{"zipcode":"3045","geo_score":0.714,"id":"a66dgfyo0n73","geo_precision":"zip"},"type":"Feature","geometry":{"type":"Point","coordinates":[-71.645073,43.032027]}},{"properties":{"zipcode":"3045","geo_score":0.714,"id":"a66dgfuw3aty","geo_precision":"zip"},"type":"Feature","geometry":{"type":"Point","coordinates":[-71.645073,43.032027]}},{"properties":{"zipcode":"3045","geo_score":0.714,"id":"a66dgfmyxdj2","geo_precision":"zip"},"type":"Feature","geometry":{"type":"Point","coordinates":[-71.645073,43.032027]}},{"properties":{"zipcode":"3046","geo_score":0.0,"id":"a66dgfosf9cv","geo_precision":"unmatched"},"type":"Feature","geometry":null},{"properties":{"zipcode":"3046","geo_score":0.0,"id":"a66dgfnip8ic","geo_precision":"unmatched"},"type":"Feature","geometry":null},{"properties":{"zipcode":"3046","geo_score":0.0,"id":"a66dgfw2fvi4","geo_precision":"unmatched"},"type":"Feature","geometry":null},{"properties":{"zipcode":"3046","geo_score":0.0,"id":"a66dgfy8dhrn","geo_precision":"unmatched"},"type":"Feature","geometry":null},{"properties":{"zipcode":"3047","geo_score":0.714,"id":"a66dgfoxs4xy","geo_precision":"zip"},"type":"Feature","geometry":{"type":"Point","coordinates":[-71.859087,42.929346]}},{"properties":{"zipcode":"3047","geo_score":0.714,"id":"a66dgg06oc77","geo_precision":"zip"},"type":"Feature","geometry":{"type":"Point","coordinates":[-71.859087,42.929346]}},{"properties":{"zipcode":"3047","geo_score":0.714,"id":"a66dgfvam1k7","geo_precision":"zip"},"type":"Feature","geometry":{"type":"Point","coordinates":[-71.859087,42.929346]}},{"properties":{"zipcode":"3047","geo_score":0.714,"id":"a66dgg0oxisr","geo_precision":"zip"},"type":"Feature","geometry":{"type":"Point","coordinates":[-71.859087,42.929346]}},{"properties":{"zipcode":"3048","geo_score":0.714,"id":"a66dgfn0k6qc","geo_precision":"zip"},"type":"Feature","geometry":{"type":"Point","coordinates":[-71.768963,42.743698]}},{"properties":{"zipcode":"3048","geo_score":0.714,"id":"a66dgfpdshfr","geo_precision":"zip"},"type":"Feature","geometry":{"type":"Point","coordinates":[-71.768963,42.743698]}},{"properties":{"zipcode":"3048","geo_score":0.714,"id":"a66dgfmoqrvc","geo_precision":"zip"},"type":"Feature","geometry":{"type":"Point","coordinates":[-71.768963,42.743698]}},{"properties":{"zipcode":"3048","geo_score":0.714,"id":"a66dgfpmrim6","geo_precision":"zip"},"type":"Feature","geometry":{"type":"Point","coordinates":[-71.768963,42.743698]}},{"properties":{"zipcode":"3048","geo_score":0.714,"id":"a66dgfwwj5qb","geo_precision":"zip"},"type":"Feature","geometry":{"type":"Point","coordinates":[-71.768963,42.743698]}},{"properties":{"zipcode":"3050","geo_score":0.0,"id":"a66dgfone899","geo_precision":"unmatched"},"type":"Feature","geometry":null},{"properties":{"zipcode":"3050","geo_score":0.0,"id":"a66dgg08d6j4","geo_precision":"unmatched"},"type":"Feature","geometry":null},{"properties":{"zipcode":"3050","geo_score":0.0,"id":"a66dgfrxgl7q","geo_precision":"unmatched"},"type":"Feature","geometry":null},{"properties":{"zipcode":"3050","geo_score":0.0,"id":"a66dgfwd758r","geo_precision":"unmatched"},"type":"Feature","geometry":null},{"properties":{"zipcode":"3050","geo_score":0.0,"id":"a66dgfnt1tmr","geo_precision":"unmatched"},"type":"Feature","geometry":null},{"properties":{"zipcode":"3050","geo_score":0.0,"id":"a66dgg0meh0s","geo_precision":"unmatched"},"type":"Feature","geometry":null},{"properties":{"zipcode":"3051","geo_score":0.714,"id":"a66dgfrtvyuh","geo_precision":"zip"},"type":"Feature","geometry":{"type":"Point","coordinates":[-71.479789,42.844254]}},{"properties":{"zipcode":"3055","geo_score":0.714,"id":"a66dgfpih2ww","geo_precision":"zip"},"type":"Feature","geometry":{"type":"Point","coordinates":[-71.66035,42.824531]}},{"properties":{"zipcode":"3055","geo_score":0.714,"id":"a66dgflrariy","geo_precision":"zip"},"type":"Feature","geometry":{"type":"Point","coordinates":[-71.66035,42.824531]}},{"properties":{"zipcode":"3055","geo_score":0.714,"id":"a66dgfoiiwjj","geo_precision":"zip"},"type":"Feature","geometry":{"type":"Point","coordinates":[-71.66035,42.824531]}},{"properties":{"zipcode":"3055","geo_score":0.714,"id":"a66dgfm3yr3p","geo_precision":"zip"},"type":"Feature","geometry":{"type":"Point","coordinates":[-71.66035,42.824531]}},{"properties":{"zipcode":"3055","geo_score":0.714,"id":"a66dgfv4i633","geo_precision":"zip"},"type":"Feature","geometry":{"type":"Point","coordinates":[-71.66035,42.824531]}},{"properties":{"zipcode":"3055","geo_score":0.714,"id":"a66dgfwfgy25","geo_precision":"zip"},"type":"Feature","geometry":{"type":"Point","coordinates":[-71.66035,42.824531]}},{"properties":{"zipcode":"3055","geo_score":0.714,"id":"a66dgfs0yyb2","geo_precision":"zip"},"type":"Feature","geometry":{"type":"Point","coordinates":[-71.66035,42.824531]}},{"properties":{"zipcode":"3057","geo_score":0.714,"id":"a66dgfqiveau","geo_precision":"zip"},"type":"Feature","geometry":{"type":"Point","coordinates":[-71.727044,42.850464]}},{"properties":{"zipcode":"3057","geo_score":0.714,"id":"a66dgfx42d2n","geo_precision":"zip"},"type":"Feature","geometry":{"type":"Point","coordinates":[-71.727044,42.850464]}},{"properties":{"zipcode":"3057","geo_score":0.714,"id":"a66dgfx37wum","geo_precision":"zip"},"type":"Feature","geometry":{"type":"Point","coordinates":[-71.727044,42.850464]}},{"properties":{"zipcode":"3058","geo_score":0.0,"id":"a66dgfwuxyc4","geo_precision":"unmatched"},"type":"Feature","geometry":null},{"properties":{"zipcode":"3058","geo_score":0.0,"id":"a66dgfxr0rf5","geo_precision":"unmatched"},"type":"Feature","geometry":null},{"properties":{"zipcode":"3061","geo_score":0.714,"id":"a66dgg05mmst","geo_precision":"zip"},"type":"Feature","geometry":{"type":"Point","coordinates":[-71.653939,42.952124]}},{"properties":{"zipcode":"3112","geo_score":0.714,"id":"a66dgfy6a6cx","geo_precision":"zip"},"type":"Feature","geometry":{"type":"Point","coordinates":[-71.454789,42.99564]}},{"properties":{"zipcode":"3116","geo_score":0.714,"id":"a66dgfxvyod0","geo_precision":"zip"},"type":"Feature","geometry":{"type":"Point","coordinates":[-71.454789,42.99564]}},{"properties":{"zipcode":"3117","geo_score":0.714,"id":"a66dgfoj5k4y","geo_precision":"zip"},"type":"Feature","geometry":{"type":"Point","coordinates":[-71.454789,42.99564]}},{"properties":{"zipcode":"3117","geo_score":0.714,"id":"a66dgg1g7z24","geo_precision":"zip"},"type":"Feature","geometry":{"type":"Point","coordinates":[-71.454789,42.99564]}},{"properties":{"zipcode":"3123","geo_score":0.714,"id":"a66dgg14s3bq","geo_precision":"zip"},"type":"Feature","geometry":{"type":"Point","coordinates":[-71.454789,42.99564]}},{"properties":{"zipcode":"3123","geo_score":0.714,"id":"a66dgfnfvp6m","geo_precision":"zip"},"type":"Feature","geometry":{"type":"Point","coordinates":[-71.454789,42.99564]}},{"properties":{"zipcode":"3124","geo_score":0.714,"id":"a66dgfrb639n","geo_precision":"zip"},"type":"Feature","geometry":{"type":"Point","coordinates":[-71.454789,42.99564]}},{"properties":{"zipcode":"3153","geo_score":0.714,"id":"a66dgfm2mn9t","geo_precision":"zip"},"type":"Feature","geometry":{"type":"Point","coordinates":[-71.454789,42.99564]}},{"properties":{"zipcode":"3153","geo_score":0.714,"id":"a66dgfqr00xn","geo_precision":"zip"},"type":"Feature","geometry":{"type":"Point","coordinates":[-71.454789,42.99564]}},{"properties":{"zipcode":"3170","geo_score":0.714,"id":"a66dgfly7ei9","geo_precision":"zip"},"type":"Feature","geometry":{"type":"Point","coordinates":[-71.454789,42.99564]}},{"properties":{"zipcode":"3172","geo_score":0.714,"id":"a66dgfsl4oks","geo_precision":"zip"},"type":"Feature","geometry":{"type":"Point","coordinates":[-71.454789,42.99564]}},{"properties":{"zipcode":"3173","geo_score":0.714,"id":"a66dgfvuwisg","geo_precision":"zip"},"type":"Feature","geometry":{"type":"Point","coordinates":[-71.454789,42.99564]}},{"properties":{"zipcode":"3210","geo_score":0.0,"id":"a66dgfneqht5","geo_precision":"unmatched"},"type":"Feature","geometry":null},{"properties":{"zipcode":"3212","geo_score":0.0,"id":"a66dgfr836u9","geo_precision":"unmatched"},"type":"Feature","geometry":null},{"properties":{"zipcode":"3212","geo_score":0.0,"id":"a66dgfm5l45d","geo_precision":"unmatched"},"type":"Feature","geometry":null},{"properties":{"zipcode":"3213","geo_score":0.0,"id":"a66dgfz3cb3k","geo_precision":"unmatched"},"type":"Feature","geometry":null},{"properties":{"zipcode":"3214","geo_score":0.0,"id":"a66dgfofhknk","geo_precision":"unmatched"},"type":"Feature","geometry":null},{"properties":{"zipcode":"3215","geo_score":0.714,"id":"a66dgfpm1qql","geo_precision":"zip"},"type":"Feature","geometry":{"type":"Point","coordinates":[-71.534068,43.930221]}},{"properties":{"zipcode":"3216","geo_score":0.714,"id":"a66dgfrt7ec2","geo_precision":"zip"},"type":"Feature","geometry":{"type":"Point","coordinates":[-71.780357,43.398965]}},{"properties":{"zipcode":"3216","geo_score":0.714,"id":"a66dgfmi4tuj","geo_precision":"zip"},"type":"Feature","geometry":{"type":"Point","coordinates":[-71.780357,43.398965]}},{"properties":{"zipcode":"3218","geo_score":0.714,"id":"a66dgfulqsku","geo_precision":"zip"},"type":"Feature","geometry":{"type":"Point","coordinates":[-71.373189,43.417369]}},{"properties":{"zipcode":"3218","geo_score":0.714,"id":"a66dgfuslmyw","geo_precision":"zip"},"type":"Feature","geometry":{"type":"Point","coordinates":[-71.373189,43.417369]}},{"properties":{"zipcode":"3220","geo_score":0.714,"id":"a66dgg0tn7vk","geo_precision":"zip"},"type":"Feature","geometry":{"type":"Point","coordinates":[-71.40709,43.455551]}},{"properties":{"zipcode":"3220","geo_score":0.714,"id":"a66dgfr132dp","geo_precision":"zip"},"type":"Feature","geometry":{"type":"Point","coordinates":[-71.40709,43.455551]}},{"properties":{"zipcode":"3225","geo_score":0.714,"id":"a66dgfm1sqzz","geo_precision":"zip"},"type":"Feature","geometry":{"type":"Point","coordinates":[-71.228399,43.315081]}},{"properties":{"zipcode":"3226","geo_score":0.714,"id":"a66dgfs1iypz","geo_precision":"zip"},"type":"Feature","geometry":{"type":"Point","coordinates":[-71.335071,43.674243]}},{"properties":{"zipcode":"3227","geo_score":0.714,"id":"a66dgfs9qno7","geo_precision":"zip"},"type":"Feature","geometry":{"type":"Point","coordinates":[-71.323953,43.694809]}},{"properties":{"zipcode":"3228","geo_score":0.714,"id":"a66dgfp6dt12","geo_precision":"zip"},"type":"Feature","geometry":{"type":"Point","coordinates":[-71.665912,43.847293]}},{"properties":{"zipcode":"3229","geo_score":0.714,"id":"a66dgfum79om","geo_precision":"zip"},"type":"Feature","geometry":{"type":"Point","coordinates":[-71.748133,43.192024]}},{"properties":{"zipcode":"3234","geo_score":0.714,"id":"a66dgfllkswj","geo_precision":"zip"},"type":"Feature","geometry":{"type":"Point","coordinates":[-71.369512,43.198415]}},{"properties":{"zipcode":"3234","geo_score":0.714,"id":"a66dgg0eu2tu","geo_precision":"zip"},"type":"Feature","geometry":{"type":"Point","coordinates":[-71.369512,43.198415]}},{"properties":{"zipcode":"3235","geo_score":0.714,"id":"a66dgg104eiw","geo_precision":"zip"},"type":"Feature","geometry":{"type":"Point","coordinates":[-71.654799,43.406466]}},{"properties":{"zipcode":"3236","geo_score":0.0,"id":"a66dgfzjn80k","geo_precision":"unmatched"},"type":"Feature","geometry":null},{"properties":{"zipcode":"3241","geo_score":0.714,"id":"a66dgfpos8ew","geo_precision":"zip"},"type":"Feature","geometry":{"type":"Point","coordinates":[-71.835637,43.701739]}},{"properties":{"zipcode":"3242","geo_score":0.714,"id":"a66dgfrdhov0","geo_precision":"zip"},"type":"Feature","geometry":{"type":"Point","coordinates":[-71.81959,43.180148]}},{"properties":{"zipcode":"3244","geo_score":0.714,"id":"a66dgfzlcqgt","geo_precision":"zip"},"type":"Feature","geometry":{"type":"Point","coordinates":[-71.975915,43.130635]}},{"properties":{"zipcode":"3256","geo_score":0.714,"id":"a66dgfvlfvpf","geo_precision":"zip"},"type":"Feature","geometry":{"type":"Point","coordinates":[-71.634674,43.603288]}},{"properties":{"zipcode":"3257","geo_score":0.714,"id":"a66dgfzvgein","geo_precision":"zip"},"type":"Feature","geometry":{"type":"Point","coordinates":[-72.031474,43.401186]}},{"properties":{"zipcode":"3260","geo_score":0.714,"id":"a66dgfnf6n8g","geo_precision":"zip"},"type":"Feature","geometry":{"type":"Point","coordinates":[-71.934059,43.365345]}},{"properties":{"zipcode":"3260","geo_score":0.714,"id":"a66dgfwwwqhz","geo_precision":"zip"},"type":"Feature","geometry":{"type":"Point","coordinates":[-71.934059,43.365345]}},{"properties":{"zipcode":"3260","geo_score":0.714,"id":"a66dgfmv2n63","geo_precision":"zip"},"type":"Feature","geometry":{"type":"Point","coordinates":[-71.934059,43.365345]}},{"properties":{"zipcode":"3290","geo_score":0.714,"id":"a66dgfss2fff","geo_precision":"zip"},"type":"Feature","geometry":{"type":"Point","coordinates":[-71.125879,43.124825]}},{"properties":{"zipcode":"3300","geo_score":0.0,"id":"a66dgfnjwbi7","geo_precision":"unmatched"},"type":"Feature","geometry":null},{"properties":{"zipcode":"3300","geo_score":0.0,"id":"a66dgg1amnob","geo_precision":"unmatched"},"type":"Feature","geometry":null},{"properties":{"zipcode":"3300","geo_score":0.0,"id":"a66dgfty6111","geo_precision":"unmatched"},"type":"Feature","geometry":null},{"properties":{"zipcode":"3320","geo_score":0.0,"id":"a66dgfnghfne","geo_precision":"unmatched"},"type":"Feature","geometry":null},{"properties":{"zipcode":"3320","geo_score":0.0,"id":"a66dgfolglkz","geo_precision":"unmatched"},"type":"Feature","geometry":null},{"properties":{"zipcode":"3320","geo_score":0.0,"id":"a66dgfw0rqm8","geo_precision":"unmatched"},"type":"Feature","geometry":null},{"properties":{"zipcode":"3322","geo_score":0.0,"id":"a66dgfy9qw7s","geo_precision":"unmatched"},"type":"Feature","geometry":null},{"properties":{"zipcode":"3400","geo_score":0.0,"id":"a66dgflywlal","geo_precision":"unmatched"},"type":"Feature","geometry":null},{"properties":{"zipcode":"3400","geo_score":0.0,"id":"a66dgfppe8kn","geo_precision":"unmatched"},"type":"Feature","geometry":null},{"properties":{"zipcode":"3400","geo_score":0.0,"id":"a66dgfxh2fgm","geo_precision":"unmatched"},"type":"Feature","geometry":null},{"properties":{"zipcode":"3408","geo_score":0.0,"id":"a66dgfu2d450","geo_precision":"unmatched"},"type":"Feature","geometry":null},{"properties":{"zipcode":"3408","geo_score":0.0,"id":"a66dgfzpw5bs","geo_precision":"unmatched"},"type":"Feature","geometry":null},{"properties":{"zipcode":"3410","geo_score":0.0,"id":"a66dgfq5im21","geo_precision":"unmatched"},"type":"Feature","geometry":null},{"properties":{"zipcode":"3912","geo_score":0.0,"id":"a66dgfxtizlm","geo_precision":"unmatched"},"type":"Feature","geometry":null},{"properties":{"zipcode":"3925","geo_score":0.0,"id":"a66dgfmvysqb","geo_precision":"unmatched"},"type":"Feature","geometry":null},{"properties":{"zipcode":"5003","geo_score":0.0,"id":"a66dgfptlvl2","geo_precision":"unmatched"},"type":"Feature","geometry":null},{"properties":{"zipcode":"5004","geo_score":0.0,"id":"a66dgg15ifjg","geo_precision":"unmatched"},"type":"Feature","geometry":null},{"properties":{"zipcode":"5005","geo_score":0.0,"id":"a66dgfyojg6x","geo_precision":"unmatched"},"type":"Feature","geometry":null},{"properties":{"zipcode":"5006","geo_score":0.0,"id":"a66dgfv3qqp3","geo_precision":"unmatched"},"type":"Feature","geometry":null},{"properties":{"zipcode":"5006","geo_score":0.0,"id":"a66dgfuxw0ns","geo_precision":"unmatched"},"type":"Feature","geometry":null},{"properties":{"zipcode":"5006","geo_score":0.0,"id":"a66dgfv3xuq8","geo_precision":"unmatched"},"type":"Feature","geometry":null},{"properties":{"zipcode":"5006","geo_score":0.0,"id":"a66dgflve6ax","geo_precision":"unmatched"},"type":"Feature","geometry":null},{"properties":{"zipcode":"5008","geo_score":0.0,"id":"a66dgg1dfdyc","geo_precision":"unmatched"},"type":"Feature","geometry":null},{"properties":{"zipcode":"5008","geo_score":0.0,"id":"a66dgfwala09","geo_precision":"unmatched"},"type":"Feature","geometry":null},{"properties":{"zipcode":"5009","geo_score":0.714,"id":"a66dgfmcb6vu","geo_precision":"zip"},"type":"Feature","geometry":{"type":"Point","coordinates":[-72.588407,43.592039]}},{"properties":{"zipcode":"5009","geo_score":0.714,"id":"a66dgfrceqz2","geo_precision":"zip"},"type":"Feature","geometry":{"type":"Point","coordinates":[-72.588407,43.592039]}},{"properties":{"zipcode":"5009","geo_score":0.714,"id":"a66dgfqvxnej","geo_precision":"zip"},"type":"Feature","geometry":{"type":"Point","coordinates":[-72.588407,43.592039]}},{"properties":{"zipcode":"5011","geo_score":0.0,"id":"a66dgfojyf43","geo_precision":"unmatched"},"type":"Feature","geometry":null},{"properties":{"zipcode":"5012","geo_score":0.0,"id":"a66dgfoek52b","geo_precision":"unmatched"},"type":"Feature","geometry":null},{"properties":{"zipcode":"5015","geo_score":0.0,"id":"a66dgfnsjf6b","geo_precision":"unmatched"},"type":"Feature","geometry":null},{"properties":{"zipcode":"5015","geo_score":0.0,"id":"a66dgfw487f9","geo_precision":"unmatched"},"type":"Feature","geometry":null},{"properties":{"zipcode":"5018","geo_score":0.0,"id":"a66dgfuynijw","geo_precision":"unmatched"},"type":"Feature","geometry":null},{"properties":{"zipcode":"5018","geo_score":0.0,"id":"a66dgflrppr5","geo_precision":"unmatched"},"type":"Feature","geometry":null},{"properties":{"zipcode":"5033","geo_score":0.714,"id":"a66dgg19ayyl","geo_precision":"zip"},"type":"Feature","geometry":{"type":"Point","coordinates":[-72.232594,44.016177]}},{"properties":{"zipcode":"5042","geo_score":0.714,"id":"a66dgflg9riv","geo_precision":"zip"},"type":"Feature","geometry":{"type":"Point","coordinates":[-72.143984,44.270339]}},{"properties":{"zipcode":"5054","geo_score":0.714,"id":"a66dgfozo4wj","geo_precision":"zip"},"type":"Feature","geometry":{"type":"Point","coordinates":[-72.411393,43.995961]}},{"properties":{"zipcode":"5054","geo_score":0.714,"id":"a66dgfzmpck7","geo_precision":"zip"},"type":"Feature","geometry":{"type":"Point","coordinates":[-72.411393,43.995961]}},{"properties":{"zipcode":"5054","geo_score":0.714,"id":"a66dgfrs76mk","geo_precision":"zip"},"type":"Feature","geometry":{"type":"Point","coordinates":[-72.411393,43.995961]}},{"properties":{"zipcode":"5054","geo_score":0.714,"id":"a66dgfr5cgli","geo_precision":"zip"},"type":"Feature","geometry":{"type":"Point","coordinates":[-72.411393,43.995961]}},{"properties":{"zipcode":"5054","geo_score":0.714,"id":"a66dgfnpzzdl","geo_precision":"zip"},"type":"Feature","geometry":{"type":"Point","coordinates":[-72.411393,43.995961]}},{"properties":{"zipcode":"5055","geo_score":0.714,"id":"a66dgfyg4nnk","geo_precision":"zip"},"type":"Feature","geometry":{"type":"Point","coordinates":[-72.372871,43.763403]}},{"properties":{"zipcode":"5055","geo_score":0.714,"id":"a66dgfoq69ty","geo_precision":"zip"},"type":"Feature","geometry":{"type":"Point","coordinates":[-72.372871,43.763403]}},{"properties":{"zipcode":"5055","geo_score":0.714,"id":"a66dgg0bq2sl","geo_precision":"zip"},"type":"Feature","geometry":{"type":"Point","coordinates":[-72.372871,43.763403]}},{"properties":{"zipcode":"5056","geo_score":0.714,"id":"a66dgfysp0kr","geo_precision":"zip"},"type":"Feature","geometry":{"type":"Point","coordinates":[-72.73871,43.53007]}},{"properties":{"zipcode":"5056","geo_score":0.714,"id":"a66dgfpm4m41","geo_precision":"zip"},"type":"Feature","geometry":{"type":"Point","coordinates":[-72.73871,43.53007]}},{"properties":{"zipcode":"5057","geo_score":0.0,"id":"a66dgftutmga","geo_precision":"unmatched"},"type":"Feature","geometry":null},{"properties":{"zipcode":"5057","geo_score":0.0,"id":"a66dgg1kjkkx","geo_precision":"unmatched"},"type":"Feature","geometry":null},{"properties":{"zipcode":"5057","geo_score":0.0,"id":"a66dgftzhv2s","geo_precision":"unmatched"},"type":"Feature","geometry":null},{"properties":{"zipcode":"5057","geo_score":0.0,"id":"a66dgft2hvjp","geo_precision":"unmatched"},"type":"Feature","geometry":null},{"properties":{"zipcode":"5057","geo_score":0.0,"id":"a66dgfux0o4b","geo_precision":"unmatched"},"type":"Feature","geometry":null},{"properties":{"zipcode":"5057","geo_score":0.0,"id":"a66dgfws7jg8","geo_precision":"unmatched"},"type":"Feature","geometry":null},{"properties":{"zipcode":"5057","geo_score":0.0,"id":"a66dgfmf2xfr","geo_precision":"unmatched"},"type":"Feature","geometry":null},{"properties":{"zipcode":"5058","geo_score":0.714,"id":"a66dgfxcuuup","geo_precision":"zip"},"type":"Feature","geometry":{"type":"Point","coordinates":[-72.411393,43.995961]}},{"properties":{"zipcode":"5073","geo_score":0.714,"id":"a66dgfqc2thp","geo_precision":"zip"},"type":"Feature","geometry":{"type":"Point","coordinates":[-72.48908,43.630897]}},{"properties":{"zipcode":"5097","geo_score":0.0,"id":"a66dgfmeoaw0","geo_precision":"unmatched"},"type":"Feature","geometry":null},{"properties":{"zipcode":"5097","geo_score":0.0,"id":"a66dgg06tv7i","geo_precision":"unmatched"},"type":"Feature","geometry":null},{"properties":{"zipcode":"5106","geo_score":0.0,"id":"a66dgfzd7xh5","geo_precision":"unmatched"},"type":"Feature","geometry":null},{"properties":{"zipcode":"5134","geo_score":0.0,"id":"a66dgfncsc7k","geo_precision":"unmatched"},"type":"Feature","geometry":null},{"properties":{"zipcode":"5141","geo_score":0.714,"id":"a66dgfuof2cf","geo_precision":"zip"},"type":"Feature","geometry":{"type":"Point","coordinates":[-72.720362,42.99467]}},{"properties":{"zipcode":"5143","geo_score":0.714,"id":"a66dgfmju86g","geo_precision":"zip"},"type":"Feature","geometry":{"type":"Point","coordinates":[-72.715929,43.257853]}},{"properties":{"zipcode":"5143","geo_score":0.714,"id":"a66dgftthyfp","geo_precision":"zip"},"type":"Feature","geometry":{"type":"Point","coordinates":[-72.715929,43.257853]}},{"properties":{"zipcode":"5143","geo_score":0.714,"id":"a66dgfxzru1r","geo_precision":"zip"},"type":"Feature","geometry":{"type":"Point","coordinates":[-72.715929,43.257853]}},{"properties":{"zipcode":"5143","geo_score":0.714,"id":"a66dgfnsrhno","geo_precision":"zip"},"type":"Feature","geometry":{"type":"Point","coordinates":[-72.715929,43.257853]}},{"properties":{"zipcode":"5143","geo_score":0.714,"id":"a66dgfqje0f1","geo_precision":"zip"},"type":"Feature","geometry":{"type":"Point","coordinates":[-72.715929,43.257853]}},{"properties":{"zipcode":"5143","geo_score":0.714,"id":"a66dgfwgo5rv","geo_precision":"zip"},"type":"Feature","geometry":{"type":"Point","coordinates":[-72.715929,43.257853]}},{"properties":{"zipcode":"5143","geo_score":0.714,"id":"a66dgg120jc3","geo_precision":"zip"},"type":"Feature","geometry":{"type":"Point","coordinates":[-72.715929,43.257853]}},{"properties":{"zipcode":"5143","geo_score":0.714,"id":"a66dgfzq1bc3","geo_precision":"zip"},"type":"Feature","geometry":{"type":"Point","coordinates":[-72.715929,43.257853]}},{"properties":{"zipcode":"5143","geo_score":0.714,"id":"a66dgfn3mcq5","geo_precision":"zip"},"type":"Feature","geometry":{"type":"Point","coordinates":[-72.715929,43.257853]}},{"properties":{"zipcode":"5143","geo_score":0.714,"id":"a66dgfpsxly6","geo_precision":"zip"},"type":"Feature","geometry":{"type":"Point","coordinates":[-72.715929,43.257853]}},{"properties":{"zipcode":"5144","geo_score":0.714,"id":"a66dgfvrsxf8","geo_precision":"zip"},"type":"Feature","geometry":{"type":"Point","coordinates":[-72.54648,43.312019]}},{"properties":{"zipcode":"5144","geo_score":0.714,"id":"a66dgfviap4p","geo_precision":"zip"},"type":"Feature","geometry":{"type":"Point","coordinates":[-72.54648,43.312019]}},{"properties":{"zipcode":"5144","geo_score":0.714,"id":"a66dgg0e7znv","geo_precision":"zip"},"type":"Feature","geometry":{"type":"Point","coordinates":[-72.54648,43.312019]}},{"properties":{"zipcode":"5144","geo_score":0.714,"id":"a66dgg0b0bc0","geo_precision":"zip"},"type":"Feature","geometry":{"type":"Point","coordinates":[-72.54648,43.312019]}},{"properties":{"zipcode":"5144","geo_score":0.714,"id":"a66dgflhyarq","geo_precision":"zip"},"type":"Feature","geometry":{"type":"Point","coordinates":[-72.54648,43.312019]}},{"properties":{"zipcode":"5144","geo_score":0.714,"id":"a66dgg131dp0","geo_precision":"zip"},"type":"Feature","geometry":{"type":"Point","coordinates":[-72.54648,43.312019]}},{"properties":{"zipcode":"5144","geo_score":0.714,"id":"a66dgftr4eyx","geo_precision":"zip"},"type":"Feature","geometry":{"type":"Point","coordinates":[-72.54648,43.312019]}},{"properties":{"zipcode":"5145","geo_score":0.0,"id":"a66dgfswwwzn","geo_precision":"unmatched"},"type":"Feature","geometry":null},{"properties":{"zipcode":"5146","geo_score":0.714,"id":"a66dgfxywck7","geo_precision":"zip"},"type":"Feature","geometry":{"type":"Point","coordinates":[-72.645926,43.197298]}},{"properties":{"zipcode":"5146","geo_score":0.714,"id":"a66dgfzmsxqy","geo_precision":"zip"},"type":"Feature","geometry":{"type":"Point","coordinates":[-72.645926,43.197298]}},{"properties":{"zipcode":"5147","geo_score":0.0,"id":"a66dgfvy1749","geo_precision":"unmatched"},"type":"Feature","geometry":null},{"properties":{"zipcode":"5148","geo_score":0.714,"id":"a66dgfu6hggt","geo_precision":"zip"},"type":"Feature","geometry":{"type":"Point","coordinates":[-72.780097,43.207854]}},{"properties":{"zipcode":"5151","geo_score":0.714,"id":"a66dgg005pg8","geo_precision":"zip"},"type":"Feature","geometry":{"type":"Point","coordinates":[-72.517869,43.417017]}},{"properties":{"zipcode":"5151","geo_score":0.714,"id":"a66dgfqzic4n","geo_precision":"zip"},"type":"Feature","geometry":{"type":"Point","coordinates":[-72.517869,43.417017]}},{"properties":{"zipcode":"5152","geo_score":0.714,"id":"a66dgfyr6tp6","geo_precision":"zip"},"type":"Feature","geometry":{"type":"Point","coordinates":[-73.034944,43.09893]}},{"properties":{"zipcode":"5152","geo_score":0.714,"id":"a66dgfv2biz9","geo_precision":"zip"},"type":"Feature","geometry":{"type":"Point","coordinates":[-73.034944,43.09893]}},{"properties":{"zipcode":"5152","geo_score":0.714,"id":"a66dgfqv4hux","geo_precision":"zip"},"type":"Feature","geometry":{"type":"Point","coordinates":[-73.034944,43.09893]}},{"properties":{"zipcode":"5152","geo_score":0.714,"id":"a66dgfmvjw2s","geo_precision":"zip"},"type":"Feature","geometry":{"type":"Point","coordinates":[-73.034944,43.09893]}},{"properties":{"zipcode":"5152","geo_score":0.714,"id":"a66dgg1ohobc","geo_precision":"zip"},"type":"Feature","geometry":{"type":"Point","coordinates":[-73.034944,43.09893]}},{"properties":{"zipcode":"5152","geo_score":0.714,"id":"a66dgfsaak3c","geo_precision":"zip"},"type":"Feature","geometry":{"type":"Point","coordinates":[-73.034944,43.09893]}},{"properties":{"zipcode":"5155","geo_score":0.714,"id":"a66dgfvmwwj6","geo_precision":"zip"},"type":"Feature","geometry":{"type":"Point","coordinates":[-72.840376,43.14591]}},{"properties":{"zipcode":"5160","geo_score":0.0,"id":"a66dgfpcx28j","geo_precision":"unmatched"},"type":"Feature","geometry":null},{"properties":{"zipcode":"5161","geo_score":0.714,"id":"a66dgg1bn95l","geo_precision":"zip"},"type":"Feature","geometry":{"type":"Point","coordinates":[-72.79482,43.254519]}},{"properties":{"zipcode":"5161","geo_score":0.714,"id":"a66dgfrexe6c","geo_precision":"zip"},"type":"Feature","geometry":{"type":"Point","coordinates":[-72.79482,43.254519]}},{"properties":{"zipcode":"5161","geo_score":0.714,"id":"a66dgfnxpbie","geo_precision":"zip"},"type":"Feature","geometry":{"type":"Point","coordinates":[-72.79482,43.254519]}},{"properties":{"zipcode":"5162","geo_score":0.0,"id":"a66dgfq70xtg","geo_precision":"unmatched"},"type":"Feature","geometry":null},{"properties":{"zipcode":"5162","geo_score":0.0,"id":"a66dgg1n63lc","geo_precision":"unmatched"},"type":"Feature","geometry":null},{"properties":{"zipcode":"5162","geo_score":0.0,"id":"a66dgfw7qmfl","geo_precision":"unmatched"},"type":"Feature","geometry":null},{"properties":{"zipcode":"5162","geo_score":0.0,"id":"a66dgfo88l3g","geo_precision":"unmatched"},"type":"Feature","geometry":null},{"properties":{"zipcode":"5162","geo_score":0.0,"id":"a66dgfpwz43c","geo_precision":"unmatched"},"type":"Feature","geometry":null},{"properties":{"zipcode":"5162","geo_score":0.0,"id":"a66dgfwzwdmn","geo_precision":"unmatched"},"type":"Feature","geometry":null},{"properties":{"zipcode":"5162","geo_score":0.0,"id":"a66dgfqn7wic","geo_precision":"unmatched"},"type":"Feature","geometry":null},{"properties":{"zipcode":"5162","geo_score":0.0,"id":"a66dgflg9y9m","geo_precision":"unmatched"},"type":"Feature","geometry":null},{"properties":{"zipcode":"5162","geo_score":0.0,"id":"a66dgfnjrjdz","geo_precision":"unmatched"},"type":"Feature","geometry":null},{"properties":{"zipcode":"5162","geo_score":0.0,"id":"a66dgfnza8qn","geo_precision":"unmatched"},"type":"Feature","geometry":null},{"properties":{"zipcode":"5162","geo_score":0.0,"id":"a66dgflsk68q","geo_precision":"unmatched"},"type":"Feature","geometry":null},{"properties":{"zipcode":"5162","geo_score":0.0,"id":"a66dgg0uwto1","geo_precision":"unmatched"},"type":"Feature","geometry":null},{"properties":{"zipcode":"5162","geo_score":0.0,"id":"a66dgfrubqr6","geo_precision":"unmatched"},"type":"Feature","geometry":null},{"properties":{"zipcode":"5162","geo_score":0.0,"id":"a66dgfpfpsi2","geo_precision":"unmatched"},"type":"Feature","geometry":null},{"properties":{"zipcode":"5163","geo_score":0.0,"id":"a66dgfosufmu","geo_precision":"unmatched"},"type":"Feature","geometry":null},{"properties":{"zipcode":"5163","geo_score":0.0,"id":"a66dgg0pfvyf","geo_precision":"unmatched"},"type":"Feature","geometry":null},{"properties":{"zipcode":"5163","geo_score":0.0,"id":"a66dgft5w9rr","geo_precision":"unmatched"},"type":"Feature","geometry":null},{"properties":{"zipcode":"5163","geo_score":0.0,"id":"a66dgfrv8ba9","geo_precision":"unmatched"},"type":"Feature","geometry":null},{"properties":{"zipcode":"5164","geo_score":0.0,"id":"a66dgfwnti2m","geo_precision":"unmatched"},"type":"Feature","geometry":null},{"properties":{"zipcode":"5164","geo_score":0.0,"id":"a66dgfnx1ha2","geo_precision":"unmatched"},"type":"Feature","geometry":null},{"properties":{"zipcode":"5164","geo_score":0.0,"id":"a66dgfnav8s7","geo_precision":"unmatched"},"type":"Feature","geometry":null},{"properties":{"zipcode":"5164","geo_score":0.0,"id":"a66dgg0xz9rx","geo_precision":"unmatched"},"type":"Feature","geometry":null},{"properties":{"zipcode":"5171","geo_score":0.0,"id":"a66dgfnk8e3q","geo_precision":"unmatched"},"type":"Feature","geometry":null},{"properties":{"zipcode":"5171","geo_score":0.0,"id":"a66dgfm2z8lf","geo_precision":"unmatched"},"type":"Feature","geometry":null},{"properties":{"zipcode":"5172","geo_score":0.0,"id":"a66dgfo5yb5y","geo_precision":"unmatched"},"type":"Feature","geometry":null},{"properties":{"zipcode":"5178","geo_score":0.0,"id":"a66dgfm5ovrr","geo_precision":"unmatched"},"type":"Feature","geometry":null},{"properties":{"zipcode":"5178","geo_score":0.0,"id":"a66dgfzc0lek","geo_precision":"unmatched"},"type":"Feature","geometry":null},{"properties":{"zipcode":"5183","geo_score":0.0,"id":"a66dgfn48ecr","geo_precision":"unmatched"},"type":"Feature","geometry":null},{"properties":{"zipcode":"5200","geo_score":0.0,"id":"a66dgfyb7r27","geo_precision":"unmatched"},"type":"Feature","geometry":null},{"properties":{"zipcode":"5200","geo_score":0.0,"id":"a66dgfxg02dk","geo_precision":"unmatched"},"type":"Feature","geometry":null},{"properties":{"zipcode":"5200","geo_score":0.0,"id":"a66dgfpdc60a","geo_precision":"unmatched"},"type":"Feature","geometry":null},{"properties":{"zipcode":"5200","geo_score":0.0,"id":"a66dgfxqlup3","geo_precision":"unmatched"},"type":"Feature","geometry":null},{"properties":{"zipcode":"5200","geo_score":0.0,"id":"a66dgfmze13p","geo_precision":"unmatched"},"type":"Feature","geometry":null},{"properties":{"zipcode":"5200","geo_score":0.0,"id":"a66dgg1nlo8k","geo_precision":"unmatched"},"type":"Feature","geometry":null},{"properties":{"zipcode":"5200","geo_score":0.0,"id":"a66dgfumhx57","geo_precision":"unmatched"},"type":"Feature","geometry":null},{"properties":{"zipcode":"5200","geo_score":0.0,"id":"a66dgfwu3zn8","geo_precision":"unmatched"},"type":"Feature","geometry":null},{"properties":{"zipcode":"5200","geo_score":0.0,"id":"a66dgfqu4byo","geo_precision":"unmatched"},"type":"Feature","geometry":null},{"properties":{"zipcode":"5200","geo_score":0.0,"id":"a66dgfokfhgl","geo_precision":"unmatched"},"type":"Feature","geometry":null},{"properties":{"zipcode":"5200","geo_score":0.0,"id":"a66dgfr8evfp","geo_precision":"unmatched"},"type":"Feature","geometry":null},{"properties":{"zipcode":"5212","geo_score":0.0,"id":"a66dgfypkinm","geo_precision":"unmatched"},"type":"Feature","geometry":null},{"properties":{"zipcode":"5216","geo_score":0.0,"id":"a66dgfrjlm79","geo_precision":"unmatched"},"type":"Feature","geometry":null},{"properties":{"zipcode":"5217","geo_score":0.0,"id":"a66dgfyzeqnr","geo_precision":"unmatched"},"type":"Feature","geometry":null},{"properties":{"zipcode":"5217","geo_score":0.0,"id":"a66dgfsmh6p4","geo_precision":"unmatched"},"type":"Feature","geometry":null},{"properties":{"zipcode":"5221","geo_score":0.0,"id":"a66dgfq8jjlz","geo_precision":"unmatched"},"type":"Feature","geometry":null},{"properties":{"zipcode":"5239","geo_score":0.0,"id":"a66dgfy22yau","geo_precision":"unmatched"},"type":"Feature","geometry":null},{"properties":{"zipcode":"5243","geo_score":0.0,"id":"a66dgfuvyy1g","geo_precision":"unmatched"},"type":"Feature","geometry":null},{"properties":{"zipcode":"5244","geo_score":0.0,"id":"a66dgfqchapq","geo_precision":"unmatched"},"type":"Feature","geometry":null},{"properties":{"zipcode":"5251","geo_score":0.714,"id":"a66dgfzi02vk","geo_precision":"zip"},"type":"Feature","geometry":{"type":"Point","coordinates":[-73.073438,43.222576]}},{"properties":{"zipcode":"5253","geo_score":0.714,"id":"a66dgflc386u","geo_precision":"zip"},"type":"Feature","geometry":{"type":"Point","coordinates":[-73.002326,43.283963]}},{"properties":{"zipcode":"5637","geo_score":0.0,"id":"a66dgflh3kot","geo_precision":"unmatched"},"type":"Feature","geometry":null},{"properties":{"zipcode":"7018","geo_score":0.714,"id":"a66dgfwplzix","geo_precision":"zip"},"type":"Feature","geometry":{"type":"Point","coordinates":[-74.216839,40.7566]}},{"properties":{"zipcode":"7048","geo_score":0.0,"id":"a66dgfy768w1","geo_precision":"unmatched"},"type":"Feature","geometry":null},{"properties":{"zipcode":"7048","geo_score":0.0,"id":"a66dgfypj5vf","geo_precision":"unmatched"},"type":"Feature","geometry":null},{"properties":{"zipcode":"7052","geo_score":0.714,"id":"a66dgfwb772j","geo_precision":"zip"},"type":"Feature","geometry":{"type":"Point","coordinates":[-74.273759,40.775101]}},{"properties":{"zipcode":"7129","geo_score":0.714,"id":"a66dgfrcgwc2","geo_precision":"zip"},"type":"Feature","geometry":{"type":"Point","coordinates":[-74.172367,40.735657]}},{"properties":{"zipcode":"7140","geo_score":0.714,"id":"a66dgfye1n3k","geo_precision":"zip"},"type":"Feature","geometry":{"type":"Point","coordinates":[-74.172367,40.735657]}},{"properties":{"zipcode":"7142","geo_score":0.714,"id":"a66dgflwufb1","geo_precision":"zip"},"type":"Feature","geometry":{"type":"Point","coordinates":[-74.172367,40.735657]}}],"is_temporal":false,"author":{"url":"","metadata":"","contact_name":"","contact_address":"","source":"","contact_phone":""},"source":"","pagination":{"sort":null,"start":0,"total":1000,"limit":1000000},"state":"complete","tags":"","published":"2014-08-13T09:38:22-04:00","id":108187}