{"type":"FeatureCollection","data_type":"Dataset","url_type":null,"permissions":[{"permissions":{"download":true,"view":true},"group_id":"everyone"}],"classification":null,"title":"The U.S. Treasury, The TARP Recipients in the lower 48 states,USA, Feb 2009","count":366,"stream_id":10821,"contributor":{"url":"http://geocommons.com/users/4","name":"aark"},"data_attributes":null,"calculation_params":null,"icon_link":null,"link":"http://geocommons.com/overlays/10821.json","extent":[-124.161,26.1474,-67.8414,48.2981],"geometry_types":["point"],"unique_name":null,"name":"The U.S. Treasury, The TARP Recipients in the lower 48 states,USA, Feb 2009","feature_count":366,"description":"The point shapefile shows the geocoded locations in the lower 48 states of those institutions who received TARP funds, an euphemism for the tax payer bailout! \nThe list is based on a report titled &quot;Capital Purchase Program&quot; released by the U.S. Treasury Dept's Office of Financial Stability, dated Feb 20, 2009.","next_feature":null,"is_raster":false,"short_classification":"Y","stats":{"TARP":{"max":40000.0,"mean":818.519932051912,"variance":13504943.8086426,"stdev":3674.90731973509,"min":1.037,"median":25.0},"X":{"max":-67.841355,"mean":-90.3107808879782,"variance":270.161115065351,"stdev":16.4365785693176,"min":-124.161309,"median":-84.517486},"Y":{"max":48.298073,"mean":38.4270456092897,"variance":19.0901006330168,"stdev":4.36922197113134,"min":26.147369,"median":38.969374},"Score":{"max":100,"mean":100.0,"variance":0.0,"stdev":0.0,"min":100,"median":100},"PTarp":{"max":13.28627,"mean":0.27187674863388,"variance":1.48997469285597,"stdev":1.22064519531925,"min":0.00034,"median":0.0083}},"features":[{"properties":{"Match_addr":"ATMORE, AL","City":"Atmore","TARP":10.3,"X":-87.493866,"ARC_City":"Atmore","Y":31.019676,"ARC_State":"AL","Institutio":"United Bancorporation of Alabama, Inc.","State":"AL","Score":100,"id":"a63bbtx2aqkd","PTarp":0.00342},"type":"Feature","geometry":{"type":"Point","coordinates":[-87.493866,31.019676]}},{"properties":{"Match_addr":"BIRMINGHAM, AL","City":"Birmingham","TARP":3500.0,"X":-86.814743,"ARC_City":"Birmingham","Y":33.51952,"ARC_State":"AL","Institutio":"Regions Financial Corp.","State":"AL","Score":100,"id":"a63bbu48d8fd","PTarp":1.16255},"type":"Feature","geometry":{"type":"Point","coordinates":[-86.814743,33.51952]}},{"properties":{"Match_addr":"BIRMINGHAM, AL","City":"Birmingham","TARP":69.0,"X":-86.814743,"ARC_City":"Birmingham","Y":33.51952,"ARC_State":"AL","Institutio":"Superior Bancorp Inc.","State":"AL","Score":100,"id":"a63bbu6h4tl5","PTarp":0.02292},"type":"Feature","geometry":{"type":"Point","coordinates":[-86.814743,33.51952]}},{"properties":{"Match_addr":"MOBILE, AL","City":"Mobile","TARP":50.0,"X":-88.050634,"ARC_City":"Mobile","Y":30.688781,"ARC_State":"AL","Institutio":"BancTrust Financial Group, Inc.","State":"AL","Score":100,"id":"a63bbtyerwdb","PTarp":0.01661},"type":"Feature","geometry":{"type":"Point","coordinates":[-88.050634,30.688781]}},{"properties":{"Match_addr":"ARKADELPHIA, AR","City":"Arkadelphia","TARP":11.0,"X":-93.073673,"ARC_City":"Arkadelphia","Y":34.123005,"ARC_State":"AR","Institutio":"Southern Bancorp, Inc.","State":"AR","Score":100,"id":"a63bbtwzsqrx","PTarp":0.00365},"type":"Feature","geometry":{"type":"Point","coordinates":[-93.073673,34.123005]}},{"properties":{"Match_addr":"CONWAY, AR","City":"Conway","TARP":50.0,"X":-92.453705,"ARC_City":"Conway","Y":35.092002,"ARC_State":"AR","Institutio":"Home Bancshares, Inc.","State":"AR","Score":100,"id":"a63bbtywyd1q","PTarp":0.01661},"type":"Feature","geometry":{"type":"Point","coordinates":[-92.453705,35.092002]}},{"properties":{"Match_addr":"JONESBORO, AR","City":"Jonesboro","TARP":57.5,"X":-90.682309,"ARC_City":"Jonesboro","Y":35.821226,"ARC_State":"AR","Institutio":"Liberty Bancshares, Inc.","State":"AR","Score":100,"id":"a63bbu3c36d8","PTarp":0.0191},"type":"Feature","geometry":{"type":"Point","coordinates":[-90.682309,35.821226]}},{"properties":{"Match_addr":"LITTLE ROCK, AR","City":"Little Rock","TARP":75.0,"X":-92.278864,"ARC_City":"Little Rock","Y":34.724425,"ARC_State":"AR","Institutio":"Bank of the Ozarks, Inc.","State":"AR","Score":100,"id":"a63bbtxygojs","PTarp":0.02491},"type":"Feature","geometry":{"type":"Point","coordinates":[-92.278864,34.724425]}},{"properties":{"Match_addr":"LITTLE ROCK, AR","City":"Little Rock","TARP":25.0,"X":-92.278864,"ARC_City":"Little Rock","Y":34.724425,"ARC_State":"AR","Institutio":"Rogers Bancshares, Inc.","State":"AR","Score":100,"id":"a63bbtuiij5v","PTarp":0.0083},"type":"Feature","geometry":{"type":"Point","coordinates":[-92.278864,34.724425]}},{"properties":{"Match_addr":"SCOTTSDALE, AZ","City":"Scottsdale","TARP":2.568,"X":-111.892988,"ARC_City":"Scottsdale","Y":33.582003,"ARC_State":"AZ","Institutio":"Goldwater Bank, N.A.","State":"AZ","Score":100,"id":"a63bbtvucvxl","PTarp":0.00085},"type":"Feature","geometry":{"type":"Point","coordinates":[-111.892988,33.582003]}},{"properties":{"Match_addr":"ATASCADERO, CA","City":"Atascadero","TARP":4.0,"X":-120.683722,"ARC_City":"Atascadero","Y":35.483009,"ARC_State":"CA","Institutio":"Santa Lucia Bancorp","State":"CA","Score":100,"id":"a63bbu2sd86k","PTarp":0.00133},"type":"Feature","geometry":{"type":"Point","coordinates":[-120.683722,35.483009]}},{"properties":{"Match_addr":"BEVERLY HILLS, CA","City":"Beverly Hills","TARP":400.0,"X":-118.398632,"ARC_City":"Beverly Hills","Y":34.075162,"ARC_State":"CA","Institutio":"City National Corporation","State":"CA","Score":100,"id":"a63bbtsr6kmg","PTarp":0.13286},"type":"Feature","geometry":{"type":"Point","coordinates":[-118.398632,34.075162]}},{"properties":{"Match_addr":"CHULA VISTA, CA","City":"Chula Vista","TARP":19.3,"X":-117.093509,"ARC_City":"Chula Vista","Y":32.641303,"ARC_State":"CA","Institutio":"First PacTrust Bancorp, Inc.","State":"CA","Score":100,"id":"a63bbu1p9v6f","PTarp":0.00641},"type":"Feature","geometry":{"type":"Point","coordinates":[-117.093509,32.641303]}},{"properties":{"Match_addr":"CHULA VISTA, CA","City":"Chula Vista","TARP":1.8,"X":-117.093509,"ARC_City":"Chula Vista","Y":32.641303,"ARC_State":"CA","Institutio":"Seacoast Commerce Bank","State":"CA","Score":100,"id":"a63bbtuw86e6","PTarp":0.0006},"type":"Feature","geometry":{"type":"Point","coordinates":[-117.093509,32.641303]}},{"properties":{"Match_addr":"EL SEGUNDO, CA","City":"El Segundo","TARP":1.7,"X":-118.396047,"ARC_City":"El Segundo","Y":33.916436,"ARC_State":"CA","Institutio":"Manhattan Bancorp","State":"CA","Score":100,"id":"a63bbu5yu5gu","PTarp":0.00056},"type":"Feature","geometry":{"type":"Point","coordinates":[-118.396047,33.916436]}},{"properties":{"Match_addr":"EUREKA, CA","City":"Eureka","TARP":3.8,"X":-124.161309,"ARC_City":"Eureka","Y":40.786143,"ARC_State":"CA","Institutio":"Redwood Capital Bancorp","State":"CA","Score":100,"id":"a63bbu0o8urf","PTarp":0.00126},"type":"Feature","geometry":{"type":"Point","coordinates":[-124.161309,40.786143]}},{"properties":{"Match_addr":"FRESNO, CA","City":"Fresno","TARP":7.0,"X":-119.789368,"ARC_City":"Fresno","Y":36.7433,"ARC_State":"CA","Institutio":"Central Valley Community Bancorp","State":"CA","Score":100,"id":"a63bbu1djtqz","PTarp":0.00233},"type":"Feature","geometry":{"type":"Point","coordinates":[-119.789368,36.7433]}},{"properties":{"Match_addr":"FRESNO, CA","City":"Fresno","TARP":1.968,"X":-119.789368,"ARC_City":"Fresno","Y":36.7433,"ARC_State":"CA","Institutio":"Fresno First Bank","State":"CA","Score":100,"id":"a63bbu1wg9lb","PTarp":0.00065},"type":"Feature","geometry":{"type":"Point","coordinates":[-119.789368,36.7433]}},{"properties":{"Match_addr":"GOLETA, CA","City":"Goleta","TARP":15.6,"X":-119.830624,"ARC_City":"Goleta","Y":34.435623,"ARC_State":"CA","Institutio":"Community West Bancshares","State":"CA","Score":100,"id":"a63bbtzcqirj","PTarp":0.00518},"type":"Feature","geometry":{"type":"Point","coordinates":[-119.830624,34.435623]}},{"properties":{"Match_addr":"LOS ANGELES, CA","City":"Los Angeles","TARP":7.701,"X":-118.243392,"ARC_City":"Los Angeles","Y":34.052219,"ARC_State":"CA","Institutio":"Commonwealth Business Bank","State":"CA","Score":100,"id":"a63bbtya9cgr","PTarp":0.00256},"type":"Feature","geometry":{"type":"Point","coordinates":[-118.243392,34.052219]}},{"properties":{"Match_addr":"LOS ANGELES, CA","City":"Los Angeles","TARP":258.0,"X":-118.243392,"ARC_City":"Los Angeles","Y":34.052219,"ARC_State":"CA","Institutio":"Cathay General Bancorp","State":"CA","Score":100,"id":"a63bbu1jrwb0","PTarp":0.0857},"type":"Feature","geometry":{"type":"Point","coordinates":[-118.243392,34.052219]}},{"properties":{"Match_addr":"LOS ANGELES, CA","City":"Los Angeles","TARP":16.2,"X":-118.243392,"ARC_City":"Los Angeles","Y":34.052219,"ARC_State":"CA","Institutio":"Pacific City Finacial Corporation","State":"CA","Score":100,"id":"a63bbu2adz33","PTarp":0.00538},"type":"Feature","geometry":{"type":"Point","coordinates":[-118.243392,34.052219]}},{"properties":{"Match_addr":"LOS ANGELES, CA","City":"Los Angeles","TARP":9.0,"X":-118.243392,"ARC_City":"Los Angeles","Y":34.052219,"ARC_State":"CA","Institutio":"Broadway Financial Corporation","State":"CA","Score":100,"id":"a63bbu1go4ib","PTarp":0.00299},"type":"Feature","geometry":{"type":"Point","coordinates":[-118.243392,34.052219]}},{"properties":{"Match_addr":"LOS ANGELES, CA","City":"Los Angeles","TARP":62.158,"X":-118.243392,"ARC_City":"Los Angeles","Y":34.052219,"ARC_State":"CA","Institutio":"Wilshire Bancorp, Inc.","State":"CA","Score":100,"id":"a63bbtvm2ea1","PTarp":0.02065},"type":"Feature","geometry":{"type":"Point","coordinates":[-118.243392,34.052219]}},{"properties":{"Match_addr":"LOS ANGELES, CA","City":"Los Angeles","TARP":4.06,"X":-118.243392,"ARC_City":"Los Angeles","Y":34.052219,"ARC_State":"CA","Institutio":"Pacific Commerce Bank","State":"CA","Score":100,"id":"a63bbu7btog9","PTarp":0.00135},"type":"Feature","geometry":{"type":"Point","coordinates":[-118.243392,34.052219]}},{"properties":{"Match_addr":"LOS ANGELES, CA","City":"Los Angeles","TARP":67.0,"X":-118.243392,"ARC_City":"Los Angeles","Y":34.052219,"ARC_State":"CA","Institutio":"Nara Bancorp, Inc.","State":"CA","Score":100,"id":"a63bbttwz9ms","PTarp":0.02225},"type":"Feature","geometry":{"type":"Point","coordinates":[-118.243392,34.052219]}},{"properties":{"Match_addr":"LOS ANGELES, CA","City":"Los Angeles","TARP":10.0,"X":-118.243392,"ARC_City":"Los Angeles","Y":34.052219,"ARC_State":"CA","Institutio":"NCAL Bancorp","State":"CA","Score":100,"id":"a63bbtus7kor","PTarp":0.00332},"type":"Feature","geometry":{"type":"Point","coordinates":[-118.243392,34.052219]}},{"properties":{"Match_addr":"LOS ANGELES, CA","City":"Los Angeles","TARP":5.5,"X":-118.243392,"ARC_City":"Los Angeles","Y":34.052219,"ARC_State":"CA","Institutio":"Center Financial Corporation","State":"CA","Score":100,"id":"a63bbtycatlt","PTarp":0.00183},"type":"Feature","geometry":{"type":"Point","coordinates":[-118.243392,34.052219]}},{"properties":{"Match_addr":"MANHATTAN BEACH, CA","City":"Manhattan Beach","TARP":6.0,"X":-118.396052,"ARC_City":"Manhattan Beach","Y":33.887409,"ARC_State":"CA","Institutio":"Beach Business Bank","State":"CA","Score":100,"id":"a63bbu09jiay","PTarp":0.00199},"type":"Feature","geometry":{"type":"Point","coordinates":[-118.396052,33.887409]}},{"properties":{"Match_addr":"NEVADA CITY, CA","City":"Nevada City","TARP":10.4,"X":-121.018575,"ARC_City":"Nevada City","Y":39.258829,"ARC_State":"CA","Institutio":"Citizens Bancorp","State":"CA","Score":100,"id":"a63bbtw2rk44","PTarp":0.00345},"type":"Feature","geometry":{"type":"Point","coordinates":[-121.018575,39.258829]}},{"properties":{"Match_addr":"NEWPORT BEACH, CA","City":"Newport Beach","TARP":5.0,"X":-117.929143,"ARC_City":"Newport Beach","Y":33.62128,"ARC_State":"CA","Institutio":"Commerce National Bank","State":"CA","Score":100,"id":"a63bbtvlgi8f","PTarp":0.00166},"type":"Feature","geometry":{"type":"Point","coordinates":[-117.929143,33.62128]}},{"properties":{"Match_addr":"NOVATO, CA","City":"Novato","TARP":28.0,"X":-122.559275,"ARC_City":"Novato","Y":38.092149,"ARC_State":"CA","Institutio":"Bank of Marin Bancorp","State":"CA","Score":100,"id":"a63bbtv7pyox","PTarp":0.0093},"type":"Feature","geometry":{"type":"Point","coordinates":[-122.559275,38.092149]}},{"properties":{"Match_addr":"OAKDALE, CA","City":"Oakdale","TARP":13.5,"X":-120.84703,"ARC_City":"Oakdale","Y":37.766635,"ARC_State":"CA","Institutio":"Oak Valley Bancorp","State":"CA","Score":100,"id":"a63bbu8k4ecf","PTarp":0.00448},"type":"Feature","geometry":{"type":"Point","coordinates":[-120.84703,37.766635]}},{"properties":{"Match_addr":"OAKLAND, CA","City":"Oakland","TARP":4.9,"X":-122.214897,"ARC_City":"Oakland","Y":37.772323,"ARC_State":"CA","Institutio":"First ULB Corp.","State":"CA","Score":100,"id":"a63bbtukgeq9","PTarp":0.00163},"type":"Feature","geometry":{"type":"Point","coordinates":[-122.214897,37.772323]}},{"properties":{"Match_addr":"OAKLAND, CA","City":"Oakland","TARP":1.747,"X":-122.214897,"ARC_City":"Oakland","Y":37.772323,"ARC_State":"CA","Institutio":"Community Bank of the Bay","State":"CA","Score":100,"id":"a63bbu8wjjn8","PTarp":0.00058},"type":"Feature","geometry":{"type":"Point","coordinates":[-122.214897,37.772323]}},{"properties":{"Match_addr":"OJAI, CA","City":"Ojai","TARP":2.08,"X":-119.247112,"ARC_City":"Ojai","Y":34.447705,"ARC_State":"CA","Institutio":"Ojai Community Bank","State":"CA","Score":100,"id":"a63bbtv7nniw","PTarp":0.00069},"type":"Feature","geometry":{"type":"Point","coordinates":[-119.247112,34.447705]}},{"properties":{"Match_addr":"ONTARIO, CA","City":"Ontario","TARP":130.0,"X":-117.650789,"ARC_City":"Ontario","Y":34.055082,"ARC_State":"CA","Institutio":"CVB Financial Corp","State":"CA","Score":100,"id":"a63bbu0ocgwx","PTarp":0.04318},"type":"Feature","geometry":{"type":"Point","coordinates":[-117.650789,34.055082]}},{"properties":{"Match_addr":"PALM DESERT, CA","City":"Palm Desert","TARP":7.29,"X":-116.373788,"ARC_City":"Palm Desert","Y":33.73981,"ARC_State":"CA","Institutio":"Western Community Bancshares, Inc.","State":"CA","Score":100,"id":"a63bbu6pqd13","PTarp":0.00242},"type":"Feature","geometry":{"type":"Point","coordinates":[-116.373788,33.73981]}},{"properties":{"Match_addr":"PALO ALTO, CA","City":"Palo Alto","TARP":6.0,"X":-122.15993,"ARC_City":"Palo Alto","Y":37.437328,"ARC_State":"CA","Institutio":"Peninsula Bank Holding Co.","State":"CA","Score":100,"id":"a63bbu912nuw","PTarp":0.00199},"type":"Feature","geometry":{"type":"Point","coordinates":[-122.15993,37.437328]}},{"properties":{"Match_addr":"PASADENA, CA","City":"Pasadena","TARP":306.546,"X":-118.132351,"ARC_City":"Pasadena","Y":34.145946,"ARC_State":"CA","Institutio":"East West Bancorp","State":"CA","Score":100,"id":"a63bbtzzdkhg","PTarp":0.10182},"type":"Feature","geometry":{"type":"Point","coordinates":[-118.132351,34.145946]}},{"properties":{"Match_addr":"PLEASANTON, CA","City":"Pleasanton","TARP":5.5,"X":-121.897045,"ARC_City":"Pleasanton","Y":37.676033,"ARC_State":"CA","Institutio":"Valley Community Bank","State":"CA","Score":100,"id":"a63bbu4suz4m","PTarp":0.00183},"type":"Feature","geometry":{"type":"Point","coordinates":[-121.897045,37.676033]}},{"properties":{"Match_addr":"QUINCY, CA","City":"Quincy","TARP":11.949,"X":-120.948848,"ARC_City":"Quincy","Y":39.936768,"ARC_State":"CA","Institutio":"Plumas Bancorp","State":"CA","Score":100,"id":"a63bbu8yaymr","PTarp":0.00397},"type":"Feature","geometry":{"type":"Point","coordinates":[-120.948848,39.936768]}},{"properties":{"Match_addr":"RANCHO SANTA MARGARITA, CA","City":"Rancho Santa Margarita","TARP":4.656,"X":-117.606427,"ARC_City":"Rancho Santa Margarita","Y":33.631535,"ARC_State":"CA","Institutio":"CalWest Bancorp","State":"CA","Score":100,"id":"a63bbttuavqn","PTarp":0.00155},"type":"Feature","geometry":{"type":"Point","coordinates":[-117.606427,33.631535]}},{"properties":{"Match_addr":"REDDING, CA","City":"Redding","TARP":17.0,"X":-122.374268,"ARC_City":"Redding","Y":40.572284,"ARC_State":"CA","Institutio":"Bank of Commerce Holdings","State":"CA","Score":100,"id":"a63bbu3rpih4","PTarp":0.00565},"type":"Feature","geometry":{"type":"Point","coordinates":[-122.374268,40.572284]}},{"properties":{"Match_addr":"RIVERSIDE, CA","City":"Riverside","TARP":6.815,"X":-117.400875,"ARC_City":"Riverside","Y":33.946458,"ARC_State":"CA","Institutio":"Security California Bancorp","State":"CA","Score":100,"id":"a63bbu5w4u0u","PTarp":0.00226},"type":"Feature","geometry":{"type":"Point","coordinates":[-117.400875,33.946458]}},{"properties":{"Match_addr":"ROSEVILLE, CA","City":"Roseville","TARP":2.55,"X":-121.294141,"ARC_City":"Roseville","Y":38.761375,"ARC_State":"CA","Institutio":"Community 1st Bank","State":"CA","Score":100,"id":"a63bbtynkgtn","PTarp":0.00085},"type":"Feature","geometry":{"type":"Point","coordinates":[-121.294141,38.761375]}},{"properties":{"Match_addr":"SAN CLEMENTE, CA","City":"San Clemente","TARP":4.12,"X":-117.613461,"ARC_City":"San Clemente","Y":33.444354,"ARC_State":"CA","Institutio":"Pacific Coast National Bancorp","State":"CA","Score":100,"id":"a63bbu8swdnl","PTarp":0.00137},"type":"Feature","geometry":{"type":"Point","coordinates":[-117.613461,33.444354]}},{"properties":{"Match_addr":"SAN DIEGO, CA","City":"San Diego","TARP":5.803,"X":-117.163841,"ARC_City":"San Diego","Y":32.718834,"ARC_State":"CA","Institutio":"Security Business Bancorp","State":"CA","Score":100,"id":"a63bbtwgv8ia","PTarp":0.00193},"type":"Feature","geometry":{"type":"Point","coordinates":[-117.163841,32.718834]}},{"properties":{"Match_addr":"SAN FRANCISCO, CA","City":"San Francisco","TARP":25000.0,"X":-122.419221,"ARC_City":"San Francisco","Y":37.775234,"ARC_State":"CA","Institutio":"Wells Fargo &amp; Company","State":"CA","Score":100,"id":"a63bbu07jh3p","PTarp":8.30392},"type":"Feature","geometry":{"type":"Point","coordinates":[-122.419221,37.775234]}},{"properties":{"Match_addr":"SAN FRANCISCO, CA","City":"San Francisco","TARP":298.737,"X":-122.419221,"ARC_City":"San Francisco","Y":37.775234,"ARC_State":"CA","Institutio":"UCBH Holdings, Inc.","State":"CA","Score":100,"id":"a63bbu3lj4ch","PTarp":0.09923},"type":"Feature","geometry":{"type":"Point","coordinates":[-122.419221,37.775234]}},{"properties":{"Match_addr":"SAN FRANCISCO, CA","City":"San Francisco","TARP":11.6,"X":-122.419221,"ARC_City":"San Francisco","Y":37.775234,"ARC_State":"CA","Institutio":"Pacific Coast Bankers' Bancshares","State":"CA","Score":100,"id":"a63bbtu4xvle","PTarp":0.00385},"type":"Feature","geometry":{"type":"Point","coordinates":[-122.419221,37.775234]}},{"properties":{"Match_addr":"SAN JOSE, CA","City":"San Jose","TARP":23.864,"X":-121.873881,"ARC_City":"San Jose","Y":37.316466,"ARC_State":"CA","Institutio":"Bridge Capital Holdings","State":"CA","Score":100,"id":"a63bbtvhsigi","PTarp":0.00793},"type":"Feature","geometry":{"type":"Point","coordinates":[-121.873881,37.316466]}},{"properties":{"Match_addr":"SAN JOSE, CA","City":"San Jose","TARP":40.0,"X":-121.873881,"ARC_City":"San Jose","Y":37.316466,"ARC_State":"CA","Institutio":"Heritage Commerce Corp.","State":"CA","Score":100,"id":"a63bbu447455","PTarp":0.01329},"type":"Feature","geometry":{"type":"Point","coordinates":[-121.873881,37.316466]}},{"properties":{"Match_addr":"SAN LUIS OBISPO, CA","City":"San Luis Obispo","TARP":5.116,"X":-120.67038,"ARC_City":"San Luis Obispo","Y":35.269561,"ARC_State":"CA","Institutio":"Mission Community Bancorp","State":"CA","Score":100,"id":"a63bbu434f10","PTarp":0.0017},"type":"Feature","geometry":{"type":"Point","coordinates":[-120.67038,35.269561]}},{"properties":{"Match_addr":"SANTA BARBARA, CA","City":"Santa Barbara","TARP":180.634,"X":-119.704418,"ARC_City":"Santa Barbara","Y":34.423403,"ARC_State":"CA","Institutio":"Pacific Capital Bancorp","State":"CA","Score":100,"id":"a63bbtvmhnl5","PTarp":0.06},"type":"Feature","geometry":{"type":"Point","coordinates":[-119.704418,34.423403]}},{"properties":{"Match_addr":"SANTA CLARA, CA","City":"Santa Clara","TARP":235.0,"X":-121.968474,"ARC_City":"Santa Clara","Y":37.352309,"ARC_State":"CA","Institutio":"SVB Financial Group","State":"CA","Score":100,"id":"a63bbu03s3ei","PTarp":0.07806},"type":"Feature","geometry":{"type":"Point","coordinates":[-121.968474,37.352309]}},{"properties":{"Match_addr":"SANTA ROSA, CA","City":"Santa Rosa","TARP":43.0,"X":-122.717692,"ARC_City":"Santa Rosa","Y":38.445625,"ARC_State":"CA","Institutio":"Exchange Bank","State":"CA","Score":100,"id":"a63bbttv1fjt","PTarp":0.01428},"type":"Feature","geometry":{"type":"Point","coordinates":[-122.717692,38.445625]}},{"properties":{"Match_addr":"SANTA ROSA, CA","City":"Santa Rosa","TARP":8.5,"X":-122.717692,"ARC_City":"Santa Rosa","Y":38.445625,"ARC_State":"CA","Institutio":"Summit State Bank","State":"CA","Score":100,"id":"a63bbu0cw91t","PTarp":0.00282},"type":"Feature","geometry":{"type":"Point","coordinates":[-122.717692,38.445625]}},{"properties":{"Match_addr":"SUN VALLEY, CA","City":"Sun Valley","TARP":5.5,"X":-118.369018,"ARC_City":"Sun Valley","Y":34.219095,"ARC_State":"CA","Institutio":"Mission Valley Bancorp","State":"CA","Score":100,"id":"a63bbtvf7hn2","PTarp":0.00183},"type":"Feature","geometry":{"type":"Point","coordinates":[-118.369018,34.219095]}},{"properties":{"Match_addr":"THOUSAND OAKS, CA","City":"Thousand Oaks","TARP":3.3,"X":-118.868594,"ARC_City":"Thousand Oaks","Y":34.199767,"ARC_State":"CA","Institutio":"California Oaks State Bank","State":"CA","Score":100,"id":"a63bbu0v80ia","PTarp":0.0011},"type":"Feature","geometry":{"type":"Point","coordinates":[-118.868594,34.199767]}},{"properties":{"Match_addr":"VISALIA, CA","City":"Visalia","TARP":7.7,"X":-119.292364,"ARC_City":"Visalia","Y":36.330165,"ARC_State":"CA","Institutio":"Valley Commerce Bancorp","State":"CA","Score":100,"id":"a63bbtusmpvm","PTarp":0.00256},"type":"Feature","geometry":{"type":"Point","coordinates":[-119.292364,36.330165]}},{"properties":{"Match_addr":"WESTLAKE VILLAGE, CA","City":"Westlake Village","TARP":25.0,"X":-118.819782,"ARC_City":"Westlake Village","Y":34.139389,"ARC_State":"CA","Institutio":"First California Financial Group, Inc","State":"CA","Score":100,"id":"a63bbtzvwkh1","PTarp":0.0083},"type":"Feature","geometry":{"type":"Point","coordinates":[-118.819782,34.139389]}},{"properties":{"Match_addr":"WESTMINSTER, CA","City":"Westminster","TARP":1.549,"X":-117.989553,"ARC_City":"Westminster","Y":33.75931,"ARC_State":"CA","Institutio":"Saigon National Bank","State":"CA","Score":100,"id":"a63bbu2e1ev9","PTarp":0.00051},"type":"Feature","geometry":{"type":"Point","coordinates":[-117.989553,33.75931]}},{"properties":{"Match_addr":"DENVER, CO","City":"Denver","TARP":12.639,"X":-104.988089,"ARC_City":"Denver","Y":39.755101,"ARC_State":"CO","Institutio":"Bankers' Bank of the West Bancorp, Inc.","State":"CO","Score":100,"id":"a63bbu4a44du","PTarp":0.0042},"type":"Feature","geometry":{"type":"Point","coordinates":[-104.988089,39.755101]}},{"properties":{"Match_addr":"DENVER, CO","City":"Denver","TARP":64.45,"X":-104.988089,"ARC_City":"Denver","Y":39.755101,"ARC_State":"CO","Institutio":"CoBiz Financial Inc.","State":"CO","Score":100,"id":"a63bbtxw0apf","PTarp":0.02141},"type":"Feature","geometry":{"type":"Point","coordinates":[-104.988089,39.755101]}},{"properties":{"Match_addr":"HARTFORD, CT","City":"Hartford","TARP":5.448,"X":-72.673165,"ARC_City":"Hartford","Y":41.766467,"ARC_State":"CT","Institutio":"The Connecticut Bank and Trust Company","State":"CT","Score":100,"id":"a63bbtudj0fq","PTarp":0.00181},"type":"Feature","geometry":{"type":"Point","coordinates":[-72.673165,41.766467]}},{"properties":{"Match_addr":"LITCHFIELD, CT","City":"Litchfield","TARP":10.0,"X":-73.189186,"ARC_City":"Litchfield","Y":41.746786,"ARC_State":"CT","Institutio":"First Litchfield Financial Corporation","State":"CT","Score":100,"id":"a63bbu261q7t","PTarp":0.00332},"type":"Feature","geometry":{"type":"Point","coordinates":[-73.189186,41.746786]}},{"properties":{"Match_addr":"WATERBURY, CT","City":"Waterbury","TARP":400.0,"X":-73.0408,"ARC_City":"Waterbury","Y":41.5559,"ARC_State":"CT","Institutio":"Webster Financial Corporation","State":"CT","Score":100,"id":"a63bbtzrsmn4","PTarp":0.13286},"type":"Feature","geometry":{"type":"Point","coordinates":[-73.0408,41.5559]}},{"properties":{"Match_addr":"WILMINGTON, DE","City":"Wilmington","TARP":52.625,"X":-75.538493,"ARC_City":"Wilmington","Y":39.742961,"ARC_State":"DE","Institutio":"WSFS Financial Corporation","State":"DE","Score":100,"id":"a63bbu4h8q6c","PTarp":0.01748},"type":"Feature","geometry":{"type":"Point","coordinates":[-75.538493,39.742961]}},{"properties":{"Match_addr":"WILMINGTON, DE","City":"Wilmington","TARP":45.22,"X":-75.538493,"ARC_City":"Wilmington","Y":39.742961,"ARC_State":"DE","Institutio":"The Bancorp, Inc.","State":"DE","Score":100,"id":"a63bbtv6eaxk","PTarp":0.01502},"type":"Feature","geometry":{"type":"Point","coordinates":[-75.538493,39.742961]}},{"properties":{"Match_addr":"WILMINGTON, DE","City":"Wilmington","TARP":330.0,"X":-75.538493,"ARC_City":"Wilmington","Y":39.742961,"ARC_State":"DE","Institutio":"Wilmington Trust Corporation","State":"DE","Score":100,"id":"a63bbtvc6eew","PTarp":0.10961},"type":"Feature","geometry":{"type":"Point","coordinates":[-75.538493,39.742961]}},{"properties":{"Match_addr":"BOCA RATON, FL","City":"Boca Raton","TARP":10.9,"X":-80.114723,"ARC_City":"Boca Raton","Y":26.367481,"ARC_State":"FL","Institutio":"First Southern Bancorp, Inc.","State":"FL","Score":100,"id":"a63bbtx1fxbd","PTarp":0.00362},"type":"Feature","geometry":{"type":"Point","coordinates":[-80.114723,26.367481]}},{"properties":{"Match_addr":"DAVENPORT, FL","City":"Davenport","TARP":27.875,"X":-81.603475,"ARC_City":"Davenport","Y":28.159346,"ARC_State":"FL","Institutio":"Centerstate Banks of Florida Inc.","State":"FL","Score":100,"id":"a63bbtznbrih","PTarp":0.00926},"type":"Feature","geometry":{"type":"Point","coordinates":[-81.603475,28.159346]}},{"properties":{"Match_addr":"FERNANDINA BEACH, FL","City":"Fernandina Beach","TARP":9.95,"X":-81.454784,"ARC_City":"Fernandina Beach","Y":30.647987,"ARC_State":"FL","Institutio":"Coastal Banking Company, Inc.","State":"FL","Score":100,"id":"a63bbtyy7ovm","PTarp":0.0033},"type":"Feature","geometry":{"type":"Point","coordinates":[-81.454784,30.647987]}},{"properties":{"Match_addr":"NAPLES, FL","City":"Naples","TARP":37.0,"X":-81.795483,"ARC_City":"Naples","Y":26.147369,"ARC_State":"FL","Institutio":"TIB Financial Corp","State":"FL","Score":100,"id":"a63bbu5vig9l","PTarp":0.01229},"type":"Feature","geometry":{"type":"Point","coordinates":[-81.795483,26.147369]}},{"properties":{"Match_addr":"OCALA, FL","City":"Ocala","TARP":6.514,"X":-82.140435,"ARC_City":"Ocala","Y":29.185509,"ARC_State":"FL","Institutio":"Alarion Financial Services, Inc.","State":"FL","Score":100,"id":"a63bbu05hy18","PTarp":0.00216},"type":"Feature","geometry":{"type":"Point","coordinates":[-82.140435,29.185509]}},{"properties":{"Match_addr":"ORLANDO, FL","City":"Orlando","TARP":5.677,"X":-81.364438,"ARC_City":"Orlando","Y":28.553154,"ARC_State":"FL","Institutio":"Seaside National Bank &amp; Trust","State":"FL","Score":100,"id":"a63bbu58dg5j","PTarp":0.00189},"type":"Feature","geometry":{"type":"Point","coordinates":[-81.364438,28.553154]}},{"properties":{"Match_addr":"PINELLAS PARK, FL","City":"Pinellas Park","TARP":10.685,"X":-82.700147,"ARC_City":"Pinellas Park","Y":27.857459,"ARC_State":"FL","Institutio":"First Community Bank Corporation of America","State":"FL","Score":100,"id":"a63bbtv2lde5","PTarp":0.00355},"type":"Feature","geometry":{"type":"Point","coordinates":[-82.700147,27.857459]}},{"properties":{"Match_addr":"PORT ST. LUCIE, FL","City":"Port St. Lucie","TARP":5.8,"X":-80.355736,"ARC_City":"Port St. Lucie","Y":27.274088,"ARC_State":"FL","Institutio":"FPB Bancorp, Inc.","State":"FL","Score":100,"id":"a63bbu3hkekf","PTarp":0.00193},"type":"Feature","geometry":{"type":"Point","coordinates":[-80.355736,27.274088]}},{"properties":{"Match_addr":"STUART, FL","City":"Stuart","TARP":50.0,"X":-80.23627,"ARC_City":"Stuart","Y":27.181329,"ARC_State":"FL","Institutio":"Seacoast Banking Corporation of Florida","State":"FL","Score":100,"id":"a63bbu1hmb49","PTarp":0.01661},"type":"Feature","geometry":{"type":"Point","coordinates":[-80.23627,27.181329]}},{"properties":{"Match_addr":"ATLANTA, GA","City":"Atlanta","TARP":48.2,"X":-84.389614,"ARC_City":"Atlanta","Y":33.754532,"ARC_State":"GA","Institutio":"Fidelity Southern Corporation","State":"GA","Score":100,"id":"a63bbu7q58iu","PTarp":0.01601},"type":"Feature","geometry":{"type":"Point","coordinates":[-84.389614,33.754532]}},{"properties":{"Match_addr":"ATLANTA, GA","City":"Atlanta","TARP":3500.0,"X":-84.389614,"ARC_City":"Atlanta","Y":33.754532,"ARC_State":"GA","Institutio":"Inc. SunTrust Banks,","State":"GA","Score":100,"id":"a63bbtukq7cq","PTarp":1.16255},"type":"Feature","geometry":{"type":"Point","coordinates":[-84.389614,33.754532]}},{"properties":{"Match_addr":"ATLANTA, GA","City":"Atlanta","TARP":1350.0,"X":-84.389614,"ARC_City":"Atlanta","Y":33.754532,"ARC_State":"GA","Institutio":"SunTrust Banks, Inc.","State":"GA","Score":100,"id":"a63bbu46ah7s","PTarp":0.44841},"type":"Feature","geometry":{"type":"Point","coordinates":[-84.389614,33.754532]}},{"properties":{"Match_addr":"BLAIRSVILLE, GA","City":"Blairsville","TARP":180.0,"X":-83.956384,"ARC_City":"Blairsville","Y":34.872824,"ARC_State":"GA","Institutio":"United Community Banks, Inc.","State":"GA","Score":100,"id":"a63bbu0rrjgi","PTarp":0.05979},"type":"Feature","geometry":{"type":"Point","coordinates":[-83.956384,34.872824]}},{"properties":{"Match_addr":"COLUMBUS, GA","City":"Columbus","TARP":967.87,"X":-84.987593,"ARC_City":"Columbus","Y":32.462866,"ARC_State":"GA","Institutio":"Synovus Financial Corp.","State":"GA","Score":100,"id":"a63bbu7u8ir0","PTarp":0.32148},"type":"Feature","geometry":{"type":"Point","coordinates":[-84.987593,32.462866]}},{"properties":{"Match_addr":"DORAVILLE, GA","City":"Doraville","TARP":7.7,"X":-84.27314,"ARC_City":"Doraville","Y":33.907721,"ARC_State":"GA","Institutio":"Metro City Bank","State":"GA","Score":100,"id":"a63bbu7m94d3","PTarp":0.00256},"type":"Feature","geometry":{"type":"Point","coordinates":[-84.27314,33.907721]}},{"properties":{"Match_addr":"FITZGERALD, GA","City":"Fitzgerald","TARP":28.0,"X":-83.252941,"ARC_City":"Fitzgerald","Y":31.714953,"ARC_State":"GA","Institutio":"Colony Bankcorp, Inc.","State":"GA","Score":100,"id":"a63bbty3ggh0","PTarp":0.0093},"type":"Feature","geometry":{"type":"Point","coordinates":[-83.252941,31.714953]}},{"properties":{"Match_addr":"LOUISVILLE, GA","City":"Louisville","TARP":12.0,"X":-82.401713,"ARC_City":"Louisville","Y":32.993305,"ARC_State":"GA","Institutio":"The Queensborough Company","State":"GA","Score":100,"id":"a63bbtvej96h","PTarp":0.00399},"type":"Feature","geometry":{"type":"Point","coordinates":[-82.401713,32.993305]}},{"properties":{"Match_addr":"MOULTRIE, GA","City":"Moultrie","TARP":52.0,"X":-83.789167,"ARC_City":"Moultrie","Y":31.168045,"ARC_State":"GA","Institutio":"Ameris Bancorp","State":"GA","Score":100,"id":"a63bbture8ru","PTarp":0.01727},"type":"Feature","geometry":{"type":"Point","coordinates":[-83.789167,31.168045]}},{"properties":{"Match_addr":"DUBUQUE, IA","City":"Dubuque","TARP":81.698,"X":-90.665478,"ARC_City":"Dubuque","Y":42.502272,"ARC_State":"IA","Institutio":"Heartland Financial USA, Inc.","State":"IA","Score":100,"id":"a63bbtwrbi8r","PTarp":0.02714},"type":"Feature","geometry":{"type":"Point","coordinates":[-90.665478,42.502272]}},{"properties":{"Match_addr":"FORT DODGE, IA","City":"Fort Dodge","TARP":10.2,"X":-94.177618,"ARC_City":"Fort Dodge","Y":42.50838,"ARC_State":"IA","Institutio":"North Central Bancshares, Inc.","State":"IA","Score":100,"id":"a63bbttzcowt","PTarp":0.00339},"type":"Feature","geometry":{"type":"Point","coordinates":[-94.177618,42.50838]}},{"properties":{"Match_addr":"WEST DES MOINES, IA","City":"West Des Moines","TARP":36.0,"X":-93.746519,"ARC_City":"West Des Moines","Y":41.570158,"ARC_State":"IA","Institutio":"West Bancorporation, Inc.","State":"IA","Score":100,"id":"a63bbu527hrh","PTarp":0.01196},"type":"Feature","geometry":{"type":"Point","coordinates":[-93.746519,41.570158]}},{"properties":{"Match_addr":"BOISE, ID","City":"Boise","TARP":8.0,"X":-116.212539,"ARC_City":"Boise","Y":43.602071,"ARC_State":"ID","Institutio":"Syringa Bancorp","State":"ID","Score":100,"id":"a63bbu24lrr2","PTarp":0.00266},"type":"Feature","geometry":{"type":"Point","coordinates":[-116.212539,43.602071]}},{"properties":{"Match_addr":"BOISE, ID","City":"Boise","TARP":6.9,"X":-116.212539,"ARC_City":"Boise","Y":43.602071,"ARC_State":"ID","Institutio":"Idaho Bancorp","State":"ID","Score":100,"id":"a63bbtw4dqe9","PTarp":0.00229},"type":"Feature","geometry":{"type":"Point","coordinates":[-116.212539,43.602071]}},{"properties":{"Match_addr":"SANDPOINT, ID","City":"Sandpoint","TARP":27.0,"X":-116.552958,"ARC_City":"Sandpoint","Y":48.286303,"ARC_State":"ID","Institutio":"Intermountain Community Bancorp","State":"ID","Score":100,"id":"a63bbtt9i3t4","PTarp":0.00897},"type":"Feature","geometry":{"type":"Point","coordinates":[-116.552958,48.286303]}},{"properties":{"Match_addr":"AURORA, IL","City":"Aurora","TARP":73.0,"X":-88.320209,"ARC_City":"Aurora","Y":41.76057,"ARC_State":"IL","Institutio":"Old Second Bancorp, Inc.","State":"IL","Score":100,"id":"a63bbu380z9e","PTarp":0.02425},"type":"Feature","geometry":{"type":"Point","coordinates":[-88.320209,41.76057]}},{"properties":{"Match_addr":"BRIDGEVIEW, IL","City":"Bridgeview","TARP":38.0,"X":-87.799375,"ARC_City":"Bridgeview","Y":41.740787,"ARC_State":"IL","Institutio":"Bridgeview Bancorp, Inc.","State":"IL","Score":100,"id":"a63bbtuqt94y","PTarp":0.01262},"type":"Feature","geometry":{"type":"Point","coordinates":[-87.799375,41.740787]}},{"properties":{"Match_addr":"CARMI, IL","City":"Carmi","TARP":5.0,"X":-88.167468,"ARC_City":"Carmi","Y":38.08774,"ARC_State":"IL","Institutio":"Southern Illinois Bancorp, Inc.","State":"IL","Score":100,"id":"a63bbtv64upb","PTarp":0.00166},"type":"Feature","geometry":{"type":"Point","coordinates":[-88.167468,38.08774]}},{"properties":{"Match_addr":"CHICAGO, IL","City":"Chicago","TARP":1576.0,"X":-87.624333,"ARC_City":"Chicago","Y":41.879535,"ARC_State":"IL","Institutio":"Northern Trust Corporation","State":"IL","Score":100,"id":"a63bbtywgqq5","PTarp":0.52348},"type":"Feature","geometry":{"type":"Point","coordinates":[-87.624333,41.879535]}},{"properties":{"Match_addr":"CHICAGO, IL","City":"Chicago","TARP":196.0,"X":-87.624333,"ARC_City":"Chicago","Y":41.879535,"ARC_State":"IL","Institutio":"MB Financial Inc.","State":"IL","Score":100,"id":"a63bbu4hilgq","PTarp":0.0651},"type":"Feature","geometry":{"type":"Point","coordinates":[-87.624333,41.879535]}},{"properties":{"Match_addr":"CHICAGO, IL","City":"Chicago","TARP":243.815,"X":-87.624333,"ARC_City":"Chicago","Y":41.879535,"ARC_State":"IL","Institutio":"PrivateBancorp, Inc.","State":"IL","Score":100,"id":"a63bbu4tys8g","PTarp":0.08098},"type":"Feature","geometry":{"type":"Point","coordinates":[-87.624333,41.879535]}},{"properties":{"Match_addr":"CHICAGO, IL","City":"Chicago","TARP":35.5,"X":-87.624333,"ARC_City":"Chicago","Y":41.879535,"ARC_State":"IL","Institutio":"Marquette National Corporation","State":"IL","Score":100,"id":"a63bbtzqxnyh","PTarp":0.01179},"type":"Feature","geometry":{"type":"Point","coordinates":[-87.624333,41.879535]}},{"properties":{"Match_addr":"EFFINGHAM, IL","City":"Effingham","TARP":10.189,"X":-88.548353,"ARC_City":"Effingham","Y":39.1201,"ARC_State":"IL","Institutio":"Midland States Bancorp, Inc.","State":"IL","Score":100,"id":"a63bbu0afpnz","PTarp":0.00338},"type":"Feature","geometry":{"type":"Point","coordinates":[-88.548353,39.1201]}},{"properties":{"Match_addr":"ITASCA, IL","City":"Itasca","TARP":193.0,"X":-88.023833,"ARC_City":"Itasca","Y":41.975967,"ARC_State":"IL","Institutio":"First Midwest Bancorp, Inc.","State":"IL","Score":100,"id":"a63bbtwiiiqb","PTarp":0.06411},"type":"Feature","geometry":{"type":"Point","coordinates":[-88.023833,41.975967]}},{"properties":{"Match_addr":"LAKE FOREST, IL","City":"Lake Forest","TARP":250.0,"X":-87.862363,"ARC_City":"Lake Forest","Y":42.239895,"ARC_State":"IL","Institutio":"Wintrust Financial Corporation","State":"IL","Score":100,"id":"a63bbtysnmh5","PTarp":0.08304},"type":"Feature","geometry":{"type":"Point","coordinates":[-87.862363,42.239895]}},{"properties":{"Match_addr":"MELROSE PARK, IL","City":"Melrose Park","TARP":84.784,"X":-87.864244,"ARC_City":"Melrose Park","Y":41.902193,"ARC_State":"IL","Institutio":"Midwest Banc Holdings, Inc.","State":"IL","Score":100,"id":"a63bbtvs08wu","PTarp":0.02816},"type":"Feature","geometry":{"type":"Point","coordinates":[-87.864244,41.902193]}},{"properties":{"Match_addr":"MONMOUTH, IL","City":"Monmouth","TARP":6.855,"X":-90.642119,"ARC_City":"Monmouth","Y":40.912003,"ARC_State":"IL","Institutio":"Western Illinois Bancshares Inc.","State":"IL","Score":100,"id":"a63bbu0cjbx9","PTarp":0.00228},"type":"Feature","geometry":{"type":"Point","coordinates":[-90.642119,40.912003]}},{"properties":{"Match_addr":"PRINCETON, IL","City":"Princeton","TARP":25.083,"X":-89.466308,"ARC_City":"Princeton","Y":41.37892,"ARC_State":"IL","Institutio":"Princeton National Bancorp, Inc.","State":"IL","Score":100,"id":"a63bbu2iv4f5","PTarp":0.00833},"type":"Feature","geometry":{"type":"Point","coordinates":[-89.466308,41.37892]}},{"properties":{"Match_addr":"QUINCY, IL","City":"Quincy","TARP":10.0,"X":-91.387102,"ARC_City":"Quincy","Y":39.93548,"ARC_State":"IL","Institutio":"First Bankers Trustshares, Inc.","State":"IL","Score":100,"id":"a63bbu8s9r4t","PTarp":0.00332},"type":"Feature","geometry":{"type":"Point","coordinates":[-91.387102,39.93548]}},{"properties":{"Match_addr":"ROSEMONT, IL","City":"Rosemont","TARP":104.823,"X":-87.86937,"ARC_City":"Rosemont","Y":41.984331,"ARC_State":"IL","Institutio":"Taylor Capital Group","State":"IL","Score":100,"id":"a63bbu09bmqg","PTarp":0.03482},"type":"Feature","geometry":{"type":"Point","coordinates":[-87.86937,41.984331]}},{"properties":{"Match_addr":"COLUMBUS, IN","City":"Columbus","TARP":21.5,"X":-85.914397,"ARC_City":"Columbus","Y":39.222865,"ARC_State":"IN","Institutio":"Indiana Community Bancorp","State":"IN","Score":100,"id":"a63bbu58peen","PTarp":0.00714},"type":"Feature","geometry":{"type":"Point","coordinates":[-85.914397,39.222865]}},{"properties":{"Match_addr":"EVANSVILLE, IN","City":"Evansville","TARP":100.0,"X":-87.543819,"ARC_City":"Evansville","Y":37.977088,"ARC_State":"IN","Institutio":"Old National Bancorp","State":"IN","Score":100,"id":"a63bbtzthrjf","PTarp":0.03322},"type":"Feature","geometry":{"type":"Point","coordinates":[-87.543819,37.977088]}},{"properties":{"Match_addr":"GREENSBURG, IN","City":"Greensburg","TARP":57.0,"X":-85.481393,"ARC_City":"Greensburg","Y":39.337731,"ARC_State":"IN","Institutio":"MainSource Financial Group, Inc.","State":"IN","Score":100,"id":"a63bbtyacnbl","PTarp":0.01893},"type":"Feature","geometry":{"type":"Point","coordinates":[-85.481393,39.337731]}},{"properties":{"Match_addr":"MICHIGAN CITY, IN","City":"Michigan City","TARP":25.0,"X":-86.873568,"ARC_City":"Michigan City","Y":41.709642,"ARC_State":"IN","Institutio":"Horizon Bancorp","State":"IN","Score":100,"id":"a63bbu8bm6sj","PTarp":0.0083},"type":"Feature","geometry":{"type":"Point","coordinates":[-86.873568,41.709642]}},{"properties":{"Match_addr":"MUNCIE, IN","City":"Muncie","TARP":32.382,"X":-85.388415,"ARC_City":"Muncie","Y":40.1966,"ARC_State":"IN","Institutio":"MutualFirst Financial, Inc.","State":"IN","Score":100,"id":"a63bbu35tga3","PTarp":0.01076},"type":"Feature","geometry":{"type":"Point","coordinates":[-85.388415,40.1966]}},{"properties":{"Match_addr":"MUNSTER, IN","City":"Munster","TARP":3.674,"X":-87.50597,"ARC_City":"Munster","Y":41.546432,"ARC_State":"IN","Institutio":"AMB Financial Corp.","State":"IN","Score":100,"id":"a63bbu8kw7ic","PTarp":0.00122},"type":"Feature","geometry":{"type":"Point","coordinates":[-87.50597,41.546432]}},{"properties":{"Match_addr":"SOUTH BEND, IN","City":"South Bend","TARP":111.0,"X":-86.250697,"ARC_City":"South Bend","Y":41.69416,"ARC_State":"IN","Institutio":"1st Source Corporation","State":"IN","Score":100,"id":"a63bbtuthrh6","PTarp":0.03687},"type":"Feature","geometry":{"type":"Point","coordinates":[-86.250697,41.69416]}},{"properties":{"Match_addr":"WABASH, IN","City":"Wabash","TARP":7.289,"X":-85.826721,"ARC_City":"Wabash","Y":40.803671,"ARC_State":"IN","Institutio":"FFW Corporation","State":"IN","Score":100,"id":"a63bbttlpbo9","PTarp":0.00242},"type":"Feature","geometry":{"type":"Point","coordinates":[-85.826721,40.803671]}},{"properties":{"Match_addr":"GREAT BEND, KS","City":"Great Bend","TARP":6.0,"X":-98.778265,"ARC_City":"Great Bend","Y":38.361789,"ARC_State":"KS","Institutio":"American State Bancshares, Inc.","State":"KS","Score":100,"id":"a63bbtzrk9b0","PTarp":0.00199},"type":"Feature","geometry":{"type":"Point","coordinates":[-98.778265,38.361789]}},{"properties":{"Match_addr":"MARYSVILLE, KS","City":"Marysville","TARP":8.95,"X":-96.64563,"ARC_City":"Marysville","Y":39.842176,"ARC_State":"KS","Institutio":"UBT Bancshares, Inc.","State":"KS","Score":100,"id":"a63bbu5pi5ew","PTarp":0.00297},"type":"Feature","geometry":{"type":"Point","coordinates":[-96.64563,39.842176]}},{"properties":{"Match_addr":"MERRIAM, KS","City":"Merriam","TARP":13.0,"X":-94.693239,"ARC_City":"Merriam","Y":39.014961,"ARC_State":"KS","Institutio":"Morrill Bancshares, Inc.","State":"KS","Score":100,"id":"a63bbttpdvsu","PTarp":0.00432},"type":"Feature","geometry":{"type":"Point","coordinates":[-94.693239,39.014961]}},{"properties":{"Match_addr":"OVERLAND PARK, KS","City":"Overland Park","TARP":21.75,"X":-94.686111,"ARC_City":"Overland Park","Y":38.927552,"ARC_State":"KS","Institutio":"Blue Valley Ban Corp","State":"KS","Score":100,"id":"a63bbtxhhmie","PTarp":0.00722},"type":"Feature","geometry":{"type":"Point","coordinates":[-94.686111,38.927552]}},{"properties":{"Match_addr":"WICHITA, KS","City":"Wichita","TARP":36.282,"X":-97.335571,"ARC_City":"Wichita","Y":37.686024,"ARC_State":"KS","Institutio":"Fidelity Financial Corporation","State":"KS","Score":100,"id":"a63bbtvio644","PTarp":0.01205},"type":"Feature","geometry":{"type":"Point","coordinates":[-97.335571,37.686024]}},{"properties":{"Match_addr":"WICHITA, KS","City":"Wichita","TARP":8.75,"X":-97.335571,"ARC_City":"Wichita","Y":37.686024,"ARC_State":"KS","Institutio":"Equity Bancshares, Inc.","State":"KS","Score":100,"id":"a63bbtvrer53","PTarp":0.00291},"type":"Feature","geometry":{"type":"Point","coordinates":[-97.335571,37.686024]}},{"properties":{"Match_addr":"BOWLING GREEN, KY","City":"Bowling Green","TARP":8.779,"X":-86.445699,"ARC_City":"Bowling Green","Y":36.971244,"ARC_State":"KY","Institutio":"Citizens First Corporation","State":"KY","Score":100,"id":"a63bbu558slz","PTarp":0.00292},"type":"Feature","geometry":{"type":"Point","coordinates":[-86.445699,36.971244]}},{"properties":{"Match_addr":"ELIZABETHTOWN, KY","City":"Elizabethtown","TARP":20.0,"X":-85.871227,"ARC_City":"Elizabethtown","Y":37.704276,"ARC_State":"KY","Institutio":"First Financial Service Corporation","State":"KY","Score":100,"id":"a63bbu6x1ibi","PTarp":0.00664},"type":"Feature","geometry":{"type":"Point","coordinates":[-85.871227,37.704276]}},{"properties":{"Match_addr":"FRANKFORT, KY","City":"Frankfort","TARP":30.0,"X":-84.871469,"ARC_City":"Frankfort","Y":38.189408,"ARC_State":"KY","Institutio":"Capital Farmers Bank Corporation","State":"KY","Score":100,"id":"a63bbtt5nu72","PTarp":0.00996},"type":"Feature","geometry":{"type":"Point","coordinates":[-84.871469,38.189408]}},{"properties":{"Match_addr":"HOPKINSVILLE, KY","City":"Hopkinsville","TARP":18.4,"X":-87.487073,"ARC_City":"Hopkinsville","Y":36.849771,"ARC_State":"KY","Institutio":"HopFed Bancorp","State":"KY","Score":100,"id":"a63bbu7ab6ur","PTarp":0.00611},"type":"Feature","geometry":{"type":"Point","coordinates":[-87.487073,36.849771]}},{"properties":{"Match_addr":"LOUISVILLE, KY","City":"Louisville","TARP":35.0,"X":-85.75154,"ARC_City":"Louisville","Y":38.256065,"ARC_State":"KY","Institutio":"Porter Bancorp Inc.","State":"KY","Score":100,"id":"a63bbtv3j1a6","PTarp":0.01163},"type":"Feature","geometry":{"type":"Point","coordinates":[-85.75154,38.256065]}},{"properties":{"Match_addr":"LOUISVILLE, KY","City":"Louisville","TARP":9.294,"X":-85.75154,"ARC_City":"Louisville","Y":38.256065,"ARC_State":"KY","Institutio":"FCB Bancorp, Inc.","State":"KY","Score":100,"id":"a63bbu6r2lfe","PTarp":0.00309},"type":"Feature","geometry":{"type":"Point","coordinates":[-85.75154,38.256065]}},{"properties":{"Match_addr":"HAMMOND, LA","City":"Hammond","TARP":3.24,"X":-90.463219,"ARC_City":"Hammond","Y":30.506698,"ARC_State":"LA","Institutio":"FPB Financial Corp.","State":"LA","Score":100,"id":"a63bbtwpnuit","PTarp":0.00108},"type":"Feature","geometry":{"type":"Point","coordinates":[-90.463219,30.506698]}},{"properties":{"Match_addr":"LAFAYETTE, LA","City":"Lafayette","TARP":90.0,"X":-92.018994,"ARC_City":"Lafayette","Y":30.217183,"ARC_State":"LA","Institutio":"Iberiabank Corporation","State":"LA","Score":100,"id":"a63bbtx616o2","PTarp":0.02989},"type":"Feature","geometry":{"type":"Point","coordinates":[-92.018994,30.217183]}},{"properties":{"Match_addr":"LAFAYETTE, LA","City":"Lafayette","TARP":20.0,"X":-92.018994,"ARC_City":"Lafayette","Y":30.217183,"ARC_State":"LA","Institutio":"MidSouth Bancorp, Inc.","State":"LA","Score":100,"id":"a63bbu5oqcpv","PTarp":0.00664},"type":"Feature","geometry":{"type":"Point","coordinates":[-92.018994,30.217183]}},{"properties":{"Match_addr":"NEW ORLEANS, LA","City":"New Orleans","TARP":300.0,"X":-90.069003,"ARC_City":"New Orleans","Y":29.953238,"ARC_State":"LA","Institutio":"Whitney Holding Corporation","State":"LA","Score":100,"id":"a63bbu4zj2so","PTarp":0.09965},"type":"Feature","geometry":{"type":"Point","coordinates":[-90.069003,29.953238]}},{"properties":{"Match_addr":"RUSTON, LA","City":"Ruston","TARP":24.0,"X":-92.637922,"ARC_City":"Ruston","Y":32.531388,"ARC_State":"LA","Institutio":"Community Trust Financial Corporation","State":"LA","Score":100,"id":"a63bbttev5ze","PTarp":0.00797},"type":"Feature","geometry":{"type":"Point","coordinates":[-92.637922,32.531388]}},{"properties":{"Match_addr":"ARLINGTON, MA","City":"Arlington","TARP":5.83,"X":-71.164975,"ARC_City":"Arlington","Y":42.417903,"ARC_State":"MA","Institutio":"Leader Bancorp, Inc.","State":"MA","Score":100,"id":"a63bbu4sgbk1","PTarp":0.00194},"type":"Feature","geometry":{"type":"Point","coordinates":[-71.164975,42.417903]}},{"properties":{"Match_addr":"BOSTON, MA","City":"Boston","TARP":2000.0,"X":-71.05682,"ARC_City":"Boston","Y":42.35888,"ARC_State":"MA","Institutio":"State Street Corporation","State":"MA","Score":100,"id":"a63bbtwdsjms","PTarp":0.66431},"type":"Feature","geometry":{"type":"Point","coordinates":[-71.05682,42.35888]}},{"properties":{"Match_addr":"BOSTON, MA","City":"Boston","TARP":12.063,"X":-71.05682,"ARC_City":"Boston","Y":42.35888,"ARC_State":"MA","Institutio":"OneUnited Bank","State":"MA","Score":100,"id":"a63bbtyncpqi","PTarp":0.00401},"type":"Feature","geometry":{"type":"Point","coordinates":[-71.05682,42.35888]}},{"properties":{"Match_addr":"BOSTON, MA","City":"Boston","TARP":22.0,"X":-71.05682,"ARC_City":"Boston","Y":42.35888,"ARC_State":"MA","Institutio":"Wainwright Bank &amp; Trust Company","State":"MA","Score":100,"id":"a63bbtvxjlka","PTarp":0.00731},"type":"Feature","geometry":{"type":"Point","coordinates":[-71.05682,42.35888]}},{"properties":{"Match_addr":"BOSTON, MA","City":"Boston","TARP":154.0,"X":-71.05682,"ARC_City":"Boston","Y":42.35888,"ARC_State":"MA","Institutio":"Boston Private Financial Holdings, Inc.","State":"MA","Score":100,"id":"a63bbtut2ne9","PTarp":0.05115},"type":"Feature","geometry":{"type":"Point","coordinates":[-71.05682,42.35888]}},{"properties":{"Match_addr":"NORTH ANDOVER, MA","City":"North Andover","TARP":15.0,"X":-71.13733,"ARC_City":"North Andover","Y":42.69537,"ARC_State":"MA","Institutio":"LSB Corporation","State":"MA","Score":100,"id":"a63bbu5yr9n3","PTarp":0.00498},"type":"Feature","geometry":{"type":"Point","coordinates":[-71.13733,42.69537]}},{"properties":{"Match_addr":"PITTSFIELD, MA","City":"Pittsfield","TARP":40.0,"X":-73.262,"ARC_City":"Pittsfield","Y":42.449726,"ARC_State":"MA","Institutio":"Berkshire Hills Bancorp, Inc.","State":"MA","Score":100,"id":"a63bbu52czo5","PTarp":0.01329},"type":"Feature","geometry":{"type":"Point","coordinates":[-73.262,42.449726]}},{"properties":{"Match_addr":"ROCKLAND, MA","City":"Rockland","TARP":78.158,"X":-70.916031,"ARC_City":"Rockland","Y":42.131451,"ARC_State":"MA","Institutio":"Independent Bank Corp.","State":"MA","Score":100,"id":"a63bbu61chr7","PTarp":0.02596},"type":"Feature","geometry":{"type":"Point","coordinates":[-70.916031,42.131451]}},{"properties":{"Match_addr":"SOMERVILLE, MA","City":"Somerville","TARP":10.0,"X":-71.097145,"ARC_City":"Somerville","Y":42.389119,"ARC_State":"MA","Institutio":"Central Bancorp, Inc.","State":"MA","Score":100,"id":"a63bbty6uceh","PTarp":0.00332},"type":"Feature","geometry":{"type":"Point","coordinates":[-71.097145,42.389119]}},{"properties":{"Match_addr":"ANNAPOLIS, MD","City":"Annapolis","TARP":8.152,"X":-76.519741,"ARC_City":"Annapolis","Y":38.969374,"ARC_State":"MD","Institutio":"Annapolis Bancorp, Inc.","State":"MD","Score":100,"id":"a63bbu8e2hfg","PTarp":0.00271},"type":"Feature","geometry":{"type":"Point","coordinates":[-76.519741,38.969374]}},{"properties":{"Match_addr":"ANNAPOLIS, MD","City":"Annapolis","TARP":23.393,"X":-76.519741,"ARC_City":"Annapolis","Y":38.969374,"ARC_State":"MD","Institutio":"Severn Bancorp, Inc.","State":"MD","Score":100,"id":"a63bbu7d87wx","PTarp":0.00777},"type":"Feature","geometry":{"type":"Point","coordinates":[-76.519741,38.969374]}},{"properties":{"Match_addr":"BALTIMORE, MD","City":"Baltimore","TARP":151.5,"X":-76.613558,"ARC_City":"Baltimore","Y":39.286534,"ARC_State":"MD","Institutio":"Provident Bancshares Corp.","State":"MD","Score":100,"id":"a63bbu2xro0q","PTarp":0.05032},"type":"Feature","geometry":{"type":"Point","coordinates":[-76.613558,39.286534]}},{"properties":{"Match_addr":"BALTIMORE, MD","City":"Baltimore","TARP":10.8,"X":-76.613558,"ARC_City":"Baltimore","Y":39.286534,"ARC_State":"MD","Institutio":"BCSB Bancorp, Inc.","State":"MD","Score":100,"id":"a63bbtw6o516","PTarp":0.00359},"type":"Feature","geometry":{"type":"Point","coordinates":[-76.613558,39.286534]}},{"properties":{"Match_addr":"BETHESDA, MD","City":"Bethesda","TARP":38.235,"X":-77.121382,"ARC_City":"Bethesda","Y":38.989977,"ARC_State":"MD","Institutio":"Eagle Bancorp, Inc.","State":"MD","Score":100,"id":"a63bbu0vpx5u","PTarp":0.0127},"type":"Feature","geometry":{"type":"Point","coordinates":[-77.121382,38.989977]}},{"properties":{"Match_addr":"BETHESDA, MD","City":"Bethesda","TARP":4.734,"X":-77.121382,"ARC_City":"Bethesda","Y":38.989977,"ARC_State":"MD","Institutio":"Monument Bank","State":"MD","Score":100,"id":"a63bbu6hudbq","PTarp":0.00157},"type":"Feature","geometry":{"type":"Point","coordinates":[-77.121382,38.989977]}},{"properties":{"Match_addr":"BOWIE, MD","City":"Bowie","TARP":7.0,"X":-76.74307,"ARC_City":"Bowie","Y":38.953123,"ARC_State":"MD","Institutio":"Old Line Bancshares, Inc.","State":"MD","Score":100,"id":"a63bbu277w8z","PTarp":0.00233},"type":"Feature","geometry":{"type":"Point","coordinates":[-76.74307,38.953123]}},{"properties":{"Match_addr":"DUNDALK, MD","City":"Dundalk","TARP":6.0,"X":-76.502962,"ARC_City":"Dundalk","Y":39.270579,"ARC_State":"MD","Institutio":"Patapsco Bancorp, Inc.","State":"MD","Score":100,"id":"a63bbtvr7dhj","PTarp":0.00199},"type":"Feature","geometry":{"type":"Point","coordinates":[-76.502962,39.270579]}},{"properties":{"Match_addr":"EASTON, MD","City":"Easton","TARP":25.0,"X":-76.076248,"ARC_City":"Easton","Y":38.77448,"ARC_State":"MD","Institutio":"Shore Bancshares, Inc.","State":"MD","Score":100,"id":"a63bbu3ii1d6","PTarp":0.0083},"type":"Feature","geometry":{"type":"Point","coordinates":[-76.076248,38.77448]}},{"properties":{"Match_addr":"ELKTON, MD","City":"Elkton","TARP":11.56,"X":-75.823118,"ARC_City":"Elkton","Y":39.610141,"ARC_State":"MD","Institutio":"Cecil Bancorp, Inc.","State":"MD","Score":100,"id":"a63bbu2gouah","PTarp":0.00384},"type":"Feature","geometry":{"type":"Point","coordinates":[-75.823118,39.610141]}},{"properties":{"Match_addr":"OAKLAND, MD","City":"Oakland","TARP":30.0,"X":-76.68105,"ARC_City":"Oakland","Y":39.708425,"ARC_State":"MD","Institutio":"First United Corporation","State":"MD","Score":100,"id":"a63bbu4aj924","PTarp":0.00996},"type":"Feature","geometry":{"type":"Point","coordinates":[-76.68105,39.708425]}},{"properties":{"Match_addr":"OLNEY, MD","City":"Olney","TARP":83.094,"X":-77.092377,"ARC_City":"Olney","Y":39.143997,"ARC_State":"MD","Institutio":"Sandy Spring Bancorp, Inc.","State":"MD","Score":100,"id":"a63bbtxolqhj","PTarp":0.0276},"type":"Feature","geometry":{"type":"Point","coordinates":[-77.092377,39.143997]}},{"properties":{"Match_addr":"RISING SUN, MD","City":"Rising Sun","TARP":5.983,"X":-76.06175,"ARC_City":"Rising Sun","Y":39.69808,"ARC_State":"MD","Institutio":"Rising Sun Bancorp","State":"MD","Score":100,"id":"a63bbu28k15e","PTarp":0.00199},"type":"Feature","geometry":{"type":"Point","coordinates":[-76.06175,39.69808]}},{"properties":{"Match_addr":"ROCKVILLE, MD","City":"Rockville","TARP":4.7,"X":-77.156823,"ARC_City":"Rockville","Y":39.083916,"ARC_State":"MD","Institutio":"Capital Bancorp, Inc.","State":"MD","Score":100,"id":"a63bbu8lh5n3","PTarp":0.00156},"type":"Feature","geometry":{"type":"Point","coordinates":[-77.156823,39.083916]}},{"properties":{"Match_addr":"WALDORF, MD","City":"Waldorf","TARP":15.54,"X":-76.898726,"ARC_City":"Waldorf","Y":38.638238,"ARC_State":"MD","Institutio":"Tri-County Financial Corporation","State":"MD","Score":100,"id":"a63bbu8cnsfe","PTarp":0.00516},"type":"Feature","geometry":{"type":"Point","coordinates":[-76.898726,38.638238]}},{"properties":{"Match_addr":"BAR HARBOR, ME","City":"Bar Harbor","TARP":18.751,"X":-68.204311,"ARC_City":"Bar Harbor","Y":44.387625,"ARC_State":"ME","Institutio":"Bar Harbor Bankshares/Bar Harbor Bank &amp; Trust","State":"ME","Score":100,"id":"a63bbtxfbh31","PTarp":0.00623},"type":"Feature","geometry":{"type":"Point","coordinates":[-68.204311,44.387625]}},{"properties":{"Match_addr":"DAMARISCOTTA, ME","City":"Damariscotta","TARP":25.0,"X":-69.518916,"ARC_City":"Damariscotta","Y":44.032816,"ARC_State":"ME","Institutio":"The First Bancorp, Inc.","State":"ME","Score":100,"id":"a63bbtt0cs7o","PTarp":0.0083},"type":"Feature","geometry":{"type":"Point","coordinates":[-69.518916,44.032816]}},{"properties":{"Match_addr":"HOULTON, ME","City":"Houlton","TARP":10.449,"X":-67.841355,"ARC_City":"Houlton","Y":46.125542,"ARC_State":"ME","Institutio":"Katahdin Bankshares Corp.","State":"ME","Score":100,"id":"a63bbtvjlwdk","PTarp":0.00347},"type":"Feature","geometry":{"type":"Point","coordinates":[-67.841355,46.125542]}},{"properties":{"Match_addr":"LEWISTON, ME","City":"Lewiston","TARP":4.227,"X":-70.164203,"ARC_City":"Lewiston","Y":44.089247,"ARC_State":"ME","Institutio":"Northeast Bancorp","State":"ME","Score":100,"id":"a63bbu3qz2bi","PTarp":0.0014},"type":"Feature","geometry":{"type":"Point","coordinates":[-70.164203,44.089247]}},{"properties":{"Match_addr":"ALMA, MI","City":"Alma","TARP":33.0,"X":-84.652131,"ARC_City":"Alma","Y":43.379026,"ARC_State":"MI","Institutio":"Firstbank Corporation","State":"MI","Score":100,"id":"a63bbtvi4vhc","PTarp":0.01096},"type":"Feature","geometry":{"type":"Point","coordinates":[-84.652131,43.379026]}},{"properties":{"Match_addr":"AUBURN HILLS, MI","City":"Auburn Hills","TARP":4000.0,"X":-83.24588,"ARC_City":"Auburn Hills","Y":42.671028,"ARC_State":"MI","Institutio":"Chrysler Holding LLC","State":"MI","Score":100,"id":"a63bbtt8c4by","PTarp":1.32863},"type":"Feature","geometry":{"type":"Point","coordinates":[-83.24588,42.671028]}},{"properties":{"Match_addr":"DETROIT, MI","City":"Detroit","TARP":884.024131,"X":-83.045913,"ARC_City":"Detroit","Y":42.330165,"ARC_State":"MI","Institutio":"General Motors Corporation","State":"MI","Score":100,"id":"a63bbu61pde9","PTarp":0.29363},"type":"Feature","geometry":{"type":"Point","coordinates":[-83.045913,42.330165]}},{"properties":{"Match_addr":"DETROIT, MI","City":"Detroit","TARP":9400.0,"X":-83.045913,"ARC_City":"Detroit","Y":42.330165,"ARC_State":"MI","Institutio":"General Motors Corporation","State":"MI","Score":100,"id":"a63bbtu0mnt8","PTarp":3.12227},"type":"Feature","geometry":{"type":"Point","coordinates":[-83.045913,42.330165]}},{"properties":{"Match_addr":"DETROIT, MI","City":"Detroit","TARP":5000.0,"X":-83.045913,"ARC_City":"Detroit","Y":42.330165,"ARC_State":"MI","Institutio":"GMAC LLC","State":"MI","Score":100,"id":"a63bbu8675e1","PTarp":1.66078},"type":"Feature","geometry":{"type":"Point","coordinates":[-83.045913,42.330165]}},{"properties":{"Match_addr":"FARMINGTON HILLS, MI","City":"Farmington Hills","TARP":1500.0,"X":-83.357818,"ARC_City":"Farmington Hills","Y":42.484725,"ARC_State":"MI","Institutio":"Chrysler Financial Services Americas LLC","State":"MI","Score":100,"id":"a63bbu61axbj","PTarp":0.49824},"type":"Feature","geometry":{"type":"Point","coordinates":[-83.357818,42.484725]}},{"properties":{"Match_addr":"FLINT, MI","City":"Flint","TARP":300.0,"X":-83.693534,"ARC_City":"Flint","Y":43.023464,"ARC_State":"MI","Institutio":"Citizens Republic Bancorp, Inc.","State":"MI","Score":100,"id":"a63bbu73rdx6","PTarp":0.09965},"type":"Feature","geometry":{"type":"Point","coordinates":[-83.693534,43.023464]}},{"properties":{"Match_addr":"IONIA, MI","City":"Ionia","TARP":72.0,"X":-85.070287,"ARC_City":"Ionia","Y":42.979517,"ARC_State":"MI","Institutio":"Independent Bank Corporation","State":"MI","Score":100,"id":"a63bbu3tdgue","PTarp":0.02392},"type":"Feature","geometry":{"type":"Point","coordinates":[-85.070287,42.979517]}},{"properties":{"Match_addr":"TECUMSEH, MI","City":"Tecumseh","TARP":20.6,"X":-83.945208,"ARC_City":"Tecumseh","Y":42.00405,"ARC_State":"MI","Institutio":"United Bancorp, Inc.","State":"MI","Score":100,"id":"a63bbtwkextn","PTarp":0.00684},"type":"Feature","geometry":{"type":"Point","coordinates":[-83.945208,42.00405]}},{"properties":{"Match_addr":"TROY, MI","City":"Troy","TARP":266.657,"X":-83.168807,"ARC_City":"Troy","Y":42.590972,"ARC_State":"MI","Institutio":"Flagstar Bancorp, Inc.","State":"MI","Score":100,"id":"a63bbu0x4xz7","PTarp":0.08857},"type":"Feature","geometry":{"type":"Point","coordinates":[-83.168807,42.590972]}},{"properties":{"Match_addr":"BLAINE, MN","City":"Blaine","TARP":10.65,"X":-93.211918,"ARC_City":"Blaine","Y":45.167792,"ARC_State":"MN","Institutio":"Crosstown Holding Company","State":"MN","Score":100,"id":"a63bbu0zimxk","PTarp":0.00354},"type":"Feature","geometry":{"type":"Point","coordinates":[-93.211918,45.167792]}},{"properties":{"Match_addr":"MINNEAPOLIS, MN","City":"Minneapolis","TARP":6599.0,"X":-93.264351,"ARC_City":"Minneapolis","Y":44.977482,"ARC_State":"MN","Institutio":"U.S. Bancorp","State":"MN","Score":100,"id":"a63bbu76quog","PTarp":2.1919},"type":"Feature","geometry":{"type":"Point","coordinates":[-93.264351,44.977482]}},{"properties":{"Match_addr":"REDWOOD FALLS, MN","City":"Redwood Falls","TARP":2.995,"X":-95.095874,"ARC_City":"Redwood Falls","Y":44.547597,"ARC_State":"MN","Institutio":"Redwood Financial Inc.","State":"MN","Score":100,"id":"a63bbu2hxyg4","PTarp":0.00099},"type":"Feature","geometry":{"type":"Point","coordinates":[-95.095874,44.547597]}},{"properties":{"Match_addr":"ROCHESTER, MN","City":"Rochester","TARP":26.0,"X":-92.465953,"ARC_City":"Rochester","Y":44.02157,"ARC_State":"MN","Institutio":"HMN Financial, Inc.","State":"MN","Score":100,"id":"a63bbu0v2j4q","PTarp":0.00864},"type":"Feature","geometry":{"type":"Point","coordinates":[-92.465953,44.02157]}},{"properties":{"Match_addr":"WAYZATA, MN","City":"Wayzata","TARP":361.172,"X":-93.515144,"ARC_City":"Wayzata","Y":44.969971,"ARC_State":"MN","Institutio":"TCF Financial Corporation","State":"MN","Score":100,"id":"a63bbtuzhanj","PTarp":0.11997},"type":"Feature","geometry":{"type":"Point","coordinates":[-93.515144,44.969971]}},{"properties":{"Match_addr":"ASHLAND, MO","City":"Ashland","TARP":1.037,"X":-92.252427,"ARC_City":"Ashland","Y":38.774328,"ARC_State":"MO","Institutio":"Calvert Financial Corporation","State":"MO","Score":100,"id":"a63bbtujpan6","PTarp":0.00034},"type":"Feature","geometry":{"type":"Point","coordinates":[-92.252427,38.774328]}},{"properties":{"Match_addr":"CLAYTON, MO","City":"Clayton","TARP":295.4,"X":-90.33503,"ARC_City":"Clayton","Y":38.643002,"ARC_State":"MO","Institutio":"First Banks, Inc.","State":"MO","Score":100,"id":"a63bbu2ybpyc","PTarp":0.09812},"type":"Feature","geometry":{"type":"Point","coordinates":[-90.33503,38.643002]}},{"properties":{"Match_addr":"CREVE COEUR, MO","City":"Creve Coeur","TARP":32.538,"X":-90.429169,"ARC_City":"Creve Coeur","Y":38.661099,"ARC_State":"MO","Institutio":"Pulaski Financial Corp","State":"MO","Score":100,"id":"a63bbu60g264","PTarp":0.01081},"type":"Feature","geometry":{"type":"Point","coordinates":[-90.429169,38.661099]}},{"properties":{"Match_addr":"KANSAS CITY, MO","City":"Kansas City","TARP":146.053,"X":-94.583653,"ARC_City":"Kansas City","Y":39.090432,"ARC_State":"MO","Institutio":"Dickinson Financial Corporation II","State":"MO","Score":100,"id":"a63bbu8ay3pj","PTarp":0.04851},"type":"Feature","geometry":{"type":"Point","coordinates":[-94.583653,39.090432]}},{"properties":{"Match_addr":"LEE'S SUMMIT, MO","City":"Lee's Summit","TARP":30.255,"X":-94.376178,"ARC_City":"Lee's Summit","Y":38.912589,"ARC_State":"MO","Institutio":"Hawthorn Bancshares, Inc.","State":"MO","Score":100,"id":"a63bbtta442q","PTarp":0.01005},"type":"Feature","geometry":{"type":"Point","coordinates":[-94.376178,38.912589]}},{"properties":{"Match_addr":"POPLAR BLUFF, MO","City":"Poplar Bluff","TARP":9.55,"X":-90.407719,"ARC_City":"Poplar Bluff","Y":36.758635,"ARC_State":"MO","Institutio":"Southern Missouri Bancorp, Inc.","State":"MO","Score":100,"id":"a63bbtuot4pn","PTarp":0.00317},"type":"Feature","geometry":{"type":"Point","coordinates":[-90.407719,36.758635]}},{"properties":{"Match_addr":"SPRINGFIELD, MO","City":"Springfield","TARP":58.0,"X":-93.287061,"ARC_City":"Springfield","Y":37.196828,"ARC_State":"MO","Institutio":"Great Southern Bancorp","State":"MO","Score":100,"id":"a63bbttuwwi4","PTarp":0.01927},"type":"Feature","geometry":{"type":"Point","coordinates":[-93.287061,37.196828]}},{"properties":{"Match_addr":"SPRINGFIELD, MO","City":"Springfield","TARP":17.0,"X":-93.287061,"ARC_City":"Springfield","Y":37.196828,"ARC_State":"MO","Institutio":"Guaranty Federal Bancshares, Inc.","State":"MO","Score":100,"id":"a63bbu2tw1g7","PTarp":0.00565},"type":"Feature","geometry":{"type":"Point","coordinates":[-93.287061,37.196828]}},{"properties":{"Match_addr":"ST. LOUIS, MO","City":"St. Louis","TARP":35.0,"X":-90.198268,"ARC_City":"St. Louis","Y":38.627487,"ARC_State":"MO","Institutio":"Enterprise Financial Services Corp.","State":"MO","Score":100,"id":"a63bbu2h7uqi","PTarp":0.01163},"type":"Feature","geometry":{"type":"Point","coordinates":[-90.198268,38.627487]}},{"properties":{"Match_addr":"ST. LOUIS, MO","City":"St. Louis","TARP":32.668,"X":-90.198268,"ARC_City":"St. Louis","Y":38.627487,"ARC_State":"MO","Institutio":"Centrue Financial Corporation","State":"MO","Score":100,"id":"a63bbtu2665q","PTarp":0.01085},"type":"Feature","geometry":{"type":"Point","coordinates":[-90.198268,38.627487]}},{"properties":{"Match_addr":"JACKSON, MS","City":"Jackson","TARP":215.0,"X":-90.177951,"ARC_City":"Jackson","Y":32.312208,"ARC_State":"MS","Institutio":"Trustmark Corporation","State":"MS","Score":100,"id":"a63bbtz9pjfx","PTarp":0.07141},"type":"Feature","geometry":{"type":"Point","coordinates":[-90.177951,32.312208]}},{"properties":{"Match_addr":"MACON, MS","City":"Macon","TARP":15.5,"X":-88.560038,"ARC_City":"Macon","Y":33.113833,"ARC_State":"MS","Institutio":"BankFirst Capital Corporation","State":"MS","Score":100,"id":"a63bbtszfx9s","PTarp":0.00515},"type":"Feature","geometry":{"type":"Point","coordinates":[-88.560038,33.113833]}},{"properties":{"Match_addr":"STARKVILLE, MS","City":"Starkville","TARP":44.0,"X":-88.827612,"ARC_City":"Starkville","Y":33.459983,"ARC_State":"MS","Institutio":"Cadence Financial Corporation","State":"MS","Score":100,"id":"a63bbu8a93pv","PTarp":0.01461},"type":"Feature","geometry":{"type":"Point","coordinates":[-88.827612,33.459983]}},{"properties":{"Match_addr":"ALBEMARLE, NC","City":"Albemarle","TARP":10.0,"X":-80.194283,"ARC_City":"Albemarle","Y":35.362602,"ARC_State":"NC","Institutio":"Uwharrie Capital Corp","State":"NC","Score":100,"id":"a63bbu2g9o2f","PTarp":0.00332},"type":"Feature","geometry":{"type":"Point","coordinates":[-80.194283,35.362602]}},{"properties":{"Match_addr":"CARY, NC","City":"Cary","TARP":24.9,"X":-78.781134,"ARC_City":"Cary","Y":35.791467,"ARC_State":"NC","Institutio":"Crescent Financial Corporation","State":"NC","Score":100,"id":"a63bbtz8wtlf","PTarp":0.00827},"type":"Feature","geometry":{"type":"Point","coordinates":[-78.781134,35.791467]}},{"properties":{"Match_addr":"CHARLOTTE, NC","City":"Charlotte","TARP":3.0,"X":-80.845841,"ARC_City":"Charlotte","Y":35.231402,"ARC_State":"NC","Institutio":"Bank of Commerce","State":"NC","Score":100,"id":"a63bbu5znisu","PTarp":0.001},"type":"Feature","geometry":{"type":"Point","coordinates":[-80.845841,35.231402]}},{"properties":{"Match_addr":"CHARLOTTE, NC","City":"Charlotte","TARP":20000.0,"X":-80.845841,"ARC_City":"Charlotte","Y":35.231402,"ARC_State":"NC","Institutio":"Bank of America Corporation","State":"NC","Score":100,"id":"a63bbu5cnabj","PTarp":6.64313},"type":"Feature","geometry":{"type":"Point","coordinates":[-80.845841,35.231402]}},{"properties":{"Match_addr":"CHARLOTTE, NC","City":"Charlotte","TARP":15000.0,"X":-80.845841,"ARC_City":"Charlotte","Y":35.231402,"ARC_State":"NC","Institutio":"Bank of America Corporation","State":"NC","Score":100,"id":"a63bbu03if9f","PTarp":4.98235},"type":"Feature","geometry":{"type":"Point","coordinates":[-80.845841,35.231402]}},{"properties":{"Match_addr":"CHARLOTTE, NC","City":"Charlotte","TARP":10000.0,"X":-80.845841,"ARC_City":"Charlotte","Y":35.231402,"ARC_State":"NC","Institutio":"Bank of America Corporation","State":"NC","Score":100,"id":"a63bbtye02h7","PTarp":3.32157},"type":"Feature","geometry":{"type":"Point","coordinates":[-80.845841,35.231402]}},{"properties":{"Match_addr":"ELKIN, NC","City":"Elkin","TARP":36.0,"X":-80.848134,"ARC_City":"Elkin","Y":36.258804,"ARC_State":"NC","Institutio":"Yadkin Valley Financial Corporation","State":"NC","Score":100,"id":"a63bbu12ees6","PTarp":0.01196},"type":"Feature","geometry":{"type":"Point","coordinates":[-80.848134,36.258804]}},{"properties":{"Match_addr":"ENGELHARD, NC","City":"Engelhard","TARP":17.949,"X":-75.996112,"ARC_City":"Engelhard","Y":35.509591,"ARC_State":"NC","Institutio":"ECB Bancorp, Inc./East Carolina Bank","State":"NC","Score":100,"id":"a63bbu43674f","PTarp":0.00596},"type":"Feature","geometry":{"type":"Point","coordinates":[-75.996112,35.509591]}},{"properties":{"Match_addr":"GASTONIA, NC","City":"Gastonia","TARP":3.5,"X":-81.187562,"ARC_City":"Gastonia","Y":35.267448,"ARC_State":"NC","Institutio":"AB&amp;T Financial Corporation","State":"NC","Score":100,"id":"a63bbu6esfia","PTarp":0.00116},"type":"Feature","geometry":{"type":"Point","coordinates":[-81.187562,35.267448]}},{"properties":{"Match_addr":"GASTONIA, NC","City":"Gastonia","TARP":20.5,"X":-81.187562,"ARC_City":"Gastonia","Y":35.267448,"ARC_State":"NC","Institutio":"Citizens South Banking Corporation","State":"NC","Score":100,"id":"a63bbu8r98nu","PTarp":0.00681},"type":"Feature","geometry":{"type":"Point","coordinates":[-81.187562,35.267448]}},{"properties":{"Match_addr":"GREENSBORO, NC","City":"Greensboro","TARP":16.0,"X":-79.79016,"ARC_City":"Greensboro","Y":36.073499,"ARC_State":"NC","Institutio":"Carolina Bank Holdings, Inc.","State":"NC","Score":100,"id":"a63bbtuc1f5y","PTarp":0.00531},"type":"Feature","geometry":{"type":"Point","coordinates":[-79.79016,36.073499]}},{"properties":{"Match_addr":"GREENSBORO, NC","City":"Greensboro","TARP":52.372,"X":-79.79016,"ARC_City":"Greensboro","Y":36.073499,"ARC_State":"NC","Institutio":"NewBridge Bancorp","State":"NC","Score":100,"id":"a63bbtzrq17c","PTarp":0.0174},"type":"Feature","geometry":{"type":"Point","coordinates":[-79.79016,36.073499]}},{"properties":{"Match_addr":"HENDERSONVILLE, NC","City":"Hendersonville","TARP":16.369,"X":-82.46144,"ARC_City":"Hendersonville","Y":35.321293,"ARC_State":"NC","Institutio":"1st FS Corporation","State":"NC","Score":100,"id":"a63bbu4g5ca5","PTarp":0.00544},"type":"Feature","geometry":{"type":"Point","coordinates":[-82.46144,35.321293]}},{"properties":{"Match_addr":"KINSTON, NC","City":"Kinston","TARP":7.5,"X":-77.592331,"ARC_City":"Kinston","Y":35.276306,"ARC_State":"NC","Institutio":"The Little Bank, Incorporated","State":"NC","Score":100,"id":"a63bbtwvav65","PTarp":0.00249},"type":"Feature","geometry":{"type":"Point","coordinates":[-77.592331,35.276306]}},{"properties":{"Match_addr":"MOREHEAD CITY, NC","City":"Morehead City","TARP":3.07,"X":-76.746674,"ARC_City":"Morehead City","Y":34.727257,"ARC_State":"NC","Institutio":"Sound Banking Company","State":"NC","Score":100,"id":"a63bbu30812v","PTarp":0.00102},"type":"Feature","geometry":{"type":"Point","coordinates":[-76.746674,34.727257]}},{"properties":{"Match_addr":"MOUNT AIRY, NC","City":"Mount Airy","TARP":2.0,"X":-80.608671,"ARC_City":"Mount Airy","Y":36.505997,"ARC_State":"NC","Institutio":"Surrey Bancorp","State":"NC","Score":100,"id":"a63bbu2g36s8","PTarp":0.00066},"type":"Feature","geometry":{"type":"Point","coordinates":[-80.608671,36.505997]}},{"properties":{"Match_addr":"NEWTON, NC","City":"Newton","TARP":25.054,"X":-81.230615,"ARC_City":"Newton","Y":35.666546,"ARC_State":"NC","Institutio":"Peoples Bancorp of North Carolina, Inc.","State":"NC","Score":100,"id":"a63bbu2yro64","PTarp":0.00832},"type":"Feature","geometry":{"type":"Point","coordinates":[-81.230615,35.666546]}},{"properties":{"Match_addr":"OAK RIDGE, NC","City":"Oak Ridge","TARP":7.7,"X":-80.129376,"ARC_City":"Oak Ridge","Y":36.502692,"ARC_State":"NC","Institutio":"Oak Ridge Financial Services, Inc.","State":"NC","Score":100,"id":"a63bbu5y6i10","PTarp":0.00256},"type":"Feature","geometry":{"type":"Point","coordinates":[-80.129376,36.502692]}},{"properties":{"Match_addr":"RALEIGH, NC","City":"Raleigh","TARP":41.279,"X":-78.643414,"ARC_City":"Raleigh","Y":35.779748,"ARC_State":"NC","Institutio":"Capital Bank Corporation","State":"NC","Score":100,"id":"a63bbu6rz5t0","PTarp":0.01371},"type":"Feature","geometry":{"type":"Point","coordinates":[-78.643414,35.779748]}},{"properties":{"Match_addr":"THOMASVILLE, NC","City":"Thomasville","TARP":31.26,"X":-80.071853,"ARC_City":"Thomasville","Y":35.887409,"ARC_State":"NC","Institutio":"Bank of North Carolina","State":"NC","Score":100,"id":"a63bbtwkwxx8","PTarp":0.01038},"type":"Feature","geometry":{"type":"Point","coordinates":[-80.071853,35.887409]}},{"properties":{"Match_addr":"TROY, NC","City":"Troy","TARP":65.0,"X":-79.894918,"ARC_City":"Troy","Y":35.363352,"ARC_State":"NC","Institutio":"First Bancorp","State":"NC","Score":100,"id":"a63bbu3dzzhc","PTarp":0.02159},"type":"Feature","geometry":{"type":"Point","coordinates":[-79.894918,35.363352]}},{"properties":{"Match_addr":"WINSTON-SALEM, NC","City":"Winston-Salem","TARP":3133.64,"X":-80.243423,"ARC_City":"Winston-Salem","Y":36.094801,"ARC_State":"NC","Institutio":"BB&amp;T Corp.","State":"NC","Score":100,"id":"a63bbtydq1z0","PTarp":1.04086},"type":"Feature","geometry":{"type":"Point","coordinates":[-80.243423,36.094801]}},{"properties":{"Match_addr":"WINSTON-SALEM, NC","City":"Winston-Salem","TARP":42.75,"X":-80.243423,"ARC_City":"Winston-Salem","Y":36.094801,"ARC_State":"NC","Institutio":"Southern Community Financial Corp.","State":"NC","Score":100,"id":"a63bbtxfkiu1","PTarp":0.0142},"type":"Feature","geometry":{"type":"Point","coordinates":[-80.243423,36.094801]}},{"properties":{"Match_addr":"BISMARCK, ND","City":"Bismarck","TARP":20.093,"X":-100.769379,"ARC_City":"Bismarck","Y":46.808369,"ARC_State":"ND","Institutio":"BNCCORP, Inc.","State":"ND","Score":100,"id":"a63bbu4sdxyv","PTarp":0.00667},"type":"Feature","geometry":{"type":"Point","coordinates":[-100.769379,46.808369]}},{"properties":{"Match_addr":"FARGO, ND","City":"Fargo","TARP":50.0,"X":-96.798263,"ARC_City":"Fargo","Y":46.875,"ARC_State":"ND","Institutio":"State Bankshares, Inc.","State":"ND","Score":100,"id":"a63bbtsl4in5","PTarp":0.01661},"type":"Feature","geometry":{"type":"Point","coordinates":[-96.798263,46.875]}},{"properties":{"Match_addr":"MILFORD, NE","City":"Milford","TARP":7.525,"X":-97.05309,"ARC_City":"Milford","Y":40.770021,"ARC_State":"NE","Institutio":"Country Bank Shares, Inc.","State":"NE","Score":100,"id":"a63bbtuowwc9","PTarp":0.0025},"type":"Feature","geometry":{"type":"Point","coordinates":[-97.05309,40.770021]}},{"properties":{"Match_addr":"OGALLALA, NE","City":"Ogallala","TARP":12.72,"X":-101.720498,"ARC_City":"Ogallala","Y":41.130998,"ARC_State":"NE","Institutio":"Adbanc, Inc","State":"NE","Score":100,"id":"a63bbtywsh6d","PTarp":0.00423},"type":"Feature","geometry":{"type":"Point","coordinates":[-101.720498,41.130998]}},{"properties":{"Match_addr":"BERLIN, NH","City":"Berlin","TARP":10.0,"X":-71.256794,"ARC_City":"Berlin","Y":44.491324,"ARC_State":"NH","Institutio":"Northway Financial, Inc.","State":"NH","Score":100,"id":"a63bbu4psn0y","PTarp":0.00332},"type":"Feature","geometry":{"type":"Point","coordinates":[-71.256794,44.491324]}},{"properties":{"Match_addr":"NEWPORT, NH","City":"Newport","TARP":10.0,"X":-72.17775,"ARC_City":"Newport","Y":43.371073,"ARC_State":"NH","Institutio":"New Hampshire Thrift Bancshares, Inc.","State":"NH","Score":100,"id":"a63bbtu18s3l","PTarp":0.00332},"type":"Feature","geometry":{"type":"Point","coordinates":[-72.17775,43.371073]}},{"properties":{"Match_addr":"PETERBOROUGH, NH","City":"Peterborough","TARP":1.834,"X":-71.95875,"ARC_City":"Peterborough","Y":42.874276,"ARC_State":"NH","Institutio":"Monadnock Bancorp, Inc.","State":"NH","Score":100,"id":"a63bbtwberot","PTarp":0.00061},"type":"Feature","geometry":{"type":"Point","coordinates":[-71.95875,42.874276]}},{"properties":{"Match_addr":"BERNARDSVILLE, NJ","City":"Bernardsville","TARP":7.414,"X":-74.587592,"ARC_City":"Bernardsville","Y":40.727771,"ARC_State":"NJ","Institutio":"Somerset Hills Bancorp","State":"NJ","Score":100,"id":"a63bbu1n7nyr","PTarp":0.00246},"type":"Feature","geometry":{"type":"Point","coordinates":[-74.587592,40.727771]}},{"properties":{"Match_addr":"CLINTON, NJ","City":"Clinton","TARP":20.649,"X":-74.90974,"ARC_City":"Clinton","Y":40.636471,"ARC_State":"NJ","Institutio":"Unity Bancorp, Inc.","State":"NJ","Score":100,"id":"a63bbttbilwd","PTarp":0.00686},"type":"Feature","geometry":{"type":"Point","coordinates":[-74.90974,40.636471]}},{"properties":{"Match_addr":"CRANBURY, NJ","City":"Cranbury","TARP":12.0,"X":-74.514123,"ARC_City":"Cranbury","Y":40.316486,"ARC_State":"NJ","Institutio":"1st Constitution Bancorp","State":"NJ","Score":100,"id":"a63bbu8mh9n1","PTarp":0.00399},"type":"Feature","geometry":{"type":"Point","coordinates":[-74.514123,40.316486]}},{"properties":{"Match_addr":"GLADSTONE, NJ","City":"Gladstone","TARP":28.685,"X":-74.671797,"ARC_City":"Gladstone","Y":40.714216,"ARC_State":"NJ","Institutio":"Peapack-Gladstone Financial Corporation","State":"NJ","Score":100,"id":"a63bbu22p9py","PTarp":0.00953},"type":"Feature","geometry":{"type":"Point","coordinates":[-74.671797,40.714216]}},{"properties":{"Match_addr":"MIDDLETOWN, NJ","City":"Middletown","TARP":9.0,"X":-74.117238,"ARC_City":"Middletown","Y":40.394096,"ARC_State":"NJ","Institutio":"Community Partners Bancorp","State":"NJ","Score":100,"id":"a63bbu7dh824","PTarp":0.00299},"type":"Feature","geometry":{"type":"Point","coordinates":[-74.117238,40.394096]}},{"properties":{"Match_addr":"MIDLAND PARK, NJ","City":"Midland Park","TARP":10.0,"X":-74.140171,"ARC_City":"Midland Park","Y":40.996345,"ARC_State":"NJ","Institutio":"Stewardship Financial Corporation","State":"NJ","Score":100,"id":"a63bbtyttkfz","PTarp":0.00332},"type":"Feature","geometry":{"type":"Point","coordinates":[-74.140171,40.996345]}},{"properties":{"Match_addr":"OAKHURST, NJ","City":"Oakhurst","TARP":11.3,"X":-74.02314,"ARC_City":"Oakhurst","Y":40.260612,"ARC_State":"NJ","Institutio":"Central Jersey Bancorp","State":"NJ","Score":100,"id":"a63bbtwtlgey","PTarp":0.00375},"type":"Feature","geometry":{"type":"Point","coordinates":[-74.02314,40.260612]}},{"properties":{"Match_addr":"SEWELL, NJ","City":"Sewell","TARP":16.288,"X":-75.141255,"ARC_City":"Sewell","Y":39.768059,"ARC_State":"NJ","Institutio":"Parke Bancorp, Inc.","State":"NJ","Score":100,"id":"a63bbtxiwf9z","PTarp":0.00541},"type":"Feature","geometry":{"type":"Point","coordinates":[-75.141255,39.768059]}},{"properties":{"Match_addr":"SUMMIT, NJ","City":"Summit","TARP":4.0,"X":-74.36396,"ARC_City":"Summit","Y":40.7168,"ARC_State":"NJ","Institutio":"Hilltop Community Bancorp, Inc.","State":"NJ","Score":100,"id":"a63bbtzwubs4","PTarp":0.00133},"type":"Feature","geometry":{"type":"Point","coordinates":[-74.36396,40.7168]}},{"properties":{"Match_addr":"TOMS RIVER, NJ","City":"Toms River","TARP":38.263,"X":-74.190332,"ARC_City":"Toms River","Y":39.959342,"ARC_State":"NJ","Institutio":"OceanFirst Financial Corp.","State":"NJ","Score":100,"id":"a63bbu5ctxx2","PTarp":0.01271},"type":"Feature","geometry":{"type":"Point","coordinates":[-74.190332,39.959342]}},{"properties":{"Match_addr":"UNION, NJ","City":"Union","TARP":10.0,"X":-74.270969,"ARC_City":"Union","Y":40.695464,"ARC_State":"NJ","Institutio":"Center Bancorp, Inc.","State":"NJ","Score":100,"id":"a63bbtxqwdgc","PTarp":0.00332},"type":"Feature","geometry":{"type":"Point","coordinates":[-74.270969,40.695464]}},{"properties":{"Match_addr":"VINELAND, NJ","City":"Vineland","TARP":89.31,"X":-75.026045,"ARC_City":"Vineland","Y":39.48619,"ARC_State":"NJ","Institutio":"Sun Bancorp, Inc.","State":"NJ","Score":100,"id":"a63bbu7dug5u","PTarp":0.02966},"type":"Feature","geometry":{"type":"Point","coordinates":[-75.026045,39.48619]}},{"properties":{"Match_addr":"WAYNE, NJ","City":"Wayne","TARP":300.0,"X":-74.244502,"ARC_City":"Wayne","Y":40.948493,"ARC_State":"NJ","Institutio":"Valley National Bancorp","State":"NJ","Score":100,"id":"a63bbu1v9e7t","PTarp":0.09965},"type":"Feature","geometry":{"type":"Point","coordinates":[-74.244502,40.948493]}},{"properties":{"Match_addr":"LAS VEGAS, NV","City":"Las Vegas","TARP":140.0,"X":-115.246776,"ARC_City":"Las Vegas","Y":36.233048,"ARC_State":"NV","Institutio":"Western Alliance Bancorporation","State":"NV","Score":100,"id":"a63bbu2wy663","PTarp":0.0465},"type":"Feature","geometry":{"type":"Point","coordinates":[-115.246776,36.233048]}},{"properties":{"Match_addr":"BUFFALO, NY","City":"Buffalo","TARP":600.0,"X":-78.877875,"ARC_City":"Buffalo","Y":42.886875,"ARC_State":"NY","Institutio":"M&amp;T Bank Corporation","State":"NY","Score":100,"id":"a63bbu1hv9gm","PTarp":0.19929},"type":"Feature","geometry":{"type":"Point","coordinates":[-78.877875,42.886875]}},{"properties":{"Match_addr":"ELMIRA, NY","City":"Elmira","TARP":9.09,"X":-76.812471,"ARC_City":"Elmira","Y":42.095597,"ARC_State":"NY","Institutio":"The Elmira Savings Bank, FSB","State":"NY","Score":100,"id":"a63bbu3ygsu4","PTarp":0.00302},"type":"Feature","geometry":{"type":"Point","coordinates":[-76.812471,42.095597]}},{"properties":{"Match_addr":"JERICHO, NY","City":"Jericho","TARP":36.842,"X":-73.662551,"ARC_City":"Jericho","Y":44.794267,"ARC_State":"NY","Institutio":"State Bancorp, Inc.","State":"NY","Score":100,"id":"a63bbtzu261a","PTarp":0.01224},"type":"Feature","geometry":{"type":"Point","coordinates":[-73.662551,44.794267]}},{"properties":{"Match_addr":"LAKE SUCCESS, NY","City":"Lake Success","TARP":70.0,"X":-73.707791,"ARC_City":"Lake Success","Y":40.768548,"ARC_State":"NY","Institutio":"Flushing Financial Corporation","State":"NY","Score":100,"id":"a63bbtvtpgv0","PTarp":0.02325},"type":"Feature","geometry":{"type":"Point","coordinates":[-73.707791,40.768548]}},{"properties":{"Match_addr":"LOCKPORT, NY","City":"Lockport","TARP":184.011,"X":-78.696849,"ARC_City":"Lockport","Y":43.168862,"ARC_State":"NY","Institutio":"First Niagara Financial Group","State":"NY","Score":100,"id":"a63bbu62n43i","PTarp":0.06112},"type":"Feature","geometry":{"type":"Point","coordinates":[-78.696849,43.168862]}},{"properties":{"Match_addr":"NEW YORK, NY","City":"New York","TARP":10000.0,"X":-73.98555,"ARC_City":"New York","Y":40.757947,"ARC_State":"NY","Institutio":"Morgan Stanley","State":"NY","Score":100,"id":"a63bbtsnmg24","PTarp":3.32157},"type":"Feature","geometry":{"type":"Point","coordinates":[-73.98555,40.757947]}},{"properties":{"Match_addr":"NEW YORK, NY","City":"New York","TARP":40000.0,"X":-73.98555,"ARC_City":"New York","Y":40.757947,"ARC_State":"NY","Institutio":"AIG","State":"NY","Score":100,"id":"a63bbtybdt6r","PTarp":13.28627},"type":"Feature","geometry":{"type":"Point","coordinates":[-73.98555,40.757947]}},{"properties":{"Match_addr":"NEW YORK, NY","City":"New York","TARP":42.0,"X":-73.98555,"ARC_City":"New York","Y":40.757947,"ARC_State":"NY","Institutio":"Sterling Bancorp","State":"NY","Score":100,"id":"a63bbu0sk9f8","PTarp":0.01395},"type":"Feature","geometry":{"type":"Point","coordinates":[-73.98555,40.757947]}},{"properties":{"Match_addr":"NEW YORK, NY","City":"New York","TARP":267.274,"X":-73.98555,"ARC_City":"New York","Y":40.757947,"ARC_State":"NY","Institutio":"New York Private Bank &amp; Trust Corporation","State":"NY","Score":100,"id":"a63bbu0ol11g","PTarp":0.08878},"type":"Feature","geometry":{"type":"Point","coordinates":[-73.98555,40.757947]}},{"properties":{"Match_addr":"NEW YORK, NY","City":"New York","TARP":3388.89,"X":-73.98555,"ARC_City":"New York","Y":40.757947,"ARC_State":"NY","Institutio":"American Express Company","State":"NY","Score":100,"id":"a63bbtud3axj","PTarp":1.12564},"type":"Feature","geometry":{"type":"Point","coordinates":[-73.98555,40.757947]}},{"properties":{"Match_addr":"NEW YORK, NY","City":"New York","TARP":25.0,"X":-73.98555,"ARC_City":"New York","Y":40.757947,"ARC_State":"NY","Institutio":"Intervest Bancshares Corporation","State":"NY","Score":100,"id":"a63bbtskvu18","PTarp":0.0083},"type":"Feature","geometry":{"type":"Point","coordinates":[-73.98555,40.757947]}},{"properties":{"Match_addr":"NEW YORK, NY","City":"New York","TARP":3000.0,"X":-73.98555,"ARC_City":"New York","Y":40.757947,"ARC_State":"NY","Institutio":"Bank of New York Mellon Corporation","State":"NY","Score":100,"id":"a63bbtucqmh4","PTarp":0.99647},"type":"Feature","geometry":{"type":"Point","coordinates":[-73.98555,40.757947]}},{"properties":{"Match_addr":"NEW YORK, NY","City":"New York","TARP":120.0,"X":-73.98555,"ARC_City":"New York","Y":40.757947,"ARC_State":"NY","Institutio":"Signature Bank","State":"NY","Score":100,"id":"a63bbu2ixe4n","PTarp":0.03986},"type":"Feature","geometry":{"type":"Point","coordinates":[-73.98555,40.757947]}},{"properties":{"Match_addr":"NEW YORK, NY","City":"New York","TARP":25000.0,"X":-73.98555,"ARC_City":"New York","Y":40.757947,"ARC_State":"NY","Institutio":"JPMorgan Chase &amp; Co.","State":"NY","Score":100,"id":"a63bbu38ug4b","PTarp":8.30392},"type":"Feature","geometry":{"type":"Point","coordinates":[-73.98555,40.757947]}},{"properties":{"Match_addr":"NEW YORK, NY","City":"New York","TARP":10000.0,"X":-73.98555,"ARC_City":"New York","Y":40.757947,"ARC_State":"NY","Institutio":"The Goldman Sachs Group, Inc.","State":"NY","Score":100,"id":"a63bbu00brtj","PTarp":3.32157},"type":"Feature","geometry":{"type":"Point","coordinates":[-73.98555,40.757947]}},{"properties":{"Match_addr":"NEW YORK, NY","City":"New York","TARP":18.98,"X":-73.98555,"ARC_City":"New York","Y":40.757947,"ARC_State":"NY","Institutio":"Carver Bancorp, Inc","State":"NY","Score":100,"id":"a63bbtthr9d1","PTarp":0.0063},"type":"Feature","geometry":{"type":"Point","coordinates":[-73.98555,40.757947]}},{"properties":{"Match_addr":"NEW YORK, NY","City":"New York","TARP":2330.0,"X":-73.98555,"ARC_City":"New York","Y":40.757947,"ARC_State":"NY","Institutio":"CIT Group Inc.","State":"NY","Score":100,"id":"a63bbu41vv8h","PTarp":0.77393},"type":"Feature","geometry":{"type":"Point","coordinates":[-73.98555,40.757947]}},{"properties":{"Match_addr":"NEW YORK, NY","City":"New York","TARP":25000.0,"X":-73.98555,"ARC_City":"New York","Y":40.757947,"ARC_State":"NY","Institutio":"Citigroup Inc.","State":"NY","Score":100,"id":"a63bbu85ih0a","PTarp":8.30392},"type":"Feature","geometry":{"type":"Point","coordinates":[-73.98555,40.757947]}},{"properties":{"Match_addr":"NEW YORK, NY","City":"New York","TARP":20000.0,"X":-73.98555,"ARC_City":"New York","Y":40.757947,"ARC_State":"NY","Institutio":"Citigroup Inc.","State":"NY","Score":100,"id":"a63bbu83y0es","PTarp":6.64313},"type":"Feature","geometry":{"type":"Point","coordinates":[-73.98555,40.757947]}},{"properties":{"Match_addr":"NEW YORK, NY","City":"New York","TARP":5000.0,"X":-73.98555,"ARC_City":"New York","Y":40.757947,"ARC_State":"NY","Institutio":"Citigroup Inc.","State":"NY","Score":100,"id":"a63bbu1r2tfo","PTarp":1.66078},"type":"Feature","geometry":{"type":"Point","coordinates":[-73.98555,40.757947]}},{"properties":{"Match_addr":"SYRACUSE, NY","City":"Syracuse","TARP":26.918,"X":-76.147375,"ARC_City":"Syracuse","Y":43.050831,"ARC_State":"NY","Institutio":"Alliance Financial Corporation","State":"NY","Score":100,"id":"a63bbtx9l5bg","PTarp":0.00894},"type":"Feature","geometry":{"type":"Point","coordinates":[-76.147375,43.050831]}},{"properties":{"Match_addr":"WARSAW, NY","City":"Warsaw","TARP":37.515,"X":-78.141075,"ARC_City":"Warsaw","Y":42.740107,"ARC_State":"NY","Institutio":"Financial Institutions, Inc.","State":"NY","Score":100,"id":"a63bbu2ks2ad","PTarp":0.01246},"type":"Feature","geometry":{"type":"Point","coordinates":[-78.141075,42.740107]}},{"properties":{"Match_addr":"AKRON, OH","City":"Akron","TARP":125.0,"X":-81.515574,"ARC_City":"Akron","Y":41.084837,"ARC_State":"OH","Institutio":"FirstMerit Corporation","State":"OH","Score":100,"id":"a63bbtujpfhp","PTarp":0.04152},"type":"Feature","geometry":{"type":"Point","coordinates":[-81.515574,41.084837]}},{"properties":{"Match_addr":"BUCYRUS, OH","City":"Bucyrus","TARP":2.6,"X":-82.974147,"ARC_City":"Bucyrus","Y":40.808683,"ARC_State":"OH","Institutio":"Community Investors Bancorp, Inc.","State":"OH","Score":100,"id":"a63bbu1yottg","PTarp":0.00086},"type":"Feature","geometry":{"type":"Point","coordinates":[-82.974147,40.808683]}},{"properties":{"Match_addr":"CINCINNATI, OH","City":"Cincinnati","TARP":3408.0,"X":-84.517486,"ARC_City":"Cincinnati","Y":39.099233,"ARC_State":"OH","Institutio":"Fifth Third Bancorp","State":"OH","Score":100,"id":"a63bbu1g4die","PTarp":1.13199},"type":"Feature","geometry":{"type":"Point","coordinates":[-84.517486,39.099233]}},{"properties":{"Match_addr":"CINCINNATI, OH","City":"Cincinnati","TARP":80.0,"X":-84.517486,"ARC_City":"Cincinnati","Y":39.099233,"ARC_State":"OH","Institutio":"First Financial Bancorp","State":"OH","Score":100,"id":"a63bbtzkr2y4","PTarp":0.02657},"type":"Feature","geometry":{"type":"Point","coordinates":[-84.517486,39.099233]}},{"properties":{"Match_addr":"CLEVELAND, OH","City":"Cleveland","TARP":2500.0,"X":-81.693716,"ARC_City":"Cleveland","Y":41.499713,"ARC_State":"OH","Institutio":"KeyCorp","State":"OH","Score":100,"id":"a63bbtypstvk","PTarp":0.83039},"type":"Feature","geometry":{"type":"Point","coordinates":[-81.693716,41.499713]}},{"properties":{"Match_addr":"COLUMBUS, OH","City":"Columbus","TARP":1398.071,"X":-83.000676,"ARC_City":"Columbus","Y":39.962208,"ARC_State":"OH","Institutio":"Huntington Bancshares","State":"OH","Score":100,"id":"a63bbu74xd0h","PTarp":0.46438},"type":"Feature","geometry":{"type":"Point","coordinates":[-83.000676,39.962208]}},{"properties":{"Match_addr":"DAYTON, OH","City":"Dayton","TARP":2.0,"X":-84.205101,"ARC_City":"Dayton","Y":39.762347,"ARC_State":"OH","Institutio":"TCNB Financial Corp.","State":"OH","Score":100,"id":"a63bbu87m4pc","PTarp":0.00066},"type":"Feature","geometry":{"type":"Point","coordinates":[-84.205101,39.762347]}},{"properties":{"Match_addr":"DEFIANCE, OH","City":"Defiance","TARP":37.0,"X":-84.362683,"ARC_City":"Defiance","Y":41.28092,"ARC_State":"OH","Institutio":"First Defiance Financial Corp.","State":"OH","Score":100,"id":"a63bbu74ruzf","PTarp":0.01229},"type":"Feature","geometry":{"type":"Point","coordinates":[-84.362683,41.28092]}},{"properties":{"Match_addr":"FAIRLAWN, OH","City":"Fairlawn","TARP":7.225,"X":-81.614497,"ARC_City":"Fairlawn","Y":41.130337,"ARC_State":"OH","Institutio":"Central Federal Corporation","State":"OH","Score":100,"id":"a63bbu8k6ryg","PTarp":0.0024},"type":"Feature","geometry":{"type":"Point","coordinates":[-81.614497,41.130337]}},{"properties":{"Match_addr":"LEBANON, OH","City":"Lebanon","TARP":13.4,"X":-81.273726,"ARC_City":"Lebanon","Y":39.607762,"ARC_State":"OH","Institutio":"LCNB Corp.","State":"OH","Score":100,"id":"a63bbttgkp75","PTarp":0.00445},"type":"Feature","geometry":{"type":"Point","coordinates":[-81.273726,39.607762]}},{"properties":{"Match_addr":"LORAIN, OH","City":"Lorain","TARP":25.223,"X":-82.166083,"ARC_City":"Lorain","Y":41.451558,"ARC_State":"OH","Institutio":"LNB Bancorp Inc.","State":"OH","Score":100,"id":"a63bbu4hwds4","PTarp":0.00838},"type":"Feature","geometry":{"type":"Point","coordinates":[-82.166083,41.451558]}},{"properties":{"Match_addr":"MARIETTA, OH","City":"Marietta","TARP":39.0,"X":-81.457341,"ARC_City":"Marietta","Y":39.420096,"ARC_State":"OH","Institutio":"Peoples Bancorp Inc.","State":"OH","Score":100,"id":"a63bbu4tdrfv","PTarp":0.01295},"type":"Feature","geometry":{"type":"Point","coordinates":[-81.457341,39.420096]}},{"properties":{"Match_addr":"NEWARK, OH","City":"Newark","TARP":100.0,"X":-82.428851,"ARC_City":"Newark","Y":40.07087,"ARC_State":"OH","Institutio":"Park National Corporation","State":"OH","Score":100,"id":"a63bbtvvt56x","PTarp":0.03322},"type":"Feature","geometry":{"type":"Point","coordinates":[-82.428851,40.07087]}},{"properties":{"Match_addr":"SANDUSKY, OH","City":"Sandusky","TARP":23.184,"X":-82.720292,"ARC_City":"Sandusky","Y":41.445894,"ARC_State":"OH","Institutio":"First Citizens Banc Corp","State":"OH","Score":100,"id":"a63bbu22wmx4","PTarp":0.0077},"type":"Feature","geometry":{"type":"Point","coordinates":[-82.720292,41.445894]}},{"properties":{"Match_addr":"STILLWATER, OK","City":"Stillwater","TARP":70.0,"X":-97.069455,"ARC_City":"Stillwater","Y":36.130511,"ARC_State":"OK","Institutio":"Southwest Bancorp, Inc.","State":"OK","Score":100,"id":"a63bbtu5wp81","PTarp":0.02325},"type":"Feature","geometry":{"type":"Point","coordinates":[-97.069455,36.130511]}},{"properties":{"Match_addr":"PORTLAND, OR","City":"Portland","TARP":214.181,"X":-122.670132,"ARC_City":"Portland","Y":45.523104,"ARC_State":"OR","Institutio":"Umpqua Holdings Corp.","State":"OR","Score":100,"id":"a63bbu3380x9","PTarp":0.07114},"type":"Feature","geometry":{"type":"Point","coordinates":[-122.670132,45.523104]}},{"properties":{"Match_addr":"PORTLAND, OR","City":"Portland","TARP":4.0,"X":-122.670132,"ARC_City":"Portland","Y":45.523104,"ARC_State":"OR","Institutio":"Capital Pacific Bancorp","State":"OR","Score":100,"id":"a63bbtvjer7a","PTarp":0.00133},"type":"Feature","geometry":{"type":"Point","coordinates":[-122.670132,45.523104]}},{"properties":{"Match_addr":"BOYERTOWN, PA","City":"Boyertown","TARP":150.0,"X":-75.638908,"ARC_City":"Boyertown","Y":40.332306,"ARC_State":"PA","Institutio":"National Penn Bancshares, Inc.","State":"PA","Score":100,"id":"a63bbu1n28dh","PTarp":0.04982},"type":"Feature","geometry":{"type":"Point","coordinates":[-75.638908,40.332306]}},{"properties":{"Match_addr":"DOWNINGTOWN, PA","City":"Downingtown","TARP":11.75,"X":-75.702668,"ARC_City":"Downingtown","Y":40.006745,"ARC_State":"PA","Institutio":"DNB Financial Corporation","State":"PA","Score":100,"id":"a63bbu6fria6","PTarp":0.0039},"type":"Feature","geometry":{"type":"Point","coordinates":[-75.702668,40.006745]}},{"properties":{"Match_addr":"EMLENTON, PA","City":"Emlenton","TARP":7.5,"X":-79.708175,"ARC_City":"Emlenton","Y":41.177214,"ARC_State":"PA","Institutio":"Emclaire Financial Corp.","State":"PA","Score":100,"id":"a63bbtwnsilh","PTarp":0.00249},"type":"Feature","geometry":{"type":"Point","coordinates":[-79.708175,41.177214]}},{"properties":{"Match_addr":"EXTON, PA","City":"Exton","TARP":2.6,"X":-75.628177,"ARC_City":"Exton","Y":40.028204,"ARC_State":"PA","Institutio":"First Resource Bank","State":"PA","Score":100,"id":"a63bbu7byh77","PTarp":0.00086},"type":"Feature","geometry":{"type":"Point","coordinates":[-75.628177,40.028204]}},{"properties":{"Match_addr":"HERMITAGE, PA","City":"Hermitage","TARP":100.0,"X":-80.444163,"ARC_City":"Hermitage","Y":41.233494,"ARC_State":"PA","Institutio":"F.N.B. Corporation","State":"PA","Score":100,"id":"a63bbtv0vtr8","PTarp":0.03322},"type":"Feature","geometry":{"type":"Point","coordinates":[-80.444163,41.233494]}},{"properties":{"Match_addr":"INDIANA, PA","City":"Indiana","TARP":108.676,"X":-79.156034,"ARC_City":"Indiana","Y":40.622982,"ARC_State":"PA","Institutio":"T Bancorp","State":"PA","Score":100,"id":"a63bbu5lf0cv","PTarp":0.0361},"type":"Feature","geometry":{"type":"Point","coordinates":[-79.156034,40.622982]}},{"properties":{"Match_addr":"JOHNSTOWN, PA","City":"Johnstown","TARP":21.0,"X":-76.316446,"ARC_City":"Johnstown","Y":40.278065,"ARC_State":"PA","Institutio":"AmeriServ Financial, Inc","State":"PA","Score":100,"id":"a63bbu8bxe75","PTarp":0.00698},"type":"Feature","geometry":{"type":"Point","coordinates":[-76.316446,40.278065]}},{"properties":{"Match_addr":"LANCASTER, PA","City":"Lancaster","TARP":376.5,"X":-76.299879,"ARC_City":"Lancaster","Y":40.041775,"ARC_State":"PA","Institutio":"Fulton Financial Corporation","State":"PA","Score":100,"id":"a63bbu2oo7ml","PTarp":0.12506},"type":"Feature","geometry":{"type":"Point","coordinates":[-76.299879,40.041775]}},{"properties":{"Match_addr":"LITITZ, PA","City":"Lititz","TARP":300.0,"X":-76.307154,"ARC_City":"Lititz","Y":40.155474,"ARC_State":"PA","Institutio":"Susquehanna Bancshares, Inc","State":"PA","Score":100,"id":"a63bbu1lz3kg","PTarp":0.09965},"type":"Feature","geometry":{"type":"Point","coordinates":[-76.307154,40.155474]}},{"properties":{"Match_addr":"MILLERSBURG, PA","City":"Millersburg","TARP":10.0,"X":-76.952994,"ARC_City":"Millersburg","Y":40.540053,"ARC_State":"PA","Institutio":"Mid Penn Bancorp, Inc.","State":"PA","Score":100,"id":"a63bbu7wxj8x","PTarp":0.00332},"type":"Feature","geometry":{"type":"Point","coordinates":[-76.952994,40.540053]}},{"properties":{"Match_addr":"MONROEVILLE, PA","City":"Monroeville","TARP":31.762,"X":-79.790766,"ARC_City":"Monroeville","Y":40.424219,"ARC_State":"PA","Institutio":"Parkvale Financial Corporation","State":"PA","Score":100,"id":"a63bbtz6fi6w","PTarp":0.01055},"type":"Feature","geometry":{"type":"Point","coordinates":[-79.790766,40.424219]}},{"properties":{"Match_addr":"PITTSBURGH, PA","City":"Pittsburgh","TARP":7.0,"X":-80.001983,"ARC_City":"Pittsburgh","Y":40.438355,"ARC_State":"PA","Institutio":"Fidelity Bancorp, Inc.","State":"PA","Score":100,"id":"a63bbu2s0qtn","PTarp":0.00233},"type":"Feature","geometry":{"type":"Point","coordinates":[-80.001983,40.438355]}},{"properties":{"Match_addr":"PITTSBURGH, PA","City":"Pittsburgh","TARP":7579.2,"X":-80.001983,"ARC_City":"Pittsburgh","Y":40.438355,"ARC_State":"PA","Institutio":"The PNC Financial Services Group Inc.","State":"PA","Score":100,"id":"a63bbttbfes3","PTarp":2.51748},"type":"Feature","geometry":{"type":"Point","coordinates":[-80.001983,40.438355]}},{"properties":{"Match_addr":"WELLSBORO, PA","City":"Wellsboro","TARP":26.44,"X":-77.301958,"ARC_City":"Wellsboro","Y":41.747446,"ARC_State":"PA","Institutio":"Citizens &amp; Northern Corporation","State":"PA","Score":100,"id":"a63bbu90f188","PTarp":0.00878},"type":"Feature","geometry":{"type":"Point","coordinates":[-77.301958,41.747446]}},{"properties":{"Match_addr":"WEST CHESTER, PA","City":"West Chester","TARP":10.973,"X":-75.605271,"ARC_City":"West Chester","Y":39.960476,"ARC_State":"PA","Institutio":"Stonebridge Financial Corp.","State":"PA","Score":100,"id":"a63bbtu17klk","PTarp":0.00364},"type":"Feature","geometry":{"type":"Point","coordinates":[-75.605271,39.960476]}},{"properties":{"Match_addr":"WYOMISSING, PA","City":"Wyomissing","TARP":25.0,"X":-75.963258,"ARC_City":"Wyomissing","Y":40.329338,"ARC_State":"PA","Institutio":"VIST Financial Corp.","State":"PA","Score":100,"id":"a63bbu0bqade","PTarp":0.0083},"type":"Feature","geometry":{"type":"Point","coordinates":[-75.963258,40.329338]}},{"properties":{"Match_addr":"YORK, PA","City":"York","TARP":16.5,"X":-76.731612,"ARC_City":"York","Y":39.961265,"ARC_State":"PA","Institutio":"Codorus Valley Bancorp, Inc.","State":"PA","Score":100,"id":"a63bbtxcrcz2","PTarp":0.00548},"type":"Feature","geometry":{"type":"Point","coordinates":[-76.731612,39.961265]}},{"properties":{"Match_addr":"EAST GREENWICH, RI","City":"East Greenwich","TARP":1.065,"X":-71.459554,"ARC_City":"East Greenwich","Y":41.663664,"ARC_State":"RI","Institutio":"Independence Bank","State":"RI","Score":100,"id":"a63bbtvfyhan","PTarp":0.00035},"type":"Feature","geometry":{"type":"Point","coordinates":[-71.459554,41.663664]}},{"properties":{"Match_addr":"PROVIDENCE, RI","City":"Providence","TARP":30.0,"X":-71.408718,"ARC_City":"Providence","Y":41.826956,"ARC_State":"RI","Institutio":"Bancorp Rhode Island, Inc.","State":"RI","Score":100,"id":"a63bbtzltmyu","PTarp":0.00996},"type":"Feature","geometry":{"type":"Point","coordinates":[-71.408718,41.826956]}},{"properties":{"Match_addr":"AIKEN, SC","City":"Aiken","TARP":18.0,"X":-81.7242,"ARC_City":"Aiken","Y":33.537455,"ARC_State":"SC","Institutio":"Security Federal Corporation","State":"SC","Score":100,"id":"a63bbtxg9kbd","PTarp":0.00598},"type":"Feature","geometry":{"type":"Point","coordinates":[-81.7242,33.537455]}},{"properties":{"Match_addr":"CAYCE, SC","City":"Cayce","TARP":3.285,"X":-81.074361,"ARC_City":"Cayce","Y":33.956415,"ARC_State":"SC","Institutio":"Congaree Bancshares, Inc.","State":"SC","Score":100,"id":"a63bbu481tv6","PTarp":0.00109},"type":"Feature","geometry":{"type":"Point","coordinates":[-81.074361,33.956415]}},{"properties":{"Match_addr":"CHARLESTON, SC","City":"Charleston","TARP":65.0,"X":-79.941294,"ARC_City":"Charleston","Y":32.793053,"ARC_State":"SC","Institutio":"First Financial Holdings Inc.","State":"SC","Score":100,"id":"a63bbu8ckzs8","PTarp":0.02159},"type":"Feature","geometry":{"type":"Point","coordinates":[-79.941294,32.793053]}},{"properties":{"Match_addr":"COLUMBIA, SC","City":"Columbia","TARP":64.779,"X":-81.035303,"ARC_City":"Columbia","Y":34.000688,"ARC_State":"SC","Institutio":"SCBT Financial Corporation","State":"SC","Score":100,"id":"a63bbu4ewypk","PTarp":0.02152},"type":"Feature","geometry":{"type":"Point","coordinates":[-81.035303,34.000688]}},{"properties":{"Match_addr":"GREENVILLE, SC","City":"Greenville","TARP":9.0,"X":-82.391246,"ARC_City":"Greenville","Y":34.854967,"ARC_State":"SC","Institutio":"GrandSouth Bancorporation","State":"SC","Score":100,"id":"a63bbu47pw0s","PTarp":0.00299},"type":"Feature","geometry":{"type":"Point","coordinates":[-82.391246,34.854967]}},{"properties":{"Match_addr":"GREENVILLE, SC","City":"Greenville","TARP":347.0,"X":-82.391246,"ARC_City":"Greenville","Y":34.854967,"ARC_State":"SC","Institutio":"South Financial Group, Inc.","State":"SC","Score":100,"id":"a63bbu4np0xt","PTarp":0.11526},"type":"Feature","geometry":{"type":"Point","coordinates":[-82.391246,34.854967]}},{"properties":{"Match_addr":"GREER, SC","City":"Greer","TARP":9.993,"X":-82.241508,"ARC_City":"Greer","Y":34.937069,"ARC_State":"SC","Institutio":"Greer Bancshares Incorporated","State":"SC","Score":100,"id":"a63bbu0e4lys","PTarp":0.00332},"type":"Feature","geometry":{"type":"Point","coordinates":[-82.241508,34.937069]}},{"properties":{"Match_addr":"LEXINGTON, SC","City":"Lexington","TARP":11.35,"X":-81.234936,"ARC_City":"Lexington","Y":33.986208,"ARC_State":"SC","Institutio":"First Community Corporation","State":"SC","Score":100,"id":"a63bbu3odbb3","PTarp":0.00377},"type":"Feature","geometry":{"type":"Point","coordinates":[-81.234936,33.986208]}},{"properties":{"Match_addr":"SIOUX FALLS, SD","City":"Sioux Falls","TARP":25.0,"X":-96.731291,"ARC_City":"Sioux Falls","Y":43.54599,"ARC_State":"SD","Institutio":"HF Financial Corp.","State":"SD","Score":100,"id":"a63bbu83sccj","PTarp":0.0083},"type":"Feature","geometry":{"type":"Point","coordinates":[-96.731291,43.54599]}},{"properties":{"Match_addr":"CHATTANOOGA, TN","City":"Chattanooga","TARP":33.0,"X":-85.254824,"ARC_City":"Chattanooga","Y":35.063642,"ARC_State":"TN","Institutio":"First Security Group, Inc.","State":"TN","Score":100,"id":"a63bbturtber","PTarp":0.01096},"type":"Feature","geometry":{"type":"Point","coordinates":[-85.254824,35.063642]}},{"properties":{"Match_addr":"FRANKLIN, TN","City":"Franklin","TARP":30.0,"X":-86.841873,"ARC_City":"Franklin","Y":35.929539,"ARC_State":"TN","Institutio":"Tennessee Commerce Bancorp, Inc.","State":"TN","Score":100,"id":"a63bbu8qbzzt","PTarp":0.00996},"type":"Feature","geometry":{"type":"Point","coordinates":[-86.841873,35.929539]}},{"properties":{"Match_addr":"GREENEVILLE, TN","City":"Greeneville","TARP":72.278,"X":-82.813219,"ARC_City":"Greeneville","Y":36.168739,"ARC_State":"TN","Institutio":"Green Bankshares, Inc.","State":"TN","Score":100,"id":"a63bbtwnedso","PTarp":0.02401},"type":"Feature","geometry":{"type":"Point","coordinates":[-82.813219,36.168739]}},{"properties":{"Match_addr":"MEMPHIS, TN","City":"Memphis","TARP":13.795,"X":-90.05235,"ARC_City":"Memphis","Y":35.142852,"ARC_State":"TN","Institutio":"Magna Bank","State":"TN","Score":100,"id":"a63bbu2upbty","PTarp":0.00458},"type":"Feature","geometry":{"type":"Point","coordinates":[-90.05235,35.142852]}},{"properties":{"Match_addr":"MEMPHIS, TN","City":"Memphis","TARP":866.54,"X":-90.05235,"ARC_City":"Memphis","Y":35.142852,"ARC_State":"TN","Institutio":"First Horizon National Corporation","State":"TN","Score":100,"id":"a63bbu1tt02u","PTarp":0.28783},"type":"Feature","geometry":{"type":"Point","coordinates":[-90.05235,35.142852]}},{"properties":{"Match_addr":"MOSCOW, TN","City":"Moscow","TARP":6.216,"X":-89.393796,"ARC_City":"Moscow","Y":35.060186,"ARC_State":"TN","Institutio":"Moscow Bancshares, Inc.","State":"TN","Score":100,"id":"a63bbu1u7d82","PTarp":0.00206},"type":"Feature","geometry":{"type":"Point","coordinates":[-89.393796,35.060186]}},{"properties":{"Match_addr":"NASHVILLE, TN","City":"Nashville","TARP":95.0,"X":-86.782097,"ARC_City":"Nashville","Y":36.15888,"ARC_State":"TN","Institutio":"Pinnacle Financial Partners, Inc.","State":"TN","Score":100,"id":"a63bbtsuhuq5","PTarp":0.03155},"type":"Feature","geometry":{"type":"Point","coordinates":[-86.782097,36.15888]}},{"properties":{"Match_addr":"OAK RIDGE, TN","City":"Oak Ridge","TARP":3.0,"X":-84.24333,"ARC_City":"Oak Ridge","Y":36.001609,"ARC_State":"TN","Institutio":"Tennessee Valley Financial Holdings, Inc.","State":"TN","Score":100,"id":"a63bbu3z7n2c","PTarp":0.001},"type":"Feature","geometry":{"type":"Point","coordinates":[-84.24333,36.001609]}},{"properties":{"Match_addr":"TREZEVANT, TN","City":"Trezevant","TARP":4.609,"X":-88.622567,"ARC_City":"Trezevant","Y":36.011595,"ARC_State":"TN","Institutio":"F &amp; M Bancshares, Inc.","State":"TN","Score":100,"id":"a63bbu4jeyjt","PTarp":0.00153},"type":"Feature","geometry":{"type":"Point","coordinates":[-88.622567,36.011595]}},{"properties":{"Match_addr":"AUSTIN, TX","City":"Austin","TARP":3.268,"X":-97.745209,"ARC_City":"Austin","Y":30.268735,"ARC_State":"TX","Institutio":"Treaty Oak Bancorp, Inc.","State":"TX","Score":100,"id":"a63bbtz0wk6d","PTarp":0.00109},"type":"Feature","geometry":{"type":"Point","coordinates":[-97.745209,30.268735]}},{"properties":{"Match_addr":"DALLAS, TX","City":"Dallas","TARP":87.631,"X":-96.797111,"ARC_City":"Dallas","Y":32.781078,"ARC_State":"TX","Institutio":"Plains Capital Corporation","State":"TX","Score":100,"id":"a63bbu6fjg9a","PTarp":0.02911},"type":"Feature","geometry":{"type":"Point","coordinates":[-96.797111,32.781078]}},{"properties":{"Match_addr":"DALLAS, TX","City":"Dallas","TARP":75.0,"X":-96.797111,"ARC_City":"Dallas","Y":32.781078,"ARC_State":"TX","Institutio":"Texas Capital Bancshares, Inc.","State":"TX","Score":100,"id":"a63bbu3hc0xi","PTarp":0.02491},"type":"Feature","geometry":{"type":"Point","coordinates":[-96.797111,32.781078]}},{"properties":{"Match_addr":"DALLAS, TX","City":"Dallas","TARP":2250.0,"X":-96.797111,"ARC_City":"Dallas","Y":32.781078,"ARC_State":"TX","Institutio":"Comerica Inc.","State":"TX","Score":100,"id":"a63bbu81hjgh","PTarp":0.74735},"type":"Feature","geometry":{"type":"Point","coordinates":[-96.797111,32.781078]}},{"properties":{"Match_addr":"HOUSTON, TX","City":"Houston","TARP":125.198,"X":-95.362534,"ARC_City":"Houston","Y":29.759956,"ARC_State":"TX","Institutio":"Sterling Bancshares, Inc.","State":"TX","Score":100,"id":"a63bbtz7mxk2","PTarp":0.04159},"type":"Feature","geometry":{"type":"Point","coordinates":[-95.362534,29.759956]}},{"properties":{"Match_addr":"HOUSTON, TX","City":"Houston","TARP":34.0,"X":-95.362534,"ARC_City":"Houston","Y":29.759956,"ARC_State":"TX","Institutio":"Encore Bancshares Inc.","State":"TX","Score":100,"id":"a63bbtydvtt9","PTarp":0.01129},"type":"Feature","geometry":{"type":"Point","coordinates":[-95.362534,29.759956]}},{"properties":{"Match_addr":"HOUSTON, TX","City":"Houston","TARP":26.038,"X":-95.362534,"ARC_City":"Houston","Y":29.759956,"ARC_State":"TX","Institutio":"Patriot Bancshares, Inc.","State":"TX","Score":100,"id":"a63bbtyiob3s","PTarp":0.00865},"type":"Feature","geometry":{"type":"Point","coordinates":[-95.362534,29.759956]}},{"properties":{"Match_addr":"HOUSTON, TX","City":"Houston","TARP":45.0,"X":-95.362534,"ARC_City":"Houston","Y":29.759956,"ARC_State":"TX","Institutio":"MetroCorp Bancshares, Inc.","State":"TX","Score":100,"id":"a63bbu13uc4w","PTarp":0.01495},"type":"Feature","geometry":{"type":"Point","coordinates":[-95.362534,29.759956]}},{"properties":{"Match_addr":"HOUSTON, TX","City":"Houston","TARP":5.8,"X":-95.362534,"ARC_City":"Houston","Y":29.759956,"ARC_State":"TX","Institutio":"Central Bancshares, Inc.","State":"TX","Score":100,"id":"a63bbu4psgbd","PTarp":0.00193},"type":"Feature","geometry":{"type":"Point","coordinates":[-95.362534,29.759956]}},{"properties":{"Match_addr":"JACKSONVILLE, TX","City":"Jacksonville","TARP":3.981,"X":-95.26286,"ARC_City":"Jacksonville","Y":31.966207,"ARC_State":"TX","Institutio":"Texas National Bancorporation","State":"TX","Score":100,"id":"a63bbtteu0g1","PTarp":0.00132},"type":"Feature","geometry":{"type":"Point","coordinates":[-95.26286,31.966207]}},{"properties":{"Match_addr":"LAREDO, TX","City":"Laredo","TARP":216.0,"X":-99.49107,"ARC_City":"Laredo","Y":27.555909,"ARC_State":"TX","Institutio":"International Bancshares Corporation","State":"TX","Score":100,"id":"a63bbtwpbqer","PTarp":0.07175},"type":"Feature","geometry":{"type":"Point","coordinates":[-99.49107,27.555909]}},{"properties":{"Match_addr":"THE WOODLANDS, TX","City":"The Woodlands","TARP":11.73,"X":-95.508925,"ARC_City":"The Woodlands","Y":30.161792,"ARC_State":"TX","Institutio":"TCB Holding Company, Texas Community Bank","State":"TX","Score":100,"id":"a63bbu5iwrty","PTarp":0.0039},"type":"Feature","geometry":{"type":"Point","coordinates":[-95.508925,30.161792]}},{"properties":{"Match_addr":"LOGAN, UT","City":"Logan","TARP":4.767,"X":-111.834747,"ARC_City":"Logan","Y":41.739027,"ARC_State":"UT","Institutio":"Cache Valley Banking Company","State":"UT","Score":100,"id":"a63bbtu2vb43","PTarp":0.00158},"type":"Feature","geometry":{"type":"Point","coordinates":[-111.834747,41.739027]}},{"properties":{"Match_addr":"SALT LAKE CITY, UT","City":"Salt Lake City","TARP":1400.0,"X":-111.888189,"ARC_City":"Salt Lake City","Y":40.771592,"ARC_State":"UT","Institutio":"Zions Bancorporation","State":"UT","Score":100,"id":"a63bbu0c832j","PTarp":0.46502},"type":"Feature","geometry":{"type":"Point","coordinates":[-111.888189,40.771592]}},{"properties":{"Match_addr":"ARLINGTON, VA","City":"Arlington","TARP":71.0,"X":-77.103339,"ARC_City":"Arlington","Y":38.881579,"ARC_State":"VA","Institutio":"Virginia Commerce Bancorp","State":"VA","Score":100,"id":"a63bbu2xrzp1","PTarp":0.02358},"type":"Feature","geometry":{"type":"Point","coordinates":[-77.103339,38.881579]}},{"properties":{"Match_addr":"BLUEFIELD, VA","City":"Bluefield","TARP":41.5,"X":-81.260845,"ARC_City":"Bluefield","Y":37.237719,"ARC_State":"VA","Institutio":"First Community Bankshares Inc.","State":"VA","Score":100,"id":"a63bbu3unmhi","PTarp":0.01378},"type":"Feature","geometry":{"type":"Point","coordinates":[-81.260845,37.237719]}},{"properties":{"Match_addr":"BOWLING GREEN, VA","City":"Bowling Green","TARP":59.0,"X":-77.350592,"ARC_City":"Bowling Green","Y":38.055736,"ARC_State":"VA","Institutio":"Union Bankshares Corporation","State":"VA","Score":100,"id":"a63bbtyglsde","PTarp":0.0196},"type":"Feature","geometry":{"type":"Point","coordinates":[-77.350592,38.055736]}},{"properties":{"Match_addr":"CHARLOTTESVILLE, VA","City":"Charlottesville","TARP":30.0,"X":-78.48926,"ARC_City":"Charlottesville","Y":38.037764,"ARC_State":"VA","Institutio":"StellarOne Corporation","State":"VA","Score":100,"id":"a63bbtx136l2","PTarp":0.00996},"type":"Feature","geometry":{"type":"Point","coordinates":[-78.48926,38.037764]}},{"properties":{"Match_addr":"CHESAPEAKE, VA","City":"Chesapeake","TARP":14.7,"X":-76.238087,"ARC_City":"Chesapeake","Y":36.712395,"ARC_State":"VA","Institutio":"Monarch Financial Holdings, Inc.","State":"VA","Score":100,"id":"a63bbu2y5fn8","PTarp":0.00488},"type":"Feature","geometry":{"type":"Point","coordinates":[-76.238087,36.712395]}},{"properties":{"Match_addr":"GLEN ALLEN, VA","City":"Glen Allen","TARP":17.68,"X":-77.495343,"ARC_City":"Glen Allen","Y":37.673107,"ARC_State":"VA","Institutio":"Community Bankers Trust Corporation","State":"VA","Score":100,"id":"a63bbtwpl6bp","PTarp":0.00587},"type":"Feature","geometry":{"type":"Point","coordinates":[-77.495343,37.673107]}},{"properties":{"Match_addr":"MCLEAN, VA","City":"McLean","TARP":3555.199,"X":-77.17472,"ARC_City":"McLean","Y":38.940575,"ARC_State":"VA","Institutio":"Capital One Financial Corporation","State":"VA","Score":100,"id":"a63bbtun3e89","PTarp":1.18088},"type":"Feature","geometry":{"type":"Point","coordinates":[-77.17472,38.940575]}},{"properties":{"Match_addr":"MIDDLEBURG, VA","City":"Middleburg","TARP":22.0,"X":-77.738551,"ARC_City":"Middleburg","Y":38.96782,"ARC_State":"VA","Institutio":"Middleburg Financial Corporation","State":"VA","Score":100,"id":"a63bbu49t3mj","PTarp":0.00731},"type":"Feature","geometry":{"type":"Point","coordinates":[-77.738551,38.96782]}},{"properties":{"Match_addr":"NORFOLK, VA","City":"Norfolk","TARP":80.347,"X":-76.274406,"ARC_City":"Norfolk","Y":36.854685,"ARC_State":"VA","Institutio":"Hampton Roads Bankshares, Inc.","State":"VA","Score":100,"id":"a63bbtznvxg4","PTarp":0.02669},"type":"Feature","geometry":{"type":"Point","coordinates":[-76.274406,36.854685]}},{"properties":{"Match_addr":"PORTSMOUTH, VA","City":"Portsmouth","TARP":76.458,"X":-76.312849,"ARC_City":"Portsmouth","Y":36.835065,"ARC_State":"VA","Institutio":"TowneBank","State":"VA","Score":100,"id":"a63bbtu2mjtx","PTarp":0.0254},"type":"Feature","geometry":{"type":"Point","coordinates":[-76.312849,36.835065]}},{"properties":{"Match_addr":"POWHATAN, VA","City":"Powhatan","TARP":11.385,"X":-77.919003,"ARC_City":"Powhatan","Y":37.542041,"ARC_State":"VA","Institutio":"Central Virginia Bankshares, Inc.","State":"VA","Score":100,"id":"a63bbu57ssnd","PTarp":0.00378},"type":"Feature","geometry":{"type":"Point","coordinates":[-77.919003,37.542041]}},{"properties":{"Match_addr":"RESTON, VA","City":"Reston","TARP":6.633,"X":-77.342285,"ARC_City":"Reston","Y":38.951839,"ARC_State":"VA","Institutio":"WashingtonFirst Bank","State":"VA","Score":100,"id":"a63bbu461fns","PTarp":0.0022},"type":"Feature","geometry":{"type":"Point","coordinates":[-77.342285,38.951839]}},{"properties":{"Match_addr":"ROANOKE, VA","City":"Roanoke","TARP":16.019,"X":-79.94239,"ARC_City":"Roanoke","Y":37.272621,"ARC_State":"VA","Institutio":"Valley Financial Corporation","State":"VA","Score":100,"id":"a63bbtwnbco0","PTarp":0.00532},"type":"Feature","geometry":{"type":"Point","coordinates":[-79.94239,37.272621]}},{"properties":{"Match_addr":"SOUTH HILL, VA","City":"South Hill","TARP":3.0,"X":-78.128838,"ARC_City":"South Hill","Y":36.726539,"ARC_State":"VA","Institutio":"Citizens Community Bank","State":"VA","Score":100,"id":"a63bbtsl6j8y","PTarp":0.001},"type":"Feature","geometry":{"type":"Point","coordinates":[-78.128838,36.726539]}},{"properties":{"Match_addr":"STAUNTON, VA","City":"Staunton","TARP":12.643,"X":-79.062862,"ARC_City":"Staunton","Y":38.157054,"ARC_State":"VA","Institutio":"Community Financial Corporation","State":"VA","Score":100,"id":"a63bbu12f1eh","PTarp":0.0042},"type":"Feature","geometry":{"type":"Point","coordinates":[-79.062862,38.157054]}},{"properties":{"Match_addr":"TAPPAHANNOCK, VA","City":"Tappahannock","TARP":24.0,"X":-76.871351,"ARC_City":"Tappahannock","Y":37.921548,"ARC_State":"VA","Institutio":"Eastern Virginia Bankshares, Inc.","State":"VA","Score":100,"id":"a63bbu2iijrk","PTarp":0.00797},"type":"Feature","geometry":{"type":"Point","coordinates":[-76.871351,37.921548]}},{"properties":{"Match_addr":"VIENNA, VA","City":"Vienna","TARP":5.658,"X":-77.258954,"ARC_City":"Vienna","Y":38.9005,"ARC_State":"VA","Institutio":"United Financial Banking Companies, Inc.","State":"VA","Score":100,"id":"a63bbu2lphae","PTarp":0.00188},"type":"Feature","geometry":{"type":"Point","coordinates":[-77.258954,38.9005]}},{"properties":{"Match_addr":"WEST POINT, VA","City":"West Point","TARP":20.0,"X":-76.805182,"ARC_City":"West Point","Y":37.547435,"ARC_State":"VA","Institutio":"C&amp;F Financial Corporation","State":"VA","Score":100,"id":"a63bbu3evdi8","PTarp":0.00664},"type":"Feature","geometry":{"type":"Point","coordinates":[-76.805182,37.547435]}},{"properties":{"Match_addr":"WINDSOR, VA","City":"Windsor","TARP":8.752,"X":-76.744214,"ARC_City":"Windsor","Y":36.80851,"ARC_State":"VA","Institutio":"Farmers Bank","State":"VA","Score":100,"id":"a63bbu7uphyk","PTarp":0.00291},"type":"Feature","geometry":{"type":"Point","coordinates":[-76.744214,36.80851]}},{"properties":{"Match_addr":"BELLEVUE, WA","City":"Bellevue","TARP":4.5,"X":-122.15116,"ARC_City":"Bellevue","Y":47.597965,"ARC_State":"WA","Institutio":"Puget Sound Bank","State":"WA","Score":100,"id":"a63bbtsuu9yo","PTarp":0.00149},"type":"Feature","geometry":{"type":"Point","coordinates":[-122.15116,47.597965]}},{"properties":{"Match_addr":"EVERETT, WA","City":"Everett","TARP":38.97,"X":-122.189544,"ARC_City":"Everett","Y":47.981797,"ARC_State":"WA","Institutio":"Cascade Financial Corporation","State":"WA","Score":100,"id":"a63bbu922zrf","PTarp":0.01294},"type":"Feature","geometry":{"type":"Point","coordinates":[-122.189544,47.981797]}},{"properties":{"Match_addr":"HOQUIAM, WA","City":"Hoquiam","TARP":16.641,"X":-123.885615,"ARC_City":"Hoquiam","Y":46.980971,"ARC_State":"WA","Institutio":"Timberland Bancorp, Inc.","State":"WA","Score":100,"id":"a63bbtsnhgb0","PTarp":0.00553},"type":"Feature","geometry":{"type":"Point","coordinates":[-123.885615,46.980971]}},{"properties":{"Match_addr":"OAK HARBOR, WA","City":"Oak Harbor","TARP":26.38,"X":-122.635599,"ARC_City":"Oak Harbor","Y":48.298073,"ARC_State":"WA","Institutio":"Washington Banking Company/ Whidbey Island Bank","State":"WA","Score":100,"id":"a63bbtyihny9","PTarp":0.00876},"type":"Feature","geometry":{"type":"Point","coordinates":[-122.635599,48.298073]}},{"properties":{"Match_addr":"OLYMPIA, WA","City":"Olympia","TARP":24.0,"X":-122.901648,"ARC_City":"Olympia","Y":47.04493,"ARC_State":"WA","Institutio":"Heritage Financial Corporation","State":"WA","Score":100,"id":"a63bbu88c1jg","PTarp":0.00797},"type":"Feature","geometry":{"type":"Point","coordinates":[-122.901648,47.04493]}},{"properties":{"Match_addr":"SEATTLE, WA","City":"Seattle","TARP":200.0,"X":-122.347533,"ARC_City":"Seattle","Y":47.620716,"ARC_State":"WA","Institutio":"Washington Federal Inc.","State":"WA","Score":100,"id":"a63bbttfxd12","PTarp":0.06643},"type":"Feature","geometry":{"type":"Point","coordinates":[-122.347533,47.620716]}},{"properties":{"Match_addr":"SEATTLE, WA","City":"Seattle","TARP":6.5,"X":-122.347533,"ARC_City":"Seattle","Y":47.620716,"ARC_State":"WA","Institutio":"Pacific International Bancorp","State":"WA","Score":100,"id":"a63bbu1xcyiz","PTarp":0.00216},"type":"Feature","geometry":{"type":"Point","coordinates":[-122.347533,47.620716]}},{"properties":{"Match_addr":"SEATTLE, WA","City":"Seattle","TARP":7.4,"X":-122.347533,"ARC_City":"Seattle","Y":47.620716,"ARC_State":"WA","Institutio":"First Sound Bank","State":"WA","Score":100,"id":"a63bbu7yhpjs","PTarp":0.00246},"type":"Feature","geometry":{"type":"Point","coordinates":[-122.347533,47.620716]}},{"properties":{"Match_addr":"SPOKANE, WA","City":"Spokane","TARP":110.0,"X":-117.411263,"ARC_City":"Spokane","Y":47.653544,"ARC_State":"WA","Institutio":"W.T.B. Financial Corporation","State":"WA","Score":100,"id":"a63bbu3r5ird","PTarp":0.03654},"type":"Feature","geometry":{"type":"Point","coordinates":[-117.411263,47.653544]}},{"properties":{"Match_addr":"SPOKANE, WA","City":"Spokane","TARP":303.0,"X":-117.411263,"ARC_City":"Spokane","Y":47.653544,"ARC_State":"WA","Institutio":"Sterling Financial Corporation","State":"WA","Score":100,"id":"a63bbu0t3ydt","PTarp":0.10064},"type":"Feature","geometry":{"type":"Point","coordinates":[-117.411263,47.653544]}},{"properties":{"Match_addr":"TACOMA, WA","City":"Tacoma","TARP":6.8,"X":-122.442563,"ARC_City":"Tacoma","Y":47.244542,"ARC_State":"WA","Institutio":"Pierce County Bancorp","State":"WA","Score":100,"id":"a63bbu1ami6i","PTarp":0.00226},"type":"Feature","geometry":{"type":"Point","coordinates":[-122.442563,47.244542]}},{"properties":{"Match_addr":"TACOMA, WA","City":"Tacoma","TARP":76.898,"X":-122.442563,"ARC_City":"Tacoma","Y":47.244542,"ARC_State":"WA","Institutio":"Columbia Banking System, Inc.","State":"WA","Score":100,"id":"a63bbtv9p255","PTarp":0.02554},"type":"Feature","geometry":{"type":"Point","coordinates":[-122.442563,47.244542]}},{"properties":{"Match_addr":"WALLA WALLA, WA","City":"Walla Walla","TARP":124.0,"X":-118.333722,"ARC_City":"Walla Walla","Y":46.065391,"ARC_State":"WA","Institutio":"Banner Corporation","State":"WA","Score":100,"id":"a63bbu1b4sbh","PTarp":0.04119},"type":"Feature","geometry":{"type":"Point","coordinates":[-118.333722,46.065391]}},{"properties":{"Match_addr":"BARABOO, WI","City":"Baraboo","TARP":20.749,"X":-89.744351,"ARC_City":"Baraboo","Y":43.469015,"ARC_State":"WI","Institutio":"The Baraboo Bancorporation","State":"WI","Score":100,"id":"a63bbtsquzg4","PTarp":0.00689},"type":"Feature","geometry":{"type":"Point","coordinates":[-89.744351,43.469015]}},{"properties":{"Match_addr":"GREEN BAY, WI","City":"Green Bay","TARP":525.0,"X":-88.007859,"ARC_City":"Green Bay","Y":44.516017,"ARC_State":"WI","Institutio":"Associated Banc-Corp","State":"WI","Score":100,"id":"a63bbtt1rqz7","PTarp":0.17438},"type":"Feature","geometry":{"type":"Point","coordinates":[-88.007859,44.516017]}},{"properties":{"Match_addr":"GREEN BAY, WI","City":"Green Bay","TARP":14.964,"X":-88.007859,"ARC_City":"Green Bay","Y":44.516017,"ARC_State":"WI","Institutio":"Nicolet Bankshares, Inc.","State":"WI","Score":100,"id":"a63bbu4omzkk","PTarp":0.00497},"type":"Feature","geometry":{"type":"Point","coordinates":[-88.007859,44.516017]}},{"properties":{"Match_addr":"MADISON, WI","City":"Madison","TARP":110.0,"X":-89.400801,"ARC_City":"Madison","Y":43.063218,"ARC_State":"WI","Institutio":"Anchor BanCorp Wisconsin Inc.","State":"WI","Score":100,"id":"a63bbtto0q8m","PTarp":0.03654},"type":"Feature","geometry":{"type":"Point","coordinates":[-89.400801,43.063218]}},{"properties":{"Match_addr":"MANITOWOC, WI","City":"Manitowoc","TARP":12.0,"X":-87.680221,"ARC_City":"Manitowoc","Y":44.08899,"ARC_State":"WI","Institutio":"First Manitowoc Bancorp, Inc.","State":"WI","Score":100,"id":"a63bbu4z47zh","PTarp":0.00399},"type":"Feature","geometry":{"type":"Point","coordinates":[-87.680221,44.08899]}},{"properties":{"Match_addr":"MILWAUKEE, WI","City":"Milwaukee","TARP":5.498,"X":-87.91448,"ARC_City":"Milwaukee","Y":43.040182,"ARC_State":"WI","Institutio":"Legacy Bancorp, Inc.","State":"WI","Score":100,"id":"a63bbtvo9bdi","PTarp":0.00183},"type":"Feature","geometry":{"type":"Point","coordinates":[-87.91448,43.040182]}},{"properties":{"Match_addr":"MILWAUKEE, WI","City":"Milwaukee","TARP":1715.0,"X":-87.91448,"ARC_City":"Milwaukee","Y":43.040182,"ARC_State":"WI","Institutio":"Marshall &amp; Ilsley Corporation","State":"WI","Score":100,"id":"a63bbu1fn6ht","PTarp":0.56965},"type":"Feature","geometry":{"type":"Point","coordinates":[-87.91448,43.040182]}},{"properties":{"Match_addr":"MORGANTOWN, WV","City":"Morgantown","TARP":15.0,"X":-79.949319,"ARC_City":"Morgantown","Y":39.638088,"ARC_State":"WV","Institutio":"Centra Financial Holdings, Inc./Centra Bank, Inc.","State":"WV","Score":100,"id":"a63bbtxbcdmm","PTarp":0.00498},"type":"Feature","geometry":{"type":"Point","coordinates":[-79.949319,39.638088]}},{"properties":{"Match_addr":"WHEELING, WV","City":"Wheeling","TARP":75.0,"X":-80.692836,"ARC_City":"Wheeling","Y":40.077456,"ARC_State":"WV","Institutio":"Wesbanco Bank Inc.","State":"WV","Score":100,"id":"a63bbu88m31e","PTarp":0.02491},"type":"Feature","geometry":{"type":"Point","coordinates":[-80.692836,40.077456]}}],"is_temporal":false,"author":{"url":"http://www.treasury.gov/initiatives/eesa/docs/transaction_report_02_24_09.pdf","metadata":"http://www.treasury.gov/initiatives/eesa/docs/transaction_report_02_24_09.pdf","contact_name":"","contact_address":"","source":"The U.S. Treasury's Office of Financial Stability report ","contact_phone":""},"source":"http://www.treasury.gov/initiatives/eesa/docs/transaction_report_02_24_09.pdf","pagination":{"sort":null,"start":0,"total":366,"limit":1000000},"state":"complete","tags":"\"troubled,asset,bailout,banks,financials,program,relief,tarp,treasury","published":"2009-03-18T12:00:00Z","id":10821}