{"type":"FeatureCollection","data_type":"Dataset","url_type":null,"permissions":[{"permissions":{"download":true,"view":true},"group_id":"everyone"}],"classification":null,"title":"example2","count":210,"stream_id":108612,"contributor":{"url":"http://geocommons.com/users/24946","name":"theaok"},"data_attributes":null,"calculation_params":null,"icon_link":null,"link":"http://geocommons.com/overlays/108612.json","extent":[-122.206,30.1602,-87.726,42.0552],"geometry_types":["point"],"unique_name":null,"name":"example2","feature_count":210,"description":"","next_feature":null,"is_raster":false,"short_classification":"Y","stats":{"amount":{"max":11000.0,"mean":539.575571428571,"variance":1246614.30898843,"stdev":1116.51883503523,"min":0.0,"median":250.0}},"features":[{"properties":{"city":"Dallas","zip":"75214","st_add":"6222  Vanderbilt Avenue","geo_score":1.0,"amount":250.0,"id":"a6ctaiv1g23b","geo_precision":"zip","state":"TX"},"type":"Feature","geometry":{"type":"Point","coordinates":[-96.698402,32.841252]}},{"properties":{"city":"Dallas","zip":"75214","st_add":"6222  Vanderbilt Avenue","geo_score":1.0,"amount":250.0,"id":"a6ctaioe0oqq","geo_precision":"zip","state":"TX"},"type":"Feature","geometry":{"type":"Point","coordinates":[-96.698402,32.841252]}},{"properties":{"city":"Dallas","zip":"75224","st_add":"627  Monssen Drive","geo_score":1.0,"amount":500.0,"id":"a6ctaj2pw8ko","geo_precision":"zip","state":"TX"},"type":"Feature","geometry":{"type":"Point","coordinates":[-96.82623,32.710281]}},{"properties":{"city":"Frisco","zip":"75034","st_add":"4500  Preston Road","geo_score":0.881,"amount":250.0,"id":"a6ctairj7l5v","geo_precision":"zip","state":"TX"},"type":"Feature","geometry":{"type":"Point","coordinates":[-96.930005,33.220674]}},{"properties":{"city":"Frisco","zip":"75034","st_add":"4500  Preston Road","geo_score":0.881,"amount":250.0,"id":"a6ctaiu4zan1","geo_precision":"zip","state":"TX"},"type":"Feature","geometry":{"type":"Point","coordinates":[-96.930005,33.220674]}},{"properties":{"city":"Dallas","zip":"75207","st_add":"2730  Irving Boulevard","geo_score":1.0,"amount":500.0,"id":"a6ctaj3svehm","geo_precision":"zip","state":"TX"},"type":"Feature","geometry":{"type":"Point","coordinates":[-96.798372,32.76313]}},{"properties":{"city":"Dallas","zip":"75208","st_add":"1414  W Colorado Boulevard","geo_score":1.0,"amount":250.0,"id":"a6ctaiqy1kka","geo_precision":"zip","state":"TX"},"type":"Feature","geometry":{"type":"Point","coordinates":[-96.82303,32.736344]}},{"properties":{"city":"Dallas","zip":"75244","st_add":"4230  LBJ Freeway Suite 140","geo_score":1.0,"amount":1000.0,"id":"a6ctaiph9foc","geo_precision":"zip","state":"TX"},"type":"Feature","geometry":{"type":"Point","coordinates":[-96.777626,32.767268]}},{"properties":{"city":"Dallas","zip":"75244","st_add":"4230  LBJ Freeway","geo_score":1.0,"amount":1000.0,"id":"a6ctaip63oqx","geo_precision":"zip","state":"TX"},"type":"Feature","geometry":{"type":"Point","coordinates":[-96.777626,32.767268]}},{"properties":{"city":"Austin","zip":"78701","st_add":"400  West 15th Street","geo_score":1.0,"amount":125.0,"id":"a6ctairwz4ua","geo_precision":"zip","state":"TX"},"type":"Feature","geometry":{"type":"Point","coordinates":[-97.741382,30.268335]}},{"properties":{"city":"South San Francisco","zip":"94803","st_add":"PO Box 9041","geo_score":0.891,"amount":41.24,"id":"a6ctait8fu49","geo_precision":"zip","state":"CA"},"type":"Feature","geometry":{"type":"Point","coordinates":[-122.206177,37.966422]}},{"properties":{"city":"South San Francisco","zip":"94803","st_add":"PO Box 9041","geo_score":0.891,"amount":238.98,"id":"a6ctaj17d4cu","geo_precision":"zip","state":"CA"},"type":"Feature","geometry":{"type":"Point","coordinates":[-122.206177,37.966422]}},{"properties":{"city":"South San Francisco","zip":"94803","st_add":"PO Box 9041","geo_score":0.891,"amount":243.25,"id":"a6ctair1nkga","geo_precision":"zip","state":"CA"},"type":"Feature","geometry":{"type":"Point","coordinates":[-122.206177,37.966422]}},{"properties":{"city":"South San Francisco","zip":"94803","st_add":"PO Box 9041","geo_score":0.891,"amount":41.24,"id":"a6ctaj0on176","geo_precision":"zip","state":"CA"},"type":"Feature","geometry":{"type":"Point","coordinates":[-122.206177,37.966422]}},{"properties":{"city":"South San Francisco","zip":"94803","st_add":"PO Box 9041","geo_score":0.891,"amount":41.24,"id":"a6ctairm51zy","geo_precision":"zip","state":"CA"},"type":"Feature","geometry":{"type":"Point","coordinates":[-122.206177,37.966422]}},{"properties":{"city":"South San Francisco","zip":"94803","st_add":"PO Box 9041","geo_score":0.891,"amount":190.39,"id":"a6ctaj48zrsh","geo_precision":"zip","state":"CA"},"type":"Feature","geometry":{"type":"Point","coordinates":[-122.206177,37.966422]}},{"properties":{"city":"Dallas","zip":"75356","st_add":"PO Box 560166","geo_score":1.0,"amount":157.0,"id":"a6ctair05xgk","geo_precision":"zip","state":"TX"},"type":"Feature","geometry":{"type":"Point","coordinates":[-96.777626,32.767268]}},{"properties":{"city":"Dallas","zip":"75222","st_add":"PO Box 223667","geo_score":1.0,"amount":200.0,"id":"a6ctait71ws2","geo_precision":"zip","state":"TX"},"type":"Feature","geometry":{"type":"Point","coordinates":[-96.777626,32.767268]}},{"properties":{"city":"Dallas","zip":"75206","st_add":"2020  N Garrett Avenue","geo_score":1.0,"amount":250.0,"id":"a6ctaj439ks5","geo_precision":"zip","state":"TX"},"type":"Feature","geometry":{"type":"Point","coordinates":[-96.771528,32.833881]}},{"properties":{"city":"Dallas","zip":"75204","st_add":"3334  Blackburn Street","geo_score":1.0,"amount":250.0,"id":"a6ctaj0947f5","geo_precision":"zip","state":"TX"},"type":"Feature","geometry":{"type":"Point","coordinates":[-96.781229,32.800028]}},{"properties":{"city":"Dallas","zip":"75207","st_add":"2515  Irving Boulevard","geo_score":1.0,"amount":1000.0,"id":"a6ctaio6d21o","geo_precision":"zip","state":"TX"},"type":"Feature","geometry":{"type":"Point","coordinates":[-96.798372,32.76313]}},{"properties":{"city":"Dallas","zip":"75235","st_add":"PO Box 36288","geo_score":1.0,"amount":1000.0,"id":"a6ctaj0b2yxr","geo_precision":"zip","state":"TX"},"type":"Feature","geometry":{"type":"Point","coordinates":[-96.623022,32.692682]}},{"properties":{"city":"Dallas","zip":"75208","st_add":"1011  N Edgefield Avenue","geo_score":1.0,"amount":25.0,"id":"a6ctaiw6d0nd","geo_precision":"zip","state":"TX"},"type":"Feature","geometry":{"type":"Point","coordinates":[-96.82303,32.736344]}},{"properties":{"city":"Oklahoma City","zip":"73124","st_add":"PO Box 24128","geo_score":1.0,"amount":250.0,"id":"a6ctaiywymjm","geo_precision":"zip","state":"OK"},"type":"Feature","geometry":{"type":"Point","coordinates":[-97.407537,35.551409]}},{"properties":{"city":"Lubbock","zip":"79413","st_add":"5010  University Avenue","geo_score":1.0,"amount":1000.0,"id":"a6ctaioln3if","geo_precision":"zip","state":"TX"},"type":"Feature","geometry":{"type":"Point","coordinates":[-101.888794,33.546285]}},{"properties":{"city":"Garland","zip":"75041","st_add":"4109  Keystone Street","geo_score":0.878,"amount":1000.0,"id":"a6ctaior03vq","geo_precision":"zip","state":"TX"},"type":"Feature","geometry":{"type":"Point","coordinates":[-96.664718,32.951234]}},{"properties":{"city":"Dallas","zip":"75209","st_add":"8303  Midway Road","geo_score":0.857,"amount":1000.0,"id":"a6ctaiy5i71q","geo_precision":"zip","state":"TX"},"type":"Feature","geometry":{"type":"Point","coordinates":[-96.821668,32.93068]}},{"properties":{"city":"Dallas","zip":"75251","st_add":"12377  Merit Drive","geo_score":1.0,"amount":500.0,"id":"a6ctaizf4epq","geo_precision":"zip","state":"TX"},"type":"Feature","geometry":{"type":"Point","coordinates":[-96.734178,32.895102]}},{"properties":{"city":"Dallas","zip":"75251","st_add":"12377  Merit Drive","geo_score":1.0,"amount":500.0,"id":"a6ctaitpw4nv","geo_precision":"zip","state":"TX"},"type":"Feature","geometry":{"type":"Point","coordinates":[-96.734178,32.895102]}},{"properties":{"city":"Dallas","zip":"75231","st_add":"8750  N. Central Expressway","geo_score":1.0,"amount":125.0,"id":"a6ctaiw8tz7b","geo_precision":"zip","state":"TX"},"type":"Feature","geometry":{"type":"Point","coordinates":[-96.740103,32.880025]}},{"properties":{"city":"Ramona","zip":"92065","st_add":"842  HWY 78","geo_score":0.889,"amount":1000.0,"id":"a6ctaiyhjbaf","geo_precision":"zip","state":"CA"},"type":"Feature","geometry":{"type":"Point","coordinates":[-116.911694,32.968102]}},{"properties":{"city":"Dallas","zip":"75224","st_add":"732  Mayrant Drive","geo_score":1.0,"amount":200.0,"id":"a6ctaj3euzaq","geo_precision":"zip","state":"TX"},"type":"Feature","geometry":{"type":"Point","coordinates":[-96.82623,32.710281]}},{"properties":{"city":"Dallas","zip":"75211","st_add":"2547  Alden Avenue","geo_score":0.888,"amount":100.0,"id":"a6ctaisqyfpp","geo_precision":"zip","state":"TX"},"type":"Feature","geometry":{"type":"Point","coordinates":[-96.926115,32.692355]}},{"properties":{"city":"Dallas","zip":"75224","st_add":"1717  Mair Street","geo_score":1.0,"amount":250.0,"id":"a6ctaj02476c","geo_precision":"zip","state":"TX"},"type":"Feature","geometry":{"type":"Point","coordinates":[-96.82623,32.710281]}},{"properties":{"city":"Dallas","zip":"75229","st_add":"10840  Strait Lane","geo_score":1.0,"amount":250.0,"id":"a6ctaisxgcit","geo_precision":"zip","state":"TX"},"type":"Feature","geometry":{"type":"Point","coordinates":[-96.777626,32.767268]}},{"properties":{"city":"Dallas","zip":"75235","st_add":"1820  Regal Row","geo_score":1.0,"amount":1000.0,"id":"a6ctaiwethkl","geo_precision":"zip","state":"TX"},"type":"Feature","geometry":{"type":"Point","coordinates":[-96.623022,32.692682]}},{"properties":{"city":"Dallas","zip":"75356","st_add":"PO Box 560166","geo_score":1.0,"amount":100.0,"id":"a6ctaivo5oqf","geo_precision":"zip","state":"TX"},"type":"Feature","geometry":{"type":"Point","coordinates":[-96.777626,32.767268]}},{"properties":{"city":"Dallas","zip":"75201","st_add":"3310  Fairmount #P2D","geo_score":1.0,"amount":500.0,"id":"a6ctaiu2g9xw","geo_precision":"zip","state":"TX"},"type":"Feature","geometry":{"type":"Point","coordinates":[-96.790329,32.781179]}},{"properties":{"city":"Dallas","zip":"75201","st_add":"3310  Fairmount","geo_score":1.0,"amount":500.0,"id":"a6ctaivbffdq","geo_precision":"zip","state":"TX"},"type":"Feature","geometry":{"type":"Point","coordinates":[-96.790329,32.781179]}},{"properties":{"city":"Dallas","zip":"75211","st_add":"3000  Mountain Creek Parkway","geo_score":0.888,"amount":1200.0,"id":"a6ctaj34zfol","geo_precision":"zip","state":"TX"},"type":"Feature","geometry":{"type":"Point","coordinates":[-96.926115,32.692355]}},{"properties":{"city":"Dallas","zip":"75211","st_add":"3000  Mountain Creek Parkway","geo_score":0.888,"amount":500.0,"id":"a6ctaix48hzv","geo_precision":"zip","state":"TX"},"type":"Feature","geometry":{"type":"Point","coordinates":[-96.926115,32.692355]}},{"properties":{"city":"Balch Springs","zip":"75180","st_add":"4912  Chickadee Drive","geo_score":1.0,"amount":125.0,"id":"a6ctaiokmccr","geo_precision":"zip","state":"TX"},"type":"Feature","geometry":{"type":"Point","coordinates":[-96.622771,32.728741]}},{"properties":{"city":"Dallas","zip":"75208","st_add":"931  W. Colorado Boulevard","geo_score":1.0,"amount":50.0,"id":"a6ctaiq6zz2u","geo_precision":"zip","state":"TX"},"type":"Feature","geometry":{"type":"Point","coordinates":[-96.82303,32.736344]}},{"properties":{"city":"Dallas","zip":"75225","st_add":"5956  Sherry Lane","geo_score":1.0,"amount":500.0,"id":"a6ctaiqulyuj","geo_precision":"zip","state":"TX"},"type":"Feature","geometry":{"type":"Point","coordinates":[-96.771829,32.851127]}},{"properties":{"city":"Dallas","zip":"75225","st_add":"5956  Sherry Lane","geo_score":1.0,"amount":500.0,"id":"a6ctaiseqwb7","geo_precision":"zip","state":"TX"},"type":"Feature","geometry":{"type":"Point","coordinates":[-96.771829,32.851127]}},{"properties":{"city":"Dallas","zip":"75236","st_add":"4501  Mountain Creek Parkway","geo_score":1.0,"amount":250.0,"id":"a6ctaiu9x7es","geo_precision":"zip","state":"TX"},"type":"Feature","geometry":{"type":"Point","coordinates":[-96.777626,32.767268]}},{"properties":{"city":"Dallas","zip":"75236","st_add":"4501  Mountain Creek Parkway","geo_score":1.0,"amount":250.0,"id":"a6ctaj1ypj1c","geo_precision":"zip","state":"TX"},"type":"Feature","geometry":{"type":"Point","coordinates":[-96.777626,32.767268]}},{"properties":{"city":"Desoto","zip":"75115","st_add":"904  Ironwood Drive","geo_score":0.875,"amount":100.0,"id":"a6ctaj161aht","geo_precision":"zip","state":"TX"},"type":"Feature","geometry":{"type":"Point","coordinates":[-96.887502,32.599302]}},{"properties":{"city":"Dallas","zip":"75115","st_add":"1217  Hanna Circle","geo_score":0.875,"amount":250.0,"id":"a6ctair0eqln","geo_precision":"zip","state":"TX"},"type":"Feature","geometry":{"type":"Point","coordinates":[-96.887502,32.599302]}},{"properties":{"city":"Dallas","zip":"75208","st_add":"1339  Cedar Hill Avenue","geo_score":1.0,"amount":100.0,"id":"a6ctaj3iefkx","geo_precision":"zip","state":"TX"},"type":"Feature","geometry":{"type":"Point","coordinates":[-96.82303,32.736344]}},{"properties":{"city":"Dallas","zip":"75208","st_add":"1217  N Clinton Avenue","geo_score":1.0,"amount":500.0,"id":"a6ctaishng59","geo_precision":"zip","state":"TX"},"type":"Feature","geometry":{"type":"Point","coordinates":[-96.82303,32.736344]}},{"properties":{"city":"Dallas","zip":"75207","st_add":"2515  Irving Boulevard","geo_score":1.0,"amount":1000.0,"id":"a6ctaivfjn9a","geo_precision":"zip","state":"TX"},"type":"Feature","geometry":{"type":"Point","coordinates":[-96.798372,32.76313]}},{"properties":{"city":"Dallas","zip":"75223","st_add":"622  Blair Boulevard","geo_score":1.0,"amount":125.0,"id":"a6ctaip2vumj","geo_precision":"zip","state":"TX"},"type":"Feature","geometry":{"type":"Point","coordinates":[-96.749578,32.794228]}},{"properties":{"city":"Dallas","zip":"76109","st_add":"4055  International Plaza","geo_score":0.857,"amount":250.0,"id":"a6ctaixaufb1","geo_precision":"zip","state":"TX"},"type":"Feature","geometry":{"type":"Point","coordinates":[-97.291484,32.771419]}},{"properties":{"city":"Dallas","zip":"75205","st_add":"3524  rankin","geo_score":0.867,"amount":250.0,"id":"a6ctait0q4f7","geo_precision":"zip","state":"TX"},"type":"Feature","geometry":{"type":"Point","coordinates":[-96.800279,32.850127]}},{"properties":{"city":"Dallas","zip":"75201","st_add":"1500  Jackson Street #817","geo_score":1.0,"amount":137.5,"id":"a6ctaj4cuaov","geo_precision":"zip","state":"TX"},"type":"Feature","geometry":{"type":"Point","coordinates":[-96.790329,32.781179]}},{"properties":{"city":"Dallas","zip":"75201","st_add":"1500  Jackson Street","geo_score":1.0,"amount":2000.0,"id":"a6ctaivuq5yl","geo_precision":"zip","state":"TX"},"type":"Feature","geometry":{"type":"Point","coordinates":[-96.790329,32.781179]}},{"properties":{"city":"Dallas","zip":"75201","st_add":"1500  Jackson Street","geo_score":1.0,"amount":2000.0,"id":"a6ctaiylxb6y","geo_precision":"zip","state":"TX"},"type":"Feature","geometry":{"type":"Point","coordinates":[-96.790329,32.781179]}},{"properties":{"city":"Dallas","zip":"75208","st_add":"1314  Kings Highway","geo_score":1.0,"amount":1000.0,"id":"a6ctaj0vtbkp","geo_precision":"zip","state":"TX"},"type":"Feature","geometry":{"type":"Point","coordinates":[-96.82303,32.736344]}},{"properties":{"city":"Dallas","zip":"75208","st_add":"1314  Kings Highway","geo_score":1.0,"amount":1000.0,"id":"a6ctaiu13z3e","geo_precision":"zip","state":"TX"},"type":"Feature","geometry":{"type":"Point","coordinates":[-96.82303,32.736344]}},{"properties":{"city":"Dallas","zip":"75248","st_add":"16208  Ranchita","geo_score":1.0,"amount":500.0,"id":"a6ctaisfw5u2","geo_precision":"zip","state":"TX"},"type":"Feature","geometry":{"type":"Point","coordinates":[-96.767999,32.986006]}},{"properties":{"city":"Dallas","zip":"75205","st_add":"3601  Overbrook","geo_score":0.867,"amount":250.0,"id":"a6ctaix9pz63","geo_precision":"zip","state":"TX"},"type":"Feature","geometry":{"type":"Point","coordinates":[-96.800279,32.850127]}},{"properties":{"city":"Dallas","zip":"75219","st_add":"3838  Oak Lawn Avenue","geo_score":1.0,"amount":1000.0,"id":"a6ctaj0d5h9a","geo_precision":"zip","state":"TX"},"type":"Feature","geometry":{"type":"Point","coordinates":[-96.777626,32.767268]}},{"properties":{"city":"Richardson","zip":"75081","st_add":"1201  North Bowser Road","geo_score":1.0,"amount":250.0,"id":"a6ctaivteas7","geo_precision":"zip","state":"TX"},"type":"Feature","geometry":{"type":"Point","coordinates":[-96.721626,32.949266]}},{"properties":{"city":"Dallas","zip":"75220","st_add":"5330  S. Dentwood DRive","geo_score":1.0,"amount":250.0,"id":"a6ctaiq272l1","geo_precision":"zip","state":"TX"},"type":"Feature","geometry":{"type":"Point","coordinates":[-96.806376,32.778412]}},{"properties":{"city":"Dallas","zip":"75220","st_add":"5330  S. Dentwood Drive","geo_score":1.0,"amount":250.0,"id":"a6ctaissabo7","geo_precision":"zip","state":"TX"},"type":"Feature","geometry":{"type":"Point","coordinates":[-96.806376,32.778412]}},{"properties":{"city":"DALLAS","zip":"75356","st_add":"PO Box 566077","geo_score":1.0,"amount":250.0,"id":"a6ctaiql1n0p","geo_precision":"zip","state":"TX"},"type":"Feature","geometry":{"type":"Point","coordinates":[-96.777626,32.767268]}},{"properties":{"city":"Villa Park","zip":"60181","st_add":"19  E Monroe","geo_score":0.869,"amount":50.0,"id":"a6ctaj0em63m","geo_precision":"zip","state":"IL"},"type":"Feature","geometry":{"type":"Point","coordinates":[-87.988677,41.90503]}},{"properties":{"city":"Villa Park","zip":"60181","st_add":"19  E Monroe","geo_score":0.869,"amount":50.0,"id":"a6ctaj39kgr8","geo_precision":"zip","state":"IL"},"type":"Feature","geometry":{"type":"Point","coordinates":[-87.988677,41.90503]}},{"properties":{"city":"Dallas","zip":"68144","st_add":"8404  Indian Hills Drive","geo_score":0.738,"amount":300.0,"id":"a6ctaj1t1mja","geo_precision":"zip","state":"TX"},"type":"Feature","geometry":{"type":"Point","coordinates":[-96.118847,41.233498]}},{"properties":{"city":"DeSoto","zip":"75115","st_add":"1409  Heritage Hill Drive","geo_score":0.875,"amount":125.0,"id":"a6ctaiqv3rzx","geo_precision":"zip","state":"TX"},"type":"Feature","geometry":{"type":"Point","coordinates":[-96.887502,32.599302]}},{"properties":{"city":"Dallas","zip":"75208","st_add":"1410  Yakimo","geo_score":1.0,"amount":250.0,"id":"a6ctair1kkel","geo_precision":"zip","state":"TX"},"type":"Feature","geometry":{"type":"Point","coordinates":[-96.82303,32.736344]}},{"properties":{"city":"Dallas","zip":"75208","st_add":"1410  Yakimo","geo_score":1.0,"amount":500.0,"id":"a6ctaiqixxfy","geo_precision":"zip","state":"TX"},"type":"Feature","geometry":{"type":"Point","coordinates":[-96.82303,32.736344]}},{"properties":{"city":"Dallas","zip":"75233","st_add":"3932  Kiest Meadow","geo_score":1.0,"amount":125.0,"id":"a6ctaip3f04e","geo_precision":"zip","state":"TX"},"type":"Feature","geometry":{"type":"Point","coordinates":[-96.777626,32.767268]}},{"properties":{"city":"Dallas","zip":"75201","st_add":"1601  Elm Street","geo_score":1.0,"amount":1000.0,"id":"a6ctaj2yyiha","geo_precision":"zip","state":"TX"},"type":"Feature","geometry":{"type":"Point","coordinates":[-96.790329,32.781179]}},{"properties":{"city":"Kansas City","zip":"64105","st_add":"715  Kirk Drive","geo_score":1.0,"amount":500.0,"id":"a6ctaiqxskp7","geo_precision":"zip","state":"MO"},"type":"Feature","geometry":{"type":"Point","coordinates":[-94.595033,39.102704]}},{"properties":{"city":"Dallas","zip":"75214","st_add":"7189  Greentree Lane","geo_score":1.0,"amount":125.0,"id":"a6ctaj0f1dax","geo_precision":"zip","state":"TX"},"type":"Feature","geometry":{"type":"Point","coordinates":[-96.698402,32.841252]}},{"properties":{"city":"Plano","zip":"75093","st_add":"5816  W. Plano Parkway","geo_score":1.0,"amount":125.0,"id":"a6ctaixjgib9","geo_precision":"zip","state":"TX"},"type":"Feature","geometry":{"type":"Point","coordinates":[-96.805055,33.032674]}},{"properties":{"city":"Dallas","zip":"75240","st_add":"6815  Bert Lane","geo_score":1.0,"amount":250.0,"id":"a6ctaivisy8l","geo_precision":"zip","state":"TX"},"type":"Feature","geometry":{"type":"Point","coordinates":[-96.789191,32.910185]}},{"properties":{"city":"Dallas","zip":"75240","st_add":"6815  Bert Lane","geo_score":1.0,"amount":250.0,"id":"a6ctaitlybi6","geo_precision":"zip","state":"TX"},"type":"Feature","geometry":{"type":"Point","coordinates":[-96.789191,32.910185]}},{"properties":{"city":"Dallas","zip":"75080","st_add":"422  Ridgewood","geo_score":0.871,"amount":20.0,"id":"a6ctaixck2pb","geo_precision":"zip","state":"TX"},"type":"Feature","geometry":{"type":"Point","coordinates":[-96.724998,32.936513]}},{"properties":{"city":"Dallas","zip":"75254","st_add":"6204  Sandpebble Court","geo_score":1.0,"amount":100.0,"id":"a6ctaj0tp485","geo_precision":"zip","state":"TX"},"type":"Feature","geometry":{"type":"Point","coordinates":[-96.80334,32.946819]}},{"properties":{"city":"Dallas","zip":"75204","st_add":"4666  Christopher Palace","geo_score":1.0,"amount":250.0,"id":"a6ctairac9dq","geo_precision":"zip","state":"TX"},"type":"Feature","geometry":{"type":"Point","coordinates":[-96.781229,32.800028]}},{"properties":{"city":"Dallas","zip":"75204","st_add":"4666  Christopher","geo_score":1.0,"amount":100.0,"id":"a6ctaiu8wapc","geo_precision":"zip","state":"TX"},"type":"Feature","geometry":{"type":"Point","coordinates":[-96.781229,32.800028]}},{"properties":{"city":"Dallas","zip":"75233","st_add":"3408  Silverwood Lane","geo_score":1.0,"amount":200.0,"id":"a6ctaiqlq84y","geo_precision":"zip","state":"TX"},"type":"Feature","geometry":{"type":"Point","coordinates":[-96.777626,32.767268]}},{"properties":{"city":"Chicago","zip":"60603","st_add":"10  S. Dearborn Street","geo_score":1.0,"amount":500.0,"id":"a6ctaiw7kbil","geo_precision":"zip","state":"IL"},"type":"Feature","geometry":{"type":"Point","coordinates":[-87.72596,42.055179]}},{"properties":{"city":"Dallas","zip":"75208","st_add":"1103  N Windomere","geo_score":1.0,"amount":250.0,"id":"a6ctait5vjpl","geo_precision":"zip","state":"TX"},"type":"Feature","geometry":{"type":"Point","coordinates":[-96.82303,32.736344]}},{"properties":{"city":"Shenandoah","zip":"77385","st_add":"19245  David Memorial Drive","geo_score":0.879,"amount":500.0,"id":"a6ctaj3s2bav","geo_precision":"zip","state":"TX"},"type":"Feature","geometry":{"type":"Point","coordinates":[-95.444383,30.160216]}},{"properties":{"city":"Dallas","zip":"75230","st_add":"6474  Orchid Lane","geo_score":1.0,"amount":250.0,"id":"a6ctaitg2us3","geo_precision":"zip","state":"TX"},"type":"Feature","geometry":{"type":"Point","coordinates":[-96.769578,32.886576]}},{"properties":{"city":"Dallas","zip":"75220","st_add":"9746  Rockbrook Drive","geo_score":1.0,"amount":100.0,"id":"a6ctaj1nnh3i","geo_precision":"zip","state":"TX"},"type":"Feature","geometry":{"type":"Point","coordinates":[-96.806376,32.778412]}},{"properties":{"city":"Dallas","zip":"75229","st_add":"3750  Duchess Trail","geo_score":1.0,"amount":250.0,"id":"a6ctaixc5ntm","geo_precision":"zip","state":"TX"},"type":"Feature","geometry":{"type":"Point","coordinates":[-96.777626,32.767268]}},{"properties":{"city":"Austin","zip":"78760","st_add":"PO Box 17428","geo_score":1.0,"amount":1000.0,"id":"a6ctaitn8l4j","geo_precision":"zip","state":"TX"},"type":"Feature","geometry":{"type":"Point","coordinates":[-97.771258,30.326374]}},{"properties":{"city":"Dallas","zip":"75209","st_add":"4931  Stanford","geo_score":0.857,"amount":500.0,"id":"a6ctaizt5gpx","geo_precision":"zip","state":"TX"},"type":"Feature","geometry":{"type":"Point","coordinates":[-96.821668,32.93068]}},{"properties":{"city":"Dallas","zip":"75230","st_add":"11219  ST. JUDES DRIVE","geo_score":1.0,"amount":125.0,"id":"a6ctaiufg3r3","geo_precision":"zip","state":"TX"},"type":"Feature","geometry":{"type":"Point","coordinates":[-96.769578,32.886576]}},{"properties":{"city":"Dallas","zip":"75206","st_add":"6688  N. Central Expwy","geo_score":1.0,"amount":250.0,"id":"a6ctaixmnegn","geo_precision":"zip","state":"TX"},"type":"Feature","geometry":{"type":"Point","coordinates":[-96.771528,32.833881]}},{"properties":{"city":"Dallas","zip":"75240","st_add":"13330  Noel Road","geo_score":1.0,"amount":100.0,"id":"a6ctaj1jwmv9","geo_precision":"zip","state":"TX"},"type":"Feature","geometry":{"type":"Point","coordinates":[-96.789191,32.910185]}},{"properties":{"city":"Plano","zip":"75093","st_add":"4629  Shell Court","geo_score":1.0,"amount":125.0,"id":"a6ctaio8u3n4","geo_precision":"zip","state":"TX"},"type":"Feature","geometry":{"type":"Point","coordinates":[-96.805055,33.032674]}},{"properties":{"city":"Dallas","zip":"75201","st_add":"1700  Pacific Avenue","geo_score":1.0,"amount":250.0,"id":"a6ctaiqf1lvn","geo_precision":"zip","state":"TX"},"type":"Feature","geometry":{"type":"Point","coordinates":[-96.790329,32.781179]}},{"properties":{"city":"Dallas","zip":"75205","st_add":"3109  Knox Street","geo_score":0.867,"amount":1000.0,"id":"a6ctaivpnldb","geo_precision":"zip","state":"TX"},"type":"Feature","geometry":{"type":"Point","coordinates":[-96.800279,32.850127]}},{"properties":{"city":"Dallas","zip":"75220","st_add":"5523  Park Lane","geo_score":1.0,"amount":1000.0,"id":"a6ctaioavk6w","geo_precision":"zip","state":"TX"},"type":"Feature","geometry":{"type":"Point","coordinates":[-96.806376,32.778412]}},{"properties":{"city":"Dallas","zip":"75230","st_add":"11844  Preston Brook Place","geo_score":1.0,"amount":50.0,"id":"a6ctaiu0bph6","geo_precision":"zip","state":"TX"},"type":"Feature","geometry":{"type":"Point","coordinates":[-96.769578,32.886576]}},{"properties":{"city":"Dallas","zip":"75230","st_add":"11844  Preston Brook Place","geo_score":1.0,"amount":250.0,"id":"a6ctaj2snmyg","geo_precision":"zip","state":"TX"},"type":"Feature","geometry":{"type":"Point","coordinates":[-96.769578,32.886576]}},{"properties":{"city":"Dallas","zip":"75247","st_add":"8201  N. Stemmons Freeway","geo_score":1.0,"amount":1000.0,"id":"a6ctaj0yc6dg","geo_precision":"zip","state":"TX"},"type":"Feature","geometry":{"type":"Point","coordinates":[-96.752254,32.660247]}},{"properties":{"city":"Dallas","zip":"75249","st_add":"6015  Fox Point Trail","geo_score":1.0,"amount":150.0,"id":"a6ctaiuasi72","geo_precision":"zip","state":"TX"},"type":"Feature","geometry":{"type":"Point","coordinates":[-96.777626,32.767268]}},{"properties":{"city":"Dallas","zip":"75205","st_add":"4400  St. John","geo_score":0.867,"amount":150.0,"id":"a6ctaj2g3ro9","geo_precision":"zip","state":"TX"},"type":"Feature","geometry":{"type":"Point","coordinates":[-96.800279,32.850127]}},{"properties":{"city":"Dallas","zip":"75244","st_add":"5001  Spring Valley Road","geo_score":1.0,"amount":250.0,"id":"a6ctair1zmm6","geo_precision":"zip","state":"TX"},"type":"Feature","geometry":{"type":"Point","coordinates":[-96.777626,32.767268]}},{"properties":{"city":"DALLAS","zip":"75230","st_add":"6910  WAGGONER PLACE","geo_score":1.0,"amount":1000.0,"id":"a6ctaj3vrzbs","geo_precision":"zip","state":"TX"},"type":"Feature","geometry":{"type":"Point","coordinates":[-96.769578,32.886576]}},{"properties":{"city":"Dallas","zip":"75219","st_add":"11526  W. Ricks Circle","geo_score":1.0,"amount":125.0,"id":"a6ctaj130rqa","geo_precision":"zip","state":"TX"},"type":"Feature","geometry":{"type":"Point","coordinates":[-96.777626,32.767268]}},{"properties":{"city":"Dallas","zip":"75356","st_add":"PO Box 560166","geo_score":1.0,"amount":1000.0,"id":"a6ctaizovmv1","geo_precision":"zip","state":"TX"},"type":"Feature","geometry":{"type":"Point","coordinates":[-96.777626,32.767268]}},{"properties":{"city":"Dallas","zip":"76034","st_add":"310  West Glade Road","geo_score":0.873,"amount":500.0,"id":"a6ctaj08h8cs","geo_precision":"zip","state":"TX"},"type":"Feature","geometry":{"type":"Point","coordinates":[-97.168346,32.899849]}},{"properties":{"city":"Dallas","zip":"75356","st_add":"PO Box 560166","geo_score":1.0,"amount":300.0,"id":"a6ctaivczofw","geo_precision":"zip","state":"TX"},"type":"Feature","geometry":{"type":"Point","coordinates":[-96.777626,32.767268]}},{"properties":{"city":"Dallas","zip":"75356","st_add":"PO Box 560166","geo_score":1.0,"amount":100.0,"id":"a6ctaisv7op8","geo_precision":"zip","state":"TX"},"type":"Feature","geometry":{"type":"Point","coordinates":[-96.777626,32.767268]}},{"properties":{"city":"Dallas","zip":"75266","st_add":"PO Box 660675","geo_score":1.0,"amount":65.0,"id":"a6ctaj1pon0h","geo_precision":"zip","state":"TX"},"type":"Feature","geometry":{"type":"Point","coordinates":[-96.777626,32.767268]}},{"properties":{"city":"Dallas","zip":"75266","st_add":"PO Box 66075","geo_score":1.0,"amount":65.0,"id":"a6ctais7ou42","geo_precision":"zip","state":"TX"},"type":"Feature","geometry":{"type":"Point","coordinates":[-96.777626,32.767268]}},{"properties":{"city":"Dallas","zip":"75266","st_add":"PO Box 660675","geo_score":1.0,"amount":35.0,"id":"a6ctaixw96kn","geo_precision":"zip","state":"TX"},"type":"Feature","geometry":{"type":"Point","coordinates":[-96.777626,32.767268]}},{"properties":{"city":"Dallas","zip":"75208","st_add":"1031  N Winnetka Avenue","geo_score":1.0,"amount":988.97,"id":"a6ctaio0odz7","geo_precision":"zip","state":"TX"},"type":"Feature","geometry":{"type":"Point","coordinates":[-96.82303,32.736344]}},{"properties":{"city":"Dallas","zip":"75208","st_add":"1031  N Winnetka Avenue","geo_score":1.0,"amount":1215.0,"id":"a6ctaiumcv89","geo_precision":"zip","state":"TX"},"type":"Feature","geometry":{"type":"Point","coordinates":[-96.82303,32.736344]}},{"properties":{"city":"Dallas","zip":"75208","st_add":"1031  N Winnetka Avenue","geo_score":1.0,"amount":181.11,"id":"a6ctaisux7zg","geo_precision":"zip","state":"TX"},"type":"Feature","geometry":{"type":"Point","coordinates":[-96.82303,32.736344]}},{"properties":{"city":"Dallas","zip":"75208","st_add":"1031  N Winnetka Avenue","geo_score":1.0,"amount":44.22,"id":"a6ctaiwzjj5m","geo_precision":"zip","state":"TX"},"type":"Feature","geometry":{"type":"Point","coordinates":[-96.82303,32.736344]}},{"properties":{"city":"Dallas","zip":"75208","st_add":"1031  N Winnetka Avenue","geo_score":1.0,"amount":329.78,"id":"a6ctaiusetxf","geo_precision":"zip","state":"TX"},"type":"Feature","geometry":{"type":"Point","coordinates":[-96.82303,32.736344]}},{"properties":{"city":"Dallas","zip":"75208","st_add":"1031  N Winnetka Avenue","geo_score":1.0,"amount":22.52,"id":"a6ctaj24onpe","geo_precision":"zip","state":"TX"},"type":"Feature","geometry":{"type":"Point","coordinates":[-96.82303,32.736344]}},{"properties":{"city":"Dallas","zip":"75208","st_add":"1031  N Winnetka Avenue","geo_score":1.0,"amount":897.7,"id":"a6ctaiu5dpdh","geo_precision":"zip","state":"TX"},"type":"Feature","geometry":{"type":"Point","coordinates":[-96.82303,32.736344]}},{"properties":{"city":"Dallas","zip":"75208","st_add":"1031  N Winnetka Avenue","geo_score":1.0,"amount":1417.24,"id":"a6ctaj0udxwi","geo_precision":"zip","state":"TX"},"type":"Feature","geometry":{"type":"Point","coordinates":[-96.82303,32.736344]}},{"properties":{"city":"Dallas","zip":"75208","st_add":"1031  N Winnetka Avenue","geo_score":1.0,"amount":1194.78,"id":"a6ctaj1bvugj","geo_precision":"zip","state":"TX"},"type":"Feature","geometry":{"type":"Point","coordinates":[-96.82303,32.736344]}},{"properties":{"city":"Dallas","zip":"75208","st_add":"1031  N Winnetka Avenue","geo_score":1.0,"amount":1059.9,"id":"a6ctaix1pgzw","geo_precision":"zip","state":"TX"},"type":"Feature","geometry":{"type":"Point","coordinates":[-96.82303,32.736344]}},{"properties":{"city":"Dallas","zip":"75208","st_add":"1031  N Winnetka Avenue","geo_score":1.0,"amount":68.05,"id":"a6ctaj3b6dqo","geo_precision":"zip","state":"TX"},"type":"Feature","geometry":{"type":"Point","coordinates":[-96.82303,32.736344]}},{"properties":{"city":"Dallas","zip":"75208","st_add":"1031  N Winnetka Avenue","geo_score":1.0,"amount":471.18,"id":"a6ctaj0oc7p3","geo_precision":"zip","state":"TX"},"type":"Feature","geometry":{"type":"Point","coordinates":[-96.82303,32.736344]}},{"properties":{"city":"Dallas","zip":"75208","st_add":"1031  N Winnetka","geo_score":1.0,"amount":273.7,"id":"a6ctaiyz1g6j","geo_precision":"zip","state":"TX"},"type":"Feature","geometry":{"type":"Point","coordinates":[-96.82303,32.736344]}},{"properties":{"city":"Dallas","zip":"75356","st_add":"PO Box 560166","geo_score":1.0,"amount":0.0,"id":"a6ctaj0p55o9","geo_precision":"zip","state":"TX"},"type":"Feature","geometry":{"type":"Point","coordinates":[-96.777626,32.767268]}},{"properties":{"city":"Dallas","zip":"75205","st_add":"4206  Normandy Avenue","geo_score":0.867,"amount":50.0,"id":"a6ctaivvm9ro","geo_precision":"zip","state":"TX"},"type":"Feature","geometry":{"type":"Point","coordinates":[-96.800279,32.850127]}},{"properties":{"city":"Dallas","zip":"75230","st_add":"12211  Creek Forest","geo_score":1.0,"amount":1000.0,"id":"a6ctaj3lulm0","geo_precision":"zip","state":"TX"},"type":"Feature","geometry":{"type":"Point","coordinates":[-96.769578,32.886576]}},{"properties":{"city":"Dallas","zip":"75230","st_add":"12211  creek forest","geo_score":1.0,"amount":500.0,"id":"a6ctaj0l47sb","geo_precision":"zip","state":"TX"},"type":"Feature","geometry":{"type":"Point","coordinates":[-96.769578,32.886576]}},{"properties":{"city":"Dallas","zip":"75205","st_add":"3616  Lindenwood","geo_score":0.867,"amount":1000.0,"id":"a6ctaiz4mffn","geo_precision":"zip","state":"TX"},"type":"Feature","geometry":{"type":"Point","coordinates":[-96.800279,32.850127]}},{"properties":{"city":"Dallas","zip":"75205","st_add":"3616  Lindenwood Avenue","geo_score":0.867,"amount":1000.0,"id":"a6ctaj3lmnux","geo_precision":"zip","state":"TX"},"type":"Feature","geometry":{"type":"Point","coordinates":[-96.800279,32.850127]}},{"properties":{"city":"Fort Worth","zip":"76107","st_add":"1200  Western","geo_score":0.879,"amount":1000.0,"id":"a6ctaiuhkcuy","geo_precision":"zip","state":"TX"},"type":"Feature","geometry":{"type":"Point","coordinates":[-97.41363,32.744852]}},{"properties":{"city":"Dallas","zip":"75356","st_add":"PO Box 560166","geo_score":1.0,"amount":155.48,"id":"a6ctaj39hsq4","geo_precision":"zip","state":"TX"},"type":"Feature","geometry":{"type":"Point","coordinates":[-96.777626,32.767268]}},{"properties":{"city":"Dallas","zip":"75209","st_add":"PO Box 7270","geo_score":0.857,"amount":250.0,"id":"a6ctaist4rdu","geo_precision":"zip","state":"TX"},"type":"Feature","geometry":{"type":"Point","coordinates":[-96.821668,32.93068]}},{"properties":{"city":"Dallas","zip":"75209","st_add":"PO Box 7270","geo_score":0.857,"amount":250.0,"id":"a6ctair96vst","geo_precision":"zip","state":"TX"},"type":"Feature","geometry":{"type":"Point","coordinates":[-96.821668,32.93068]}},{"properties":{"city":"Dallas","zip":"75208","st_add":"1235  Lausanne Avenue","geo_score":1.0,"amount":500.0,"id":"a6ctaiohe8v8","geo_precision":"zip","state":"TX"},"type":"Feature","geometry":{"type":"Point","coordinates":[-96.82303,32.736344]}},{"properties":{"city":"Dallas","zip":"75224","st_add":"3936  Lost Creek Drive","geo_score":1.0,"amount":125.0,"id":"a6ctaj1crcau","geo_precision":"zip","state":"TX"},"type":"Feature","geometry":{"type":"Point","coordinates":[-96.82623,32.710281]}},{"properties":{"city":"Dallas","zip":"75356","st_add":"PO Box 560166","geo_score":1.0,"amount":176.0,"id":"a6ctaj3a5q8h","geo_precision":"zip","state":"TX"},"type":"Feature","geometry":{"type":"Point","coordinates":[-96.777626,32.767268]}},{"properties":{"city":"Dallas","zip":"75205","st_add":"3929  Potomac Avenue","geo_score":0.867,"amount":250.0,"id":"a6ctaizvjlim","geo_precision":"zip","state":"TX"},"type":"Feature","geometry":{"type":"Point","coordinates":[-96.800279,32.850127]}},{"properties":{"city":"Dallas","zip":"75229","st_add":"PO Box 29188","geo_score":1.0,"amount":200.0,"id":"a6ctaixqb4of","geo_precision":"zip","state":"TX"},"type":"Feature","geometry":{"type":"Point","coordinates":[-96.777626,32.767268]}},{"properties":{"city":"DALLAS","zip":"75229","st_add":"PO Box 29188","geo_score":1.0,"amount":100.0,"id":"a6ctaiohgpuf","geo_precision":"zip","state":"TX"},"type":"Feature","geometry":{"type":"Point","coordinates":[-96.777626,32.767268]}},{"properties":{"city":"DALLAS","zip":"75229","st_add":"PO Box 29188","geo_score":1.0,"amount":250.0,"id":"a6ctaiu8uv04","geo_precision":"zip","state":"TX"},"type":"Feature","geometry":{"type":"Point","coordinates":[-96.777626,32.767268]}},{"properties":{"city":"Dallas","zip":"75203","st_add":"110  Oregon Avenue","geo_score":1.0,"amount":500.0,"id":"a6ctairei2nb","geo_precision":"zip","state":"TX"},"type":"Feature","geometry":{"type":"Point","coordinates":[-96.795879,32.741481]}},{"properties":{"city":"Dallas","zip":"75214","st_add":"6940  Lakeshore","geo_score":1.0,"amount":250.0,"id":"a6ctairaqzaq","geo_precision":"zip","state":"TX"},"type":"Feature","geometry":{"type":"Point","coordinates":[-96.698402,32.841252]}},{"properties":{"city":"Dallas","zip":"75225","st_add":"8222  Douglas Avenue","geo_score":1.0,"amount":500.0,"id":"a6ctaj4d78z6","geo_precision":"zip","state":"TX"},"type":"Feature","geometry":{"type":"Point","coordinates":[-96.771829,32.851127]}},{"properties":{"city":"Dallas","zip":"75261","st_add":"PO Box 619428","geo_score":1.0,"amount":50.0,"id":"a6ctaivwmrpt","geo_precision":"zip","state":"TX"},"type":"Feature","geometry":{"type":"Point","coordinates":[-96.777626,32.767268]}},{"properties":{"city":"Dallas","zip":"75208","st_add":"1030  N Clinton Avenue","geo_score":1.0,"amount":250.0,"id":"a6ctaixs4v75","geo_precision":"zip","state":"TX"},"type":"Feature","geometry":{"type":"Point","coordinates":[-96.82303,32.736344]}},{"properties":{"city":"DENTON","zip":"76207","st_add":"2136  CHINN ROAD","geo_score":1.0,"amount":11000.0,"id":"a6ctaiyhkjf9","geo_precision":"zip","state":"TX"},"type":"Feature","geometry":{"type":"Point","coordinates":[-97.203975,33.238378]}},{"properties":{"city":"DENTON","zip":"76207","st_add":"2136  CHINN ROAD","geo_score":1.0,"amount":11000.0,"id":"a6ctaiwoq0jw","geo_precision":"zip","state":"TX"},"type":"Feature","geometry":{"type":"Point","coordinates":[-97.203975,33.238378]}},{"properties":{"city":"Dallas","zip":"75001","st_add":"16251  Dallas Parkway","geo_score":0.878,"amount":250.0,"id":"a6ctaj0dzwt2","geo_precision":"zip","state":"TX"},"type":"Feature","geometry":{"type":"Point","coordinates":[-96.777626,32.767268]}},{"properties":{"city":"Dallas","zip":"75205","st_add":"5  Willowood","geo_score":0.867,"amount":500.0,"id":"a6ctaireywh9","geo_precision":"zip","state":"TX"},"type":"Feature","geometry":{"type":"Point","coordinates":[-96.800279,32.850127]}},{"properties":{"city":"Dallas","zip":"75243","st_add":"8611  Breakers Point","geo_score":1.0,"amount":150.0,"id":"a6ctaitwegbb","geo_precision":"zip","state":"TX"},"type":"Feature","geometry":{"type":"Point","coordinates":[-96.733826,32.777979]}},{"properties":{"city":"Austin","zip":"78746","st_add":"4512  Elohi Drive","geo_score":0.89,"amount":1000.0,"id":"a6ctaiy3selo","geo_precision":"zip","state":"TX"},"type":"Feature","geometry":{"type":"Point","coordinates":[-97.801952,30.297984]}},{"properties":{"city":"Austin","zip":"78746","st_add":"4512  Elohi Drive","geo_score":0.89,"amount":1000.0,"id":"a6ctaix5v64r","geo_precision":"zip","state":"TX"},"type":"Feature","geometry":{"type":"Point","coordinates":[-97.801952,30.297984]}},{"properties":{"city":"Dallas","zip":"75225","st_add":"3105  Stanford Avenue","geo_score":1.0,"amount":250.0,"id":"a6ctaj1ncgjg","geo_precision":"zip","state":"TX"},"type":"Feature","geometry":{"type":"Point","coordinates":[-96.771829,32.851127]}},{"properties":{"city":"Dallas","zip":"75225","st_add":"3105  Stanford","geo_score":1.0,"amount":250.0,"id":"a6ctaj2ab3cg","geo_precision":"zip","state":"TX"},"type":"Feature","geometry":{"type":"Point","coordinates":[-96.771829,32.851127]}},{"properties":{"city":"Dallas","zip":"75208","st_add":"1215  N. Windomere","geo_score":1.0,"amount":250.0,"id":"a6ctaitupb4l","geo_precision":"zip","state":"TX"},"type":"Feature","geometry":{"type":"Point","coordinates":[-96.82303,32.736344]}},{"properties":{"city":"Dallas","zip":"75219","st_add":"PO Box 191185","geo_score":1.0,"amount":50.0,"id":"a6ctaiqhbap3","geo_precision":"zip","state":"TX"},"type":"Feature","geometry":{"type":"Point","coordinates":[-96.777626,32.767268]}},{"properties":{"city":"Dallas","zip":"75225","st_add":"6322  De Loache","geo_score":1.0,"amount":500.0,"id":"a6ctaivtl9u9","geo_precision":"zip","state":"TX"},"type":"Feature","geometry":{"type":"Point","coordinates":[-96.771829,32.851127]}},{"properties":{"city":"Dallas","zip":"75208","st_add":"1306  Rainbow Drive","geo_score":1.0,"amount":1000.0,"id":"a6ctaiw0bkqn","geo_precision":"zip","state":"TX"},"type":"Feature","geometry":{"type":"Point","coordinates":[-96.82303,32.736344]}},{"properties":{"city":"Dallas","zip":"75207","st_add":"1625  N. Stemmons Freeway","geo_score":1.0,"amount":1000.0,"id":"a6ctaj0ff52z","geo_precision":"zip","state":"TX"},"type":"Feature","geometry":{"type":"Point","coordinates":[-96.798372,32.76313]}},{"properties":{"city":"Dallas","zip":"75207","st_add":"1625  N. Stemmons Freeway","geo_score":1.0,"amount":1000.0,"id":"a6ctaiskvdcc","geo_precision":"zip","state":"TX"},"type":"Feature","geometry":{"type":"Point","coordinates":[-96.798372,32.76313]}},{"properties":{"city":"Dallas","zip":"75069","st_add":"960  Englenook Court","geo_score":0.883,"amount":1000.0,"id":"a6ctaj2v0b05","geo_precision":"zip","state":"TX"},"type":"Feature","geometry":{"type":"Point","coordinates":[-96.478876,33.09984]}},{"properties":{"city":"Dallas","zip":"75208","st_add":"830  Stewart Drive","geo_score":1.0,"amount":1000.0,"id":"a6ctaipe1m6m","geo_precision":"zip","state":"TX"},"type":"Feature","geometry":{"type":"Point","coordinates":[-96.82303,32.736344]}},{"properties":{"city":"Dallas","zip":"75230","st_add":"11711  Forest Court","geo_score":1.0,"amount":250.0,"id":"a6ctaj1su41s","geo_precision":"zip","state":"TX"},"type":"Feature","geometry":{"type":"Point","coordinates":[-96.769578,32.886576]}},{"properties":{"city":"Dallas","zip":"75208","st_add":"939  Lausanne Avenue","geo_score":1.0,"amount":50.0,"id":"a6ctaislb5dh","geo_precision":"zip","state":"TX"},"type":"Feature","geometry":{"type":"Point","coordinates":[-96.82303,32.736344]}},{"properties":{"city":"Dallas","zip":"75240","st_add":"5430  LBJ Freeway","geo_score":1.0,"amount":1000.0,"id":"a6ctaj1p4g3v","geo_precision":"zip","state":"TX"},"type":"Feature","geometry":{"type":"Point","coordinates":[-96.789191,32.910185]}},{"properties":{"city":"Dallas","zip":"75240","st_add":"13155  Noel Road","geo_score":1.0,"amount":125.0,"id":"a6ctaixxdi2r","geo_precision":"zip","state":"TX"},"type":"Feature","geometry":{"type":"Point","coordinates":[-96.789191,32.910185]}},{"properties":{"city":"Dallas","zip":"75240","st_add":"13155  noel","geo_score":1.0,"amount":100.0,"id":"a6ctaiqzlf8e","geo_precision":"zip","state":"TX"},"type":"Feature","geometry":{"type":"Point","coordinates":[-96.789191,32.910185]}},{"properties":{"city":"Dallas","zip":"75204","st_add":"927  Liberty Street","geo_score":1.0,"amount":125.0,"id":"a6ctaiwwelv1","geo_precision":"zip","state":"TX"},"type":"Feature","geometry":{"type":"Point","coordinates":[-96.781229,32.800028]}},{"properties":{"city":"Dallas","zip":"75235","st_add":"PO Box 36611","geo_score":1.0,"amount":500.0,"id":"a6ctaixx70u6","geo_precision":"zip","state":"TX"},"type":"Feature","geometry":{"type":"Point","coordinates":[-96.623022,32.692682]}},{"properties":{"city":"Dallas","zip":"75201","st_add":"1601  Elm Street","geo_score":1.0,"amount":1000.0,"id":"a6ctaj1483oc","geo_precision":"zip","state":"TX"},"type":"Feature","geometry":{"type":"Point","coordinates":[-96.790329,32.781179]}},{"properties":{"city":"Dallas","zip":"75206","st_add":"5005  Greenville Avenue","geo_score":1.0,"amount":100.0,"id":"a6ctaizq4ar7","geo_precision":"zip","state":"TX"},"type":"Feature","geometry":{"type":"Point","coordinates":[-96.771528,32.833881]}},{"properties":{"city":"Dallas","zip":"75208","st_add":"732  N Windomere","geo_score":1.0,"amount":125.0,"id":"a6ctaityo8k1","geo_precision":"zip","state":"TX"},"type":"Feature","geometry":{"type":"Point","coordinates":[-96.82303,32.736344]}},{"properties":{"city":"Dallas","zip":"75201","st_add":"2808  Fairmount Street","geo_score":1.0,"amount":125.0,"id":"a6ctaj01zwfd","geo_precision":"zip","state":"TX"},"type":"Feature","geometry":{"type":"Point","coordinates":[-96.790329,32.781179]}},{"properties":{"city":"Dallas","zip":"75208","st_add":"906  Stevens Woods Court","geo_score":1.0,"amount":25.0,"id":"a6ctaiy8ua5y","geo_precision":"zip","state":"TX"},"type":"Feature","geometry":{"type":"Point","coordinates":[-96.82303,32.736344]}},{"properties":{"city":"Dallas","zip":"75224","st_add":"707  Mayrant Drive","geo_score":1.0,"amount":100.0,"id":"a6ctaipqsvk9","geo_precision":"zip","state":"TX"},"type":"Feature","geometry":{"type":"Point","coordinates":[-96.82623,32.710281]}},{"properties":{"city":"Dallas","zip":"75208","st_add":"450  Allison Drive","geo_score":1.0,"amount":200.0,"id":"a6ctaixmqir2","geo_precision":"zip","state":"TX"},"type":"Feature","geometry":{"type":"Point","coordinates":[-96.82303,32.736344]}},{"properties":{"city":"Dallas","zip":"75208","st_add":"450  Allison Drive","geo_score":1.0,"amount":100.0,"id":"a6ctaizitggp","geo_precision":"zip","state":"TX"},"type":"Feature","geometry":{"type":"Point","coordinates":[-96.82303,32.736344]}},{"properties":{"city":"Dallas","zip":"75356","st_add":"PO Box 560166","geo_score":1.0,"amount":1000.0,"id":"a6ctaiu8d4bj","geo_precision":"zip","state":"TX"},"type":"Feature","geometry":{"type":"Point","coordinates":[-96.777626,32.767268]}},{"properties":{"city":"Dallas","zip":"75249","st_add":"8335  High Brush Drive","geo_score":1.0,"amount":100.0,"id":"a6ctaiukphif","geo_precision":"zip","state":"TX"},"type":"Feature","geometry":{"type":"Point","coordinates":[-96.777626,32.767268]}},{"properties":{"city":"Dallas","zip":"75224","st_add":"732  Mayrant Drive","geo_score":1.0,"amount":50.0,"id":"a6ctaivypguo","geo_precision":"zip","state":"TX"},"type":"Feature","geometry":{"type":"Point","coordinates":[-96.82623,32.710281]}},{"properties":{"city":"Dallas","zip":"75224","st_add":"732  Mayrant Drive","geo_score":1.0,"amount":200.0,"id":"a6ctaiufmf42","geo_precision":"zip","state":"TX"},"type":"Feature","geometry":{"type":"Point","coordinates":[-96.82623,32.710281]}},{"properties":{"city":"Dallas","zip":"75208","st_add":"1154  Windomere","geo_score":1.0,"amount":0.0,"id":"a6ctaisw0h50","geo_precision":"zip","state":"TX"},"type":"Feature","geometry":{"type":"Point","coordinates":[-96.82303,32.736344]}},{"properties":{"city":"Dallas","zip":"75205","st_add":"4309  Versailles Avenue","geo_score":0.867,"amount":100.0,"id":"a6ctaix5vbvy","geo_precision":"zip","state":"TX"},"type":"Feature","geometry":{"type":"Point","coordinates":[-96.800279,32.850127]}},{"properties":{"city":"Dallas","zip":"75235","st_add":"5415  MAPLE AVENUE","geo_score":1.0,"amount":1435.89,"id":"a6ctaiygs7le","geo_precision":"zip","state":"TX"},"type":"Feature","geometry":{"type":"Point","coordinates":[-96.623022,32.692682]}},{"properties":{"city":"Dallas","zip":"75235","st_add":"5415  Maple Avenue","geo_score":1.0,"amount":2973.62,"id":"a6ctaj4d08sr","geo_precision":"zip","state":"TX"},"type":"Feature","geometry":{"type":"Point","coordinates":[-96.623022,32.692682]}},{"properties":{"city":"Dallas","zip":"75235","st_add":"5415  Maple Avenue","geo_score":1.0,"amount":1229.89,"id":"a6ctaippz4wb","geo_precision":"zip","state":"TX"},"type":"Feature","geometry":{"type":"Point","coordinates":[-96.623022,32.692682]}},{"properties":{"city":"Dallas","zip":"75219","st_add":"2999  Turtle Creek Company","geo_score":1.0,"amount":100.0,"id":"a6ctaj21uhzw","geo_precision":"zip","state":"TX"},"type":"Feature","geometry":{"type":"Point","coordinates":[-96.777626,32.767268]}},{"properties":{"city":"Southlake","zip":"76092","st_add":"417  Southridge Lakes Parkway","geo_score":0.873,"amount":1000.0,"id":"a6ctaizw5zch","geo_precision":"zip","state":"TX"},"type":"Feature","geometry":{"type":"Point","coordinates":[-97.127234,32.925959]}},{"properties":{"city":"Southlake","zip":"76092","st_add":"417  Southridge Lakes Parkway","geo_score":0.873,"amount":1000.0,"id":"a6ctaj071ucv","geo_precision":"zip","state":"TX"},"type":"Feature","geometry":{"type":"Point","coordinates":[-97.127234,32.925959]}},{"properties":{"city":"Dallas","zip":"75201","st_add":"3700  Trammell Crow","geo_score":1.0,"amount":1000.0,"id":"a6ctaizmd19w","geo_precision":"zip","state":"TX"},"type":"Feature","geometry":{"type":"Point","coordinates":[-96.790329,32.781179]}},{"properties":{"city":"Dallas","zip":"75154","st_add":"610  Creek View Circle","geo_score":0.905,"amount":250.0,"id":"a6ctaiupp6xk","geo_precision":"zip","state":"TX"},"type":"Feature","geometry":{"type":"Point","coordinates":[-96.88639,32.526526]}},{"properties":{"city":"Dallas","zip":"75208","st_add":"2183  Kessler Court","geo_score":1.0,"amount":100.0,"id":"a6ctaj0t0a9i","geo_precision":"zip","state":"TX"},"type":"Feature","geometry":{"type":"Point","coordinates":[-96.82303,32.736344]}},{"properties":{"city":"Dallas","zip":"75230","st_add":"46  Downs Lake Circle","geo_score":1.0,"amount":500.0,"id":"a6ctaj2c87hd","geo_precision":"zip","state":"TX"},"type":"Feature","geometry":{"type":"Point","coordinates":[-96.769578,32.886576]}},{"properties":{"city":"Dallas","zip":"75230","st_add":"46  Downs Lake Circle","geo_score":1.0,"amount":100.0,"id":"a6ctaisn24o4","geo_precision":"zip","state":"TX"},"type":"Feature","geometry":{"type":"Point","coordinates":[-96.769578,32.886576]}},{"properties":{"city":"Dallas","zip":"75238","st_add":"10020  Caribou Trail","geo_score":1.0,"amount":100.0,"id":"a6ctaiwxv510","geo_precision":"zip","state":"TX"},"type":"Feature","geometry":{"type":"Point","coordinates":[-96.704725,32.878923]}},{"properties":{"city":"Dallas","zip":"75204","st_add":"4144  North Central Expressway","geo_score":1.0,"amount":250.0,"id":"a6ctaj17uo75","geo_precision":"zip","state":"TX"},"type":"Feature","geometry":{"type":"Point","coordinates":[-96.781229,32.800028]}},{"properties":{"city":"Hurst","zip":"76054","st_add":"2816  Mesa Court","geo_score":1.0,"amount":1000.0,"id":"a6ctaj34i9b7","geo_precision":"zip","state":"TX"},"type":"Feature","geometry":{"type":"Point","coordinates":[-97.175935,32.863193]}},{"properties":{"city":"Hurst","zip":"76054","st_add":"2816  Mesa Court","geo_score":1.0,"amount":1000.0,"id":"a6ctaiteywcu","geo_precision":"zip","state":"TX"},"type":"Feature","geometry":{"type":"Point","coordinates":[-97.175935,32.863193]}},{"properties":{"city":"Dallas","zip":"75208","st_add":"1939  Mayflower Drive","geo_score":1.0,"amount":250.0,"id":"a6ctaj3gk9py","geo_precision":"zip","state":"TX"},"type":"Feature","geometry":{"type":"Point","coordinates":[-96.82303,32.736344]}},{"properties":{"city":"Dallas","zip":"75208","st_add":"2150  Kessler Court","geo_score":1.0,"amount":250.0,"id":"a6ctaiocgdsd","geo_precision":"zip","state":"TX"},"type":"Feature","geometry":{"type":"Point","coordinates":[-96.82303,32.736344]}},{"properties":{"city":"Dallas","zip":"75356","st_add":"PO Box 560166","geo_score":1.0,"amount":100.0,"id":"a6ctaiq3t360","geo_precision":"zip","state":"TX"},"type":"Feature","geometry":{"type":"Point","coordinates":[-96.777626,32.767268]}},{"properties":{"city":"Dallas","zip":"75356","st_add":"PO Box 560166","geo_score":1.0,"amount":250.0,"id":"a6ctaiuie0fy","geo_precision":"zip","state":"TX"},"type":"Feature","geometry":{"type":"Point","coordinates":[-96.777626,32.767268]}},{"properties":{"city":"Dallas","zip":"75209","st_add":"4610  Wildwood Road","geo_score":0.857,"amount":250.0,"id":"a6ctaiwdv3ip","geo_precision":"zip","state":"TX"},"type":"Feature","geometry":{"type":"Point","coordinates":[-96.821668,32.93068]}},{"properties":{"city":"Dallas","zip":"75208","st_add":"1935  W Colorado","geo_score":1.0,"amount":100.0,"id":"a6ctaiuancgq","geo_precision":"zip","state":"TX"},"type":"Feature","geometry":{"type":"Point","coordinates":[-96.82303,32.736344]}},{"properties":{"city":"Dallas","zip":"75356","st_add":"PO Box 560166","geo_score":1.0,"amount":250.0,"id":"a6ctaj30sqjs","geo_precision":"zip","state":"TX"},"type":"Feature","geometry":{"type":"Point","coordinates":[-96.777626,32.767268]}}],"is_temporal":false,"author":{"url":"","metadata":"","contact_name":"","contact_address":"","source":"","contact_phone":""},"source":"","pagination":{"sort":null,"start":0,"total":210,"limit":1000000},"state":"complete","tags":"","published":"2014-08-13T10:17:24-04:00","id":108612}