{"type":"FeatureCollection","data_type":"Dataset","url_type":null,"permissions":[{"permissions":{"download":true,"view":true},"group_id":"everyone"}],"classification":null,"title":"Small Business Prospects Postitive","count":64,"stream_id":10899,"contributor":{"url":"http://geocommons.com/users/143","name":"jennifer"},"data_attributes":null,"calculation_params":null,"icon_link":null,"link":"http://geocommons.com/overlays/10899.json","extent":[-81.8074,24.5701,-80.0488,26.7068],"geometry_types":["point"],"unique_name":null,"name":"Small Business Prospects Postitive","feature_count":64,"description":"","next_feature":null,"is_raster":false,"short_classification":"Y","stats":{"zip":{"max":34134,"mean":33208.734375,"variance":30557.1187996032,"stdev":174.805946121987,"min":33004,"median":33147},"latitude":{"max":26.706831,"mean":25.978430921875,"variance":0.154207678036835,"stdev":0.392692854578276,"min":24.570143,"median":26.035755},"longitude":{"max":-80.048797,"mean":-80.309079484375,"variance":0.119492425258412,"stdev":0.345676764128589,"min":-81.80738,"median":-80.22711}},"features":[{"properties":{"name":"41ST STREET GROCERY","city":"MIAMI","descript":"41ST STREET GROCERY","zip":33142,"latitude":25.813229,"type":"SUPER MARKET","phone":"(305) 634-0361","random":"","longitude":-80.248651,"id":"a63ajhhz02mv","address":"4180 NW 32ND AVE","state":"FL"},"type":"Feature","geometry":{"type":"Point","coordinates":[-80.248651,25.813229]}},{"properties":{"name":"A &amp; J FINE FOODS","city":"MIAMI","descript":"A &amp; J FINE FOODS","zip":33142,"latitude":25.824114,"type":"SUPER MARKET","phone":"(305) 633-3040","random":"","longitude":-80.230171,"id":"a63ajhrmvfbe","address":"2050 NW 54TH ST","state":"FL"},"type":"Feature","geometry":{"type":"Point","coordinates":[-80.230171,25.824114]}},{"properties":{"name":"A &amp; J SUPERMARKET INC","city":"MIAMI","descript":"A &amp; J SUPERMARKET INC","zip":33136,"latitude":25.782888,"type":"SUPER MARKET","phone":"(305) 326-7357","random":"","longitude":-80.206903,"id":"a63ajhoa487w","address":"946 NW 7TH AVE","state":"FL"},"type":"Feature","geometry":{"type":"Point","coordinates":[-80.206903,25.782888]}},{"properties":{"name":"A 1 A FOOD DISCOUNT BEVERAGE","city":"WEST PALM BEACH","descript":"A 1 A FOOD DISCOUNT BEVERAGE","zip":33409,"latitude":26.703029,"type":"SUPER MARKET","phone":"(561) 640-3993","random":"","longitude":-80.111348,"id":"a63ajhjyv5fj","address":"1749 N MILITARY TRL","state":"FL"},"type":"Feature","geometry":{"type":"Point","coordinates":[-80.111348,26.703029]}},{"properties":{"name":"A B C BABY FOOD CENTER","city":"MIAMI","descript":"A B C BABY FOOD CENTER","zip":33136,"latitude":25.779416,"type":"SUPER MARKET","phone":"(305) 549-2030","random":"","longitude":-80.21471,"id":"a63ajhxo5hle","address":"603 NW 12TH AVE","state":"FL"},"type":"Feature","geometry":{"type":"Point","coordinates":[-80.21471,25.779416]}},{"properties":{"name":"A S GROCERY EXPRESS","city":"MIAMI","descript":"A S GROCERY EXPRESS","zip":33172,"latitude":25.774931,"type":"SUPER MARKET","phone":"(305) 207-7015","random":"","longitude":-80.353858,"id":"a63ajhks8vrv","address":"9715 NW 6TH LN","state":"FL"},"type":"Feature","geometry":{"type":"Point","coordinates":[-80.353858,25.774931]}},{"properties":{"name":"ABBAS FOODS &amp; BEVERAGE","city":"FORT LAUDERDALE","descript":"ABBAS FOODS &amp; BEVERAGE","zip":33308,"latitude":26.17588,"type":"SUPER MARKET","phone":"(954) 784-9698","random":"","longitude":-80.098285,"id":"a63ajhj5eop7","address":"3850 GALT OCEAN DR # 20","state":"FL"},"type":"Feature","geometry":{"type":"Point","coordinates":[-80.098285,26.17588]}},{"properties":{"name":"ABRAMS MINI MARKET","city":"MIAMI","descript":"ABRAMS MINI MARKET","zip":33147,"latitude":25.868358,"type":"SUPER MARKET","phone":"(305) 691-0084","random":"","longitude":-80.243091,"id":"a63ajhmvnide","address":"2755 NW 103RD ST","state":"FL"},"type":"Feature","geometry":{"type":"Point","coordinates":[-80.243091,25.868358]}},{"properties":{"name":"ADVANCED NUTRITON FOODS","city":"WEST PALM BEACH","descript":"ADVANCED NUTRITON FOODS","zip":33401,"latitude":26.706831,"type":"SUPER MARKET","phone":"(561) 835-9199","random":"","longitude":-80.048797,"id":"a63ajhnflh1k","address":"777 S FLAGLER DR","state":"FL"},"type":"Feature","geometry":{"type":"Point","coordinates":[-80.048797,26.706831]}},{"properties":{"name":"ALBERTSONS FOOD &amp; PHARMACY","city":"FORT LAUDERDALE","descript":"ALBERTSONS FOOD &amp; PHARMACY","zip":33351,"latitude":26.169561,"type":"SUPER MARKET","phone":"(954) 749-2833","random":"","longitude":-80.282894,"id":"a63ajhwyy63h","address":"9919 W OAKLAND PARK BLVD","state":"FL"},"type":"Feature","geometry":{"type":"Point","coordinates":[-80.282894,26.169561]}},{"properties":{"name":"ALBERTSONS FOOD &amp; PHARMACY","city":"WEST PALM BEACH","descript":"ALBERTSONS FOOD &amp; PHARMACY","zip":33409,"latitude":26.705235,"type":"SUPER MARKET","phone":"(561) 686-9222","random":"","longitude":-80.111358,"id":"a63ajhll84ak","address":"1901 N MILITARY TRL","state":"FL"},"type":"Feature","geometry":{"type":"Point","coordinates":[-80.111358,26.705235]}},{"properties":{"name":"ALBERTSONS FOOD &amp; PHARMACY","city":"BONITA SPRINGS","descript":"ALBERTSONS FOOD &amp; PHARMACY","zip":34134,"latitude":26.350378,"type":"SUPER MARKET","phone":"(239) 947-8777","random":"","longitude":-81.80738,"id":"a63ajhsfsf9t","address":"26841 S TAMIAMI TRL","state":"FL"},"type":"Feature","geometry":{"type":"Point","coordinates":[-81.80738,26.350378]}},{"properties":{"name":"ALBERTSONS FOOD &amp; PHARMACY","city":"LAKE WORTH","descript":"ALBERTSONS FOOD &amp; PHARMACY","zip":33461,"latitude":26.618638,"type":"SUPER MARKET","phone":"(561) 964-8760","random":"","longitude":-80.113118,"id":"a63ajhp1zti0","address":"4481 LAKE WORTH RD","state":"FL"},"type":"Feature","geometry":{"type":"Point","coordinates":[-80.113118,26.618638]}},{"properties":{"name":"ALBERTSONS FOOD &amp; PHARMACY","city":"MIAMI","descript":"ALBERTSONS FOOD &amp; PHARMACY","zip":33175,"latitude":25.714151,"type":"SUPER MARKET","phone":"(305) 228-0225","random":"","longitude":-80.430592,"id":"a63ajhlc2dlr","address":"14655 SW 56TH ST","state":"FL"},"type":"Feature","geometry":{"type":"Point","coordinates":[-80.430592,25.714151]}},{"properties":{"name":"ALBERTSONS FOOD &amp; PHARMACY","city":"FORT LAUDERDALE","descript":"ALBERTSONS FOOD &amp; PHARMACY","zip":33324,"latitude":26.105974,"type":"SUPER MARKET","phone":"(954) 472-1304","random":"","longitude":-80.250377,"id":"a63ajhmn90ww","address":"1181 S UNIVERSITY DR","state":"FL"},"type":"Feature","geometry":{"type":"Point","coordinates":[-80.250377,26.105974]}},{"properties":{"name":"ALFRESH FOODS","city":"FORT LAUDERDALE","descript":"ALFRESH FOODS","zip":33311,"latitude":26.165586,"type":"SUPER MARKET","phone":"(954) 484-5585","random":"","longitude":-80.165265,"id":"a63ajhlyv8k4","address":"1640 W OAKLAND PARK BLVD","state":"FL"},"type":"Feature","geometry":{"type":"Point","coordinates":[-80.165265,26.165586]}},{"properties":{"name":"ALL UNIQUE GOURMET FOODS INC","city":"MIAMI","descript":"ALL UNIQUE GOURMET FOODS INC","zip":33166,"latitude":25.83541,"type":"SUPER MARKET","phone":"(305) 500-9995","random":"","longitude":-80.334673,"id":"a63ajhvxntn0","address":"8421 NW 68TH ST","state":"FL"},"type":"Feature","geometry":{"type":"Point","coordinates":[-80.334673,25.83541]}},{"properties":{"name":"ALL UNIQUE GOURMET FOODS INCORPORATED","city":"MIAMI","descript":"ALL UNIQUE GOURMET FOODS INCORPORATED","zip":33155,"latitude":25.740346,"type":"SUPER MARKET","phone":"(305) 262-8640","random":"","longitude":-80.30765,"id":"a63ajhxe3tqc","address":"7003 N WATERWAY DR","state":"FL"},"type":"Feature","geometry":{"type":"Point","coordinates":[-80.30765,25.740346]}},{"properties":{"name":"ALLAPATTAH GROCERIES","city":"MIAMI","descript":"ALLAPATTAH GROCERIES","zip":33127,"latitude":25.809845,"type":"SUPER MARKET","phone":"(305) 638-8370","random":"","longitude":-80.210698,"id":"a63ajhrbyk43","address":"918 NW 36TH ST","state":"FL"},"type":"Feature","geometry":{"type":"Point","coordinates":[-80.210698,25.809845]}},{"properties":{"name":"ALOHA SUPERMARKET","city":"MIAMI","descript":"ALOHA SUPERMARKET","zip":33175,"latitude":25.720902,"type":"SUPER MARKET","phone":"(305) 858-5554","random":"","longitude":-80.401616,"id":"a63ajhw5puc9","address":"12813 SW 48TH TER","state":"FL"},"type":"Feature","geometry":{"type":"Point","coordinates":[-80.401616,25.720902]}},{"properties":{"name":"ALPHA SUPERMARKET","city":"MIAMI","descript":"ALPHA SUPERMARKET","zip":33168,"latitude":25.883235,"type":"SUPER MARKET","phone":"(305) 687-8664","random":"","longitude":-80.218509,"id":"a63ajhu30yib","address":"11891 NW 12TH AVE","state":"FL"},"type":"Feature","geometry":{"type":"Point","coordinates":[-80.218509,25.883235]}},{"properties":{"name":"ALS SUPERMARKET","city":"MIAMI","descript":"ALS SUPERMARKET","zip":33150,"latitude":25.840961,"type":"SUPER MARKET","phone":"(305) 754-4110","random":"","longitude":-80.200759,"id":"a63ajhprc1ib","address":"7200 NW 2ND AVE","state":"FL"},"type":"Feature","geometry":{"type":"Point","coordinates":[-80.200759,25.840961]}},{"properties":{"name":"AMARO FOODS ENTERPRISES","city":"MIAMI","descript":"AMARO FOODS ENTERPRISES","zip":33142,"latitude":25.797023,"type":"SUPER MARKET","phone":"(305) 324-6328","random":"","longitude":-80.227622,"id":"a63ajhmy2kca","address":"2180 NW 19TH AVE","state":"FL"},"type":"Feature","geometry":{"type":"Point","coordinates":[-80.227622,25.797023]}},{"properties":{"name":"AMIGO SUPERMARKET","city":"MIAMI","descript":"AMIGO SUPERMARKET","zip":33184,"latitude":25.760733,"type":"SUPER MARKET","phone":"(305) 223-6631","random":"","longitude":-80.399994,"id":"a63ajhshqcwz","address":"12630 SW 8TH ST","state":"FL"},"type":"Feature","geometry":{"type":"Point","coordinates":[-80.399994,25.760733]}},{"properties":{"name":"BABY FOOD CENTER","city":"FORT LAUDERDALE","descript":"BABY FOOD CENTER","zip":33311,"latitude":26.136509,"type":"SUPER MARKET","phone":"(954) 792-7566","random":"","longitude":-80.182899,"id":"a63ajhjb70jc","address":"2893 W SUNRISE BLVD","state":"FL"},"type":"Feature","geometry":{"type":"Point","coordinates":[-80.182899,26.136509]}},{"properties":{"name":"BABY FOOD CENTER","city":"FORT LAUDERDALE","descript":"BABY FOOD CENTER","zip":33313,"latitude":26.15355,"type":"SUPER MARKET","phone":"(954) 484-0684","random":"","longitude":-80.204517,"id":"a63ajhwtssdf","address":"4132 NW 21ST ST","state":"FL"},"type":"Feature","geometry":{"type":"Point","coordinates":[-80.204517,26.15355]}},{"properties":{"name":"BACK A YARD GROCERY","city":"FORT LAUDERDALE","descript":"BACK A YARD GROCERY","zip":33312,"latitude":26.120907,"type":"SUPER MARKET","phone":"(954) 583-8100","random":"","longitude":-80.195738,"id":"a63ajhmac9n4","address":"3582 W BROWARD BLVD","state":"FL"},"type":"Feature","geometry":{"type":"Point","coordinates":[-80.195738,26.120907]}},{"properties":{"name":"BARGAIN SUPERMARKET","city":"FORT LAUDERDALE","descript":"BARGAIN SUPERMARKET","zip":33311,"latitude":26.151043,"type":"SUPER MARKET","phone":"(954) 777-2912","random":"","longitude":-80.182959,"id":"a63ajhme9vxa","address":"2901 NW 19TH ST","state":"FL"},"type":"Feature","geometry":{"type":"Point","coordinates":[-80.182959,26.151043]}},{"properties":{"name":"BASIC FOODS INTERNATIONAL INCORPORATED","city":"FORT LAUDERDALE","descript":"BASIC FOODS INTERNATIONAL INCORPORATED","zip":33306,"latitude":26.16746,"type":"SUPER MARKET","phone":"(954) 467-1700","random":"","longitude":-80.114124,"id":"a63ajhrdbusk","address":"2601 E OAKLAND PARK BLVD","state":"FL"},"type":"Feature","geometry":{"type":"Point","coordinates":[-80.114124,26.16746]}},{"properties":{"name":"BASS BROS MARKET","city":"FORT LAUDERDALE","descript":"BASS BROS MARKET","zip":33311,"latitude":26.129573,"type":"SUPER MARKET","phone":"(954) 463-4505","random":"","longitude":-80.153759,"id":"a63ajhotr9kp","address":"909 NW 6TH ST","state":"FL"},"type":"Feature","geometry":{"type":"Point","coordinates":[-80.153759,26.129573]}},{"properties":{"name":"BELKS STORE","city":"LAKE WORTH","descript":"BELKS STORE","zip":33463,"latitude":26.623947,"type":"SUPER MARKET","phone":"(561) 965-7526","random":"","longitude":-80.124978,"id":"a63ajhjqgksy","address":"300 SWAIN BLVD","state":"FL"},"type":"Feature","geometry":{"type":"Point","coordinates":[-80.124978,26.623947]}},{"properties":{"name":"BUY-RITE GROCERY","city":"DANIA","descript":"BUY-RITE GROCERY","zip":33004,"latitude":26.046495,"type":"SUPER MARKET","phone":"(954) 920-1413","random":"","longitude":-80.143339,"id":"a63ajhwfiou8","address":"265 S FEDERAL HWY","state":"FL"},"type":"Feature","geometry":{"type":"Point","coordinates":[-80.143339,26.046495]}},{"properties":{"name":"CORAL SQUARE MALL","city":"CORAL SPRINGS","descript":"CORAL SQUARE MALL","zip":33071,"latitude":26.23953,"type":"SHOPPING CENTERS","phone":"(954) 752-8116","random":"","longitude":-80.250002,"id":"a63ajhtywf5e","address":"9303 W ATLANTIC BLVD","state":"FL"},"type":"Feature","geometry":{"type":"Point","coordinates":[-80.250002,26.23953]}},{"properties":{"name":"DE LUNA DISCOUNT BEVERAGES","city":"KEY WEST","descript":"DE LUNA DISCOUNT BEVERAGES","zip":33040,"latitude":24.571174,"type":"SUPER MARKET","phone":"(305) 294-8123","random":"","longitude":-81.734535,"id":"a63ajhseyzbf","address":"5790 MALONEY AVE","state":"FL"},"type":"Feature","geometry":{"type":"Point","coordinates":[-81.734535,24.571174]}},{"properties":{"name":"FOLEYS FOODS","city":"WILTON MANORS","descript":"FOLEYS FOODS","zip":33305,"latitude":26.159422,"type":"SUPER MARKET","phone":"(954) 561-4431","random":"","longitude":-80.129179,"id":"a63ajhr0g7nl","address":"1422 NE 26TH ST","state":"FL"},"type":"Feature","geometry":{"type":"Point","coordinates":[-80.129179,26.159422]}},{"properties":{"name":"FOOD STAR SUPERMARKET","city":"CORAL GABLES","descript":"FOOD STAR SUPERMARKET","zip":33134,"latitude":25.7718,"type":"SUPER MARKET","phone":"(305) 445-2145","random":"","longitude":-80.265084,"id":"a63ajhhkce53","address":"4275 W FLAGLER ST","state":"FL"},"type":"Feature","geometry":{"type":"Point","coordinates":[-80.265084,25.7718]}},{"properties":{"name":"FOTEYS FOODS","city":"WILTON MANORS","descript":"FOTEYS FOODS","zip":33305,"latitude":26.159422,"type":"SUPER MARKET","phone":"(954) 561-4431","random":"","longitude":-80.129179,"id":"a63ajhkpqgop","address":"1422 NE 26TH ST","state":"FL"},"type":"Feature","geometry":{"type":"Point","coordinates":[-80.129179,26.159422]}},{"properties":{"name":"GRAND CENTRAL MALL","city":"DANIA","descript":"GRAND CENTRAL MALL","zip":33004,"latitude":26.053155,"type":"SHOPPING CENTERS","phone":"(954) 925-8181","random":"","longitude":-80.143533,"id":"a63ajhrcxefu","address":"47 N FEDERAL HWY","state":"FL"},"type":"Feature","geometry":{"type":"Point","coordinates":[-80.143533,26.053155]}},{"properties":{"name":"JOES MARKET","city":"SOUTH MIAMI","descript":"JOES MARKET","zip":33143,"latitude":25.710929,"type":"SUPER MARKET","phone":"(305) 665-1646","random":"","longitude":-80.29387,"id":"a63ajhqzc7en","address":"6420 SW 62ND AVE","state":"FL"},"type":"Feature","geometry":{"type":"Point","coordinates":[-80.29387,25.710929]}},{"properties":{"name":"K COUNTRY GAS N SHOP INC","city":"BELLE GLADE","descript":"K COUNTRY GAS N SHOP INC","zip":33430,"latitude":26.681638,"type":"SUPER MARKET","phone":"(561) 996-6376","random":"","longitude":-80.684208,"id":"a63ajhvr4fk1","address":"509 SW 16TH ST","state":"FL"},"type":"Feature","geometry":{"type":"Point","coordinates":[-80.684208,26.681638]}},{"properties":{"name":"MAC KNIGHT SMOKED FOODS","city":"CORAL GABLES","descript":"MAC KNIGHT SMOKED FOODS","zip":33134,"latitude":25.76676,"type":"SUPER MARKET","phone":"(305) 445-6700","random":"","longitude":-80.263201,"id":"a63ajhr07jsd","address":"531 SW 42ND AVE APT 212","state":"FL"},"type":"Feature","geometry":{"type":"Point","coordinates":[-80.263201,25.76676]}},{"properties":{"name":"MADAN KOSHER FOODS","city":"DANIA","descript":"MADAN KOSHER FOODS","zip":33004,"latitude":26.050179,"type":"SUPER MARKET","phone":"(954) 925-0077","random":"","longitude":-80.146395,"id":"a63ajhqcqdn3","address":"128 SW 3RD AVE","state":"FL"},"type":"Feature","geometry":{"type":"Point","coordinates":[-80.146395,26.050179]}},{"properties":{"name":"MIAMI FOODS AND PRODUCTS INCORPORATED","city":"CORAL GABLES","descript":"MIAMI FOODS AND PRODUCTS INCORPORATED","zip":33134,"latitude":25.762175,"type":"SUPER MARKET","phone":"(305) 460-2995","random":"","longitude":-80.25901,"id":"a63ajhxan53e","address":"999 PONCE DE LEON BLVD","state":"FL"},"type":"Feature","geometry":{"type":"Point","coordinates":[-80.25901,25.762175]}},{"properties":{"name":"MILLERS GROCERY","city":"HOLLYWOOD","descript":"MILLERS GROCERY","zip":33020,"latitude":26.035755,"type":"SUPER MARKET","phone":"(954) 923-0777","random":"","longitude":-80.15153,"id":"a63ajhoqpkou","address":"2806 N 22ND AVE","state":"FL"},"type":"Feature","geometry":{"type":"Point","coordinates":[-80.15153,26.035755]}},{"properties":{"name":"NUEVA PAZ SUPERMARKET","city":"CORAL GABLES","descript":"NUEVA PAZ SUPERMARKET","zip":33134,"latitude":25.765747,"type":"SUPER MARKET","phone":"(305) 262-0205","random":"","longitude":-80.270549,"id":"a63ajhxhjghx","address":"571 SW 46TH AVE","state":"FL"},"type":"Feature","geometry":{"type":"Point","coordinates":[-80.270549,25.765747]}},{"properties":{"name":"PARTY SUPERMARKET","city":"HOLLYWOOD","descript":"PARTY SUPERMARKET","zip":33020,"latitude":26.044128,"type":"SUPER MARKET","phone":"(954) 927-0700","random":"","longitude":-80.160223,"id":"a63ajhix3irz","address":"3901 OAKWOOD BLVD","state":"FL"},"type":"Feature","geometry":{"type":"Point","coordinates":[-80.160223,26.044128]}},{"properties":{"name":"PLEJS LINEN SUPERMARKET","city":"HOLLYWOOD","descript":"PLEJS LINEN SUPERMARKET","zip":33020,"latitude":26.043544,"type":"SUPER MARKET","phone":"(954) 922-0648","random":"","longitude":-80.160855,"id":"a63ajhwgk0ca","address":"3791 OAKWOOD BLVD","state":"FL"},"type":"Feature","geometry":{"type":"Point","coordinates":[-80.160855,26.043544]}},{"properties":{"name":"PUBLIX SUPER MARKETS","city":"CORAL GABLES","descript":"PUBLIX SUPER MARKETS","zip":33146,"latitude":25.70759,"type":"SUPER MARKET","phone":"(305) 663-7111","random":"","longitude":-80.282029,"id":"a63ajhxro9vg","address":"1401 MONZA AVE","state":"FL"},"type":"Feature","geometry":{"type":"Point","coordinates":[-80.282029,25.70759]}},{"properties":{"name":"PUBLIX SUPER MARKETS","city":"KEY WEST","descript":"PUBLIX SUPER MARKETS","zip":33040,"latitude":24.570143,"type":"SUPER MARKET","phone":"(305) 296-2225","random":"","longitude":-81.765145,"id":"a63ajhm9eqg2","address":"3316 N ROOSEVELT BLVD","state":"FL"},"type":"Feature","geometry":{"type":"Point","coordinates":[-81.765145,24.570143]}},{"properties":{"name":"PUBLIX SUPER MARKETS","city":"COOPER CITY","descript":"PUBLIX SUPER MARKETS","zip":33330,"latitude":26.047692,"type":"SUPER MARKET","phone":"(954) 434-2803","random":"","longitude":-80.312822,"id":"a63ajhpsud4i","address":"5630 S FLAMINGO RD","state":"FL"},"type":"Feature","geometry":{"type":"Point","coordinates":[-80.312822,26.047692]}},{"properties":{"name":"RAMAX SUPERMARKET","city":"BAY HARBOR ISLANDS","descript":"RAMAX SUPERMARKET","zip":33154,"latitude":25.914944,"type":"SUPER MARKET","phone":"(305) 531-0137","random":"","longitude":-80.122388,"id":"a63ajhu7314k","address":"13611 COLLINS AVE","state":"FL"},"type":"Feature","geometry":{"type":"Point","coordinates":[-80.122388,25.914944]}},{"properties":{"name":"SANTAS SERVICES AT CORAL SQUARE MALL","city":"CORAL SPRINGS","descript":"SANTAS SERVICES AT CORAL SQUARE MALL","zip":33071,"latitude":26.239994,"type":"SHOPPING CENTERS","phone":"(954) 755-7029","random":"","longitude":-80.252088,"id":"a63ajhvho2m0","address":"9469 W ATLANTIC BLVD","state":"FL"},"type":"Feature","geometry":{"type":"Point","coordinates":[-80.252088,26.239994]}},{"properties":{"name":"SOUTH MIAMI MARKET","city":"SOUTH MIAMI","descript":"SOUTH MIAMI MARKET","zip":33143,"latitude":25.70781,"type":"SUPER MARKET","phone":"(305) 665-5264","random":"","longitude":-80.29069,"id":"a63ajho5xj6u","address":"5950 SW 68TH ST","state":"FL"},"type":"Feature","geometry":{"type":"Point","coordinates":[-80.29069,25.70781]}},{"properties":{"name":"TABEENA INC GROCERS","city":"HOMESTEAD","descript":"TABEENA INC GROCERS","zip":33032,"latitude":25.518026,"type":"SUPER MARKET","phone":"(305) 257-3927","random":"","longitude":-80.412417,"id":"a63ajhlpsijc","address":"13690 SW 268TH ST","state":"FL"},"type":"Feature","geometry":{"type":"Point","coordinates":[-80.412417,25.518026]}},{"properties":{"name":"TARRAGON MIDDLE EAST MARKET","city":"SOUTH MIAMI","descript":"TARRAGON MIDDLE EAST MARKET","zip":33143,"latitude":25.695206,"type":"SUPER MARKET","phone":"(305) 663-1121","random":"","longitude":-80.300265,"id":"a63ajhwsqvd8","address":"6623 S DIXIE HWY","state":"FL"},"type":"Feature","geometry":{"type":"Point","coordinates":[-80.300265,25.695206]}},{"properties":{"name":"VERIZON WIRELESS","city":"HOLLYWOOD","descript":"VERIZON WIRELESS","zip":33020,"latitude":26.03865,"type":"SHOPPING CENTERS","phone":"(954) 924-4433","random":"","longitude":-80.161781,"id":"a63ajhk6g7i8","address":"2910 OAKWOOD BLVD","state":"FL"},"type":"Feature","geometry":{"type":"Point","coordinates":[-80.161781,26.03865]}},{"properties":{"name":"WINN DIXIE","city":"SOUTH MIAMI","descript":"WINN DIXIE","zip":33143,"latitude":25.71548,"type":"SUPER MARKET","phone":"(305) 666-5241","random":"","longitude":-80.312085,"id":"a63ajhndh37c","address":"5850 SW 73RD AVE","state":"FL"},"type":"Feature","geometry":{"type":"Point","coordinates":[-80.312085,25.71548]}},{"properties":{"name":"WINN DIXIE","city":"BELLE GLADE","descript":"WINN DIXIE","zip":33430,"latitude":26.675491,"type":"SUPER MARKET","phone":"(561) 996-7886","random":"","longitude":-80.670613,"id":"a63ajho7dtit","address":"900 S MAIN ST","state":"FL"},"type":"Feature","geometry":{"type":"Point","coordinates":[-80.670613,26.675491]}},{"properties":{"name":"WINN DIXIE","city":"BOCA RATON","descript":"WINN DIXIE","zip":33428,"latitude":26.33292,"type":"SUPER MARKET","phone":"(561) 487-1334","random":"","longitude":-80.201644,"id":"a63ajhtsehcg","address":"23072 SANDALFOOT PLAZA DR","state":"FL"},"type":"Feature","geometry":{"type":"Point","coordinates":[-80.201644,26.33292]}},{"properties":{"name":"WINN DIXIE","city":"COCONUT CREEK","descript":"WINN DIXIE","zip":33073,"latitude":26.317766,"type":"SUPER MARKET","phone":"(954) 429-9509","random":"","longitude":-80.18401,"id":"a63ajhqi68zb","address":"4301 W HILLSBORO BLVD","state":"FL"},"type":"Feature","geometry":{"type":"Point","coordinates":[-80.18401,26.317766]}},{"properties":{"name":"WOODIES GROCERY","city":"SOUTH MIAMI","descript":"WOODIES GROCERY","zip":33143,"latitude":25.71118,"type":"SUPER MARKET","phone":"(305) 667-4612","random":"","longitude":-80.291098,"id":"a63ajht6qaah","address":"6412 SW 59TH PL","state":"FL"},"type":"Feature","geometry":{"type":"Point","coordinates":[-80.291098,25.71118]}},{"properties":{"name":"ZAGAMIS SUPERMARKET MEAT DEPARTMENT","city":"MIAMI","descript":"ZAGAMIS SUPERMARKET MEAT DEPARTMENT","zip":33135,"latitude":25.772414,"type":"SUPER MARKET","phone":"(305) 642-5432","random":"","longitude":-80.232708,"id":"a63ajhvef8zn","address":"2294 W FLAGLER ST","state":"FL"},"type":"Feature","geometry":{"type":"Point","coordinates":[-80.232708,25.772414]}},{"properties":{"name":"ZENA SUPERMARKET INC","city":"MIAMI","descript":"ZENA SUPERMARKET INC","zip":33147,"latitude":25.834782,"type":"SUPER MARKET","phone":"(305) 696-3161","random":"","longitude":-80.22711,"id":"a63ajhq9b26l","address":"6600 NW 18TH AVE","state":"FL"},"type":"Feature","geometry":{"type":"Point","coordinates":[-80.22711,25.834782]}},{"properties":{"name":"ZUBI SUPERMNARKET","city":"MIAMI","descript":"ZUBI SUPERMNARKET","zip":33127,"latitude":25.827995,"type":"SUPER MARKET","phone":"(305) 758-7773","random":"","longitude":-80.200209,"id":"a63ajhv9axao","address":"5700 NW 2ND AVE","state":"FL"},"type":"Feature","geometry":{"type":"Point","coordinates":[-80.200209,25.827995]}}],"is_temporal":false,"author":{"url":"","metadata":"","contact_name":"","contact_address":"","source":"","contact_phone":""},"source":"","pagination":{"sort":null,"start":0,"total":64,"limit":1000000},"state":"complete","tags":"","published":"2014-08-10T12:22:20-04:00","id":10899}