{"type":"FeatureCollection","data_type":"Dataset","url_type":null,"permissions":[{"permissions":{"download":true,"view":true},"group_id":"everyone"}],"classification":null,"title":"Small Business Customer Resp w Rev","count":17,"stream_id":10914,"contributor":{"url":"http://geocommons.com/users/143","name":"jennifer"},"data_attributes":null,"calculation_params":null,"icon_link":null,"link":"http://geocommons.com/overlays/10914.json","extent":[-80.3344,25.647,-80.0351,26.785],"geometry_types":["point"],"unique_name":null,"name":"Small Business Customer Resp w Rev","feature_count":17,"description":"","next_feature":null,"is_raster":false,"short_classification":"Y","stats":{"zip":{"max":33411,"mean":33250.0,"variance":20053.5,"stdev":141.610380975407,"min":33010,"median":33316},"latitude":{"max":26.784964,"mean":26.1437342941176,"variance":0.18071267463422,"stdev":0.425103134114794,"min":25.646988,"median":26.098417},"longitude":{"max":-80.035123,"mean":-80.193714,"variance":0.00986397589212496,"stdev":0.0993175507759075,"min":-80.334373,"median":-80.190346},"revenue":{"max":43,"mean":29.8235294117647,"variance":104.154411764706,"stdev":10.2056068788047,"min":15,"median":29}},"features":[{"properties":{"name":"Allen and Sons","city":"RIVIERA BEACH","industry":"Construction","zip":33404,"latitude":26.774395,"street":"29 W 14TH ST","longitude":-80.05557,"id":"a6eatq25yp3q","state":"FL","revenue":24},"type":"Feature","geometry":{"type":"Point","coordinates":[-80.05557,26.774395]}},{"properties":{"name":"Allen and Sons","city":"WEST PALM BEACH","industry":"Construction","zip":33407,"latitude":26.760565,"street":"600 NORTHPOINT PKWY","longitude":-80.094904,"id":"a6eatpx61eyz","state":"FL","revenue":42},"type":"Feature","geometry":{"type":"Point","coordinates":[-80.094904,26.760565]}},{"properties":{"name":"Allen and Sons","city":"MIAMI","industry":"Construction","zip":33166,"latitude":25.836882,"street":"6996 NW 82ND AVE","longitude":-80.330261,"id":"a6eatpp4o0o6","state":"FL","revenue":32},"type":"Feature","geometry":{"type":"Point","coordinates":[-80.330261,25.836882]}},{"properties":{"name":"Allen and Sons","city":"HIALEAH","industry":"Construction","zip":33010,"latitude":25.833415,"street":"8 E 13TH ST","longitude":-80.28143,"id":"a6eatpvmrd7f","state":"FL","revenue":41},"type":"Feature","geometry":{"type":"Point","coordinates":[-80.28143,25.833415]}},{"properties":{"name":"Data Express","city":"WEST PALM BEACH","industry":"Data Services","zip":33409,"latitude":26.699689,"street":"1750 N FLORIDA MANGO RD","longitude":-80.078377,"id":"a6eatpz9u126","state":"FL","revenue":15},"type":"Feature","geometry":{"type":"Point","coordinates":[-80.078377,26.699689]}},{"properties":{"name":"Data Express","city":"MIAMI","industry":"Data Services","zip":33176,"latitude":25.646988,"street":"13260 SW 87TH AVE","longitude":-80.334373,"id":"a6eatpo8ev79","state":"FL","revenue":22},"type":"Feature","geometry":{"type":"Point","coordinates":[-80.334373,25.646988]}},{"properties":{"name":"Data Express","city":"OAKLAND PARK","industry":"Data Services","zip":33334,"latitude":26.187292,"street":"4873 NE 12TH AVE","longitude":-80.131362,"id":"a6eatpwyh41w","state":"FL","revenue":38},"type":"Feature","geometry":{"type":"Point","coordinates":[-80.131362,26.187292]}},{"properties":{"name":"Data Express","city":"FORT LAUDERDALE","industry":"Data Services","zip":33316,"latitude":26.108131,"street":"1180 SEABREEZE BOULEVARD","longitude":-80.10718,"id":"a6eatpu2nnkh","state":"FL","revenue":24},"type":"Feature","geometry":{"type":"Point","coordinates":[-80.10718,26.108131]}},{"properties":{"name":"Jones &amp; Company","city":"WEST PALM BEACH","industry":"Architecture","zip":33404,"latitude":26.784964,"street":"2655 N OCEAN DR","longitude":-80.035123,"id":"a6eatppc5i7x","state":"FL","revenue":29},"type":"Feature","geometry":{"type":"Point","coordinates":[-80.035123,26.784964]}},{"properties":{"name":"Jones &amp; Company","city":"HIALEAH","industry":"Architecture","zip":33010,"latitude":25.81013,"street":"1421 SE 9TH AVE","longitude":-80.262488,"id":"a6eatpqd3rqx","state":"FL","revenue":15},"type":"Feature","geometry":{"type":"Point","coordinates":[-80.262488,25.81013]}},{"properties":{"name":"Jones &amp; Company","city":"PLANTATION","industry":"Architecture","zip":33324,"latitude":26.12104,"street":"8181 W BROWARD BLVD","longitude":-80.25784,"id":"a6eatppsa6hl","state":"FL","revenue":34},"type":"Feature","geometry":{"type":"Point","coordinates":[-80.25784,26.12104]}},{"properties":{"name":"Jones &amp; Company","city":"MIAMI","industry":"Architecture","zip":33132,"latitude":25.776349,"street":"273 NE 2ND ST","longitude":-80.189271,"id":"a6eatq0vmkpi","state":"FL","revenue":22},"type":"Feature","geometry":{"type":"Point","coordinates":[-80.189271,25.776349]}},{"properties":{"name":"Top Star, Inc.","city":"MIAMI","industry":"Marketing/PR","zip":33131,"latitude":25.773018,"street":"150 SE 2ND AVE","longitude":-80.190346,"id":"a6eatpzjkam7","state":"FL","revenue":43},"type":"Feature","geometry":{"type":"Point","coordinates":[-80.190346,25.773018]}},{"properties":{"name":"Top Star, Inc.","city":"ROYAL PALM BEACH","industry":"Marketing/PR","zip":33411,"latitude":26.683433,"street":"675 ROYAL PALM BEACH BLVD","longitude":-80.230304,"id":"a6eatpwaf6h4","state":"FL","revenue":19},"type":"Feature","geometry":{"type":"Point","coordinates":[-80.230304,26.683433]}},{"properties":{"name":"Top Star, Inc.","city":"MIAMI","industry":"Marketing/PR","zip":33166,"latitude":25.807392,"street":"6595 NW 36TH ST","longitude":-80.302561,"id":"a6eatppwtdy3","state":"FL","revenue":22},"type":"Feature","geometry":{"type":"Point","coordinates":[-80.302561,25.807392]}},{"properties":{"name":"Top Star, Inc.","city":"FORT LAUDERDALE","industry":"Marketing/PR","zip":33316,"latitude":26.098417,"street":"1851 SE TENTH AVENUE","longitude":-80.132842,"id":"a6eatpx82qow","state":"FL","revenue":43},"type":"Feature","geometry":{"type":"Point","coordinates":[-80.132842,26.098417]}},{"properties":{"name":"Top Star, Inc.","city":"CORAL GABLES","industry":"Marketing/PR","zip":33134,"latitude":25.741383,"street":"1200 ANASTASIA AVENUE","longitude":-80.278906,"id":"a6eatpxvt5em","state":"FL","revenue":42},"type":"Feature","geometry":{"type":"Point","coordinates":[-80.278906,25.741383]}}],"is_temporal":false,"author":{"url":"","metadata":"","contact_name":"","contact_address":"","source":"","contact_phone":""},"source":"","pagination":{"sort":null,"start":0,"total":17,"limit":1000000},"state":"complete","tags":"","published":"2014-08-10T12:23:08-04:00","id":10914}