{"type":"FeatureCollection","data_type":"Dataset","url_type":null,"permissions":[{"permissions":{"download":true,"view":true},"group_id":"everyone"}],"classification":null,"title":"crime","count":48,"stream_id":109176,"contributor":{"url":"http://geocommons.com/users/25456","name":"ohrman"},"data_attributes":null,"calculation_params":null,"icon_link":null,"link":"http://geocommons.com/overlays/109176.json","extent":[-75.5389,8.53778,-75.5389,8.53778],"geometry_types":null,"unique_name":null,"name":"crime","feature_count":48,"description":"","next_feature":null,"is_raster":false,"short_classification":"Y","stats":{"latitude":{"max":8.5377778,"variance":8.06010055334512e-29,"mean":8.53777780000001,"stdev":8.97780627622646e-15,"min":8.5377778,"median":8.5377778},"geo_score":{"max":0.937,"variance":1.13345164031416e-31,"mean":0.937,"stdev":3.36667735358492e-16,"min":0.937,"median":0.937},"longitude":{"max":-75.5388889,"variance":1.85704716749072e-27,"mean":-75.5388889,"stdev":4.3093470125887e-14,"min":-75.5388889,"median":-75.5388889}},"features":[{"properties":{"*location*":"COTTONWOOD GROVE","city":"Boulder","latitude":8.5377778,"*call type*":"Traffic stop","geo_score":0.937,"*case no*. [1]":"10 05977","longitude":-75.5388889,"id":"a68dq1dpj9fg","geo_precision":"zip","*date/time*":"5/13/2010 6:33:17","state":"CO"},"type":"Feature","geometry":{"type":"Point","coordinates":[-75.5388889,8.5377778]}},{"properties":{"*location*":"1400 block of 18TH ST","city":"Boulder","latitude":8.5377778,"*call type*":"Theft","geo_score":0.937,"*case no*. [1]":"10 05978","longitude":-75.5388889,"id":"a68dq1bzgv17","geo_precision":"zip","*date/time*":"5/13/2010 8:00:47","state":"CO"},"type":"Feature","geometry":{"type":"Point","coordinates":[-75.5388889,8.5377778]}},{"properties":{"*location*":"1900 block of WALNUT ST","city":"Boulder","latitude":8.5377778,"*call type*":"Theft","geo_score":0.937,"*case no*. [1]":"10 05979","longitude":-75.5388889,"id":"a68dq1fb6i0f","geo_precision":"zip","*date/time*":"5/13/2010 8:42:28","state":"CO"},"type":"Feature","geometry":{"type":"Point","coordinates":[-75.5388889,8.5377778]}},{"properties":{"*location*":"4800 block of THUNDERBIRD DR","city":"Boulder","latitude":8.5377778,"*call type*":"Welfare check","geo_score":0.937,"*case no*. [1]":"10 05980","longitude":-75.5388889,"id":"a68dq13xlwet","geo_precision":"zip","*date/time*":"5/13/2010 7:31:23","state":"CO"},"type":"Feature","geometry":{"type":"Point","coordinates":[-75.5388889,8.5377778]}},{"properties":{"*location*":"1805 33RD","city":"Boulder","latitude":8.5377778,"*call type*":"Found property","geo_score":0.937,"*case no*. [1]":"10 05981","longitude":-75.5388889,"id":"a68dq18kl247","geo_precision":"zip","*date/time*":"5/13/2010 9:16:09","state":"CO"},"type":"Feature","geometry":{"type":"Point","coordinates":[-75.5388889,8.5377778]}},{"properties":{"*location*":"1600 block of 30TH ST","city":"Boulder","latitude":8.5377778,"*call type*":"Theft","geo_score":0.937,"*case no*. [1]":"10 05982","longitude":-75.5388889,"id":"a68dq1hh0ufe","geo_precision":"zip","*date/time*":"5/13/2010 9:43:26","state":"CO"},"type":"Feature","geometry":{"type":"Point","coordinates":[-75.5388889,8.5377778]}},{"properties":{"*location*":"2500 block of ARAPAHOE AV","city":"Boulder","latitude":8.5377778,"*call type*":"Shoplifter","geo_score":0.937,"*case no*. [1]":"10 05983","longitude":-75.5388889,"id":"a68dq1fg21by","geo_precision":"zip","*date/time*":"5/13/2010 10:01:42","state":"CO"},"type":"Feature","geometry":{"type":"Point","coordinates":[-75.5388889,8.5377778]}},{"properties":{"*location*":"2900 block of SHADOW CREEK DR","city":"Boulder","latitude":8.5377778,"*call type*":"Threats","geo_score":0.937,"*case no*. [1]":"10 05984","longitude":-75.5388889,"id":"a68dq154l9sb","geo_precision":"zip","*date/time*":"5/13/2010 10:08:36","state":"CO"},"type":"Feature","geometry":{"type":"Point","coordinates":[-75.5388889,8.5377778]}},{"properties":{"*location*":"13/ARAP","city":"Boulder","latitude":8.5377778,"*call type*":"Pedestrian contact","geo_score":0.937,"*case no*. [1]":"10 05985","longitude":-75.5388889,"id":"a68dq1f9l276","geo_precision":"zip","*date/time*":"5/13/2010 11:41:55","state":"CO"},"type":"Feature","geometry":{"type":"Point","coordinates":[-75.5388889,8.5377778]}},{"properties":{"*location*":"23RD ST&amp;CANYON BLVD","city":"Boulder","latitude":8.5377778,"*call type*":"Property damage accident","geo_score":0.937,"*case no*. [1]":"10 05986","longitude":-75.5388889,"id":"a68dq15q6pch","geo_precision":"zip","*date/time*":"5/13/2010 12:47:59","state":"CO"},"type":"Feature","geometry":{"type":"Point","coordinates":[-75.5388889,8.5377778]}},{"properties":{"*location*":"6400 block of ODELL PL","city":"Boulder","latitude":8.5377778,"*call type*":"Theft","geo_score":0.937,"*case no*. [1]":"10 05987","longitude":-75.5388889,"id":"a68dq1hlb6fj","geo_precision":"zip","*date/time*":"5/13/2010 12:07:54","state":"CO"},"type":"Feature","geometry":{"type":"Point","coordinates":[-75.5388889,8.5377778]}},{"properties":{"*location*":"18/ARAP","city":"Boulder","latitude":8.5377778,"*call type*":"Traffic stop","geo_score":0.937,"*case no*. [1]":"10 05988","longitude":-75.5388889,"id":"a68dq1g4xox8","geo_precision":"zip","*date/time*":"5/13/2010 12:48:25","state":"CO"},"type":"Feature","geometry":{"type":"Point","coordinates":[-75.5388889,8.5377778]}},{"properties":{"*location*":"13TH ST&amp;PEARL ST","city":"Boulder","latitude":8.5377778,"*call type*":"Lobby walk-in","geo_score":0.937,"*case no*. [1]":"10 05989","longitude":-75.5388889,"id":"a68dq1i4axgt","geo_precision":"zip","*date/time*":"5/13/2010 12:44:44","state":"CO"},"type":"Feature","geometry":{"type":"Point","coordinates":[-75.5388889,8.5377778]}},{"properties":{"*location*":"2000 block of CANYON BLVD","city":"Boulder","latitude":8.5377778,"*call type*":"Theft","geo_score":0.937,"*case no*. [1]":"10 05990","longitude":-75.5388889,"id":"a68dq18hxcr2","geo_precision":"zip","*date/time*":"5/13/2010 13:39:13","state":"CO"},"type":"Feature","geometry":{"type":"Point","coordinates":[-75.5388889,8.5377778]}},{"properties":{"*location*":"900 block of SPRUCE","city":"Boulder","latitude":8.5377778,"*call type*":"Traffic scofflaw","geo_score":0.937,"*case no*. [1]":"10 05991","longitude":-75.5388889,"id":"a68dq16plyre","geo_precision":"zip","*date/time*":"5/13/2010 13:23:41","state":"CO"},"type":"Feature","geometry":{"type":"Point","coordinates":[-75.5388889,8.5377778]}},{"properties":{"*location*":"3400 block of TABLE MESA DR","city":"Boulder","latitude":8.5377778,"*call type*":"Theft","geo_score":0.937,"*case no*. [1]":"10 05992","longitude":-75.5388889,"id":"a68dq1a8rszm","geo_precision":"zip","*date/time*":"5/13/2010 13:40:49","state":"CO"},"type":"Feature","geometry":{"type":"Point","coordinates":[-75.5388889,8.5377778]}},{"properties":{"*location*":"900 block of 28TH ST","city":"Boulder","latitude":8.5377778,"*call type*":"Drunk person","geo_score":0.937,"*case no*. [1]":"10 05993","longitude":-75.5388889,"id":"a68dq1fu4n5p","geo_precision":"zip","*date/time*":"5/13/2010 13:09:46","state":"CO"},"type":"Feature","geometry":{"type":"Point","coordinates":[-75.5388889,8.5377778]}},{"properties":{"*location*":"29TH/BLINE","city":"Boulder","latitude":8.5377778,"*call type*":"Traffic stop","geo_score":0.937,"*case no*. [1]":"10 05994","longitude":-75.5388889,"id":"a68dq16frjeo","geo_precision":"zip","*date/time*":"5/13/2010 14:01:16","state":"CO"},"type":"Feature","geometry":{"type":"Point","coordinates":[-75.5388889,8.5377778]}},{"properties":{"*location*":"1500 block of GREENBRIAR BLVD","city":"Boulder","latitude":8.5377778,"*call type*":"Narcotics violation","geo_score":0.937,"*case no*. [1]":"10 05995","longitude":-75.5388889,"id":"a68dq1d14yql","geo_precision":"zip","*date/time*":"5/13/2010 14:47:01","state":"CO"},"type":"Feature","geometry":{"type":"Point","coordinates":[-75.5388889,8.5377778]}},{"properties":{"*location*":"2100 block of 13TH ST","city":"Boulder","latitude":8.5377778,"*call type*":"Theft","geo_score":0.937,"*case no*. [1]":"10 05996","longitude":-75.5388889,"id":"a68dq16einp9","geo_precision":"zip","*date/time*":"5/13/2010 15:31:11","state":"CO"},"type":"Feature","geometry":{"type":"Point","coordinates":[-75.5388889,8.5377778]}},{"properties":{"*location*":"1000 block of ARAPAHOE AV","city":"Boulder","latitude":8.5377778,"*call type*":"Criminal mischief","geo_score":0.937,"*case no*. [1]":"10 05997","longitude":-75.5388889,"id":"a68dq1dufcmm","geo_precision":"zip","*date/time*":"5/13/2010 16:05:05","state":"CO"},"type":"Feature","geometry":{"type":"Point","coordinates":[-75.5388889,8.5377778]}},{"properties":{"*location*":"2500 block of ARAPAHOE AV","city":"Boulder","latitude":8.5377778,"*call type*":"Trespassing","geo_score":0.937,"*case no*. [1]":"10 05998","longitude":-75.5388889,"id":"a68dq1etsjxb","geo_precision":"zip","*date/time*":"5/13/2010 15:23:40","state":"CO"},"type":"Feature","geometry":{"type":"Point","coordinates":[-75.5388889,8.5377778]}},{"properties":{"*location*":"1000 block of ARAPAHOE AV","city":"Boulder","latitude":8.5377778,"*call type*":"Theft","geo_score":0.937,"*case no*. [1]":"10 05999","longitude":-75.5388889,"id":"a68dq1jn2jxy","geo_precision":"zip","*date/time*":"5/13/2010 15:33:31","state":"CO"},"type":"Feature","geometry":{"type":"Point","coordinates":[-75.5388889,8.5377778]}},{"properties":{"*location*":"S BROADWAY&amp;HANOVER AV","city":"Boulder","latitude":8.5377778,"*call type*":"Property damage accident","geo_score":0.937,"*case no*. [1]":"10 06000","longitude":-75.5388889,"id":"a68dq13zbg6h","geo_precision":"zip","*date/time*":"5/13/2010 17:26:31","state":"CO"},"type":"Feature","geometry":{"type":"Point","coordinates":[-75.5388889,8.5377778]}},{"properties":{"*location*":"4700 block of VALMONT RD","city":"Boulder","latitude":8.5377778,"*call type*":"Fraud","geo_score":0.937,"*case no*. [1]":"10 06001","longitude":-75.5388889,"id":"a68dq185a6gi","geo_precision":"zip","*date/time*":"5/13/2010 17:57:54","state":"CO"},"type":"Feature","geometry":{"type":"Point","coordinates":[-75.5388889,8.5377778]}},{"properties":{"*location*":"28TH ST&amp;BASELINE RD","city":"Boulder","latitude":8.5377778,"*call type*":"Welfare check","geo_score":0.937,"*case no*. [1]":"10 06002","longitude":-75.5388889,"id":"a68dq16h35c8","geo_precision":"zip","*date/time*":"5/13/2010 18:23:44","state":"CO"},"type":"Feature","geometry":{"type":"Point","coordinates":[-75.5388889,8.5377778]}},{"properties":{"*location*":"28TH ST&amp;BASELINE RD","city":"Boulder","latitude":8.5377778,"*call type*":"Trespassing","geo_score":0.937,"*case no*. [1]":"10 06003","longitude":-75.5388889,"id":"a68dq1autasd","geo_precision":"zip","*date/time*":"5/13/2010 19:39:04","state":"CO"},"type":"Feature","geometry":{"type":"Point","coordinates":[-75.5388889,8.5377778]}},{"properties":{"*location*":"600 block of MANHATTAN PL","city":"Boulder","latitude":8.5377778,"*call type*":"Mental subject","geo_score":0.937,"*case no*. [1]":"10 06004","longitude":-75.5388889,"id":"a68dq1ey51w5","geo_precision":"zip","*date/time*":"5/13/2010 19:38:33","state":"CO"},"type":"Feature","geometry":{"type":"Point","coordinates":[-75.5388889,8.5377778]}},{"properties":{"*location*":"27TH WAY&amp;BASELINE RD","city":"Boulder","latitude":8.5377778,"*call type*":"Hit and run accident","geo_score":0.937,"*case no*. [1]":"10 06005","longitude":-75.5388889,"id":"a68dq1cpokw2","geo_precision":"zip","*date/time*":"5/13/2010 20:11:06","state":"CO"},"type":"Feature","geometry":{"type":"Point","coordinates":[-75.5388889,8.5377778]}},{"properties":{"*location*":"1300 block of 30TH ST","city":"Boulder","latitude":8.5377778,"*call type*":"Threats","geo_score":0.937,"*case no*. [1]":"10 06006","longitude":-75.5388889,"id":"a68dq1i1owri","geo_precision":"zip","*date/time*":"5/13/2010 20:02:41","state":"CO"},"type":"Feature","geometry":{"type":"Point","coordinates":[-75.5388889,8.5377778]}},{"properties":{"*location*":"29TH ST&amp;BASELINE RD","city":"Boulder","latitude":8.5377778,"*call type*":"Drunk person","geo_score":0.937,"*case no*. [1]":"10 06007","longitude":-75.5388889,"id":"a68dq1fd7c61","geo_precision":"zip","*date/time*":"5/13/2010 20:20:44","state":"CO"},"type":"Feature","geometry":{"type":"Point","coordinates":[-75.5388889,8.5377778]}},{"properties":{"*location*":"1900 block of 28TH ST","city":"Boulder","latitude":8.5377778,"*call type*":"Disturbance","geo_score":0.937,"*case no*. [1]":"10 06008","longitude":-75.5388889,"id":"a68dq1hzu6lm","geo_precision":"zip","*date/time*":"5/13/2010 20:38:42","state":"CO"},"type":"Feature","geometry":{"type":"Point","coordinates":[-75.5388889,8.5377778]}},{"properties":{"*location*":"2900 block of PEARL ST","city":"Boulder","latitude":8.5377778,"*call type*":"Drunk person","geo_score":0.937,"*case no*. [1]":"10 06009","longitude":-75.5388889,"id":"a68dq1b06hcd","geo_precision":"zip","*date/time*":"5/13/2010 20:47:49","state":"CO"},"type":"Feature","geometry":{"type":"Point","coordinates":[-75.5388889,8.5377778]}},{"properties":{"*location*":"33 SOUTH BOULDER CIR","city":"Boulder","latitude":8.5377778,"*call type*":"Emergency medical call","geo_score":0.937,"*case no*. [1]":"10 06010","longitude":-75.5388889,"id":"a68dq16pnatv","geo_precision":"zip","*date/time*":"5/13/2010 19:51:23","state":"CO"},"type":"Feature","geometry":{"type":"Point","coordinates":[-75.5388889,8.5377778]}},{"properties":{"*location*":"2900 block of IRIS AV","city":"Boulder","latitude":8.5377778,"*call type*":"Disturbance","geo_score":0.937,"*case no*. [1]":"10 06011","longitude":-75.5388889,"id":"a68dq1aa8r6b","geo_precision":"zip","*date/time*":"5/13/2010 21:55:29","state":"CO"},"type":"Feature","geometry":{"type":"Point","coordinates":[-75.5388889,8.5377778]}},{"properties":{"*location*":"2800 block of 19TH ST","city":"Boulder","latitude":8.5377778,"*call type*":"Burglary","geo_score":0.937,"*case no*. [1]":"10 06012","longitude":-75.5388889,"id":"a68dq1dmujp2","geo_precision":"zip","*date/time*":"5/13/2010 21:22:23","state":"CO"},"type":"Feature","geometry":{"type":"Point","coordinates":[-75.5388889,8.5377778]}},{"properties":{"*location*":"CANYON BLVD&amp;FOLSOM ST","city":"Boulder","latitude":8.5377778,"*call type*":"Property damage accident","geo_score":0.937,"*case no*. [1]":"10 06013","longitude":-75.5388889,"id":"a68dq1eetzq0","geo_precision":"zip","*date/time*":"5/13/2010 23:32:27","state":"CO"},"type":"Feature","geometry":{"type":"Point","coordinates":[-75.5388889,8.5377778]}},{"properties":{"*location*":"4500 block of BROADWAY","city":"Boulder","latitude":8.5377778,"*call type*":"Assault","geo_score":0.937,"*case no*. [1]":"10 06014","longitude":-75.5388889,"id":"a68dq1biluen","geo_precision":"zip","*date/time*":"5/13/2010 23:37:33","state":"CO"},"type":"Feature","geometry":{"type":"Point","coordinates":[-75.5388889,8.5377778]}},{"properties":{"*location*":"2900 block of COLORADO AV","city":"Boulder","latitude":8.5377778,"*call type*":"Criminal mischief","geo_score":0.937,"*case no*. [1]":"10 06015","longitude":-75.5388889,"id":"a68dq14ub7d0","geo_precision":"zip","*date/time*":"5/14/2010 0:09:07","state":"CO"},"type":"Feature","geometry":{"type":"Point","coordinates":[-75.5388889,8.5377778]}},{"properties":{"*location*":"1000 block of PEARL ST","city":"Boulder","latitude":8.5377778,"*call type*":"Hit and run accident","geo_score":0.937,"*case no*. [1]":"10 06016","longitude":-75.5388889,"id":"a68dq1evrst2","geo_precision":"zip","*date/time*":"5/14/2010 0:40:16","state":"CO"},"type":"Feature","geometry":{"type":"Point","coordinates":[-75.5388889,8.5377778]}},{"properties":{"*location*":"13TH ST&amp;SPRUCE ST","city":"Boulder","latitude":8.5377778,"*call type*":"Driving under the influence","geo_score":0.937,"*case no*. [1]":"10 06017","longitude":-75.5388889,"id":"a68dq1jamb3n","geo_precision":"zip","*date/time*":"5/14/2010 0:36:48","state":"CO"},"type":"Feature","geometry":{"type":"Point","coordinates":[-75.5388889,8.5377778]}},{"properties":{"*location*":"15/PEARL","city":"Boulder","latitude":8.5377778,"*call type*":"Drunk person","geo_score":0.937,"*case no*. [1]":"10 06018","longitude":-75.5388889,"id":"a68dq15irv8i","geo_precision":"zip","*date/time*":"5/14/2010 1:16:26","state":"CO"},"type":"Feature","geometry":{"type":"Point","coordinates":[-75.5388889,8.5377778]}},{"properties":{"*location*":"ARAPAHOE AV&amp;BROADWAY","city":"Boulder","latitude":8.5377778,"*call type*":"Driving under the influence","geo_score":0.937,"*case no*. [1]":"10 06019","longitude":-75.5388889,"id":"a68dq1htynqb","geo_precision":"zip","*date/time*":"5/14/2010 1:24:38","state":"CO"},"type":"Feature","geometry":{"type":"Point","coordinates":[-75.5388889,8.5377778]}},{"properties":{"*location*":"17TH ST&amp;MARINE ST","city":"Boulder","latitude":8.5377778,"*call type*":"Domestic disturbance","geo_score":0.937,"*case no*. [1]":"10 06020","longitude":-75.5388889,"id":"a68dq1dskdlg","geo_precision":"zip","*date/time*":"5/14/2010 2:27:16","state":"CO"},"type":"Feature","geometry":{"type":"Point","coordinates":[-75.5388889,8.5377778]}},{"properties":{"*location*":"2900 block of BASELINE RD","city":"Boulder","latitude":8.5377778,"*call type*":"Drunk person","geo_score":0.937,"*case no*. [1]":"10 06021","longitude":-75.5388889,"id":"a68dq1b9z8a1","geo_precision":"zip","*date/time*":"5/14/2010 3:11:47","state":"CO"},"type":"Feature","geometry":{"type":"Point","coordinates":[-75.5388889,8.5377778]}},{"properties":{"*location*":"900 block of 14TH ST","city":"Boulder","latitude":8.5377778,"*call type*":"Disturbance","geo_score":0.937,"*case no*. [1]":"10 06022","longitude":-75.5388889,"id":"a68dq1hfmodk","geo_precision":"zip","*date/time*":"5/14/2010 3:32:38","state":"CO"},"type":"Feature","geometry":{"type":"Point","coordinates":[-75.5388889,8.5377778]}},{"properties":{"*location*":"30TH ST&amp;E AURORA AV","city":"Boulder","latitude":8.5377778,"*call type*":"Property damage accident","geo_score":0.937,"*case no*. [1]":"10 06023","longitude":-75.5388889,"id":"a68dq1frusn4","geo_precision":"zip","*date/time*":"5/14/2010 6:01:05","state":"CO"},"type":"Feature","geometry":{"type":"Point","coordinates":[-75.5388889,8.5377778]}},{"properties":{"*location*":null,"city":null,"latitude":null,"*call type*":null,"geo_score":null,"*case no*. [1]":"[1] http://www.bouldercolorado.gov/index.php?option=com_content&amp;view=article&amp;id=13135:call-log-may-13-2010&amp;catid=703:police-call-log&amp;Itemid=4306","longitude":null,"id":"a68dq1jt0xbn","geo_precision":null,"*date/time*":null,"state":null},"type":"Feature","geometry":null}],"is_temporal":false,"author":{"url":"","metadata":"","contact_name":"","contact_address":"","source":"","contact_phone":""},"source":"","pagination":{"sort":null,"start":0,"total":48,"limit":1000000},"state":"complete","tags":"","published":"2014-08-13T11:14:47-04:00","id":109176}