{"type":"FeatureCollection","data_type":"Dataset","url_type":null,"permissions":[{"permissions":{"download":true,"view":true},"group_id":"everyone"}],"classification":null,"title":"export 18Apr11","count":758,"stream_id":109250,"contributor":{"url":"http://geocommons.com/users/11257","name":"tshortho"},"data_attributes":null,"calculation_params":null,"icon_link":null,"link":"http://geocommons.com/overlays/109250.json","extent":[-65.25,-17.8833,140.7,51.1348],"geometry_types":null,"unique_name":null,"name":"export 18Apr11","feature_count":758,"description":"","next_feature":null,"is_raster":false,"short_classification":"Y","stats":{"d":{"max":10,"variance":1.22528520092157,"mean":0.662269129287599,"stdev":1.10692601420401,"min":0,"median":0}},"features":[{"properties":{"city":"Rangoon","geo_score":0.857,"d":10,"country":"Burma","id":"a6mv70tl818p","geo_precision":"zip"},"type":"Feature","geometry":{"type":"Point","coordinates":[96.1561111,16.8052778]}},{"properties":{"city":"Matalam","geo_score":1.0,"d":10,"country":"Philippines","id":"a6mv70uncbt7","geo_precision":"zip"},"type":"Feature","geometry":{"type":"Point","coordinates":[124.9166667,7.2]}},{"properties":{"city":"Catarman","geo_score":1.0,"d":9,"country":"Philippines","id":"a6mv70hz2i50","geo_precision":"zip"},"type":"Feature","geometry":{"type":"Point","coordinates":[124.6386111,12.4961111]}},{"properties":{"city":"Isabela","geo_score":1.0,"d":9,"country":"Philippines","id":"a6mv70plz2ah","geo_precision":"zip"},"type":"Feature","geometry":{"type":"Point","coordinates":[121.9713889,6.7063889]}},{"properties":{"city":"Bacho","geo_score":1.0,"d":6,"country":"Thailand","id":"a6mv70h0eo13","geo_precision":"zip"},"type":"Feature","geometry":{"type":"Point","coordinates":[101.6519444,6.5188889]}},{"properties":{"city":"Maragusan","geo_score":0.0,"d":6,"country":"Philippines","id":"a6mv70i5cxp1","geo_precision":"unmatched"},"type":"Feature","geometry":null},{"properties":{"city":"Myawadi","geo_score":0.821,"d":6,"country":"Burma","id":"a6mv70ixcgur","geo_precision":"zip"},"type":"Feature","geometry":{"type":"Point","coordinates":[140.1166667,35.9166667]}},{"properties":{"city":"Sai Buri","geo_score":1.0,"d":5,"country":"Thailand","id":"a6mv70ontotb","geo_precision":"zip"},"type":"Feature","geometry":{"type":"Point","coordinates":[101.6202778,6.7030556]}},{"properties":{"city":"Rueso","geo_score":0.971,"d":5,"country":"Thailand","id":"a6mv70ixuw97","geo_precision":"zip"},"type":"Feature","geometry":{"type":"Point","coordinates":[101.5197222,6.3936111]}},{"properties":{"city":"San Pascual","geo_score":1.0,"d":5,"country":"Philippines","id":"a6mv70sjplby","geo_precision":"zip"},"type":"Feature","geometry":{"type":"Point","coordinates":[121.0341667,13.7975]}},{"properties":{"city":"Payathonzu","geo_score":0.798,"d":5,"country":"Burma","id":"a6mv70o3oxx5","geo_precision":"zip"},"type":"Feature","geometry":{"type":"Point","coordinates":[96.4694444,17.2713889]}},{"properties":{"city":"Myitkyina","geo_score":0.857,"d":4,"country":"Burma","id":"a6mv70l7x4pp","geo_precision":"zip"},"type":"Feature","geometry":{"type":"Point","coordinates":[97.4,25.3833333]}},{"properties":{"city":"Maluso","geo_score":1.0,"d":4,"country":"Philippines","id":"a6mv70i0t5s2","geo_precision":"zip"},"type":"Feature","geometry":{"type":"Point","coordinates":[121.7833333,6.5]}},{"properties":{"city":"Antipolo","geo_score":1.0,"d":4,"country":"Philippines","id":"a6mv70hlrx35","geo_precision":"zip"},"type":"Feature","geometry":{"type":"Point","coordinates":[121.1752778,14.5863889]}},{"properties":{"city":"Bacho","geo_score":1.0,"d":4,"country":"Thailand","id":"a6mv70fmk1nr","geo_precision":"zip"},"type":"Feature","geometry":{"type":"Point","coordinates":[101.6519444,6.5188889]}},{"properties":{"city":"Yarang","geo_score":0.976,"d":3,"country":"Thailand","id":"a6mv70rt178a","geo_precision":"zip"},"type":"Feature","geometry":{"type":"Point","coordinates":[101.365,6.8616667]}},{"properties":{"city":"Talipao","geo_score":0.98,"d":3,"country":"Philippines","id":"a6mv70jjximf","geo_precision":"zip"},"type":"Feature","geometry":{"type":"Point","coordinates":[121.0944444,5.91]}},{"properties":{"city":"Banay-Banay","geo_score":1.0,"d":3,"country":"Philippines","id":"a6mv70jghrd2","geo_precision":"zip"},"type":"Feature","geometry":{"type":"Point","coordinates":[121.2,13.85]}},{"properties":{"city":"Sumisip","geo_score":1.0,"d":3,"country":"Philippines","id":"a6mv70v2bnoz","geo_precision":"zip"},"type":"Feature","geometry":{"type":"Point","coordinates":[121.9666667,6.45]}},{"properties":{"city":"Tagaya","geo_score":0.976,"d":3,"country":"Philippines","id":"a6mv70t8g4yc","geo_precision":"zip"},"type":"Feature","geometry":{"type":"Point","coordinates":[124.1333333,7.9]}},{"properties":{"city":"Daraga","geo_score":0.952,"d":3,"country":"Philippines","id":"a6mv70vox4cc","geo_precision":"zip"},"type":"Feature","geometry":{"type":"Point","coordinates":[121.3333333,7.9]}},{"properties":{"city":"Davao","geo_score":1.0,"d":3,"country":"Philippines","id":"a6mv70li3ke3","geo_precision":"zip"},"type":"Feature","geometry":{"type":"Point","coordinates":[125.6127778,7.0730556]}},{"properties":{"city":"Hinatuan","geo_score":1.0,"d":3,"country":"Philippines","id":"a6mv70l1fur9","geo_precision":"zip"},"type":"Feature","geometry":{"type":"Point","coordinates":[126.3166667,8.4]}},{"properties":{"city":"Sai Buri","geo_score":1.0,"d":3,"country":"Thailand","id":"a6mv70igj2lw","geo_precision":"zip"},"type":"Feature","geometry":{"type":"Point","coordinates":[101.6202778,6.7030556]}},{"properties":{"city":"Hpru-so","geo_score":0.755,"d":3,"country":"Burma","id":"a6mv70lt8y07","geo_precision":"zip"},"type":"Feature","geometry":{"type":"Point","coordinates":[6.51145935058594,51.1347701238018]}},{"properties":{"city":"Bagulin","geo_score":0.929,"d":3,"country":"Philippines","id":"a6mv70ipmrjv","geo_precision":"zip"},"type":"Feature","geometry":{"type":"Point","coordinates":[120.1833333,15.9166667]}},{"properties":{"city":"Yaha","geo_score":1.0,"d":3,"country":"Thailand","id":"a6mv70s4jjms","geo_precision":"zip"},"type":"Feature","geometry":{"type":"Point","coordinates":[101.135,6.4777778]}},{"properties":{"city":"Sai Buri","geo_score":1.0,"d":3,"country":"Thailand","id":"a6mv70ofaeer","geo_precision":"zip"},"type":"Feature","geometry":{"type":"Point","coordinates":[101.6202778,6.7030556]}},{"properties":{"city":"Nong Chik","geo_score":1.0,"d":3,"country":"Thailand","id":"a6mv70j7ymey","geo_precision":"zip"},"type":"Feature","geometry":{"type":"Point","coordinates":[101.1880556,6.8452778]}},{"properties":{"city":"Rueso","geo_score":0.971,"d":3,"country":"Thailand","id":"a6mv70vay3ec","geo_precision":"zip"},"type":"Feature","geometry":{"type":"Point","coordinates":[101.5197222,6.3936111]}},{"properties":{"city":"Carmen","geo_score":0.959,"d":3,"country":"Philippines","id":"a6mv70q3ppwd","geo_precision":"zip"},"type":"Feature","geometry":{"type":"Point","coordinates":[121.0166667,14.3]}},{"properties":{"city":"Bacho","geo_score":1.0,"d":3,"country":"Thailand","id":"a6mv70l40z6p","geo_precision":"zip"},"type":"Feature","geometry":{"type":"Point","coordinates":[101.6519444,6.5188889]}},{"properties":{"city":"Bang Bua Thong","geo_score":1.0,"d":3,"country":"Thailand","id":"a6mv70gv9inz","geo_precision":"zip"},"type":"Feature","geometry":{"type":"Point","coordinates":[100.4333333,13.9166667]}},{"properties":{"city":"Aceh Besar","geo_score":0.889,"d":3,"country":"Indonesia","id":"a6mv70jlttor","geo_precision":"zip"},"type":"Feature","geometry":{"type":"Point","coordinates":[132.8166667,-2.75]}},{"properties":{"city":"Medan","geo_score":1.0,"d":3,"country":"Indonesia","id":"a6mv70t0ptx1","geo_precision":"zip"},"type":"Feature","geometry":{"type":"Point","coordinates":[98.6666667,3.5833333]}},{"properties":{"city":"None","geo_score":0.929,"d":2,"country":"Thailand","id":"a6mv70jtzs1e","geo_precision":"zip"},"type":"Feature","geometry":{"type":"Point","coordinates":[100.7833333,18.7833333]}},{"properties":{"city":"None","geo_score":0.929,"d":2,"country":"Thailand","id":"a6mv70k6j6t3","geo_precision":"zip"},"type":"Feature","geometry":{"type":"Point","coordinates":[100.7833333,18.7833333]}},{"properties":{"city":"Sumisip","geo_score":1.0,"d":2,"country":"Philippines","id":"a6mv70jlfx81","geo_precision":"zip"},"type":"Feature","geometry":{"type":"Point","coordinates":[121.9666667,6.45]}},{"properties":{"city":"Sai Buri","geo_score":1.0,"d":2,"country":"Thailand","id":"a6mv70mka54n","geo_precision":"zip"},"type":"Feature","geometry":{"type":"Point","coordinates":[101.6202778,6.7030556]}},{"properties":{"city":"Raman","geo_score":1.0,"d":2,"country":"Thailand","id":"a6mv70s77apk","geo_precision":"zip"},"type":"Feature","geometry":{"type":"Point","coordinates":[101.4225,6.4797222]}},{"properties":{"city":"Panare","geo_score":1.0,"d":2,"country":"Thailand","id":"a6mv70fozy8r","geo_precision":"zip"},"type":"Feature","geometry":{"type":"Point","coordinates":[101.4902778,6.86]}},{"properties":{"city":"Krong Pinang","geo_score":0.909,"d":2,"country":"Thailand","id":"a6mv70fr0cl6","geo_precision":"zip"},"type":"Feature","geometry":{"type":"Point","coordinates":[98.7833333,8.0333333]}},{"properties":{"city":"Yarang","geo_score":0.976,"d":2,"country":"Thailand","id":"a6mv70vtm4dp","geo_precision":"zip"},"type":"Feature","geometry":{"type":"Point","coordinates":[101.365,6.8616667]}},{"properties":{"city":"Guihulngan","geo_score":1.0,"d":2,"country":"Philippines","id":"a6mv70owf5vs","geo_precision":"zip"},"type":"Feature","geometry":{"type":"Point","coordinates":[123.2,10.1833333]}},{"properties":{"city":"Guihulngan","geo_score":1.0,"d":2,"country":"Philippines","id":"a6mv70qe1okz","geo_precision":"zip"},"type":"Feature","geometry":{"type":"Point","coordinates":[123.2,10.1833333]}},{"properties":{"city":"None","geo_score":0.929,"d":2,"country":"Thailand","id":"a6mv70pbw509","geo_precision":"zip"},"type":"Feature","geometry":{"type":"Point","coordinates":[100.7833333,18.7833333]}},{"properties":{"city":"Rueso","geo_score":0.971,"d":2,"country":"Thailand","id":"a6mv70gsfvvn","geo_precision":"zip"},"type":"Feature","geometry":{"type":"Point","coordinates":[101.5197222,6.3936111]}},{"properties":{"city":"Rangae","geo_score":1.0,"d":2,"country":"Thailand","id":"a6mv70g2krpm","geo_precision":"zip"},"type":"Feature","geometry":{"type":"Point","coordinates":[101.7119444,6.2908333]}},{"properties":{"city":"Mueang Pattani","geo_score":0.934,"d":2,"country":"Thailand","id":"a6mv70v5tirr","geo_precision":"zip"},"type":"Feature","geometry":{"type":"Point","coordinates":[101.15,6.7833333]}},{"properties":{"city":"Rangae","geo_score":1.0,"d":2,"country":"Thailand","id":"a6mv70rthqc8","geo_precision":"zip"},"type":"Feature","geometry":{"type":"Point","coordinates":[101.7119444,6.2908333]}},{"properties":{"city":"Khok Pho","geo_score":0.918,"d":2,"country":"Thailand","id":"a6mv70jgzhpe","geo_precision":"zip"},"type":"Feature","geometry":{"type":"Point","coordinates":[98.9833333,9.5666667]}},{"properties":{"city":"Mueang Yala","geo_score":0.914,"d":2,"country":"Thailand","id":"a6mv70grxxxm","geo_precision":"zip"},"type":"Feature","geometry":{"type":"Point","coordinates":[101.2836111,6.5427778]}},{"properties":{"city":"None","geo_score":0.929,"d":2,"country":"Thailand","id":"a6mv70k6ln4b","geo_precision":"zip"},"type":"Feature","geometry":{"type":"Point","coordinates":[100.7833333,18.7833333]}},{"properties":{"city":"Mueang Yala","geo_score":0.914,"d":2,"country":"Thailand","id":"a6mv70kuo7ve","geo_precision":"zip"},"type":"Feature","geometry":{"type":"Point","coordinates":[101.2836111,6.5427778]}},{"properties":{"city":"Las Navas","geo_score":1.0,"d":2,"country":"Philippines","id":"a6mv70lge3ru","geo_precision":"zip"},"type":"Feature","geometry":{"type":"Point","coordinates":[125.0166667,12.3166667]}},{"properties":{"city":"Mueang Yala","geo_score":0.914,"d":2,"country":"Thailand","id":"a6mv70h8eetk","geo_precision":"zip"},"type":"Feature","geometry":{"type":"Point","coordinates":[101.2836111,6.5427778]}},{"properties":{"city":"Khok Pho","geo_score":0.918,"d":2,"country":"Thailand","id":"a6mv70qlwyyv","geo_precision":"zip"},"type":"Feature","geometry":{"type":"Point","coordinates":[98.9833333,9.5666667]}},{"properties":{"city":"None","geo_score":0.929,"d":2,"country":"Thailand","id":"a6mv70qesnaq","geo_precision":"zip"},"type":"Feature","geometry":{"type":"Point","coordinates":[100.7833333,18.7833333]}},{"properties":{"city":"Mueang Yala","geo_score":0.914,"d":2,"country":"Thailand","id":"a6mv70m3g9im","geo_precision":"zip"},"type":"Feature","geometry":{"type":"Point","coordinates":[101.2836111,6.5427778]}},{"properties":{"city":"Yala","geo_score":1.0,"d":2,"country":"Thailand","id":"a6mv70u5gj8x","geo_precision":"zip"},"type":"Feature","geometry":{"type":"Point","coordinates":[101.2836111,6.5427778]}},{"properties":{"city":"Datu Saudi Ampatuan","geo_score":0.891,"d":2,"country":"Philippines","id":"a6mv70gi9qyd","geo_precision":"zip"},"type":"Feature","geometry":{"type":"Point","coordinates":[121.1325,14.5691667]}},{"properties":{"city":"Bannang Sata","geo_score":0.883,"d":2,"country":"Thailand","id":"a6mv70t5xi2d","geo_precision":"zip"},"type":"Feature","geometry":{"type":"Point","coordinates":[100.4333333,6.6333333]}},{"properties":{"city":"Sumisip","geo_score":1.0,"d":2,"country":"Philippines","id":"a6mv70fueldg","geo_precision":"zip"},"type":"Feature","geometry":{"type":"Point","coordinates":[121.9666667,6.45]}},{"properties":{"city":"Khok Pho","geo_score":0.918,"d":2,"country":"Thailand","id":"a6mv70lvsvx2","geo_precision":"zip"},"type":"Feature","geometry":{"type":"Point","coordinates":[98.9833333,9.5666667]}},{"properties":{"city":"Sadanga","geo_score":1.0,"d":2,"country":"Philippines","id":"a6mv70sdvnd7","geo_precision":"zip"},"type":"Feature","geometry":{"type":"Point","coordinates":[121.0166667,17.1833333]}},{"properties":{"city":"Matuguinao","geo_score":1.0,"d":2,"country":"Philippines","id":"a6mv70ja5wvb","geo_precision":"zip"},"type":"Feature","geometry":{"type":"Point","coordinates":[124.9833333,12.1833333]}},{"properties":{"city":"Mueang Yala","geo_score":0.914,"d":2,"country":"Thailand","id":"a6mv70fikbod","geo_precision":"zip"},"type":"Feature","geometry":{"type":"Point","coordinates":[101.2836111,6.5427778]}},{"properties":{"city":"Rangae","geo_score":1.0,"d":2,"country":"Thailand","id":"a6mv70k724pi","geo_precision":"zip"},"type":"Feature","geometry":{"type":"Point","coordinates":[101.7119444,6.2908333]}},{"properties":{"city":"None","geo_score":0.929,"d":2,"country":"Thailand","id":"a6mv70nmxyc1","geo_precision":"zip"},"type":"Feature","geometry":{"type":"Point","coordinates":[100.7833333,18.7833333]}},{"properties":{"city":"Pio V. Corpuz","geo_score":0.886,"d":2,"country":"Philippines","id":"a6mv70vorybd","geo_precision":"zip"},"type":"Feature","geometry":{"type":"Point","coordinates":[122.5166667,10.8]}},{"properties":{"city":"Mayo","geo_score":1.0,"d":2,"country":"Thailand","id":"a6mv70rceo6t","geo_precision":"zip"},"type":"Feature","geometry":{"type":"Point","coordinates":[101.4127778,6.7133333]}},{"properties":{"city":"Cho-airong","geo_score":0.0,"d":2,"country":"Thailand","id":"a6mv70v7rfcl","geo_precision":"unmatched"},"type":"Feature","geometry":null},{"properties":{"city":"Payathonzu","geo_score":0.798,"d":2,"country":"Burma","id":"a6mv70fyxc80","geo_precision":"zip"},"type":"Feature","geometry":{"type":"Point","coordinates":[96.4694444,17.2713889]}},{"properties":{"city":"Rangae","geo_score":1.0,"d":2,"country":"Thailand","id":"a6mv70rjt8pe","geo_precision":"zip"},"type":"Feature","geometry":{"type":"Point","coordinates":[101.7119444,6.2908333]}},{"properties":{"city":"Mueang Pattani","geo_score":0.934,"d":2,"country":"Thailand","id":"a6mv70u3ldr1","geo_precision":"zip"},"type":"Feature","geometry":{"type":"Point","coordinates":[101.15,6.7833333]}},{"properties":{"city":"Krong Pinang","geo_score":0.909,"d":2,"country":"Thailand","id":"a6mv70p8i840","geo_precision":"zip"},"type":"Feature","geometry":{"type":"Point","coordinates":[98.7833333,8.0333333]}},{"properties":{"city":"Sumisip","geo_score":1.0,"d":2,"country":"Philippines","id":"a6mv70oh4php","geo_precision":"zip"},"type":"Feature","geometry":{"type":"Point","coordinates":[121.9666667,6.45]}},{"properties":{"city":"San Manuel","geo_score":0.905,"d":2,"country":"Philippines","id":"a6mv70sb5hqu","geo_precision":"zip"},"type":"Feature","geometry":{"type":"Point","coordinates":[120.9822222,14.6041667]}},{"properties":{"city":"Panare","geo_score":1.0,"d":2,"country":"Thailand","id":"a6mv70i0cxex","geo_precision":"zip"},"type":"Feature","geometry":{"type":"Point","coordinates":[101.4902778,6.86]}},{"properties":{"city":"Papun","geo_score":0.786,"d":2,"country":"Burma","id":"a6mv70khx3u0","geo_precision":"zip"},"type":"Feature","geometry":{"type":"Point","coordinates":[5.5833333,43.3833333]}},{"properties":{"city":"Bula","geo_score":1.0,"d":2,"country":"Philippines","id":"a6mv70gqccm2","geo_precision":"zip"},"type":"Feature","geometry":{"type":"Point","coordinates":[123.25,13.4666667]}},{"properties":{"city":"Raman","geo_score":1.0,"d":2,"country":"Thailand","id":"a6mv70fzyrvp","geo_precision":"zip"},"type":"Feature","geometry":{"type":"Point","coordinates":[101.4225,6.4797222]}},{"properties":{"city":"Lupi","geo_score":0.929,"d":2,"country":"Philippines","id":"a6mv70iszo71","geo_precision":"zip"},"type":"Feature","geometry":{"type":"Point","coordinates":[121.1738889,13.9394444]}},{"properties":{"city":"Guinobatan","geo_score":1.0,"d":1,"country":"Philippines","id":"a6mv70fo52ww","geo_precision":"zip"},"type":"Feature","geometry":{"type":"Point","coordinates":[123.5666667,13.1666667]}},{"properties":{"city":"Sungai Padi","geo_score":0.886,"d":1,"country":"Thailand","id":"a6mv70gps10g","geo_precision":"zip"},"type":"Feature","geometry":{"type":"Point","coordinates":[104.3833333,15.8333333]}},{"properties":{"city":"Nong Chik","geo_score":1.0,"d":1,"country":"Thailand","id":"a6mv70krthbd","geo_precision":"zip"},"type":"Feature","geometry":{"type":"Point","coordinates":[101.1880556,6.8452778]}},{"properties":{"city":"Rueso","geo_score":0.971,"d":1,"country":"Thailand","id":"a6mv70gfvgh6","geo_precision":"zip"},"type":"Feature","geometry":{"type":"Point","coordinates":[101.5197222,6.3936111]}},{"properties":{"city":"Nong Chik","geo_score":1.0,"d":1,"country":"Thailand","id":"a6mv70u71wi0","geo_precision":"zip"},"type":"Feature","geometry":{"type":"Point","coordinates":[101.1880556,6.8452778]}},{"properties":{"city":"Sungai Kolok","geo_score":1.0,"d":1,"country":"Thailand","id":"a6mv70rb68yk","geo_precision":"zip"},"type":"Feature","geometry":{"type":"Point","coordinates":[101.9677778,6.0266667]}},{"properties":{"city":"Raman","geo_score":1.0,"d":1,"country":"Thailand","id":"a6mv70tfzkck","geo_precision":"zip"},"type":"Feature","geometry":{"type":"Point","coordinates":[101.4225,6.4797222]}},{"properties":{"city":"Pagadian","geo_score":0.964,"d":1,"country":"Philippines","id":"a6mv70h8dck1","geo_precision":"zip"},"type":"Feature","geometry":{"type":"Point","coordinates":[124.4752778,6.9730556]}},{"properties":{"city":"Mayo","geo_score":1.0,"d":1,"country":"Thailand","id":"a6mv70rfg4ds","geo_precision":"zip"},"type":"Feature","geometry":{"type":"Point","coordinates":[101.4127778,6.7133333]}},{"properties":{"city":"Magsaysay","geo_score":1.0,"d":1,"country":"Philippines","id":"a6mv70fs6qa3","geo_precision":"zip"},"type":"Feature","geometry":{"type":"Point","coordinates":[121.7333333,17.2666667]}},{"properties":{"city":"Yarang","geo_score":0.976,"d":1,"country":"Thailand","id":"a6mv70fzxowu","geo_precision":"zip"},"type":"Feature","geometry":{"type":"Point","coordinates":[101.365,6.8616667]}},{"properties":{"city":"Kadingilan","geo_score":1.0,"d":1,"country":"Philippines","id":"a6mv70fomxft","geo_precision":"zip"},"type":"Feature","geometry":{"type":"Point","coordinates":[124.8833333,7.55]}},{"properties":{"city":"Mueang Yala","geo_score":0.914,"d":1,"country":"Thailand","id":"a6mv70n6q6mc","geo_precision":"zip"},"type":"Feature","geometry":{"type":"Point","coordinates":[101.2836111,6.5427778]}},{"properties":{"city":"Medan","geo_score":1.0,"d":1,"country":"Indonesia","id":"a6mv70o3yq2v","geo_precision":"zip"},"type":"Feature","geometry":{"type":"Point","coordinates":[98.6666667,3.5833333]}},{"properties":{"city":"Parsa","geo_score":1.0,"d":1,"country":"Nepal","id":"a6mv70rgntgs","geo_precision":"zip"},"type":"Feature","geometry":{"type":"Point","coordinates":[84.8333333,27.3333333]}},{"properties":{"city":"Tanay","geo_score":1.0,"d":1,"country":"Philippines","id":"a6mv70trfd9d","geo_precision":"zip"},"type":"Feature","geometry":{"type":"Point","coordinates":[121.35,14.5666667]}},{"properties":{"city":"Bacho","geo_score":1.0,"d":1,"country":"Thailand","id":"a6mv70p8da76","geo_precision":"zip"},"type":"Feature","geometry":{"type":"Point","coordinates":[101.6519444,6.5188889]}},{"properties":{"city":"Kapho","geo_score":0.971,"d":1,"country":"Thailand","id":"a6mv70uag4xa","geo_precision":"zip"},"type":"Feature","geometry":{"type":"Point","coordinates":[98.4666667,9.7666667]}},{"properties":{"city":"Bayugan","geo_score":1.0,"d":1,"country":"Philippines","id":"a6mv70o3vyfo","geo_precision":"zip"},"type":"Feature","geometry":{"type":"Point","coordinates":[125.8,8.9]}},{"properties":{"city":"Yaha","geo_score":1.0,"d":1,"country":"Thailand","id":"a6mv70oila5v","geo_precision":"zip"},"type":"Feature","geometry":{"type":"Point","coordinates":[101.135,6.4777778]}},{"properties":{"city":"Mai Kaen","geo_score":0.918,"d":1,"country":"Thailand","id":"a6mv70q2wuhj","geo_precision":"zip"},"type":"Feature","geometry":{"type":"Point","coordinates":[99.3166667,20.0333333]}},{"properties":{"city":"Yala","geo_score":1.0,"d":1,"country":"Thailand","id":"a6mv70pfkauk","geo_precision":"zip"},"type":"Feature","geometry":{"type":"Point","coordinates":[101.2836111,6.5427778]}},{"properties":{"city":"Raman","geo_score":1.0,"d":1,"country":"Thailand","id":"a6mv70q11b9o","geo_precision":"zip"},"type":"Feature","geometry":{"type":"Point","coordinates":[101.4225,6.4797222]}},{"properties":{"city":"Nong Chik","geo_score":1.0,"d":1,"country":"Thailand","id":"a6mv70shnpen","geo_precision":"zip"},"type":"Feature","geometry":{"type":"Point","coordinates":[101.1880556,6.8452778]}},{"properties":{"city":"Raman","geo_score":1.0,"d":1,"country":"Thailand","id":"a6mv70r6024v","geo_precision":"zip"},"type":"Feature","geometry":{"type":"Point","coordinates":[101.4225,6.4797222]}},{"properties":{"city":"Khok Pho","geo_score":0.918,"d":1,"country":"Thailand","id":"a6mv70tuzkcs","geo_precision":"zip"},"type":"Feature","geometry":{"type":"Point","coordinates":[98.9833333,9.5666667]}},{"properties":{"city":"None","geo_score":0.929,"d":1,"country":"Thailand","id":"a6mv70qv9n6c","geo_precision":"zip"},"type":"Feature","geometry":{"type":"Point","coordinates":[100.7833333,18.7833333]}},{"properties":{"city":"Escalante","geo_score":1.0,"d":1,"country":"Philippines","id":"a6mv70svs3bg","geo_precision":"zip"},"type":"Feature","geometry":{"type":"Point","coordinates":[123.5,10.8166667]}},{"properties":{"city":"None","geo_score":0.929,"d":1,"country":"Thailand","id":"a6mv70fv44r2","geo_precision":"zip"},"type":"Feature","geometry":{"type":"Point","coordinates":[100.7833333,18.7833333]}},{"properties":{"city":"Mulia","geo_score":0.943,"d":1,"country":"Indonesia","id":"a6mv70jv3get","geo_precision":"zip"},"type":"Feature","geometry":{"type":"Point","coordinates":[110.5877778,-8.0180556]}},{"properties":{"city":"Mueang Yala","geo_score":0.914,"d":1,"country":"Thailand","id":"a6mv70ozksdc","geo_precision":"zip"},"type":"Feature","geometry":{"type":"Point","coordinates":[101.2836111,6.5427778]}},{"properties":{"city":"Panare","geo_score":1.0,"d":1,"country":"Thailand","id":"a6mv70mwmegx","geo_precision":"zip"},"type":"Feature","geometry":{"type":"Point","coordinates":[101.4902778,6.86]}},{"properties":{"city":"None","geo_score":0.929,"d":1,"country":"Thailand","id":"a6mv70se48gn","geo_precision":"zip"},"type":"Feature","geometry":{"type":"Point","coordinates":[100.7833333,18.7833333]}},{"properties":{"city":"Kibawe","geo_score":1.0,"d":1,"country":"Philippines","id":"a6mv70sms8xk","geo_precision":"zip"},"type":"Feature","geometry":{"type":"Point","coordinates":[125.05,7.55]}},{"properties":{"city":"Raman","geo_score":1.0,"d":1,"country":"Thailand","id":"a6mv70kuvk8p","geo_precision":"zip"},"type":"Feature","geometry":{"type":"Point","coordinates":[101.4225,6.4797222]}},{"properties":{"city":"Khok Pho","geo_score":0.918,"d":1,"country":"Thailand","id":"a6mv70rwl5aq","geo_precision":"zip"},"type":"Feature","geometry":{"type":"Point","coordinates":[98.9833333,9.5666667]}},{"properties":{"city":"Kapho","geo_score":0.971,"d":1,"country":"Thailand","id":"a6mv70snpxsq","geo_precision":"zip"},"type":"Feature","geometry":{"type":"Point","coordinates":[98.4666667,9.7666667]}},{"properties":{"city":"Kapho","geo_score":0.971,"d":1,"country":"Thailand","id":"a6mv70mo3dyb","geo_precision":"zip"},"type":"Feature","geometry":{"type":"Point","coordinates":[98.4666667,9.7666667]}},{"properties":{"city":"Kabang","geo_score":0.959,"d":1,"country":"Thailand","id":"a6mv70oc0q6m","geo_precision":"zip"},"type":"Feature","geometry":{"type":"Point","coordinates":[97.65,8.6666667]}},{"properties":{"city":"Barcelona","geo_score":1.0,"d":1,"country":"Philippines","id":"a6mv70r7ghos","geo_precision":"zip"},"type":"Feature","geometry":{"type":"Point","coordinates":[124.1166667,12.8333333]}},{"properties":{"city":"Cotabato City","geo_score":1.0,"d":1,"country":"Philippines","id":"a6mv70r1piyn","geo_precision":"zip"},"type":"Feature","geometry":{"type":"Point","coordinates":[124.25,7.2166667]}},{"properties":{"city":"Cho-airong","geo_score":0.0,"d":1,"country":"Thailand","id":"a6mv70pl3ej1","geo_precision":"unmatched"},"type":"Feature","geometry":null},{"properties":{"city":"Rangae","geo_score":1.0,"d":1,"country":"Thailand","id":"a6mv70qc71u0","geo_precision":"zip"},"type":"Feature","geometry":{"type":"Point","coordinates":[101.7119444,6.2908333]}},{"properties":{"city":"Sai Buri","geo_score":1.0,"d":1,"country":"Thailand","id":"a6mv70g1x7v9","geo_precision":"zip"},"type":"Feature","geometry":{"type":"Point","coordinates":[101.6202778,6.7030556]}},{"properties":{"city":"Zamboanga","geo_score":0.956,"d":1,"country":"Philippines","id":"a6mv70gpov31","geo_precision":"zip"},"type":"Feature","geometry":{"type":"Point","coordinates":[122.0666667,6.9]}},{"properties":{"city":"Sai Buri","geo_score":1.0,"d":1,"country":"Thailand","id":"a6mv70joaerp","geo_precision":"zip"},"type":"Feature","geometry":{"type":"Point","coordinates":[101.6202778,6.7030556]}},{"properties":{"city":"Benito Soliven","geo_score":0.89,"d":1,"country":"Philippines","id":"a6mv70uzyt1l","geo_precision":"zip"},"type":"Feature","geometry":{"type":"Point","coordinates":[123.05,9.8666667]}},{"properties":{"city":"Sai Buri","geo_score":1.0,"d":1,"country":"Thailand","id":"a6mv70p0s3yz","geo_precision":"zip"},"type":"Feature","geometry":{"type":"Point","coordinates":[101.6202778,6.7030556]}},{"properties":{"city":"Mueang Pattani","geo_score":0.934,"d":1,"country":"Thailand","id":"a6mv70fv22a4","geo_precision":"zip"},"type":"Feature","geometry":{"type":"Point","coordinates":[101.15,6.7833333]}},{"properties":{"city":"Daulatpur","geo_score":1.0,"d":1,"country":"Bangladesh","id":"a6mv70nh7839","geo_precision":"zip"},"type":"Feature","geometry":{"type":"Point","coordinates":[89.8333333,23.9666667]}},{"properties":{"city":"None","geo_score":0.929,"d":1,"country":"Thailand","id":"a6mv70uxrvfk","geo_precision":"zip"},"type":"Feature","geometry":{"type":"Point","coordinates":[100.7833333,18.7833333]}},{"properties":{"city":"Maco","geo_score":1.0,"d":1,"country":"Philippines","id":"a6mv70hxbxew","geo_precision":"zip"},"type":"Feature","geometry":{"type":"Point","coordinates":[125.9333333,7.4]}},{"properties":{"city":"Bannang Sata","geo_score":0.883,"d":1,"country":"Thailand","id":"a6mv70i76pfi","geo_precision":"zip"},"type":"Feature","geometry":{"type":"Point","coordinates":[100.4333333,6.6333333]}},{"properties":{"city":"Baluhawa","geo_score":0.0,"d":1,"country":"Nepal","id":"a6mv70oh79tx","geo_precision":"unmatched"},"type":"Feature","geometry":null},{"properties":{"city":"Mayo","geo_score":1.0,"d":1,"country":"Thailand","id":"a6mv70u1pe1z","geo_precision":"zip"},"type":"Feature","geometry":{"type":"Point","coordinates":[101.4127778,6.7133333]}},{"properties":{"city":"Tagum","geo_score":0.929,"d":1,"country":"Philippines","id":"a6mv70m8hcve","geo_precision":"zip"},"type":"Feature","geometry":{"type":"Point","coordinates":[124.85,11.0666667]}},{"properties":{"city":"None","geo_score":0.929,"d":1,"country":"Thailand","id":"a6mv70o3ep3y","geo_precision":"zip"},"type":"Feature","geometry":{"type":"Point","coordinates":[100.7833333,18.7833333]}},{"properties":{"city":"Raman","geo_score":1.0,"d":1,"country":"Thailand","id":"a6mv70st8bqu","geo_precision":"zip"},"type":"Feature","geometry":{"type":"Point","coordinates":[101.4225,6.4797222]}},{"properties":{"city":"Si Sakhon","geo_score":0.893,"d":1,"country":"Thailand","id":"a6mv70sr7a5y","geo_precision":"zip"},"type":"Feature","geometry":{"type":"Point","coordinates":[100.7333333,18.5666667]}},{"properties":{"city":"Cotabato City","geo_score":1.0,"d":1,"country":"Philippines","id":"a6mv70osrrh7","geo_precision":"zip"},"type":"Feature","geometry":{"type":"Point","coordinates":[124.25,7.2166667]}},{"properties":{"city":"None","geo_score":0.929,"d":1,"country":"Thailand","id":"a6mv70h6518e","geo_precision":"zip"},"type":"Feature","geometry":{"type":"Point","coordinates":[100.7833333,18.7833333]}},{"properties":{"city":"Bannang Sata","geo_score":0.883,"d":1,"country":"Thailand","id":"a6mv70vntw0e","geo_precision":"zip"},"type":"Feature","geometry":{"type":"Point","coordinates":[100.4333333,6.6333333]}},{"properties":{"city":"None","geo_score":0.929,"d":1,"country":"Thailand","id":"a6mv70pnqg6s","geo_precision":"zip"},"type":"Feature","geometry":{"type":"Point","coordinates":[100.7833333,18.7833333]}},{"properties":{"city":"Boston","geo_score":1.0,"d":1,"country":"Philippines","id":"a6mv70q8aflr","geo_precision":"zip"},"type":"Feature","geometry":{"type":"Point","coordinates":[126.1833333,7.6]}},{"properties":{"city":"Sungai Padi","geo_score":0.886,"d":1,"country":"Thailand","id":"a6mv70olqfwo","geo_precision":"zip"},"type":"Feature","geometry":{"type":"Point","coordinates":[104.3833333,15.8333333]}},{"properties":{"city":"Aroroy","geo_score":1.0,"d":1,"country":"Philippines","id":"a6mv70mlzfqk","geo_precision":"zip"},"type":"Feature","geometry":{"type":"Point","coordinates":[123.3666667,12.4666667]}},{"properties":{"city":"Chanae","geo_score":0.929,"d":1,"country":"Thailand","id":"a6mv70v0kdy0","geo_precision":"zip"},"type":"Feature","geometry":{"type":"Point","coordinates":[100.1333333,19.3333333]}},{"properties":{"city":"Yarang","geo_score":0.976,"d":1,"country":"Thailand","id":"a6mv70qucfl7","geo_precision":"zip"},"type":"Feature","geometry":{"type":"Point","coordinates":[101.365,6.8616667]}},{"properties":{"city":"Khok Pho","geo_score":0.918,"d":1,"country":"Thailand","id":"a6mv70njvqy2","geo_precision":"zip"},"type":"Feature","geometry":{"type":"Point","coordinates":[98.9833333,9.5666667]}},{"properties":{"city":"Bangkok","geo_score":1.0,"d":1,"country":"Thailand","id":"a6mv70jn9oyg","geo_precision":"zip"},"type":"Feature","geometry":{"type":"Point","coordinates":[100.5166667,13.75]}},{"properties":{"city":"Sai Buri","geo_score":1.0,"d":1,"country":"Thailand","id":"a6mv70u5ogs3","geo_precision":"zip"},"type":"Feature","geometry":{"type":"Point","coordinates":[101.6202778,6.7030556]}},{"properties":{"city":"Balud","geo_score":1.0,"d":1,"country":"Philippines","id":"a6mv70lsfe6g","geo_precision":"zip"},"type":"Feature","geometry":{"type":"Point","coordinates":[123.2166667,12.0333333]}},{"properties":{"city":"None","geo_score":0.929,"d":1,"country":"Thailand","id":"a6mv70qsvogk","geo_precision":"zip"},"type":"Feature","geometry":{"type":"Point","coordinates":[100.7833333,18.7833333]}},{"properties":{"city":"Davao","geo_score":1.0,"d":1,"country":"Philippines","id":"a6mv70hsphmg","geo_precision":"zip"},"type":"Feature","geometry":{"type":"Point","coordinates":[125.6127778,7.0730556]}},{"properties":{"city":"Yarang","geo_score":0.976,"d":1,"country":"Thailand","id":"a6mv70t4pyio","geo_precision":"zip"},"type":"Feature","geometry":{"type":"Point","coordinates":[101.365,6.8616667]}},{"properties":{"city":"Lianga","geo_score":0.929,"d":1,"country":"Philippines","id":"a6mv70grkchb","geo_precision":"zip"},"type":"Feature","geometry":{"type":"Point","coordinates":[125.0166667,12.5]}},{"properties":{"city":"Yarang","geo_score":0.976,"d":1,"country":"Thailand","id":"a6mv70sxhu00","geo_precision":"zip"},"type":"Feature","geometry":{"type":"Point","coordinates":[101.365,6.8616667]}},{"properties":{"city":"Mae Lan","geo_score":0.952,"d":1,"country":"Thailand","id":"a6mv70on653c","geo_precision":"zip"},"type":"Feature","geometry":{"type":"Point","coordinates":[99.3166667,20.0333333]}},{"properties":{"city":"Chanae","geo_score":0.929,"d":1,"country":"Thailand","id":"a6mv70ktquii","geo_precision":"zip"},"type":"Feature","geometry":{"type":"Point","coordinates":[100.1333333,19.3333333]}},{"properties":{"city":"None","geo_score":0.929,"d":1,"country":"Thailand","id":"a6mv70u8nmaj","geo_precision":"zip"},"type":"Feature","geometry":{"type":"Point","coordinates":[100.7833333,18.7833333]}},{"properties":{"city":"Raman","geo_score":1.0,"d":1,"country":"Thailand","id":"a6mv70fvf94w","geo_precision":"zip"},"type":"Feature","geometry":{"type":"Point","coordinates":[101.4225,6.4797222]}},{"properties":{"city":"Mueang Pattani","geo_score":0.934,"d":1,"country":"Thailand","id":"a6mv70gd3nit","geo_precision":"zip"},"type":"Feature","geometry":{"type":"Point","coordinates":[101.15,6.7833333]}},{"properties":{"city":"Merauke","geo_score":0.939,"d":1,"country":"Indonesia","id":"a6mv70igwi12","geo_precision":"zip"},"type":"Feature","geometry":{"type":"Point","coordinates":[106.7013889,-6.3105556]}},{"properties":{"city":"Midsayap","geo_score":1.0,"d":1,"country":"Philippines","id":"a6mv70r9znro","geo_precision":"zip"},"type":"Feature","geometry":{"type":"Point","coordinates":[124.5,7.1166667]}},{"properties":{"city":"Janakpur","geo_score":1.0,"d":1,"country":"Nepal","id":"a6mv70sqykc7","geo_precision":"zip"},"type":"Feature","geometry":{"type":"Point","coordinates":[85.9166667,26.7]}},{"properties":{"city":"Ozamis City","geo_score":1.0,"d":1,"country":"Philippines","id":"a6mv70rvz8hh","geo_precision":"zip"},"type":"Feature","geometry":{"type":"Point","coordinates":[123.8333333,8.15]}},{"properties":{"city":"Yarang","geo_score":0.976,"d":1,"country":"Thailand","id":"a6mv70h6l0m5","geo_precision":"zip"},"type":"Feature","geometry":{"type":"Point","coordinates":[101.365,6.8616667]}},{"properties":{"city":"Raman","geo_score":1.0,"d":1,"country":"Thailand","id":"a6mv70l2stq5","geo_precision":"zip"},"type":"Feature","geometry":{"type":"Point","coordinates":[101.4225,6.4797222]}},{"properties":{"city":"None","geo_score":0.929,"d":1,"country":"Thailand","id":"a6mv70i6mb3s","geo_precision":"zip"},"type":"Feature","geometry":{"type":"Point","coordinates":[100.7833333,18.7833333]}},{"properties":{"city":"Mayo","geo_score":1.0,"d":1,"country":"Thailand","id":"a6mv70hw6047","geo_precision":"zip"},"type":"Feature","geometry":{"type":"Point","coordinates":[101.4127778,6.7133333]}},{"properties":{"city":"Mueang Yala","geo_score":0.914,"d":1,"country":"Thailand","id":"a6mv70j94j6s","geo_precision":"zip"},"type":"Feature","geometry":{"type":"Point","coordinates":[101.2836111,6.5427778]}},{"properties":{"city":"Kapho","geo_score":0.971,"d":1,"country":"Thailand","id":"a6mv70k9i80g","geo_precision":"zip"},"type":"Feature","geometry":{"type":"Point","coordinates":[98.4666667,9.7666667]}},{"properties":{"city":"None","geo_score":0.929,"d":1,"country":"Thailand","id":"a6mv70hzvju4","geo_precision":"zip"},"type":"Feature","geometry":{"type":"Point","coordinates":[100.7833333,18.7833333]}},{"properties":{"city":"Yarang","geo_score":0.976,"d":1,"country":"Thailand","id":"a6mv70ilvz9n","geo_precision":"zip"},"type":"Feature","geometry":{"type":"Point","coordinates":[101.365,6.8616667]}},{"properties":{"city":"Kapilbastu","geo_score":1.0,"d":1,"country":"Nepal","id":"a6mv70r8milq","geo_precision":"zip"},"type":"Feature","geometry":{"type":"Point","coordinates":[82.9166667,27.6666667]}},{"properties":{"city":"Rangae","geo_score":1.0,"d":1,"country":"Thailand","id":"a6mv70j6zgfu","geo_precision":"zip"},"type":"Feature","geometry":{"type":"Point","coordinates":[101.7119444,6.2908333]}},{"properties":{"city":"Sungai Kolok","geo_score":1.0,"d":1,"country":"Thailand","id":"a6mv70h6w29b","geo_precision":"zip"},"type":"Feature","geometry":{"type":"Point","coordinates":[101.9677778,6.0266667]}},{"properties":{"city":"None","geo_score":0.929,"d":1,"country":"Thailand","id":"a6mv70jumc27","geo_precision":"zip"},"type":"Feature","geometry":{"type":"Point","coordinates":[100.7833333,18.7833333]}},{"properties":{"city":"None","geo_score":0.929,"d":1,"country":"Thailand","id":"a6mv70m0bh7y","geo_precision":"zip"},"type":"Feature","geometry":{"type":"Point","coordinates":[100.7833333,18.7833333]}},{"properties":{"city":"Naguilian","geo_score":1.0,"d":1,"country":"Philippines","id":"a6mv70recm3n","geo_precision":"zip"},"type":"Feature","geometry":{"type":"Point","coordinates":[121.835,17.0266667]}},{"properties":{"city":"None","geo_score":0.929,"d":1,"country":"Thailand","id":"a6mv70q47mzf","geo_precision":"zip"},"type":"Feature","geometry":{"type":"Point","coordinates":[100.7833333,18.7833333]}},{"properties":{"city":"Yarang","geo_score":0.976,"d":1,"country":"Thailand","id":"a6mv70ny8xd0","geo_precision":"zip"},"type":"Feature","geometry":{"type":"Point","coordinates":[101.365,6.8616667]}},{"properties":{"city":"Mueang Pattani","geo_score":0.934,"d":1,"country":"Thailand","id":"a6mv70pnyg6j","geo_precision":"zip"},"type":"Feature","geometry":{"type":"Point","coordinates":[101.15,6.7833333]}},{"properties":{"city":"Yarang","geo_score":0.976,"d":1,"country":"Thailand","id":"a6mv70fut00k","geo_precision":"zip"},"type":"Feature","geometry":{"type":"Point","coordinates":[101.365,6.8616667]}},{"properties":{"city":"Nong Chik","geo_score":1.0,"d":1,"country":"Thailand","id":"a6mv70kif5ac","geo_precision":"zip"},"type":"Feature","geometry":{"type":"Point","coordinates":[101.1880556,6.8452778]}},{"properties":{"city":"Khok Pho","geo_score":0.918,"d":1,"country":"Thailand","id":"a6mv70qki7ks","geo_precision":"zip"},"type":"Feature","geometry":{"type":"Point","coordinates":[98.9833333,9.5666667]}},{"properties":{"city":"None","geo_score":0.929,"d":1,"country":"Thailand","id":"a6mv70szb933","geo_precision":"zip"},"type":"Feature","geometry":{"type":"Point","coordinates":[100.7833333,18.7833333]}},{"properties":{"city":"Cotabato City","geo_score":1.0,"d":1,"country":"Philippines","id":"a6mv70k1xqqs","geo_precision":"zip"},"type":"Feature","geometry":{"type":"Point","coordinates":[124.25,7.2166667]}},{"properties":{"city":"Cauayan","geo_score":0.98,"d":1,"country":"Philippines","id":"a6mv70shphah","geo_precision":"zip"},"type":"Feature","geometry":{"type":"Point","coordinates":[120.4,17.5333333]}},{"properties":{"city":"Rangae","geo_score":1.0,"d":1,"country":"Thailand","id":"a6mv70lccx26","geo_precision":"zip"},"type":"Feature","geometry":{"type":"Point","coordinates":[101.7119444,6.2908333]}},{"properties":{"city":"None","geo_score":0.929,"d":1,"country":"Thailand","id":"a6mv70ucnypi","geo_precision":"zip"},"type":"Feature","geometry":{"type":"Point","coordinates":[100.7833333,18.7833333]}},{"properties":{"city":"Raman","geo_score":1.0,"d":1,"country":"Thailand","id":"a6mv70srmjyv","geo_precision":"zip"},"type":"Feature","geometry":{"type":"Point","coordinates":[101.4225,6.4797222]}},{"properties":{"city":"Aurahi","geo_score":0.0,"d":1,"country":"Nepal","id":"a6mv70lwwkr3","geo_precision":"unmatched"},"type":"Feature","geometry":null},{"properties":{"city":"Catarman","geo_score":1.0,"d":1,"country":"Philippines","id":"a6mv70jjhbvq","geo_precision":"zip"},"type":"Feature","geometry":{"type":"Point","coordinates":[124.6386111,12.4961111]}},{"properties":{"city":"Pasacao","geo_score":1.0,"d":1,"country":"Philippines","id":"a6mv70tjfd15","geo_precision":"zip"},"type":"Feature","geometry":{"type":"Point","coordinates":[122.9833333,13.55]}},{"properties":{"city":"Mueang Yala","geo_score":0.914,"d":1,"country":"Thailand","id":"a6mv70n1ln9c","geo_precision":"zip"},"type":"Feature","geometry":{"type":"Point","coordinates":[101.2836111,6.5427778]}},{"properties":{"city":"Mueang Yala","geo_score":0.914,"d":1,"country":"Thailand","id":"a6mv70ksxxuy","geo_precision":"zip"},"type":"Feature","geometry":{"type":"Point","coordinates":[101.2836111,6.5427778]}},{"properties":{"city":"Bangkok","geo_score":1.0,"d":1,"country":"Thailand","id":"a6mv70sjbzd1","geo_precision":"zip"},"type":"Feature","geometry":{"type":"Point","coordinates":[100.5166667,13.75]}},{"properties":{"city":"Kawkareik","geo_score":0.746,"d":1,"country":"Burma","id":"a6mv70hy7eyi","geo_precision":"zip"},"type":"Feature","geometry":{"type":"Point","coordinates":[43.6136111,37.2480556]}},{"properties":{"city":"Esperanza","geo_score":1.0,"d":1,"country":"Philippines","id":"a6mv70pp5ng8","geo_precision":"zip"},"type":"Feature","geometry":{"type":"Point","coordinates":[125.6469444,8.6769444]}},{"properties":{"city":"Sungai Kolok","geo_score":1.0,"d":1,"country":"Thailand","id":"a6mv70klef1t","geo_precision":"zip"},"type":"Feature","geometry":{"type":"Point","coordinates":[101.9677778,6.0266667]}},{"properties":{"city":"Kapho","geo_score":0.971,"d":1,"country":"Thailand","id":"a6mv70tle4o8","geo_precision":"zip"},"type":"Feature","geometry":{"type":"Point","coordinates":[98.4666667,9.7666667]}},{"properties":{"city":"Janakpur","geo_score":1.0,"d":1,"country":"Nepal","id":"a6mv70fqohi6","geo_precision":"zip"},"type":"Feature","geometry":{"type":"Point","coordinates":[85.9166667,26.7]}},{"properties":{"city":"Sungai Padi","geo_score":0.886,"d":1,"country":"Thailand","id":"a6mv70gy38o0","geo_precision":"zip"},"type":"Feature","geometry":{"type":"Point","coordinates":[104.3833333,15.8333333]}},{"properties":{"city":"Nong Chik","geo_score":1.0,"d":1,"country":"Thailand","id":"a6mv70r7926t","geo_precision":"zip"},"type":"Feature","geometry":{"type":"Point","coordinates":[101.1880556,6.8452778]}},{"properties":{"city":"Mueang Pattani","geo_score":0.934,"d":1,"country":"Thailand","id":"a6mv70qtgilq","geo_precision":"zip"},"type":"Feature","geometry":{"type":"Point","coordinates":[101.15,6.7833333]}},{"properties":{"city":"Kapho","geo_score":0.971,"d":1,"country":"Thailand","id":"a6mv70m2kjzc","geo_precision":"zip"},"type":"Feature","geometry":{"type":"Point","coordinates":[98.4666667,9.7666667]}},{"properties":{"city":"Escalante","geo_score":1.0,"d":1,"country":"Philippines","id":"a6mv70n5qzs7","geo_precision":"zip"},"type":"Feature","geometry":{"type":"Point","coordinates":[123.5,10.8166667]}},{"properties":{"city":"Mueang Yala","geo_score":0.914,"d":1,"country":"Thailand","id":"a6mv70vrpme8","geo_precision":"zip"},"type":"Feature","geometry":{"type":"Point","coordinates":[101.2836111,6.5427778]}},{"properties":{"city":"Pikit","geo_score":1.0,"d":1,"country":"Philippines","id":"a6mv70mbr6ye","geo_precision":"zip"},"type":"Feature","geometry":{"type":"Point","coordinates":[124.6333333,7.1]}},{"properties":{"city":"None","geo_score":0.929,"d":1,"country":"Thailand","id":"a6mv70ge3abc","geo_precision":"zip"},"type":"Feature","geometry":{"type":"Point","coordinates":[100.7833333,18.7833333]}},{"properties":{"city":"Mayo","geo_score":1.0,"d":1,"country":"Thailand","id":"a6mv70t51p28","geo_precision":"zip"},"type":"Feature","geometry":{"type":"Point","coordinates":[101.4127778,6.7133333]}},{"properties":{"city":"Monkayo","geo_score":1.0,"d":1,"country":"Philippines","id":"a6mv70jfoh6c","geo_precision":"zip"},"type":"Feature","geometry":{"type":"Point","coordinates":[126.1,7.8666667]}},{"properties":{"city":"Cho-airong, Mueang Narathiwat, Rangae, Rueso, Si Sakhon, Sukhirin, Sungai Padi, Yingo","geo_score":0.878,"d":1,"country":"Thailand","id":"a6mv70jfzych","geo_precision":"zip"},"type":"Feature","geometry":{"type":"Point","coordinates":[101.8236111,6.4244444]}},{"properties":{"city":"Mae Sot","geo_score":0.905,"d":1,"country":"Thailand","id":"a6mv70k5js2k","geo_precision":"zip"},"type":"Feature","geometry":{"type":"Point","coordinates":[100.4333333,6.6333333]}},{"properties":{"city":"Maco","geo_score":1.0,"d":1,"country":"Philippines","id":"a6mv70ftd6ms","geo_precision":"zip"},"type":"Feature","geometry":{"type":"Point","coordinates":[125.9333333,7.4]}},{"properties":{"city":"Panare","geo_score":1.0,"d":1,"country":"Thailand","id":"a6mv70rpsrae","geo_precision":"zip"},"type":"Feature","geometry":{"type":"Point","coordinates":[101.4902778,6.86]}},{"properties":{"city":"Bannang Sata","geo_score":0.883,"d":1,"country":"Thailand","id":"a6mv70vfxeh2","geo_precision":"zip"},"type":"Feature","geometry":{"type":"Point","coordinates":[100.4333333,6.6333333]}},{"properties":{"city":"Cabanatuan","geo_score":0.959,"d":1,"country":"Philippines","id":"a6mv70qcp0v7","geo_precision":"zip"},"type":"Feature","geometry":{"type":"Point","coordinates":[120.9666667,15.4833333]}},{"properties":{"city":"Sai Buri","geo_score":1.0,"d":1,"country":"Thailand","id":"a6mv70uqi8ul","geo_precision":"zip"},"type":"Feature","geometry":{"type":"Point","coordinates":[101.6202778,6.7030556]}},{"properties":{"city":"Cotabato City","geo_score":1.0,"d":1,"country":"Philippines","id":"a6mv70kwvzlb","geo_precision":"zip"},"type":"Feature","geometry":{"type":"Point","coordinates":[124.25,7.2166667]}},{"properties":{"city":"Maco","geo_score":1.0,"d":1,"country":"Philippines","id":"a6mv70ru1iyp","geo_precision":"zip"},"type":"Feature","geometry":{"type":"Point","coordinates":[125.9333333,7.4]}},{"properties":{"city":"Cauayan","geo_score":0.98,"d":1,"country":"Philippines","id":"a6mv70j3vlm3","geo_precision":"zip"},"type":"Feature","geometry":{"type":"Point","coordinates":[120.4,17.5333333]}},{"properties":{"city":"San Fernando","geo_score":1.0,"d":1,"country":"Philippines","id":"a6mv70l6wuxg","geo_precision":"zip"},"type":"Feature","geometry":{"type":"Point","coordinates":[120.6855556,15.0302778]}},{"properties":{"city":"San Fernando","geo_score":1.0,"d":1,"country":"Philippines","id":"a6mv70kntzza","geo_precision":"zip"},"type":"Feature","geometry":{"type":"Point","coordinates":[120.6855556,15.0302778]}},{"properties":{"city":"None","geo_score":0.929,"d":1,"country":"Thailand","id":"a6mv70fjusfh","geo_precision":"zip"},"type":"Feature","geometry":{"type":"Point","coordinates":[100.7833333,18.7833333]}},{"properties":{"city":"Jolo","geo_score":1.0,"d":1,"country":"Philippines","id":"a6mv70tfh2r0","geo_precision":"zip"},"type":"Feature","geometry":{"type":"Point","coordinates":[121.0166667,6.05]}},{"properties":{"city":"Pasacao","geo_score":1.0,"d":1,"country":"Philippines","id":"a6mv70v6e9je","geo_precision":"zip"},"type":"Feature","geometry":{"type":"Point","coordinates":[122.9833333,13.55]}},{"properties":{"city":"Cho-airong","geo_score":0.0,"d":1,"country":"Thailand","id":"a6mv70uvl3dk","geo_precision":"unmatched"},"type":"Feature","geometry":null},{"properties":{"city":"Khok Pho","geo_score":0.918,"d":1,"country":"Thailand","id":"a6mv70h0b85s","geo_precision":"zip"},"type":"Feature","geometry":{"type":"Point","coordinates":[98.9833333,9.5666667]}},{"properties":{"city":"Pikit","geo_score":1.0,"d":1,"country":"Philippines","id":"a6mv70t29w4w","geo_precision":"zip"},"type":"Feature","geometry":{"type":"Point","coordinates":[124.6333333,7.1]}},{"properties":{"city":"Khok Pho","geo_score":0.918,"d":1,"country":"Thailand","id":"a6mv70j992p6","geo_precision":"zip"},"type":"Feature","geometry":{"type":"Point","coordinates":[98.9833333,9.5666667]}},{"properties":{"city":"Bangkok","geo_score":1.0,"d":1,"country":"Thailand","id":"a6mv70fxwuqe","geo_precision":"zip"},"type":"Feature","geometry":{"type":"Point","coordinates":[100.5166667,13.75]}},{"properties":{"city":"Bannang Sata","geo_score":0.883,"d":1,"country":"Thailand","id":"a6mv70nh19wc","geo_precision":"zip"},"type":"Feature","geometry":{"type":"Point","coordinates":[100.4333333,6.6333333]}},{"properties":{"city":"Isabela","geo_score":1.0,"d":1,"country":"Philippines","id":"a6mv70qk3x1e","geo_precision":"zip"},"type":"Feature","geometry":{"type":"Point","coordinates":[121.9713889,6.7063889]}},{"properties":{"city":"Yarang","geo_score":0.976,"d":1,"country":"Thailand","id":"a6mv70h0gi97","geo_precision":"zip"},"type":"Feature","geometry":{"type":"Point","coordinates":[101.365,6.8616667]}},{"properties":{"city":"Escalante","geo_score":1.0,"d":1,"country":"Philippines","id":"a6mv70v34r3d","geo_precision":"zip"},"type":"Feature","geometry":{"type":"Point","coordinates":[123.5,10.8166667]}},{"properties":{"city":"Calinog","geo_score":1.0,"d":1,"country":"Philippines","id":"a6mv70glrylk","geo_precision":"zip"},"type":"Feature","geometry":{"type":"Point","coordinates":[122.5,11.1333333]}},{"properties":{"city":"Mueang Pattani","geo_score":0.934,"d":1,"country":"Thailand","id":"a6mv70k6yeug","geo_precision":"zip"},"type":"Feature","geometry":{"type":"Point","coordinates":[101.15,6.7833333]}},{"properties":{"city":"Montevista","geo_score":1.0,"d":1,"country":"Philippines","id":"a6mv70j28nk6","geo_precision":"zip"},"type":"Feature","geometry":{"type":"Point","coordinates":[126.0,7.6833333]}},{"properties":{"city":"None","geo_score":0.929,"d":1,"country":"Thailand","id":"a6mv70fkljf4","geo_precision":"zip"},"type":"Feature","geometry":{"type":"Point","coordinates":[100.7833333,18.7833333]}},{"properties":{"city":"Escalante","geo_score":1.0,"d":1,"country":"Philippines","id":"a6mv70flrzwz","geo_precision":"zip"},"type":"Feature","geometry":{"type":"Point","coordinates":[123.5,10.8166667]}},{"properties":{"city":"Salvador","geo_score":1.0,"d":1,"country":"Philippines","id":"a6mv70re9y27","geo_precision":"zip"},"type":"Feature","geometry":{"type":"Point","coordinates":[123.8436111,7.8952778]}},{"properties":{"city":"Thung Yang Daeng","geo_score":1.0,"d":1,"country":"Thailand","id":"a6mv70p5ejhi","geo_precision":"zip"},"type":"Feature","geometry":{"type":"Point","coordinates":[101.3311111,6.6411111]}},{"properties":{"city":"Chanae","geo_score":0.929,"d":1,"country":"Thailand","id":"a6mv70tyrd82","geo_precision":"zip"},"type":"Feature","geometry":{"type":"Point","coordinates":[100.1333333,19.3333333]}},{"properties":{"city":"Panare","geo_score":1.0,"d":1,"country":"Thailand","id":"a6mv70q2q1g1","geo_precision":"zip"},"type":"Feature","geometry":{"type":"Point","coordinates":[101.4902778,6.86]}},{"properties":{"city":"Mueang Pattani","geo_score":0.934,"d":1,"country":"Thailand","id":"a6mv70jm1lgp","geo_precision":"zip"},"type":"Feature","geometry":{"type":"Point","coordinates":[101.15,6.7833333]}},{"properties":{"city":"None","geo_score":0.929,"d":1,"country":"Thailand","id":"a6mv70qsgfri","geo_precision":"zip"},"type":"Feature","geometry":{"type":"Point","coordinates":[100.7833333,18.7833333]}},{"properties":{"city":"Buguey","geo_score":0.929,"d":1,"country":"Philippines","id":"a6mv70fkrkn2","geo_precision":"zip"},"type":"Feature","geometry":{"type":"Point","coordinates":[120.5930556,16.4163889]}},{"properties":{"city":"Mulia","geo_score":0.943,"d":1,"country":"Indonesia","id":"a6mv70qqhj9p","geo_precision":"zip"},"type":"Feature","geometry":{"type":"Point","coordinates":[110.5877778,-8.0180556]}},{"properties":{"city":"Matanao","geo_score":1.0,"d":1,"country":"Philippines","id":"a6mv70tinzym","geo_precision":"zip"},"type":"Feature","geometry":{"type":"Point","coordinates":[125.2666667,6.7]}},{"properties":{"city":"Balatan","geo_score":0.918,"d":1,"country":"Philippines","id":"a6mv70pln2e5","geo_precision":"zip"},"type":"Feature","geometry":{"type":"Point","coordinates":[124.45,7.55]}},{"properties":{"city":"Guihulngan","geo_score":1.0,"d":1,"country":"Philippines","id":"a6mv70m6ppid","geo_precision":"zip"},"type":"Feature","geometry":{"type":"Point","coordinates":[123.2,10.1833333]}},{"properties":{"city":"Yarang","geo_score":0.976,"d":1,"country":"Thailand","id":"a6mv70vydv8b","geo_precision":"zip"},"type":"Feature","geometry":{"type":"Point","coordinates":[101.365,6.8616667]}},{"properties":{"city":"Yarang","geo_score":0.976,"d":1,"country":"Thailand","id":"a6mv70pssk9n","geo_precision":"zip"},"type":"Feature","geometry":{"type":"Point","coordinates":[101.365,6.8616667]}},{"properties":{"city":"Bannang Sata","geo_score":0.883,"d":1,"country":"Thailand","id":"a6mv70l3unbn","geo_precision":"zip"},"type":"Feature","geometry":{"type":"Point","coordinates":[100.4333333,6.6333333]}},{"properties":{"city":"Rangae","geo_score":1.0,"d":1,"country":"Thailand","id":"a6mv70i38i99","geo_precision":"zip"},"type":"Feature","geometry":{"type":"Point","coordinates":[101.7119444,6.2908333]}},{"properties":{"city":"Pantukan","geo_score":1.0,"d":1,"country":"Philippines","id":"a6mv70fk9dg7","geo_precision":"zip"},"type":"Feature","geometry":{"type":"Point","coordinates":[125.95,7.15]}},{"properties":{"city":"Than To","geo_score":0.905,"d":1,"country":"Thailand","id":"a6mv70mvn3o9","geo_precision":"zip"},"type":"Feature","geometry":{"type":"Point","coordinates":[99.2138889,17.6025]}},{"properties":{"city":"Yarang","geo_score":0.976,"d":1,"country":"Thailand","id":"a6mv70vy43br","geo_precision":"zip"},"type":"Feature","geometry":{"type":"Point","coordinates":[101.365,6.8616667]}},{"properties":{"city":"Yarang","geo_score":0.976,"d":1,"country":"Thailand","id":"a6mv70lg9t4w","geo_precision":"zip"},"type":"Feature","geometry":{"type":"Point","coordinates":[101.365,6.8616667]}},{"properties":{"city":"Mueang Pattani","geo_score":0.934,"d":1,"country":"Thailand","id":"a6mv70n9zn6u","geo_precision":"zip"},"type":"Feature","geometry":{"type":"Point","coordinates":[101.15,6.7833333]}},{"properties":{"city":"Mueang Yala","geo_score":0.914,"d":1,"country":"Thailand","id":"a6mv70kheror","geo_precision":"zip"},"type":"Feature","geometry":{"type":"Point","coordinates":[101.2836111,6.5427778]}},{"properties":{"city":"Rangae","geo_score":1.0,"d":1,"country":"Thailand","id":"a6mv70tsim6k","geo_precision":"zip"},"type":"Feature","geometry":{"type":"Point","coordinates":[101.7119444,6.2908333]}},{"properties":{"city":"Yaring","geo_score":1.0,"d":1,"country":"Thailand","id":"a6mv70ikctpd","geo_precision":"zip"},"type":"Feature","geometry":{"type":"Point","coordinates":[101.365,6.8616667]}},{"properties":{"city":"Datu Piang","geo_score":0.889,"d":1,"country":"Philippines","id":"a6mv70nvigre","geo_precision":"zip"},"type":"Feature","geometry":{"type":"Point","coordinates":[121.1325,14.5691667]}},{"properties":{"city":"Rueso","geo_score":0.971,"d":1,"country":"Thailand","id":"a6mv70s1v97d","geo_precision":"zip"},"type":"Feature","geometry":{"type":"Point","coordinates":[101.5197222,6.3936111]}},{"properties":{"city":"Yaha","geo_score":1.0,"d":1,"country":"Thailand","id":"a6mv70luu184","geo_precision":"zip"},"type":"Feature","geometry":{"type":"Point","coordinates":[101.135,6.4777778]}},{"properties":{"city":"Yaha","geo_score":1.0,"d":1,"country":"Thailand","id":"a6mv70k7b7ay","geo_precision":"zip"},"type":"Feature","geometry":{"type":"Point","coordinates":[101.135,6.4777778]}},{"properties":{"city":"Carmen","geo_score":0.959,"d":1,"country":"Philippines","id":"a6mv70svuby8","geo_precision":"zip"},"type":"Feature","geometry":{"type":"Point","coordinates":[121.0166667,14.3]}},{"properties":{"city":"Aroroy","geo_score":1.0,"d":1,"country":"Philippines","id":"a6mv70nkvq50","geo_precision":"zip"},"type":"Feature","geometry":{"type":"Point","coordinates":[123.3666667,12.4666667]}},{"properties":{"city":"Yaring","geo_score":1.0,"d":1,"country":"Thailand","id":"a6mv70riv08i","geo_precision":"zip"},"type":"Feature","geometry":{"type":"Point","coordinates":[101.365,6.8616667]}},{"properties":{"city":"Yaha","geo_score":1.0,"d":1,"country":"Thailand","id":"a6mv70rfvg97","geo_precision":"zip"},"type":"Feature","geometry":{"type":"Point","coordinates":[101.135,6.4777778]}},{"properties":{"city":"None","geo_score":0.929,"d":1,"country":"Thailand","id":"a6mv70hggop8","geo_precision":"zip"},"type":"Feature","geometry":{"type":"Point","coordinates":[100.7833333,18.7833333]}},{"properties":{"city":"Than To","geo_score":0.905,"d":1,"country":"Thailand","id":"a6mv70uu93v5","geo_precision":"zip"},"type":"Feature","geometry":{"type":"Point","coordinates":[99.2138889,17.6025]}},{"properties":{"city":"Bannang Sata","geo_score":0.883,"d":1,"country":"Thailand","id":"a6mv70heupuu","geo_precision":"zip"},"type":"Feature","geometry":{"type":"Point","coordinates":[100.4333333,6.6333333]}},{"properties":{"city":"Mulia","geo_score":0.943,"d":1,"country":"Indonesia","id":"a6mv70iogn2i","geo_precision":"zip"},"type":"Feature","geometry":{"type":"Point","coordinates":[110.5877778,-8.0180556]}},{"properties":{"city":"None","geo_score":0.929,"d":1,"country":"Thailand","id":"a6mv70ocg0c2","geo_precision":"zip"},"type":"Feature","geometry":{"type":"Point","coordinates":[100.7833333,18.7833333]}},{"properties":{"city":"Kapho","geo_score":0.971,"d":1,"country":"Thailand","id":"a6mv70ovb5tr","geo_precision":"zip"},"type":"Feature","geometry":{"type":"Point","coordinates":[98.4666667,9.7666667]}},{"properties":{"city":"Guihulngan","geo_score":1.0,"d":1,"country":"Philippines","id":"a6mv70og07yy","geo_precision":"zip"},"type":"Feature","geometry":{"type":"Point","coordinates":[123.2,10.1833333]}},{"properties":{"city":"Mueang Narathiwat","geo_score":0.946,"d":1,"country":"Thailand","id":"a6mv70ulvvz3","geo_precision":"zip"},"type":"Feature","geometry":{"type":"Point","coordinates":[101.8236111,6.4244444]}},{"properties":{"city":"Marantao","geo_score":1.0,"d":1,"country":"Philippines","id":"a6mv70vfvybi","geo_precision":"zip"},"type":"Feature","geometry":{"type":"Point","coordinates":[124.1833333,7.95]}},{"properties":{"city":"Rueso","geo_score":0.971,"d":1,"country":"Thailand","id":"a6mv70l563bi","geo_precision":"zip"},"type":"Feature","geometry":{"type":"Point","coordinates":[101.5197222,6.3936111]}},{"properties":{"city":"Talisay","geo_score":1.0,"d":1,"country":"Philippines","id":"a6mv70syv9lt","geo_precision":"zip"},"type":"Feature","geometry":{"type":"Point","coordinates":[123.8494444,10.2447222]}},{"properties":{"city":"Si Sakhon","geo_score":0.893,"d":1,"country":"Thailand","id":"a6mv70gycfu8","geo_precision":"zip"},"type":"Feature","geometry":{"type":"Point","coordinates":[100.7333333,18.5666667]}},{"properties":{"city":"Bangkok","geo_score":1.0,"d":1,"country":"Thailand","id":"a6mv70qyx39n","geo_precision":"zip"},"type":"Feature","geometry":{"type":"Point","coordinates":[100.5166667,13.75]}},{"properties":{"city":"Guinobatan","geo_score":1.0,"d":1,"country":"Philippines","id":"a6mv70n3fjdw","geo_precision":"zip"},"type":"Feature","geometry":{"type":"Point","coordinates":[123.5666667,13.1666667]}},{"properties":{"city":"Janakpur","geo_score":1.0,"d":1,"country":"Nepal","id":"a6mv70q5dtdj","geo_precision":"zip"},"type":"Feature","geometry":{"type":"Point","coordinates":[85.9166667,26.7]}},{"properties":{"city":"Kalamkhola","geo_score":0.0,"d":1,"country":"Nepal","id":"a6mv70tcjuq0","geo_precision":"unmatched"},"type":"Feature","geometry":null},{"properties":{"city":"Bannang Sata","geo_score":0.883,"d":1,"country":"Thailand","id":"a6mv70m2wmgz","geo_precision":"zip"},"type":"Feature","geometry":{"type":"Point","coordinates":[100.4333333,6.6333333]}},{"properties":{"city":"Pandan","geo_score":0.959,"d":1,"country":"Philippines","id":"a6mv70sgn9pw","geo_precision":"zip"},"type":"Feature","geometry":{"type":"Point","coordinates":[122.7666667,11.45]}},{"properties":{"city":"None","geo_score":0.929,"d":1,"country":"Thailand","id":"a6mv70v66cnc","geo_precision":"zip"},"type":"Feature","geometry":{"type":"Point","coordinates":[100.7833333,18.7833333]}},{"properties":{"city":"Mueang Yala","geo_score":0.914,"d":1,"country":"Thailand","id":"a6mv70jreovq","geo_precision":"zip"},"type":"Feature","geometry":{"type":"Point","coordinates":[101.2836111,6.5427778]}},{"properties":{"city":"Ampatuan","geo_score":1.0,"d":1,"country":"Philippines","id":"a6mv70rzboob","geo_precision":"zip"},"type":"Feature","geometry":{"type":"Point","coordinates":[124.3833333,6.8333333]}},{"properties":{"city":"Boston","geo_score":1.0,"d":1,"country":"Philippines","id":"a6mv70py4rhx","geo_precision":"zip"},"type":"Feature","geometry":{"type":"Point","coordinates":[126.1833333,7.6]}},{"properties":{"city":"Mueang Yala","geo_score":0.914,"d":1,"country":"Thailand","id":"a6mv70h038l8","geo_precision":"zip"},"type":"Feature","geometry":{"type":"Point","coordinates":[101.2836111,6.5427778]}},{"properties":{"city":"Lamitan","geo_score":1.0,"d":1,"country":"Philippines","id":"a6mv70h9jvar","geo_precision":"zip"},"type":"Feature","geometry":{"type":"Point","coordinates":[122.1,6.6333333]}},{"properties":{"city":"None","geo_score":0.929,"d":1,"country":"Thailand","id":"a6mv70ltujij","geo_precision":"zip"},"type":"Feature","geometry":{"type":"Point","coordinates":[100.7833333,18.7833333]}},{"properties":{"city":"Yarang","geo_score":0.976,"d":1,"country":"Thailand","id":"a6mv70sydkaj","geo_precision":"zip"},"type":"Feature","geometry":{"type":"Point","coordinates":[101.365,6.8616667]}},{"properties":{"city":"Yaha","geo_score":1.0,"d":1,"country":"Thailand","id":"a6mv70tzhdql","geo_precision":"zip"},"type":"Feature","geometry":{"type":"Point","coordinates":[101.135,6.4777778]}},{"properties":{"city":"Rosario","geo_score":1.0,"d":1,"country":"Philippines","id":"a6mv70n1pgqa","geo_precision":"zip"},"type":"Feature","geometry":{"type":"Point","coordinates":[122.2833333,13.85]}},{"properties":{"city":"Bacho","geo_score":1.0,"d":1,"country":"Thailand","id":"a6mv70npern4","geo_precision":"zip"},"type":"Feature","geometry":{"type":"Point","coordinates":[101.6519444,6.5188889]}},{"properties":{"city":"Isabela","geo_score":1.0,"d":1,"country":"Philippines","id":"a6mv70kbawwa","geo_precision":"zip"},"type":"Feature","geometry":{"type":"Point","coordinates":[121.9713889,6.7063889]}},{"properties":{"city":"Sumisip","geo_score":1.0,"d":1,"country":"Philippines","id":"a6mv70v80ai9","geo_precision":"zip"},"type":"Feature","geometry":{"type":"Point","coordinates":[121.9666667,6.45]}},{"properties":{"city":"Parsauni","geo_score":0.0,"d":1,"country":"Nepal","id":"a6mv70h1erv0","geo_precision":"unmatched"},"type":"Feature","geometry":null},{"properties":{"city":"Sai Buri","geo_score":1.0,"d":1,"country":"Thailand","id":"a6mv70n88rp0","geo_precision":"zip"},"type":"Feature","geometry":{"type":"Point","coordinates":[101.6202778,6.7030556]}},{"properties":{"city":"Yarang","geo_score":0.976,"d":1,"country":"Thailand","id":"a6mv70ns6bjq","geo_precision":"zip"},"type":"Feature","geometry":{"type":"Point","coordinates":[101.365,6.8616667]}},{"properties":{"city":"Lingayen","geo_score":1.0,"d":1,"country":"Philippines","id":"a6mv70reof8g","geo_precision":"zip"},"type":"Feature","geometry":{"type":"Point","coordinates":[120.2333333,16.0166667]}},{"properties":{"city":"Rueso","geo_score":0.971,"d":1,"country":"Thailand","id":"a6mv70uoqtmt","geo_precision":"zip"},"type":"Feature","geometry":{"type":"Point","coordinates":[101.5197222,6.3936111]}},{"properties":{"city":"Cotabato City","geo_score":1.0,"d":1,"country":"Philippines","id":"a6mv70mon6t8","geo_precision":"zip"},"type":"Feature","geometry":{"type":"Point","coordinates":[124.25,7.2166667]}},{"properties":{"city":"Sungai Kolok","geo_score":1.0,"d":1,"country":"Thailand","id":"a6mv70ue6jus","geo_precision":"zip"},"type":"Feature","geometry":{"type":"Point","coordinates":[101.9677778,6.0266667]}},{"properties":{"city":"Yaha","geo_score":1.0,"d":1,"country":"Thailand","id":"a6mv70udnoh2","geo_precision":"zip"},"type":"Feature","geometry":{"type":"Point","coordinates":[101.135,6.4777778]}},{"properties":{"city":"Parshurampur","geo_score":0.0,"d":1,"country":"Nepal","id":"a6mv70vfw6j0","geo_precision":"unmatched"},"type":"Feature","geometry":null},{"properties":{"city":"None","geo_score":0.929,"d":1,"country":"Thailand","id":"a6mv70iunj2l","geo_precision":"zip"},"type":"Feature","geometry":{"type":"Point","coordinates":[100.7833333,18.7833333]}},{"properties":{"city":"Yarang","geo_score":0.976,"d":1,"country":"Thailand","id":"a6mv70v9sjy2","geo_precision":"zip"},"type":"Feature","geometry":{"type":"Point","coordinates":[101.365,6.8616667]}},{"properties":{"city":"Giporlos","geo_score":1.0,"d":1,"country":"Philippines","id":"a6mv70pwfnor","geo_precision":"zip"},"type":"Feature","geometry":{"type":"Point","coordinates":[125.4666667,11.1333333]}},{"properties":{"city":"Matuguinao","geo_score":1.0,"d":1,"country":"Philippines","id":"a6mv70o9wfnm","geo_precision":"zip"},"type":"Feature","geometry":{"type":"Point","coordinates":[124.9833333,12.1833333]}},{"properties":{"city":"Raman","geo_score":1.0,"d":1,"country":"Thailand","id":"a6mv70i6a7nt","geo_precision":"zip"},"type":"Feature","geometry":{"type":"Point","coordinates":[101.4225,6.4797222]}},{"properties":{"city":"San Miguel","geo_score":1.0,"d":1,"country":"Philippines","id":"a6mv70mmarp7","geo_precision":"zip"},"type":"Feature","geometry":{"type":"Point","coordinates":[120.9783333,15.1458333]}},{"properties":{"city":"Mayo","geo_score":1.0,"d":1,"country":"Thailand","id":"a6mv70vu6xsn","geo_precision":"zip"},"type":"Feature","geometry":{"type":"Point","coordinates":[101.4127778,6.7133333]}},{"properties":{"city":"Jayapura","geo_score":1.0,"d":1,"country":"Indonesia","id":"a6mv70ldddrg","geo_precision":"zip"},"type":"Feature","geometry":{"type":"Point","coordinates":[140.7,-2.5333333]}},{"properties":{"city":"None","geo_score":0.929,"d":1,"country":"Thailand","id":"a6mv70hqs3mn","geo_precision":"zip"},"type":"Feature","geometry":{"type":"Point","coordinates":[100.7833333,18.7833333]}},{"properties":{"city":"Bacolod","geo_score":1.0,"d":1,"country":"Philippines","id":"a6mv70tdc6ej","geo_precision":"zip"},"type":"Feature","geometry":{"type":"Point","coordinates":[123.9166667,8.1166667]}},{"properties":{"city":"Mueang Pattani","geo_score":0.934,"d":1,"country":"Thailand","id":"a6mv70rnxjhh","geo_precision":"zip"},"type":"Feature","geometry":{"type":"Point","coordinates":[101.15,6.7833333]}},{"properties":{"city":"Alaminos","geo_score":1.0,"d":1,"country":"Philippines","id":"a6mv70fnrx0l","geo_precision":"zip"},"type":"Feature","geometry":{"type":"Point","coordinates":[121.2480556,14.0627778]}},{"properties":{"city":"Digos","geo_score":1.0,"d":1,"country":"Philippines","id":"a6mv70g9si2q","geo_precision":"zip"},"type":"Feature","geometry":{"type":"Point","coordinates":[125.35,6.8333333]}},{"properties":{"city":"Rueso","geo_score":0.971,"d":1,"country":"Thailand","id":"a6mv70ixiqxc","geo_precision":"zip"},"type":"Feature","geometry":{"type":"Point","coordinates":[101.5197222,6.3936111]}},{"properties":{"city":"Mueang Yala","geo_score":0.914,"d":1,"country":"Thailand","id":"a6mv70omg4c0","geo_precision":"zip"},"type":"Feature","geometry":{"type":"Point","coordinates":[101.2836111,6.5427778]}},{"properties":{"city":"Guihulngan","geo_score":1.0,"d":1,"country":"Philippines","id":"a6mv70t8y873","geo_precision":"zip"},"type":"Feature","geometry":{"type":"Point","coordinates":[123.2,10.1833333]}},{"properties":{"city":"Columbio","geo_score":0.929,"d":1,"country":"Philippines","id":"a6mv70v9u1rs","geo_precision":"zip"},"type":"Feature","geometry":{"type":"Point","coordinates":[121.1652778,14.2116667]}},{"properties":{"city":"Mueang Yala","geo_score":0.914,"d":1,"country":"Thailand","id":"a6mv70s2k1to","geo_precision":"zip"},"type":"Feature","geometry":{"type":"Point","coordinates":[101.2836111,6.5427778]}},{"properties":{"city":"Khok Pho","geo_score":0.918,"d":1,"country":"Thailand","id":"a6mv70rc41x9","geo_precision":"zip"},"type":"Feature","geometry":{"type":"Point","coordinates":[98.9833333,9.5666667]}},{"properties":{"city":"None","geo_score":0.929,"d":1,"country":"Thailand","id":"a6mv70jqn89n","geo_precision":"zip"},"type":"Feature","geometry":{"type":"Point","coordinates":[100.7833333,18.7833333]}},{"properties":{"city":"None","geo_score":0.929,"d":1,"country":"Thailand","id":"a6mv70lzgh7u","geo_precision":"zip"},"type":"Feature","geometry":{"type":"Point","coordinates":[100.7833333,18.7833333]}},{"properties":{"city":"Mae Lan","geo_score":0.952,"d":0,"country":"Thailand","id":"a6mv70rile08","geo_precision":"zip"},"type":"Feature","geometry":{"type":"Point","coordinates":[99.3166667,20.0333333]}},{"properties":{"city":"Barobo","geo_score":1.0,"d":0,"country":"Philippines","id":"a6mv70ja0blf","geo_precision":"zip"},"type":"Feature","geometry":{"type":"Point","coordinates":[126.2,8.55]}},{"properties":{"city":"Mueang Ubon Ratchathani","geo_score":0.959,"d":0,"country":"Thailand","id":"a6mv70h0zcs0","geo_precision":"zip"},"type":"Feature","geometry":{"type":"Point","coordinates":[104.8630556,15.2330556]}},{"properties":{"city":"Rueso","geo_score":0.971,"d":0,"country":"Thailand","id":"a6mv70slhe3o","geo_precision":"zip"},"type":"Feature","geometry":{"type":"Point","coordinates":[101.5197222,6.3936111]}},{"properties":{"city":"Lam Luk Ka","geo_score":0.875,"d":0,"country":"Thailand","id":"a6mv70go8ery","geo_precision":"zip"},"type":"Feature","geometry":{"type":"Point","coordinates":[99.795,6.7091667]}},{"properties":{"city":"Gingoog","geo_score":1.0,"d":0,"country":"Philippines","id":"a6mv70i9jwnu","geo_precision":"zip"},"type":"Feature","geometry":{"type":"Point","coordinates":[125.0997222,8.8277778]}},{"properties":{"city":"Sai Buri","geo_score":1.0,"d":0,"country":"Thailand","id":"a6mv70jkda9r","geo_precision":"zip"},"type":"Feature","geometry":{"type":"Point","coordinates":[101.6202778,6.7030556]}},{"properties":{"city":"Impasug-ong","geo_score":1.0,"d":0,"country":"Philippines","id":"a6mv70rzoaer","geo_precision":"zip"},"type":"Feature","geometry":{"type":"Point","coordinates":[125.0019444,8.3097222]}},{"properties":{"city":"Gen. S.K. Pendatun","geo_score":0.879,"d":0,"country":"Philippines","id":"a6mv70kb6554","geo_precision":"zip"},"type":"Feature","geometry":{"type":"Point","coordinates":[123.4241667,10.9447222]}},{"properties":{"city":"Nuwakot","geo_score":1.0,"d":0,"country":"Nepal","id":"a6mv70fx313n","geo_precision":"zip"},"type":"Feature","geometry":{"type":"Point","coordinates":[83.8833333,28.1333333]}},{"properties":{"city":"Bangkok","geo_score":1.0,"d":0,"country":"Thailand","id":"a6mv70htlrlq","geo_precision":"zip"},"type":"Feature","geometry":{"type":"Point","coordinates":[100.5166667,13.75]}},{"properties":{"city":"Ramganj Belgachhi","geo_score":0.0,"d":0,"country":"Nepal","id":"a6mv70md7zx9","geo_precision":"unmatched"},"type":"Feature","geometry":null},{"properties":{"city":"Yala","geo_score":1.0,"d":0,"country":"Thailand","id":"a6mv70qhy0tw","geo_precision":"zip"},"type":"Feature","geometry":{"type":"Point","coordinates":[101.2836111,6.5427778]}},{"properties":{"city":"Jolo","geo_score":1.0,"d":0,"country":"Philippines","id":"a6mv70ocrfpb","geo_precision":"zip"},"type":"Feature","geometry":{"type":"Point","coordinates":[121.0166667,6.05]}},{"properties":{"city":"Nong Chik","geo_score":1.0,"d":0,"country":"Thailand","id":"a6mv70ky7u7x","geo_precision":"zip"},"type":"Feature","geometry":{"type":"Point","coordinates":[101.1880556,6.8452778]}},{"properties":{"city":"Sai Buri","geo_score":1.0,"d":0,"country":"Thailand","id":"a6mv70u0ht6q","geo_precision":"zip"},"type":"Feature","geometry":{"type":"Point","coordinates":[101.6202778,6.7030556]}},{"properties":{"city":"Bangkok","geo_score":1.0,"d":0,"country":"Thailand","id":"a6mv70h6s2mp","geo_precision":"zip"},"type":"Feature","geometry":{"type":"Point","coordinates":[100.5166667,13.75]}},{"properties":{"city":"Cotabato City","geo_score":1.0,"d":0,"country":"Philippines","id":"a6mv70v3o8r7","geo_precision":"zip"},"type":"Feature","geometry":{"type":"Point","coordinates":[124.25,7.2166667]}},{"properties":{"city":"Gen. S.K. Pendatun","geo_score":0.879,"d":0,"country":"Philippines","id":"a6mv70sl8dgb","geo_precision":"zip"},"type":"Feature","geometry":{"type":"Point","coordinates":[123.4241667,10.9447222]}},{"properties":{"city":"Nong Chik","geo_score":1.0,"d":0,"country":"Thailand","id":"a6mv70lbxo4w","geo_precision":"zip"},"type":"Feature","geometry":{"type":"Point","coordinates":[101.1880556,6.8452778]}},{"properties":{"city":"Datu Montawal","geo_score":0.893,"d":0,"country":"Philippines","id":"a6mv70m0phio","geo_precision":"zip"},"type":"Feature","geometry":{"type":"Point","coordinates":[121.1325,14.5691667]}},{"properties":{"city":"Capalonga","geo_score":0.968,"d":0,"country":"Philippines","id":"a6mv70irva0l","geo_precision":"zip"},"type":"Feature","geometry":{"type":"Point","coordinates":[125.5,7.75]}},{"properties":{"city":"Sumisip","geo_score":1.0,"d":0,"country":"Philippines","id":"a6mv70qzz7qh","geo_precision":"zip"},"type":"Feature","geometry":{"type":"Point","coordinates":[121.9666667,6.45]}},{"properties":{"city":"Sumisip","geo_score":1.0,"d":0,"country":"Philippines","id":"a6mv70khoylu","geo_precision":"zip"},"type":"Feature","geometry":{"type":"Point","coordinates":[121.9666667,6.45]}},{"properties":{"city":"Cortes","geo_score":1.0,"d":0,"country":"Philippines","id":"a6mv70renwkl","geo_precision":"zip"},"type":"Feature","geometry":{"type":"Point","coordinates":[126.1911111,9.2797222]}},{"properties":{"city":"Sai Buri","geo_score":1.0,"d":0,"country":"Thailand","id":"a6mv70nkkkaf","geo_precision":"zip"},"type":"Feature","geometry":{"type":"Point","coordinates":[101.6202778,6.7030556]}},{"properties":{"city":"Mayo","geo_score":1.0,"d":0,"country":"Thailand","id":"a6mv70vt1ewe","geo_precision":"zip"},"type":"Feature","geometry":{"type":"Point","coordinates":[101.4127778,6.7133333]}},{"properties":{"city":"Rueso","geo_score":0.971,"d":0,"country":"Thailand","id":"a6mv70r98ob2","geo_precision":"zip"},"type":"Feature","geometry":{"type":"Point","coordinates":[101.5197222,6.3936111]}},{"properties":{"city":"Zamboanga","geo_score":0.956,"d":0,"country":"Philippines","id":"a6mv70ml3zuf","geo_precision":"zip"},"type":"Feature","geometry":{"type":"Point","coordinates":[122.0666667,6.9]}},{"properties":{"city":"None","geo_score":0.929,"d":0,"country":"Thailand","id":"a6mv70p3tlab","geo_precision":"zip"},"type":"Feature","geometry":{"type":"Point","coordinates":[100.7833333,18.7833333]}},{"properties":{"city":"None","geo_score":0.929,"d":0,"country":"Thailand","id":"a6mv70nftcot","geo_precision":"zip"},"type":"Feature","geometry":{"type":"Point","coordinates":[100.7833333,18.7833333]}},{"properties":{"city":"Tampakan","geo_score":1.0,"d":0,"country":"Philippines","id":"a6mv70k1lowr","geo_precision":"zip"},"type":"Feature","geometry":{"type":"Point","coordinates":[125.0666667,6.4833333]}},{"properties":{"city":"Nepalganj","geo_score":1.0,"d":0,"country":"Nepal","id":"a6mv70swxvhw","geo_precision":"zip"},"type":"Feature","geometry":{"type":"Point","coordinates":[81.6166667,28.05]}},{"properties":{"city":"Khok Pho","geo_score":0.918,"d":0,"country":"Thailand","id":"a6mv70ohwcxp","geo_precision":"zip"},"type":"Feature","geometry":{"type":"Point","coordinates":[98.9833333,9.5666667]}},{"properties":{"city":"Sleman","geo_score":1.0,"d":0,"country":"Indonesia","id":"a6mv70qit946","geo_precision":"zip"},"type":"Feature","geometry":{"type":"Point","coordinates":[110.3555556,-7.7155556]}},{"properties":{"city":"Bacho","geo_score":1.0,"d":0,"country":"Thailand","id":"a6mv70pq0r0l","geo_precision":"zip"},"type":"Feature","geometry":{"type":"Point","coordinates":[101.6519444,6.5188889]}},{"properties":{"city":"Bangkok","geo_score":1.0,"d":0,"country":"Thailand","id":"a6mv70nnwykk","geo_precision":"zip"},"type":"Feature","geometry":{"type":"Point","coordinates":[100.5166667,13.75]}},{"properties":{"city":"Lahad Datu","geo_score":1.0,"d":0,"country":"Malaysia","id":"a6mv70lwvb00","geo_precision":"zip"},"type":"Feature","geometry":{"type":"Point","coordinates":[118.3166667,5.0333333]}},{"properties":{"city":"None","geo_score":0.768,"d":0,"country":"Burma","id":"a6mv70qweg46","geo_precision":"zip"},"type":"Feature","geometry":{"type":"Point","coordinates":[23.75,38.0333333]}},{"properties":{"city":"Cotabato City","geo_score":1.0,"d":0,"country":"Philippines","id":"a6mv70viqz6o","geo_precision":"zip"},"type":"Feature","geometry":{"type":"Point","coordinates":[124.25,7.2166667]}},{"properties":{"city":"Marawi","geo_score":1.0,"d":0,"country":"Philippines","id":"a6mv70tgfiso","geo_precision":"zip"},"type":"Feature","geometry":{"type":"Point","coordinates":[124.2927778,7.9986111]}},{"properties":{"city":"Rosario","geo_score":1.0,"d":0,"country":"Philippines","id":"a6mv70jjfk2v","geo_precision":"zip"},"type":"Feature","geometry":{"type":"Point","coordinates":[122.2833333,13.85]}},{"properties":{"city":"Baler","geo_score":1.0,"d":0,"country":"Philippines","id":"a6mv70i2a15n","geo_precision":"zip"},"type":"Feature","geometry":{"type":"Point","coordinates":[121.6,15.7166667]}},{"properties":{"city":"Bangkok","geo_score":1.0,"d":0,"country":"Thailand","id":"a6mv70vr5gwp","geo_precision":"zip"},"type":"Feature","geometry":{"type":"Point","coordinates":[100.5166667,13.75]}},{"properties":{"city":"Casiguran","geo_score":1.0,"d":0,"country":"Philippines","id":"a6mv70mruo0l","geo_precision":"zip"},"type":"Feature","geometry":{"type":"Point","coordinates":[124.0097222,12.8736111]}},{"properties":{"city":"Kathmandu","geo_score":1.0,"d":0,"country":"Nepal","id":"a6mv70fp6esq","geo_precision":"zip"},"type":"Feature","geometry":{"type":"Point","coordinates":[85.3166667,27.7166667]}},{"properties":{"city":"Bannang Sata","geo_score":0.883,"d":0,"country":"Thailand","id":"a6mv70gp42rq","geo_precision":"zip"},"type":"Feature","geometry":{"type":"Point","coordinates":[100.4333333,6.6333333]}},{"properties":{"city":"Maragusan","geo_score":0.0,"d":0,"country":"Philippines","id":"a6mv70jn7djn","geo_precision":"unmatched"},"type":"Feature","geometry":null},{"properties":{"city":"Bangkok","geo_score":1.0,"d":0,"country":"Thailand","id":"a6mv70h0ouy7","geo_precision":"zip"},"type":"Feature","geometry":{"type":"Point","coordinates":[100.5166667,13.75]}},{"properties":{"city":"Mueang Pattani","geo_score":0.934,"d":0,"country":"Thailand","id":"a6mv70t40n7i","geo_precision":"zip"},"type":"Feature","geometry":{"type":"Point","coordinates":[101.15,6.7833333]}},{"properties":{"city":"Saba Yoi","geo_score":1.0,"d":0,"country":"Thailand","id":"a6mv70r9nt3y","geo_precision":"zip"},"type":"Feature","geometry":{"type":"Point","coordinates":[100.95,6.6166667]}},{"properties":{"city":"Raman","geo_score":1.0,"d":0,"country":"Thailand","id":"a6mv70rprd0b","geo_precision":"zip"},"type":"Feature","geometry":{"type":"Point","coordinates":[101.4225,6.4797222]}},{"properties":{"city":"Yarang","geo_score":0.976,"d":0,"country":"Thailand","id":"a6mv70usoieu","geo_precision":"zip"},"type":"Feature","geometry":{"type":"Point","coordinates":[101.365,6.8616667]}},{"properties":{"city":"Isabela","geo_score":1.0,"d":0,"country":"Philippines","id":"a6mv70nsyywy","geo_precision":"zip"},"type":"Feature","geometry":{"type":"Point","coordinates":[121.9713889,6.7063889]}},{"properties":{"city":"Raman","geo_score":1.0,"d":0,"country":"Thailand","id":"a6mv70qeiic2","geo_precision":"zip"},"type":"Feature","geometry":{"type":"Point","coordinates":[101.4225,6.4797222]}},{"properties":{"city":"Butuan","geo_score":0.929,"d":0,"country":"Philippines","id":"a6mv70olecjq","geo_precision":"zip"},"type":"Feature","geometry":{"type":"Point","coordinates":[123.4333333,9.85]}},{"properties":{"city":"Mae Lan","geo_score":0.952,"d":0,"country":"Thailand","id":"a6mv70joro51","geo_precision":"zip"},"type":"Feature","geometry":{"type":"Point","coordinates":[99.3166667,20.0333333]}},{"properties":{"city":"Maimbung","geo_score":1.0,"d":0,"country":"Philippines","id":"a6mv70hcs9qj","geo_precision":"zip"},"type":"Feature","geometry":{"type":"Point","coordinates":[121.0333333,5.9333333]}},{"properties":{"city":"Sungai Padi","geo_score":0.886,"d":0,"country":"Thailand","id":"a6mv70s0id03","geo_precision":"zip"},"type":"Feature","geometry":{"type":"Point","coordinates":[104.3833333,15.8333333]}},{"properties":{"city":"Loreto","geo_score":1.0,"d":0,"country":"Philippines","id":"a6mv70lxznwm","geo_precision":"zip"},"type":"Feature","geometry":{"type":"Point","coordinates":[125.8530556,8.1869444]}},{"properties":{"city":"Mueang Nonthaburi","geo_score":0.946,"d":0,"country":"Thailand","id":"a6mv70mzdgvp","geo_precision":"zip"},"type":"Feature","geometry":{"type":"Point","coordinates":[100.51477432251,13.8607471748254]}},{"properties":{"city":"Bangkok","geo_score":1.0,"d":0,"country":"Thailand","id":"a6mv70m36j6b","geo_precision":"zip"},"type":"Feature","geometry":{"type":"Point","coordinates":[100.5166667,13.75]}},{"properties":{"city":"Roxas","geo_score":1.0,"d":0,"country":"Philippines","id":"a6mv70tjs7jg","geo_precision":"zip"},"type":"Feature","geometry":{"type":"Point","coordinates":[121.6197222,17.1205556]}},{"properties":{"city":"Kabang","geo_score":0.959,"d":0,"country":"Thailand","id":"a6mv70rcpa6w","geo_precision":"zip"},"type":"Feature","geometry":{"type":"Point","coordinates":[97.65,8.6666667]}},{"properties":{"city":"Rangae","geo_score":1.0,"d":0,"country":"Thailand","id":"a6mv70m8hyf6","geo_precision":"zip"},"type":"Feature","geometry":{"type":"Point","coordinates":[101.7119444,6.2908333]}},{"properties":{"city":"Sukoharjo","geo_score":1.0,"d":0,"country":"Indonesia","id":"a6mv70jgx162","geo_precision":"zip"},"type":"Feature","geometry":{"type":"Point","coordinates":[112.6329,-7.9852]}},{"properties":{"city":"Loreto","geo_score":1.0,"d":0,"country":"Philippines","id":"a6mv70rcyo1m","geo_precision":"zip"},"type":"Feature","geometry":{"type":"Point","coordinates":[125.8530556,8.1869444]}},{"properties":{"city":"Zamboanga","geo_score":0.956,"d":0,"country":"Philippines","id":"a6mv70n1532y","geo_precision":"zip"},"type":"Feature","geometry":{"type":"Point","coordinates":[122.0666667,6.9]}},{"properties":{"city":"Lambayong","geo_score":0.94,"d":0,"country":"Philippines","id":"a6mv70ljtw8k","geo_precision":"zip"},"type":"Feature","geometry":{"type":"Point","coordinates":[124.3,7.7666667]}},{"properties":{"city":"Lanuza","geo_score":1.0,"d":0,"country":"Philippines","id":"a6mv70t1qhvi","geo_precision":"zip"},"type":"Feature","geometry":{"type":"Point","coordinates":[126.05,9.15]}},{"properties":{"city":"Bacho","geo_score":1.0,"d":0,"country":"Thailand","id":"a6mv70ikyv0q","geo_precision":"zip"},"type":"Feature","geometry":{"type":"Point","coordinates":[101.6519444,6.5188889]}},{"properties":{"city":"Mu-se","geo_score":0.762,"d":0,"country":"Burma","id":"a6mv70rmqmjb","geo_precision":"zip"},"type":"Feature","geometry":{"type":"Point","coordinates":[-35.73527778,-9.665833333]}},{"properties":{"city":"Victorias","geo_score":0.956,"d":0,"country":"Philippines","id":"a6mv70fohfpa","geo_precision":"zip"},"type":"Feature","geometry":{"type":"Point","coordinates":[123.0777778,10.9]}},{"properties":{"city":"Jolo","geo_score":1.0,"d":0,"country":"Philippines","id":"a6mv70oof3qv","geo_precision":"zip"},"type":"Feature","geometry":{"type":"Point","coordinates":[121.0166667,6.05]}},{"properties":{"city":"Mueang Chiang Mai","geo_score":0.943,"d":0,"country":"Thailand","id":"a6mv70rcnl1e","geo_precision":"zip"},"type":"Feature","geometry":{"type":"Point","coordinates":[98.9816667,18.7902778]}},{"properties":{"city":"Payathonzu","geo_score":0.798,"d":0,"country":"Burma","id":"a6mv70o7q7q4","geo_precision":"zip"},"type":"Feature","geometry":{"type":"Point","coordinates":[96.4694444,17.2713889]}},{"properties":{"city":"Mati","geo_score":1.0,"d":0,"country":"Philippines","id":"a6mv70n751hr","geo_precision":"zip"},"type":"Feature","geometry":{"type":"Point","coordinates":[126.15,6.9166667]}},{"properties":{"city":"Rangae","geo_score":1.0,"d":0,"country":"Thailand","id":"a6mv70nfzm52","geo_precision":"zip"},"type":"Feature","geometry":{"type":"Point","coordinates":[101.7119444,6.2908333]}},{"properties":{"city":"Mulia","geo_score":0.943,"d":0,"country":"Indonesia","id":"a6mv70ii6ijq","geo_precision":"zip"},"type":"Feature","geometry":{"type":"Point","coordinates":[110.5877778,-8.0180556]}},{"properties":{"city":"Titay","geo_score":0.952,"d":0,"country":"Philippines","id":"a6mv70hhmbp2","geo_precision":"zip"},"type":"Feature","geometry":{"type":"Point","coordinates":[121.1325,14.5691667]}},{"properties":{"city":"Monkayo","geo_score":1.0,"d":0,"country":"Philippines","id":"a6mv70hzt3mq","geo_precision":"zip"},"type":"Feature","geometry":{"type":"Point","coordinates":[126.1,7.8666667]}},{"properties":{"city":"San Fernando","geo_score":1.0,"d":0,"country":"Philippines","id":"a6mv70ild6io","geo_precision":"zip"},"type":"Feature","geometry":{"type":"Point","coordinates":[120.6855556,15.0302778]}},{"properties":{"city":"Cajidiocan","geo_score":1.0,"d":0,"country":"Philippines","id":"a6mv70pj52oc","geo_precision":"zip"},"type":"Feature","geometry":{"type":"Point","coordinates":[122.6333333,12.4]}},{"properties":{"city":"Pangutaran","geo_score":1.0,"d":0,"country":"Philippines","id":"a6mv70vpbd56","geo_precision":"zip"},"type":"Feature","geometry":{"type":"Point","coordinates":[120.5833333,6.3]}},{"properties":{"city":"Bangkok","geo_score":1.0,"d":0,"country":"Thailand","id":"a6mv70ir143a","geo_precision":"zip"},"type":"Feature","geometry":{"type":"Point","coordinates":[100.5166667,13.75]}},{"properties":{"city":"Lamitan","geo_score":1.0,"d":0,"country":"Philippines","id":"a6mv70i1ak37","geo_precision":"zip"},"type":"Feature","geometry":{"type":"Point","coordinates":[122.1,6.6333333]}},{"properties":{"city":"Rangae","geo_score":1.0,"d":0,"country":"Thailand","id":"a6mv70lgy42q","geo_precision":"zip"},"type":"Feature","geometry":{"type":"Point","coordinates":[101.7119444,6.2908333]}},{"properties":{"city":"Nong Chik","geo_score":1.0,"d":0,"country":"Thailand","id":"a6mv70jiwl1m","geo_precision":"zip"},"type":"Feature","geometry":{"type":"Point","coordinates":[101.1880556,6.8452778]}},{"properties":{"city":"Carmen","geo_score":0.959,"d":0,"country":"Philippines","id":"a6mv70vm187v","geo_precision":"zip"},"type":"Feature","geometry":{"type":"Point","coordinates":[121.0166667,14.3]}},{"properties":{"city":"Kathmandu","geo_score":1.0,"d":0,"country":"Nepal","id":"a6mv70g8wovy","geo_precision":"zip"},"type":"Feature","geometry":{"type":"Point","coordinates":[85.3166667,27.7166667]}},{"properties":{"city":"Parasi","geo_score":0.952,"d":0,"country":"Nepal","id":"a6mv70nmfbv5","geo_precision":"zip"},"type":"Feature","geometry":{"type":"Point","coordinates":[84.8333333,27.3333333]}},{"properties":{"city":"Santa Josefa","geo_score":0.896,"d":0,"country":"Philippines","id":"a6mv70fz5z98","geo_precision":"zip"},"type":"Feature","geometry":{"type":"Point","coordinates":[120.4833333,17.85]}},{"properties":{"city":"Mueang Pattani","geo_score":0.934,"d":0,"country":"Thailand","id":"a6mv70l3tprw","geo_precision":"zip"},"type":"Feature","geometry":{"type":"Point","coordinates":[101.15,6.7833333]}},{"properties":{"city":"Than To","geo_score":0.905,"d":0,"country":"Thailand","id":"a6mv70pfo0i2","geo_precision":"zip"},"type":"Feature","geometry":{"type":"Point","coordinates":[99.2138889,17.6025]}},{"properties":{"city":"Nam Phong","geo_score":0.911,"d":0,"country":"Thailand","id":"a6mv70oa2ilv","geo_precision":"zip"},"type":"Feature","geometry":{"type":"Point","coordinates":[99.2166667,19.9166667]}},{"properties":{"city":"Khok Pho","geo_score":0.918,"d":0,"country":"Thailand","id":"a6mv70uwynuv","geo_precision":"zip"},"type":"Feature","geometry":{"type":"Point","coordinates":[98.9833333,9.5666667]}},{"properties":{"city":"Boston","geo_score":1.0,"d":0,"country":"Philippines","id":"a6mv70v7ytof","geo_precision":"zip"},"type":"Feature","geometry":{"type":"Point","coordinates":[126.1833333,7.6]}},{"properties":{"city":"Infanta","geo_score":1.0,"d":0,"country":"Philippines","id":"a6mv70fz2au5","geo_precision":"zip"},"type":"Feature","geometry":{"type":"Point","coordinates":[121.6494444,14.7425]}},{"properties":{"city":"Rueso","geo_score":0.971,"d":0,"country":"Thailand","id":"a6mv70vo6mdn","geo_precision":"zip"},"type":"Feature","geometry":{"type":"Point","coordinates":[101.5197222,6.3936111]}},{"properties":{"city":"Bacho","geo_score":1.0,"d":0,"country":"Thailand","id":"a6mv70iczd30","geo_precision":"zip"},"type":"Feature","geometry":{"type":"Point","coordinates":[101.6519444,6.5188889]}},{"properties":{"city":"Birtamod","geo_score":0.0,"d":0,"country":"Nepal","id":"a6mv70r50pmg","geo_precision":"unmatched"},"type":"Feature","geometry":null},{"properties":{"city":"Kathmandu","geo_score":1.0,"d":0,"country":"Nepal","id":"a6mv70nksz38","geo_precision":"zip"},"type":"Feature","geometry":{"type":"Point","coordinates":[85.3166667,27.7166667]}},{"properties":{"city":"Yala","geo_score":1.0,"d":0,"country":"Thailand","id":"a6mv70sfqaaa","geo_precision":"zip"},"type":"Feature","geometry":{"type":"Point","coordinates":[101.2836111,6.5427778]}},{"properties":{"city":"Zamboanga","geo_score":0.956,"d":0,"country":"Philippines","id":"a6mv70l2765t","geo_precision":"zip"},"type":"Feature","geometry":{"type":"Point","coordinates":[122.0666667,6.9]}},{"properties":{"city":"Raman","geo_score":1.0,"d":0,"country":"Thailand","id":"a6mv70nxapti","geo_precision":"zip"},"type":"Feature","geometry":{"type":"Point","coordinates":[101.4225,6.4797222]}},{"properties":{"city":"Yala","geo_score":1.0,"d":0,"country":"Thailand","id":"a6mv70lhmfe9","geo_precision":"zip"},"type":"Feature","geometry":{"type":"Point","coordinates":[101.2836111,6.5427778]}},{"properties":{"city":"Tingginambut","geo_score":0.923,"d":0,"country":"Indonesia","id":"a6mv70nmrwm8","geo_precision":"zip"},"type":"Feature","geometry":{"type":"Point","coordinates":[111.7,-2.2833333]}},{"properties":{"city":"Datu Abdullah Sangki","geo_score":0.881,"d":0,"country":"Philippines","id":"a6mv70r8emav","geo_precision":"zip"},"type":"Feature","geometry":{"type":"Point","coordinates":[121.1325,14.5691667]}},{"properties":{"city":"Uson","geo_score":1.0,"d":0,"country":"Philippines","id":"a6mv70ru11d8","geo_precision":"zip"},"type":"Feature","geometry":{"type":"Point","coordinates":[123.75,12.1833333]}},{"properties":{"city":"Baco","geo_score":0.929,"d":0,"country":"Philippines","id":"a6mv70r2o1h1","geo_precision":"zip"},"type":"Feature","geometry":{"type":"Point","coordinates":[120.5930556,16.4163889]}},{"properties":{"city":"Zamboanga","geo_score":0.956,"d":0,"country":"Philippines","id":"a6mv70g361cf","geo_precision":"zip"},"type":"Feature","geometry":{"type":"Point","coordinates":[122.0666667,6.9]}},{"properties":{"city":"Datu Piang","geo_score":0.889,"d":0,"country":"Philippines","id":"a6mv70v6gjvb","geo_precision":"zip"},"type":"Feature","geometry":{"type":"Point","coordinates":[121.1325,14.5691667]}},{"properties":{"city":"San Kamphaeng","geo_score":0.923,"d":0,"country":"Thailand","id":"a6mv70vthbxn","geo_precision":"zip"},"type":"Feature","geometry":{"type":"Point","coordinates":[99.5,16.4666667]}},{"properties":{"city":"Murkuchi","geo_score":0.0,"d":0,"country":"Nepal","id":"a6mv70rrv0pc","geo_precision":"unmatched"},"type":"Feature","geometry":null},{"properties":{"city":"Capas, Mexico","geo_score":0.935,"d":0,"country":"Philippines","id":"a6mv70toz5eg","geo_precision":"zip"},"type":"Feature","geometry":{"type":"Point","coordinates":[120.6833333,15.1166667]}},{"properties":{"city":"Tago","geo_score":1.0,"d":0,"country":"Philippines","id":"a6mv70fy5zz0","geo_precision":"zip"},"type":"Feature","geometry":{"type":"Point","coordinates":[126.15,8.9666667]}},{"properties":{"city":"Khok Pho","geo_score":0.918,"d":0,"country":"Thailand","id":"a6mv70hx8oq8","geo_precision":"zip"},"type":"Feature","geometry":{"type":"Point","coordinates":[98.9833333,9.5666667]}},{"properties":{"city":"Marawi","geo_score":1.0,"d":0,"country":"Philippines","id":"a6mv70mf915j","geo_precision":"zip"},"type":"Feature","geometry":{"type":"Point","coordinates":[124.2927778,7.9986111]}},{"properties":{"city":"Davao","geo_score":1.0,"d":0,"country":"Philippines","id":"a6mv70ugz9f2","geo_precision":"zip"},"type":"Feature","geometry":{"type":"Point","coordinates":[125.6127778,7.0730556]}},{"properties":{"city":"Mueang Pattani","geo_score":0.934,"d":0,"country":"Thailand","id":"a6mv70jyfljc","geo_precision":"zip"},"type":"Feature","geometry":{"type":"Point","coordinates":[101.15,6.7833333]}},{"properties":{"city":"Mueang Chiang Mai","geo_score":0.943,"d":0,"country":"Thailand","id":"a6mv70li59vi","geo_precision":"zip"},"type":"Feature","geometry":{"type":"Point","coordinates":[98.9816667,18.7902778]}},{"properties":{"city":"Raman","geo_score":1.0,"d":0,"country":"Thailand","id":"a6mv70u5nlb5","geo_precision":"zip"},"type":"Feature","geometry":{"type":"Point","coordinates":[101.4225,6.4797222]}},{"properties":{"city":"Lupon","geo_score":1.0,"d":0,"country":"Philippines","id":"a6mv70gux1tz","geo_precision":"zip"},"type":"Feature","geometry":{"type":"Point","coordinates":[126.1,7.05]}},{"properties":{"city":"Antipolo","geo_score":1.0,"d":0,"country":"Philippines","id":"a6mv70iuawv4","geo_precision":"zip"},"type":"Feature","geometry":{"type":"Point","coordinates":[121.1752778,14.5863889]}},{"properties":{"city":"Bayugan","geo_score":1.0,"d":0,"country":"Philippines","id":"a6mv70n4smq1","geo_precision":"zip"},"type":"Feature","geometry":{"type":"Point","coordinates":[125.8,8.9]}},{"properties":{"city":"Nonthaburi","geo_score":1.0,"d":0,"country":"Thailand","id":"a6mv70oldzu8","geo_precision":"zip"},"type":"Feature","geometry":{"type":"Point","coordinates":[100.51477432251,13.8607471748254]}},{"properties":{"city":"Than To","geo_score":0.905,"d":0,"country":"Thailand","id":"a6mv70kse0oa","geo_precision":"zip"},"type":"Feature","geometry":{"type":"Point","coordinates":[99.2138889,17.6025]}},{"properties":{"city":"None","geo_score":0.914,"d":0,"country":"Bangladesh","id":"a6mv70gsk9xy","geo_precision":"zip"},"type":"Feature","geometry":{"type":"Point","coordinates":[90.1333333,25.15]}},{"properties":{"city":"Bangkok","geo_score":1.0,"d":0,"country":"Thailand","id":"a6mv70l5p7j5","geo_precision":"zip"},"type":"Feature","geometry":{"type":"Point","coordinates":[100.5166667,13.75]}},{"properties":{"city":"Butawal","geo_score":0.98,"d":0,"country":"Nepal","id":"a6mv70u81fov","geo_precision":"zip"},"type":"Feature","geometry":{"type":"Point","coordinates":[83.45,27.7]}},{"properties":{"city":"New Bataan","geo_score":1.0,"d":0,"country":"Philippines","id":"a6mv70pq7yti","geo_precision":"zip"},"type":"Feature","geometry":{"type":"Point","coordinates":[126.6833333,7.6]}},{"properties":{"city":"Bangkok","geo_score":1.0,"d":0,"country":"Thailand","id":"a6mv70lz0rrs","geo_precision":"zip"},"type":"Feature","geometry":{"type":"Point","coordinates":[100.5166667,13.75]}},{"properties":{"city":"Bangkok","geo_score":1.0,"d":0,"country":"Thailand","id":"a6mv70m3yz2v","geo_precision":"zip"},"type":"Feature","geometry":{"type":"Point","coordinates":[100.5166667,13.75]}},{"properties":{"city":"Kabang","geo_score":0.959,"d":0,"country":"Thailand","id":"a6mv70txe851","geo_precision":"zip"},"type":"Feature","geometry":{"type":"Point","coordinates":[97.65,8.6666667]}},{"properties":{"city":"None","geo_score":0.929,"d":0,"country":"Thailand","id":"a6mv70psta0f","geo_precision":"zip"},"type":"Feature","geometry":{"type":"Point","coordinates":[100.7833333,18.7833333]}},{"properties":{"city":"Sai Buri","geo_score":1.0,"d":0,"country":"Thailand","id":"a6mv70fsb81y","geo_precision":"zip"},"type":"Feature","geometry":{"type":"Point","coordinates":[101.6202778,6.7030556]}},{"properties":{"city":"None","geo_score":0.929,"d":0,"country":"Thailand","id":"a6mv70ge2fsf","geo_precision":"zip"},"type":"Feature","geometry":{"type":"Point","coordinates":[100.7833333,18.7833333]}},{"properties":{"city":"Mueang Yala","geo_score":0.914,"d":0,"country":"Thailand","id":"a6mv70hc30iq","geo_precision":"zip"},"type":"Feature","geometry":{"type":"Point","coordinates":[101.2836111,6.5427778]}},{"properties":{"city":"Yala","geo_score":1.0,"d":0,"country":"Thailand","id":"a6mv70h73e9w","geo_precision":"zip"},"type":"Feature","geometry":{"type":"Point","coordinates":[101.2836111,6.5427778]}},{"properties":{"city":"Bangkok","geo_score":1.0,"d":0,"country":"Thailand","id":"a6mv70j7w63r","geo_precision":"zip"},"type":"Feature","geometry":{"type":"Point","coordinates":[100.5166667,13.75]}},{"properties":{"city":"Rueso","geo_score":0.971,"d":0,"country":"Thailand","id":"a6mv70oft93v","geo_precision":"zip"},"type":"Feature","geometry":{"type":"Point","coordinates":[101.5197222,6.3936111]}},{"properties":{"city":"Sai Buri","geo_score":1.0,"d":0,"country":"Thailand","id":"a6mv70pliso6","geo_precision":"zip"},"type":"Feature","geometry":{"type":"Point","coordinates":[101.6202778,6.7030556]}},{"properties":{"city":"San Andres","geo_score":0.905,"d":0,"country":"Philippines","id":"a6mv70gki1qv","geo_precision":"zip"},"type":"Feature","geometry":{"type":"Point","coordinates":[123.4833333,13.55]}},{"properties":{"city":"Thaton","geo_score":0.857,"d":0,"country":"Burma","id":"a6mv70rcqy1i","geo_precision":"zip"},"type":"Feature","geometry":{"type":"Point","coordinates":[97.3713889,16.9205556]}},{"properties":{"city":"Bacho","geo_score":1.0,"d":0,"country":"Thailand","id":"a6mv70r0kphx","geo_precision":"zip"},"type":"Feature","geometry":{"type":"Point","coordinates":[101.6519444,6.5188889]}},{"properties":{"city":"Bangkok","geo_score":1.0,"d":0,"country":"Thailand","id":"a6mv70qw6s34","geo_precision":"zip"},"type":"Feature","geometry":{"type":"Point","coordinates":[100.5166667,13.75]}},{"properties":{"city":"Khok Pho","geo_score":0.918,"d":0,"country":"Thailand","id":"a6mv70kxfezg","geo_precision":"zip"},"type":"Feature","geometry":{"type":"Point","coordinates":[98.9833333,9.5666667]}},{"properties":{"city":"Bangkok","geo_score":1.0,"d":0,"country":"Thailand","id":"a6mv70gqhr88","geo_precision":"zip"},"type":"Feature","geometry":{"type":"Point","coordinates":[100.5166667,13.75]}},{"properties":{"city":"Rueso","geo_score":0.971,"d":0,"country":"Thailand","id":"a6mv70qdgr5a","geo_precision":"zip"},"type":"Feature","geometry":{"type":"Point","coordinates":[101.5197222,6.3936111]}},{"properties":{"city":"Shariff Aguak","geo_score":0.905,"d":0,"country":"Philippines","id":"a6mv70ivndbw","geo_precision":"zip"},"type":"Feature","geometry":{"type":"Point","coordinates":[120.5833333,18.5]}},{"properties":{"city":"Bangkok","geo_score":1.0,"d":0,"country":"Thailand","id":"a6mv70q1lnqb","geo_precision":"zip"},"type":"Feature","geometry":{"type":"Point","coordinates":[100.5166667,13.75]}},{"properties":{"city":"Mueang Pattani","geo_score":0.934,"d":0,"country":"Thailand","id":"a6mv70rcvck8","geo_precision":"zip"},"type":"Feature","geometry":{"type":"Point","coordinates":[101.15,6.7833333]}},{"properties":{"city":"Yaha","geo_score":1.0,"d":0,"country":"Thailand","id":"a6mv70sbfhxb","geo_precision":"zip"},"type":"Feature","geometry":{"type":"Point","coordinates":[101.135,6.4777778]}},{"properties":{"city":"Bacho","geo_score":1.0,"d":0,"country":"Thailand","id":"a6mv70p39pfu","geo_precision":"zip"},"type":"Feature","geometry":{"type":"Point","coordinates":[101.6519444,6.5188889]}},{"properties":{"city":"Sangkhla Buri","geo_score":0.893,"d":0,"country":"Thailand","id":"a6mv70krn2jr","geo_precision":"zip"},"type":"Feature","geometry":{"type":"Point","coordinates":[102.5333333,12.55]}},{"properties":{"city":"Bago","geo_score":0.786,"d":0,"country":"Burma","id":"a6mv70p2x9wf","geo_precision":"zip"},"type":"Feature","geometry":{"type":"Point","coordinates":[49.8822222,40.3952778]}},{"properties":{"city":"Burgos","geo_score":1.0,"d":0,"country":"Philippines","id":"a6mv70nqwfk2","geo_precision":"zip"},"type":"Feature","geometry":{"type":"Point","coordinates":[120.5833333,15.7333333]}},{"properties":{"city":"Thung Yang Daeng","geo_score":1.0,"d":0,"country":"Thailand","id":"a6mv70hf5qpn","geo_precision":"zip"},"type":"Feature","geometry":{"type":"Point","coordinates":[101.3311111,6.6411111]}},{"properties":{"city":"Tak Bai","geo_score":0.929,"d":0,"country":"Thailand","id":"a6mv70mcl1cs","geo_precision":"zip"},"type":"Feature","geometry":{"type":"Point","coordinates":[99.1333333,16.8666667]}},{"properties":{"city":"Mobo","geo_score":1.0,"d":0,"country":"Philippines","id":"a6mv70iy9jr2","geo_precision":"zip"},"type":"Feature","geometry":{"type":"Point","coordinates":[123.6666667,12.2833333]}},{"properties":{"city":"None","geo_score":0.768,"d":0,"country":"Burma","id":"a6mv70mziagv","geo_precision":"zip"},"type":"Feature","geometry":{"type":"Point","coordinates":[23.75,38.0333333]}},{"properties":{"city":"Raman","geo_score":1.0,"d":0,"country":"Thailand","id":"a6mv70v1bki1","geo_precision":"zip"},"type":"Feature","geometry":{"type":"Point","coordinates":[101.4225,6.4797222]}},{"properties":{"city":"Mae Rim","geo_score":0.952,"d":0,"country":"Thailand","id":"a6mv70re7vmp","geo_precision":"zip"},"type":"Feature","geometry":{"type":"Point","coordinates":[99.3166667,20.0333333]}},{"properties":{"city":"Yarang","geo_score":0.976,"d":0,"country":"Thailand","id":"a6mv70shcakv","geo_precision":"zip"},"type":"Feature","geometry":{"type":"Point","coordinates":[101.365,6.8616667]}},{"properties":{"city":"Bangkok","geo_score":1.0,"d":0,"country":"Thailand","id":"a6mv70mu2oep","geo_precision":"zip"},"type":"Feature","geometry":{"type":"Point","coordinates":[100.5166667,13.75]}},{"properties":{"city":"Balaoan","geo_score":0.959,"d":0,"country":"Philippines","id":"a6mv70s1pmhq","geo_precision":"zip"},"type":"Feature","geometry":{"type":"Point","coordinates":[120.6672222,15.0883333]}},{"properties":{"city":"Chana","geo_score":0.943,"d":0,"country":"Thailand","id":"a6mv70r5lzrn","geo_precision":"zip"},"type":"Feature","geometry":{"type":"Point","coordinates":[100.1333333,19.3333333]}},{"properties":{"city":"Panare","geo_score":1.0,"d":0,"country":"Thailand","id":"a6mv70l6wfal","geo_precision":"zip"},"type":"Feature","geometry":{"type":"Point","coordinates":[101.4902778,6.86]}},{"properties":{"city":"Mabini","geo_score":0.959,"d":0,"country":"Philippines","id":"a6mv70sg5hdf","geo_precision":"zip"},"type":"Feature","geometry":{"type":"Point","coordinates":[122.8833333,9.7]}},{"properties":{"city":"Birgunj","geo_score":0.98,"d":0,"country":"Nepal","id":"a6mv70u8ssbo","geo_precision":"zip"},"type":"Feature","geometry":{"type":"Point","coordinates":[84.8666667,27.0]}},{"properties":{"city":"Rosario","geo_score":1.0,"d":0,"country":"Philippines","id":"a6mv70r9kljz","geo_precision":"zip"},"type":"Feature","geometry":{"type":"Point","coordinates":[122.2833333,13.85]}},{"properties":{"city":"Lam Luk Ka","geo_score":0.875,"d":0,"country":"Thailand","id":"a6mv70q00ifz","geo_precision":"zip"},"type":"Feature","geometry":{"type":"Point","coordinates":[99.795,6.7091667]}},{"properties":{"city":"Dailekh","geo_score":1.0,"d":0,"country":"Nepal","id":"a6mv70lrf6w7","geo_precision":"zip"},"type":"Feature","geometry":{"type":"Point","coordinates":[81.6666667,28.8333333]}},{"properties":{"city":"Mueang Pattani","geo_score":0.934,"d":0,"country":"Thailand","id":"a6mv70moemum","geo_precision":"zip"},"type":"Feature","geometry":{"type":"Point","coordinates":[101.15,6.7833333]}},{"properties":{"city":"Baliangao","geo_score":0.968,"d":0,"country":"Philippines","id":"a6mv70qmkfjg","geo_precision":"zip"},"type":"Feature","geometry":{"type":"Point","coordinates":[120.45,14.7166667]}},{"properties":{"city":"Parang","geo_score":1.0,"d":0,"country":"Philippines","id":"a6mv70uh4tqc","geo_precision":"zip"},"type":"Feature","geometry":{"type":"Point","coordinates":[124.2672222,7.3711111]}},{"properties":{"city":"Columbio","geo_score":0.929,"d":0,"country":"Philippines","id":"a6mv70o2qpr3","geo_precision":"zip"},"type":"Feature","geometry":{"type":"Point","coordinates":[121.1652778,14.2116667]}},{"properties":{"city":"None","geo_score":0.929,"d":0,"country":"Thailand","id":"a6mv70nbzeyr","geo_precision":"zip"},"type":"Feature","geometry":{"type":"Point","coordinates":[100.7833333,18.7833333]}},{"properties":{"city":"Mae Rim","geo_score":0.952,"d":0,"country":"Thailand","id":"a6mv70ppffva","geo_precision":"zip"},"type":"Feature","geometry":{"type":"Point","coordinates":[99.3166667,20.0333333]}},{"properties":{"city":"Magsaysay","geo_score":1.0,"d":0,"country":"Philippines","id":"a6mv70ksnx21","geo_precision":"zip"},"type":"Feature","geometry":{"type":"Point","coordinates":[121.7333333,17.2666667]}},{"properties":{"city":"Carmen","geo_score":0.959,"d":0,"country":"Philippines","id":"a6mv70l6y4di","geo_precision":"zip"},"type":"Feature","geometry":{"type":"Point","coordinates":[121.0166667,14.3]}},{"properties":{"city":"Lamitan","geo_score":1.0,"d":0,"country":"Philippines","id":"a6mv70uxpk7n","geo_precision":"zip"},"type":"Feature","geometry":{"type":"Point","coordinates":[122.1,6.6333333]}},{"properties":{"city":"Than To","geo_score":0.905,"d":0,"country":"Thailand","id":"a6mv70l4kawf","geo_precision":"zip"},"type":"Feature","geometry":{"type":"Point","coordinates":[99.2138889,17.6025]}},{"properties":{"city":"Rangae","geo_score":1.0,"d":0,"country":"Thailand","id":"a6mv70qe2lyu","geo_precision":"zip"},"type":"Feature","geometry":{"type":"Point","coordinates":[101.7119444,6.2908333]}},{"properties":{"city":"Mayo","geo_score":1.0,"d":0,"country":"Thailand","id":"a6mv70jlzw0j","geo_precision":"zip"},"type":"Feature","geometry":{"type":"Point","coordinates":[101.4127778,6.7133333]}},{"properties":{"city":"Rangae","geo_score":1.0,"d":0,"country":"Thailand","id":"a6mv70sj3l9j","geo_precision":"zip"},"type":"Feature","geometry":{"type":"Point","coordinates":[101.7119444,6.2908333]}},{"properties":{"city":"Lebak","geo_score":1.0,"d":0,"country":"Philippines","id":"a6mv70vl58bg","geo_precision":"zip"},"type":"Feature","geometry":{"type":"Point","coordinates":[124.15,6.6833333]}},{"properties":{"city":"Bangkok","geo_score":1.0,"d":0,"country":"Thailand","id":"a6mv70lcuhn5","geo_precision":"zip"},"type":"Feature","geometry":{"type":"Point","coordinates":[100.5166667,13.75]}},{"properties":{"city":"Chiang Mai","geo_score":1.0,"d":0,"country":"Thailand","id":"a6mv70jvsjov","geo_precision":"zip"},"type":"Feature","geometry":{"type":"Point","coordinates":[98.9816667,18.7902778]}},{"properties":{"city":"Datu Unsay","geo_score":0.905,"d":0,"country":"Philippines","id":"a6mv70mn9lu6","geo_precision":"zip"},"type":"Feature","geometry":{"type":"Point","coordinates":[121.1325,14.5691667]}},{"properties":{"city":"Loikaw","geo_score":0.762,"d":0,"country":"Burma","id":"a6mv70pc3enz","geo_precision":"zip"},"type":"Feature","geometry":{"type":"Point","coordinates":[120.5936111,18.1988889]}},{"properties":{"city":"Than To","geo_score":0.905,"d":0,"country":"Thailand","id":"a6mv70jz6l8a","geo_precision":"zip"},"type":"Feature","geometry":{"type":"Point","coordinates":[99.2138889,17.6025]}},{"properties":{"city":"Mueang Sukhothai","geo_score":0.943,"d":0,"country":"Thailand","id":"a6mv70sw0em8","geo_precision":"zip"},"type":"Feature","geometry":{"type":"Point","coordinates":[99.8233333,17.0063889]}},{"properties":{"city":"Mulia","geo_score":0.943,"d":0,"country":"Indonesia","id":"a6mv70fluvzj","geo_precision":"zip"},"type":"Feature","geometry":{"type":"Point","coordinates":[110.5877778,-8.0180556]}},{"properties":{"city":"Thung Yang Daeng","geo_score":1.0,"d":0,"country":"Thailand","id":"a6mv70v1kqsq","geo_precision":"zip"},"type":"Feature","geometry":{"type":"Point","coordinates":[101.3311111,6.6411111]}},{"properties":{"city":"Bacho","geo_score":1.0,"d":0,"country":"Thailand","id":"a6mv70s1byzz","geo_precision":"zip"},"type":"Feature","geometry":{"type":"Point","coordinates":[101.6519444,6.5188889]}},{"properties":{"city":"Rueso","geo_score":0.971,"d":0,"country":"Thailand","id":"a6mv70u9iw11","geo_precision":"zip"},"type":"Feature","geometry":{"type":"Point","coordinates":[101.5197222,6.3936111]}},{"properties":{"city":"Si Sakhon","geo_score":0.893,"d":0,"country":"Thailand","id":"a6mv70l5xzsk","geo_precision":"zip"},"type":"Feature","geometry":{"type":"Point","coordinates":[100.7333333,18.5666667]}},{"properties":{"city":"Si Sakhon","geo_score":0.893,"d":0,"country":"Thailand","id":"a6mv70p9kgg0","geo_precision":"zip"},"type":"Feature","geometry":{"type":"Point","coordinates":[100.7333333,18.5666667]}},{"properties":{"city":"Palu","geo_score":1.0,"d":0,"country":"Indonesia","id":"a6mv70uths8g","geo_precision":"zip"},"type":"Feature","geometry":{"type":"Point","coordinates":[119.8597222,-0.9016667]}},{"properties":{"city":"None","geo_score":0.929,"d":0,"country":"Thailand","id":"a6mv70ofdjmm","geo_precision":"zip"},"type":"Feature","geometry":{"type":"Point","coordinates":[100.7833333,18.7833333]}},{"properties":{"city":"Balud","geo_score":1.0,"d":0,"country":"Philippines","id":"a6mv70hfhqul","geo_precision":"zip"},"type":"Feature","geometry":{"type":"Point","coordinates":[123.2166667,12.0333333]}},{"properties":{"city":"Bangkok","geo_score":1.0,"d":0,"country":"Thailand","id":"a6mv70k139ge","geo_precision":"zip"},"type":"Feature","geometry":{"type":"Point","coordinates":[100.5166667,13.75]}},{"properties":{"city":"Davao","geo_score":1.0,"d":0,"country":"Philippines","id":"a6mv70to0gin","geo_precision":"zip"},"type":"Feature","geometry":{"type":"Point","coordinates":[125.6127778,7.0730556]}},{"properties":{"city":"Rangae","geo_score":1.0,"d":0,"country":"Thailand","id":"a6mv70loz7wn","geo_precision":"zip"},"type":"Feature","geometry":{"type":"Point","coordinates":[101.7119444,6.2908333]}},{"properties":{"city":"Ipil","geo_score":1.0,"d":0,"country":"Philippines","id":"a6mv70lvrsys","geo_precision":"zip"},"type":"Feature","geometry":{"type":"Point","coordinates":[122.5166667,7.75]}},{"properties":{"city":"Bangkok","geo_score":1.0,"d":0,"country":"Thailand","id":"a6mv70n66ygy","geo_precision":"zip"},"type":"Feature","geometry":{"type":"Point","coordinates":[100.5166667,13.75]}},{"properties":{"city":"Talacogon","geo_score":1.0,"d":0,"country":"Philippines","id":"a6mv70nnhseh","geo_precision":"zip"},"type":"Feature","geometry":{"type":"Point","coordinates":[125.8,8.4166667]}},{"properties":{"city":"Nam Phong","geo_score":0.911,"d":0,"country":"Thailand","id":"a6mv70fl1nbs","geo_precision":"zip"},"type":"Feature","geometry":{"type":"Point","coordinates":[99.2166667,19.9166667]}},{"properties":{"city":"Gonzaga","geo_score":1.0,"d":0,"country":"Philippines","id":"a6mv70pm36kz","geo_precision":"zip"},"type":"Feature","geometry":{"type":"Point","coordinates":[122.1166667,18.2833333]}},{"properties":{"city":"Tagbina","geo_score":0.929,"d":0,"country":"Philippines","id":"a6mv70n6wd8d","geo_precision":"zip"},"type":"Feature","geometry":{"type":"Point","coordinates":[122.3833333,10.7166667]}},{"properties":{"city":"Ungkaya Pukan","geo_score":0.893,"d":0,"country":"Philippines","id":"a6mv70o0osec","geo_precision":"zip"},"type":"Feature","geometry":{"type":"Point","coordinates":[120.1333333,13.8166667]}},{"properties":{"city":"Krong Pinang","geo_score":0.909,"d":0,"country":"Thailand","id":"a6mv70sm4fik","geo_precision":"zip"},"type":"Feature","geometry":{"type":"Point","coordinates":[98.7833333,8.0333333]}},{"properties":{"city":"Patikul","geo_score":1.0,"d":0,"country":"Philippines","id":"a6mv70i2pp1a","geo_precision":"zip"},"type":"Feature","geometry":{"type":"Point","coordinates":[121.1,6.0666667]}},{"properties":{"city":"Poona Piagapo","geo_score":0.893,"d":0,"country":"Philippines","id":"a6mv70h9zqo6","geo_precision":"zip"},"type":"Feature","geometry":{"type":"Point","coordinates":[122.8172222,11.5305556]}},{"properties":{"city":"Esperanza","geo_score":1.0,"d":0,"country":"Philippines","id":"a6mv70g29jb1","geo_precision":"zip"},"type":"Feature","geometry":{"type":"Point","coordinates":[125.6469444,8.6769444]}},{"properties":{"city":"Bangkok","geo_score":1.0,"d":0,"country":"Thailand","id":"a6mv70il07x2","geo_precision":"zip"},"type":"Feature","geometry":{"type":"Point","coordinates":[100.5166667,13.75]}},{"properties":{"city":"None","geo_score":0.929,"d":0,"country":"Thailand","id":"a6mv70usqh29","geo_precision":"zip"},"type":"Feature","geometry":{"type":"Point","coordinates":[100.7833333,18.7833333]}},{"properties":{"city":"Pikit","geo_score":1.0,"d":0,"country":"Philippines","id":"a6mv70fv8zus","geo_precision":"zip"},"type":"Feature","geometry":{"type":"Point","coordinates":[124.6333333,7.1]}},{"properties":{"city":"None","geo_score":0.929,"d":0,"country":"Thailand","id":"a6mv70vu11j7","geo_precision":"zip"},"type":"Feature","geometry":{"type":"Point","coordinates":[100.7833333,18.7833333]}},{"properties":{"city":"Bacho","geo_score":1.0,"d":0,"country":"Thailand","id":"a6mv70pq5ay4","geo_precision":"zip"},"type":"Feature","geometry":{"type":"Point","coordinates":[101.6519444,6.5188889]}},{"properties":{"city":"None","geo_score":0.929,"d":0,"country":"Thailand","id":"a6mv70nnug0s","geo_precision":"zip"},"type":"Feature","geometry":{"type":"Point","coordinates":[100.7833333,18.7833333]}},{"properties":{"city":"Malimono","geo_score":1.0,"d":0,"country":"Philippines","id":"a6mv70nb60x1","geo_precision":"zip"},"type":"Feature","geometry":{"type":"Point","coordinates":[125.4166667,9.6166667]}},{"properties":{"city":"Bangkok","geo_score":1.0,"d":0,"country":"Thailand","id":"a6mv70r4evds","geo_precision":"zip"},"type":"Feature","geometry":{"type":"Point","coordinates":[100.5166667,13.75]}},{"properties":{"city":"Hpa-an","geo_score":0.762,"d":0,"country":"Burma","id":"a6mv70ovgo55","geo_precision":"zip"},"type":"Feature","geometry":{"type":"Point","coordinates":[122.8875,11.4141667]}},{"properties":{"city":"Titay","geo_score":0.952,"d":0,"country":"Philippines","id":"a6mv70flk9q4","geo_precision":"zip"},"type":"Feature","geometry":{"type":"Point","coordinates":[121.1325,14.5691667]}},{"properties":{"city":"Maramag","geo_score":1.0,"d":0,"country":"Philippines","id":"a6mv70srz0le","geo_precision":"zip"},"type":"Feature","geometry":{"type":"Point","coordinates":[124.95,7.8166667]}},{"properties":{"city":"Pontevedra","geo_score":1.0,"d":0,"country":"Philippines","id":"a6mv70h860em","geo_precision":"zip"},"type":"Feature","geometry":{"type":"Point","coordinates":[122.8675,10.3716667]}},{"properties":{"city":"Sultan sa Barongis","geo_score":1.0,"d":0,"country":"Philippines","id":"a6mv70r23mqv","geo_precision":"zip"},"type":"Feature","geometry":{"type":"Point","coordinates":[124.6333333,6.9333333]}},{"properties":{"city":"Pantukan","geo_score":1.0,"d":0,"country":"Philippines","id":"a6mv70gnpl9e","geo_precision":"zip"},"type":"Feature","geometry":{"type":"Point","coordinates":[125.95,7.15]}},{"properties":{"city":"Narathiwat","geo_score":1.0,"d":0,"country":"Thailand","id":"a6mv70naph4w","geo_precision":"zip"},"type":"Feature","geometry":{"type":"Point","coordinates":[101.8236111,6.4244444]}},{"properties":{"city":"Bislig","geo_score":1.0,"d":0,"country":"Philippines","id":"a6mv70rj3jmk","geo_precision":"zip"},"type":"Feature","geometry":{"type":"Point","coordinates":[126.2833333,8.2166667]}},{"properties":{"city":"Bangkok","geo_score":1.0,"d":0,"country":"Thailand","id":"a6mv70fw1j9e","geo_precision":"zip"},"type":"Feature","geometry":{"type":"Point","coordinates":[100.5166667,13.75]}},{"properties":{"city":"Gaur","geo_score":1.0,"d":0,"country":"Nepal","id":"a6mv70j09s2w","geo_precision":"zip"},"type":"Feature","geometry":{"type":"Point","coordinates":[85.2666667,26.7666667]}},{"properties":{"city":"Mueang Pattani","geo_score":0.934,"d":0,"country":"Thailand","id":"a6mv70nm51g8","geo_precision":"zip"},"type":"Feature","geometry":{"type":"Point","coordinates":[101.15,6.7833333]}},{"properties":{"city":"San Andres","geo_score":0.905,"d":0,"country":"Philippines","id":"a6mv70rnzlxw","geo_precision":"zip"},"type":"Feature","geometry":{"type":"Point","coordinates":[123.4833333,13.55]}},{"properties":{"city":"Than To","geo_score":0.905,"d":0,"country":"Thailand","id":"a6mv70rua65u","geo_precision":"zip"},"type":"Feature","geometry":{"type":"Point","coordinates":[99.2138889,17.6025]}},{"properties":{"city":"None","geo_score":0.929,"d":0,"country":"Thailand","id":"a6mv70sb0zoy","geo_precision":"zip"},"type":"Feature","geometry":{"type":"Point","coordinates":[100.7833333,18.7833333]}},{"properties":{"city":"Malapatan","geo_score":1.0,"d":0,"country":"Philippines","id":"a6mv70pdf6ul","geo_precision":"zip"},"type":"Feature","geometry":{"type":"Point","coordinates":[125.4,6.0]}},{"properties":{"city":"Nong Chik","geo_score":1.0,"d":0,"country":"Thailand","id":"a6mv70lft1df","geo_precision":"zip"},"type":"Feature","geometry":{"type":"Point","coordinates":[101.1880556,6.8452778]}},{"properties":{"city":"Bangkok","geo_score":1.0,"d":0,"country":"Thailand","id":"a6mv70maazf3","geo_precision":"zip"},"type":"Feature","geometry":{"type":"Point","coordinates":[100.5166667,13.75]}},{"properties":{"city":"Roxas","geo_score":1.0,"d":0,"country":"Philippines","id":"a6mv70kgaql5","geo_precision":"zip"},"type":"Feature","geometry":{"type":"Point","coordinates":[121.6197222,17.1205556]}},{"properties":{"city":"Mueang Pattani","geo_score":0.934,"d":0,"country":"Thailand","id":"a6mv70qroksr","geo_precision":"zip"},"type":"Feature","geometry":{"type":"Point","coordinates":[101.15,6.7833333]}},{"properties":{"city":"Bacho","geo_score":1.0,"d":0,"country":"Thailand","id":"a6mv70pv0eh0","geo_precision":"zip"},"type":"Feature","geometry":{"type":"Point","coordinates":[101.6519444,6.5188889]}},{"properties":{"city":"Krong Pinang","geo_score":0.909,"d":0,"country":"Thailand","id":"a6mv70vjweyv","geo_precision":"zip"},"type":"Feature","geometry":{"type":"Point","coordinates":[98.7833333,8.0333333]}},{"properties":{"city":"Datu Odin Sinsuat","geo_score":0.876,"d":0,"country":"Philippines","id":"a6mv70nr11dd","geo_precision":"zip"},"type":"Feature","geometry":{"type":"Point","coordinates":[121.1325,14.5691667]}},{"properties":{"city":"Bacho","geo_score":1.0,"d":0,"country":"Thailand","id":"a6mv70jet83x","geo_precision":"zip"},"type":"Feature","geometry":{"type":"Point","coordinates":[101.6519444,6.5188889]}},{"properties":{"city":"Goidhi","geo_score":0.0,"d":0,"country":"Nepal","id":"a6mv70slii46","geo_precision":"unmatched"},"type":"Feature","geometry":null},{"properties":{"city":"Yingo","geo_score":1.0,"d":0,"country":"Thailand","id":"a6mv70uprr73","geo_precision":"zip"},"type":"Feature","geometry":{"type":"Point","coordinates":[101.7086111,6.4002778]}},{"properties":{"city":"Lamitan","geo_score":1.0,"d":0,"country":"Philippines","id":"a6mv70fw2xxi","geo_precision":"zip"},"type":"Feature","geometry":{"type":"Point","coordinates":[122.1,6.6333333]}},{"properties":{"city":"Chanae","geo_score":0.929,"d":0,"country":"Thailand","id":"a6mv70tqx73p","geo_precision":"zip"},"type":"Feature","geometry":{"type":"Point","coordinates":[100.1333333,19.3333333]}},{"properties":{"city":"Bangkok","geo_score":1.0,"d":0,"country":"Thailand","id":"a6mv70sb6kmn","geo_precision":"zip"},"type":"Feature","geometry":{"type":"Point","coordinates":[100.5166667,13.75]}},{"properties":{"city":"Zamboanga","geo_score":0.956,"d":0,"country":"Philippines","id":"a6mv70u0px8i","geo_precision":"zip"},"type":"Feature","geometry":{"type":"Point","coordinates":[122.0666667,6.9]}},{"properties":{"city":"Labo","geo_score":0.943,"d":0,"country":"Philippines","id":"a6mv70fwbnka","geo_precision":"zip"},"type":"Feature","geometry":{"type":"Point","coordinates":[120.55,14.9166667]}},{"properties":{"city":"Raman","geo_score":1.0,"d":0,"country":"Thailand","id":"a6mv70ky5yr5","geo_precision":"zip"},"type":"Feature","geometry":{"type":"Point","coordinates":[101.4225,6.4797222]}},{"properties":{"city":"Khok Pho","geo_score":0.918,"d":0,"country":"Thailand","id":"a6mv70tk93u9","geo_precision":"zip"},"type":"Feature","geometry":{"type":"Point","coordinates":[98.9833333,9.5666667]}},{"properties":{"city":"None","geo_score":0.929,"d":0,"country":"Thailand","id":"a6mv70v3n397","geo_precision":"zip"},"type":"Feature","geometry":{"type":"Point","coordinates":[100.7833333,18.7833333]}},{"properties":{"city":"Bangkok","geo_score":1.0,"d":0,"country":"Thailand","id":"a6mv70lw63zq","geo_precision":"zip"},"type":"Feature","geometry":{"type":"Point","coordinates":[100.5166667,13.75]}},{"properties":{"city":"Zamboanga","geo_score":0.956,"d":0,"country":"Philippines","id":"a6mv70o2kyxs","geo_precision":"zip"},"type":"Feature","geometry":{"type":"Point","coordinates":[122.0666667,6.9]}},{"properties":{"city":"Udon Thani","geo_score":1.0,"d":0,"country":"Thailand","id":"a6mv70h28vuw","geo_precision":"zip"},"type":"Feature","geometry":{"type":"Point","coordinates":[102.7930556,17.4075]}},{"properties":{"city":"Malapatan","geo_score":1.0,"d":0,"country":"Philippines","id":"a6mv70tzhypb","geo_precision":"zip"},"type":"Feature","geometry":{"type":"Point","coordinates":[125.4,6.0]}},{"properties":{"city":"Tak Bai","geo_score":0.929,"d":0,"country":"Thailand","id":"a6mv70ib2dii","geo_precision":"zip"},"type":"Feature","geometry":{"type":"Point","coordinates":[99.1333333,16.8666667]}},{"properties":{"city":"Trento","geo_score":1.0,"d":0,"country":"Philippines","id":"a6mv70rdgiqk","geo_precision":"zip"},"type":"Feature","geometry":{"type":"Point","coordinates":[126.1333333,8.05]}},{"properties":{"city":"Talavera","geo_score":1.0,"d":0,"country":"Philippines","id":"a6mv70u5v1dj","geo_precision":"zip"},"type":"Feature","geometry":{"type":"Point","coordinates":[120.9333333,15.6166667]}},{"properties":{"city":"Bangkok","geo_score":1.0,"d":0,"country":"Thailand","id":"a6mv70mjx0sx","geo_precision":"zip"},"type":"Feature","geometry":{"type":"Point","coordinates":[100.5166667,13.75]}},{"properties":{"city":"Ban Laem","geo_score":0.939,"d":0,"country":"Thailand","id":"a6mv70mc7vao","geo_precision":"zip"},"type":"Feature","geometry":{"type":"Point","coordinates":[99.7525,17.0305556]}},{"properties":{"city":"Datu Piang","geo_score":0.889,"d":0,"country":"Philippines","id":"a6mv70kqi2c9","geo_precision":"zip"},"type":"Feature","geometry":{"type":"Point","coordinates":[121.1325,14.5691667]}},{"properties":{"city":"Khok Pho","geo_score":0.918,"d":0,"country":"Thailand","id":"a6mv70l7005i","geo_precision":"zip"},"type":"Feature","geometry":{"type":"Point","coordinates":[98.9833333,9.5666667]}},{"properties":{"city":"Talacogon","geo_score":1.0,"d":0,"country":"Philippines","id":"a6mv70tz1sly","geo_precision":"zip"},"type":"Feature","geometry":{"type":"Point","coordinates":[125.8,8.4166667]}},{"properties":{"city":"Zamboanga","geo_score":0.956,"d":0,"country":"Philippines","id":"a6mv70ligtfn","geo_precision":"zip"},"type":"Feature","geometry":{"type":"Point","coordinates":[122.0666667,6.9]}},{"properties":{"city":"Kyaukkyi","geo_score":0.75,"d":0,"country":"Burma","id":"a6mv70ojd5gw","geo_precision":"zip"},"type":"Feature","geometry":{"type":"Point","coordinates":[-65.25,-17.8833333]}},{"properties":{"city":"Datu Hoffer Ampatuan","geo_score":0.889,"d":0,"country":"Philippines","id":"a6mv70mzoc8z","geo_precision":"zip"},"type":"Feature","geometry":{"type":"Point","coordinates":[121.1325,14.5691667]}},{"properties":{"city":"Chom Thong","geo_score":0.889,"d":0,"country":"Thailand","id":"a6mv70lxg96d","geo_precision":"zip"},"type":"Feature","geometry":{"type":"Point","coordinates":[99.9666667,12.8]}},{"properties":{"city":"Santa Maria","geo_score":0.914,"d":0,"country":"Philippines","id":"a6mv70tywwl0","geo_precision":"zip"},"type":"Feature","geometry":{"type":"Point","coordinates":[120.4833333,17.85]}},{"properties":{"city":"Echague","geo_score":1.0,"d":0,"country":"Philippines","id":"a6mv70nfogmf","geo_precision":"zip"},"type":"Feature","geometry":{"type":"Point","coordinates":[121.8333333,16.6333333]}},{"properties":{"city":"Parang","geo_score":1.0,"d":0,"country":"Philippines","id":"a6mv70i78hbv","geo_precision":"zip"},"type":"Feature","geometry":{"type":"Point","coordinates":[124.2672222,7.3711111]}},{"properties":{"city":"Mueang Yala","geo_score":0.914,"d":0,"country":"Thailand","id":"a6mv70va8v4h","geo_precision":"zip"},"type":"Feature","geometry":{"type":"Point","coordinates":[101.2836111,6.5427778]}},{"properties":{"city":"Si Sakhon","geo_score":0.893,"d":0,"country":"Thailand","id":"a6mv70o41zgs","geo_precision":"zip"},"type":"Feature","geometry":{"type":"Point","coordinates":[100.7333333,18.5666667]}},{"properties":{"city":"Rangae","geo_score":1.0,"d":0,"country":"Thailand","id":"a6mv70gmsa5w","geo_precision":"zip"},"type":"Feature","geometry":{"type":"Point","coordinates":[101.7119444,6.2908333]}},{"properties":{"city":"Rueso","geo_score":0.971,"d":0,"country":"Thailand","id":"a6mv70rp3f91","geo_precision":"zip"},"type":"Feature","geometry":{"type":"Point","coordinates":[101.5197222,6.3936111]}},{"properties":{"city":"Prosperidad","geo_score":1.0,"d":0,"country":"Philippines","id":"a6mv70qsrx47","geo_precision":"zip"},"type":"Feature","geometry":{"type":"Point","coordinates":[125.8666667,8.4166667]}},{"properties":{"city":"Datu Montawal","geo_score":0.893,"d":0,"country":"Philippines","id":"a6mv70ftf2cm","geo_precision":"zip"},"type":"Feature","geometry":{"type":"Point","coordinates":[121.1325,14.5691667]}},{"properties":{"city":"Kalaiya","geo_score":1.0,"d":0,"country":"Nepal","id":"a6mv70j3ylno","geo_precision":"zip"},"type":"Feature","geometry":{"type":"Point","coordinates":[85.0,27.0333333]}},{"properties":{"city":"Leon","geo_score":0.964,"d":0,"country":"Philippines","id":"a6mv70vd6kt4","geo_precision":"zip"},"type":"Feature","geometry":{"type":"Point","coordinates":[123.8333333,9.8]}},{"properties":{"city":"Rueso","geo_score":0.971,"d":0,"country":"Thailand","id":"a6mv70qhy4zu","geo_precision":"zip"},"type":"Feature","geometry":{"type":"Point","coordinates":[101.5197222,6.3936111]}},{"properties":{"city":"Bacho","geo_score":1.0,"d":0,"country":"Thailand","id":"a6mv70joa2u9","geo_precision":"zip"},"type":"Feature","geometry":{"type":"Point","coordinates":[101.6519444,6.5188889]}},{"properties":{"city":"Rangae","geo_score":1.0,"d":0,"country":"Thailand","id":"a6mv70r67g1q","geo_precision":"zip"},"type":"Feature","geometry":{"type":"Point","coordinates":[101.7119444,6.2908333]}},{"properties":{"city":"Tulunan","geo_score":1.0,"d":0,"country":"Philippines","id":"a6mv70su234b","geo_precision":"zip"},"type":"Feature","geometry":{"type":"Point","coordinates":[124.9666667,6.8166667]}},{"properties":{"city":"Cho-airong","geo_score":0.0,"d":0,"country":"Thailand","id":"a6mv70jzl7oa","geo_precision":"unmatched"},"type":"Feature","geometry":null},{"properties":{"city":"Sungai Padi","geo_score":0.886,"d":0,"country":"Thailand","id":"a6mv70kxbvjy","geo_precision":"zip"},"type":"Feature","geometry":{"type":"Point","coordinates":[104.3833333,15.8333333]}},{"properties":{"city":"Bannang Sata","geo_score":0.883,"d":0,"country":"Thailand","id":"a6mv70g9fd7f","geo_precision":"zip"},"type":"Feature","geometry":{"type":"Point","coordinates":[100.4333333,6.6333333]}},{"properties":{"city":"Bangkok","geo_score":1.0,"d":0,"country":"Thailand","id":"a6mv70lae7ci","geo_precision":"zip"},"type":"Feature","geometry":{"type":"Point","coordinates":[100.5166667,13.75]}},{"properties":{"city":"Mayo","geo_score":1.0,"d":0,"country":"Thailand","id":"a6mv70s9h5sr","geo_precision":"zip"},"type":"Feature","geometry":{"type":"Point","coordinates":[101.4127778,6.7133333]}},{"properties":{"city":"Kolambugan","geo_score":1.0,"d":0,"country":"Philippines","id":"a6mv70nvje31","geo_precision":"zip"},"type":"Feature","geometry":{"type":"Point","coordinates":[123.9,8.0833333]}},{"properties":{"city":"Rueso","geo_score":0.971,"d":0,"country":"Thailand","id":"a6mv70ke0nyl","geo_precision":"zip"},"type":"Feature","geometry":{"type":"Point","coordinates":[101.5197222,6.3936111]}},{"properties":{"city":"Yarang","geo_score":0.976,"d":0,"country":"Thailand","id":"a6mv70l41mqb","geo_precision":"zip"},"type":"Feature","geometry":{"type":"Point","coordinates":[101.365,6.8616667]}},{"properties":{"city":"Kayapa","geo_score":0.929,"d":0,"country":"Philippines","id":"a6mv70qmrp2g","geo_precision":"zip"},"type":"Feature","geometry":{"type":"Point","coordinates":[120.7166667,15.7666667]}},{"properties":{"city":"Mueang Narathiwat","geo_score":0.946,"d":0,"country":"Thailand","id":"a6mv70t3wv8d","geo_precision":"zip"},"type":"Feature","geometry":{"type":"Point","coordinates":[101.8236111,6.4244444]}},{"properties":{"city":"San Andres","geo_score":0.905,"d":0,"country":"Philippines","id":"a6mv70mj8nnz","geo_precision":"zip"},"type":"Feature","geometry":{"type":"Point","coordinates":[123.4833333,13.55]}},{"properties":{"city":"Paluan","geo_score":1.0,"d":0,"country":"Philippines","id":"a6mv70th4p1d","geo_precision":"zip"},"type":"Feature","geometry":{"type":"Point","coordinates":[120.5,13.4333333]}},{"properties":{"city":"Bangkok","geo_score":1.0,"d":0,"country":"Thailand","id":"a6mv70utrcer","geo_precision":"zip"},"type":"Feature","geometry":{"type":"Point","coordinates":[100.5166667,13.75]}},{"properties":{"city":"Waeng","geo_score":1.0,"d":0,"country":"Thailand","id":"a6mv70oqjs55","geo_precision":"zip"},"type":"Feature","geometry":{"type":"Point","coordinates":[101.9,5.9333333]}},{"properties":{"city":"Davao","geo_score":1.0,"d":0,"country":"Philippines","id":"a6mv70g70xmy","geo_precision":"zip"},"type":"Feature","geometry":{"type":"Point","coordinates":[125.6127778,7.0730556]}},{"properties":{"city":"Bangkok, Samut Prakan","geo_score":0.913,"d":0,"country":"Thailand","id":"a6mv70mzwfyk","geo_precision":"zip"},"type":"Feature","geometry":{"type":"Point","coordinates":[100.5166667,13.75]}},{"properties":{"city":"San Sai","geo_score":0.905,"d":0,"country":"Thailand","id":"a6mv70u6tqw3","geo_precision":"zip"},"type":"Feature","geometry":{"type":"Point","coordinates":[100.7333333,18.5666667]}},{"properties":{"city":"Magpet","geo_score":1.0,"d":0,"country":"Philippines","id":"a6mv70ulpzie","geo_precision":"zip"},"type":"Feature","geometry":{"type":"Point","coordinates":[125.1833333,7.3166667]}},{"properties":{"city":"Rangae","geo_score":1.0,"d":0,"country":"Thailand","id":"a6mv70fvz76c","geo_precision":"zip"},"type":"Feature","geometry":{"type":"Point","coordinates":[101.7119444,6.2908333]}},{"properties":{"city":"Calbayog","geo_score":0.952,"d":0,"country":"Philippines","id":"a6mv70jnzjlb","geo_precision":"zip"},"type":"Feature","geometry":{"type":"Point","coordinates":[124.6,12.0666667]}},{"properties":{"city":"Nepalganj","geo_score":1.0,"d":0,"country":"Nepal","id":"a6mv70pxypnv","geo_precision":"zip"},"type":"Feature","geometry":{"type":"Point","coordinates":[81.6166667,28.05]}},{"properties":{"city":"Bannang Sata","geo_score":0.883,"d":0,"country":"Thailand","id":"a6mv70tl6irv","geo_precision":"zip"},"type":"Feature","geometry":{"type":"Point","coordinates":[100.4333333,6.6333333]}},{"properties":{"city":"Marawi","geo_score":1.0,"d":0,"country":"Philippines","id":"a6mv70k6spk6","geo_precision":"zip"},"type":"Feature","geometry":{"type":"Point","coordinates":[124.2927778,7.9986111]}},{"properties":{"city":"Mati","geo_score":1.0,"d":0,"country":"Philippines","id":"a6mv70sgklo9","geo_precision":"zip"},"type":"Feature","geometry":{"type":"Point","coordinates":[126.15,6.9166667]}},{"properties":{"city":"Capas","geo_score":1.0,"d":0,"country":"Philippines","id":"a6mv70tb9e69","geo_precision":"zip"},"type":"Feature","geometry":{"type":"Point","coordinates":[120.4666667,15.35]}},{"properties":{"city":"None","geo_score":0.929,"d":0,"country":"Thailand","id":"a6mv70pm9wlu","geo_precision":"zip"},"type":"Feature","geometry":{"type":"Point","coordinates":[100.7833333,18.7833333]}},{"properties":{"city":"Mueang Chiang Mai","geo_score":0.943,"d":0,"country":"Thailand","id":"a6mv70h31r00","geo_precision":"zip"},"type":"Feature","geometry":{"type":"Point","coordinates":[98.9816667,18.7902778]}},{"properties":{"city":"Rueso","geo_score":0.971,"d":0,"country":"Thailand","id":"a6mv70k1kxp3","geo_precision":"zip"},"type":"Feature","geometry":{"type":"Point","coordinates":[101.5197222,6.3936111]}},{"properties":{"city":"Barobo","geo_score":1.0,"d":0,"country":"Philippines","id":"a6mv70n11nj4","geo_precision":"zip"},"type":"Feature","geometry":{"type":"Point","coordinates":[126.2,8.55]}},{"properties":{"city":"Indanan","geo_score":1.0,"d":0,"country":"Philippines","id":"a6mv70gm2ybt","geo_precision":"zip"},"type":"Feature","geometry":{"type":"Point","coordinates":[120.9666667,6.0]}},{"properties":{"city":"Koshi","geo_score":0.929,"d":0,"country":"Nepal","id":"a6mv70heym8t","geo_precision":"zip"},"type":"Feature","geometry":{"type":"Point","coordinates":[80.4666667,28.8666667]}},{"properties":{"city":"Kapho","geo_score":0.971,"d":0,"country":"Thailand","id":"a6mv70omw10y","geo_precision":"zip"},"type":"Feature","geometry":{"type":"Point","coordinates":[98.4666667,9.7666667]}},{"properties":{"city":"Cotabato City","geo_score":1.0,"d":0,"country":"Philippines","id":"a6mv70iytk1k","geo_precision":"zip"},"type":"Feature","geometry":{"type":"Point","coordinates":[124.25,7.2166667]}},{"properties":{"city":"Talisay","geo_score":1.0,"d":0,"country":"Philippines","id":"a6mv70g811jm","geo_precision":"zip"},"type":"Feature","geometry":{"type":"Point","coordinates":[123.8494444,10.2447222]}},{"properties":{"city":"Bannang Sata","geo_score":0.883,"d":0,"country":"Thailand","id":"a6mv70ry8uw5","geo_precision":"zip"},"type":"Feature","geometry":{"type":"Point","coordinates":[100.4333333,6.6333333]}},{"properties":{"city":"Uchidiha","geo_score":0.0,"d":0,"country":"Nepal","id":"a6mv70ukj48u","geo_precision":"unmatched"},"type":"Feature","geometry":null},{"properties":{"city":"Iloilo","geo_score":1.0,"d":0,"country":"Philippines","id":"a6mv70knn5n2","geo_precision":"zip"},"type":"Feature","geometry":{"type":"Point","coordinates":[122.5644444,10.6969444]}},{"properties":{"city":"Akbar","geo_score":0.0,"d":0,"country":"Philippines","id":"a6mv70gwp0lh","geo_precision":"unmatched"},"type":"Feature","geometry":null},{"properties":{"city":"Cateel","geo_score":1.0,"d":0,"country":"Philippines","id":"a6mv70ozixdf","geo_precision":"zip"},"type":"Feature","geometry":{"type":"Point","coordinates":[126.3333333,7.7833333]}},{"properties":{"city":"Mueang Yala","geo_score":0.914,"d":0,"country":"Thailand","id":"a6mv70maxqii","geo_precision":"zip"},"type":"Feature","geometry":{"type":"Point","coordinates":[101.2836111,6.5427778]}},{"properties":{"city":"Bekasi","geo_score":1.0,"d":0,"country":"Indonesia","id":"a6mv70ot8o1y","geo_precision":"zip"},"type":"Feature","geometry":{"type":"Point","coordinates":[106.9919444,-6.2366667]}},{"properties":{"city":"Thung Yang Daeng","geo_score":1.0,"d":0,"country":"Thailand","id":"a6mv70uy359h","geo_precision":"zip"},"type":"Feature","geometry":{"type":"Point","coordinates":[101.3311111,6.6411111]}},{"properties":{"city":"Bangkok","geo_score":1.0,"d":0,"country":"Thailand","id":"a6mv70glr4pa","geo_precision":"zip"},"type":"Feature","geometry":{"type":"Point","coordinates":[100.5166667,13.75]}},{"properties":{"city":"Kawkareik","geo_score":0.746,"d":0,"country":"Burma","id":"a6mv70mrtkiy","geo_precision":"zip"},"type":"Feature","geometry":{"type":"Point","coordinates":[43.6136111,37.2480556]}},{"properties":{"city":"Cotabato City","geo_score":1.0,"d":0,"country":"Philippines","id":"a6mv70qejx4j","geo_precision":"zip"},"type":"Feature","geometry":{"type":"Point","coordinates":[124.25,7.2166667]}},{"properties":{"city":"Dhaka","geo_score":1.0,"d":0,"country":"Bangladesh","id":"a6mv70mi2wel","geo_precision":"zip"},"type":"Feature","geometry":{"type":"Point","coordinates":[90.4086111,23.7230556]}},{"properties":{"city":"None","geo_score":0.929,"d":0,"country":"Thailand","id":"a6mv70v2991m","geo_precision":"zip"},"type":"Feature","geometry":{"type":"Point","coordinates":[100.7833333,18.7833333]}},{"properties":{"city":"Khok Pho","geo_score":0.918,"d":0,"country":"Thailand","id":"a6mv70ircrw6","geo_precision":"zip"},"type":"Feature","geometry":{"type":"Point","coordinates":[98.9833333,9.5666667]}},{"properties":{"city":"Kapalong","geo_score":1.0,"d":0,"country":"Philippines","id":"a6mv70v3lg8t","geo_precision":"zip"},"type":"Feature","geometry":{"type":"Point","coordinates":[125.5,7.75]}},{"properties":{"city":"Sai Buri","geo_score":1.0,"d":0,"country":"Thailand","id":"a6mv70k32gkh","geo_precision":"zip"},"type":"Feature","geometry":{"type":"Point","coordinates":[101.6202778,6.7030556]}},{"properties":{"city":"Mueang Narathiwat","geo_score":0.946,"d":0,"country":"Thailand","id":"a6mv70iethn4","geo_precision":"zip"},"type":"Feature","geometry":{"type":"Point","coordinates":[101.8236111,6.4244444]}},{"properties":{"city":"Nong Chik","geo_score":1.0,"d":0,"country":"Thailand","id":"a6mv70obft17","geo_precision":"zip"},"type":"Feature","geometry":{"type":"Point","coordinates":[101.1880556,6.8452778]}},{"properties":{"city":"Bangkok","geo_score":1.0,"d":0,"country":"Thailand","id":"a6mv70fyrdoq","geo_precision":"zip"},"type":"Feature","geometry":{"type":"Point","coordinates":[100.5166667,13.75]}},{"properties":{"city":"Jolo","geo_score":1.0,"d":0,"country":"Philippines","id":"a6mv70s5yej1","geo_precision":"zip"},"type":"Feature","geometry":{"type":"Point","coordinates":[121.0166667,6.05]}},{"properties":{"city":"Indanan","geo_score":1.0,"d":0,"country":"Philippines","id":"a6mv70uhom9v","geo_precision":"zip"},"type":"Feature","geometry":{"type":"Point","coordinates":[120.9666667,6.0]}},{"properties":{"city":"Yarang","geo_score":0.976,"d":0,"country":"Thailand","id":"a6mv70vxohcv","geo_precision":"zip"},"type":"Feature","geometry":{"type":"Point","coordinates":[101.365,6.8616667]}},{"properties":{"city":"La Paz","geo_score":0.886,"d":0,"country":"Philippines","id":"a6mv70ogfc98","geo_precision":"zip"},"type":"Feature","geometry":{"type":"Point","coordinates":[122.6419444,11.1077778]}},{"properties":{"city":"Magpet","geo_score":1.0,"d":0,"country":"Philippines","id":"a6mv70of5nmr","geo_precision":"zip"},"type":"Feature","geometry":{"type":"Point","coordinates":[125.1833333,7.3166667]}},{"properties":{"city":"Thepha","geo_score":0.959,"d":0,"country":"Thailand","id":"a6mv70gollfs","geo_precision":"zip"},"type":"Feature","geometry":{"type":"Point","coordinates":[99.9166667,6.8666667]}},{"properties":{"city":"Chiang Mai","geo_score":1.0,"d":0,"country":"Thailand","id":"a6mv70oxm71g","geo_precision":"zip"},"type":"Feature","geometry":{"type":"Point","coordinates":[98.9816667,18.7902778]}},{"properties":{"city":"Mayo","geo_score":1.0,"d":0,"country":"Thailand","id":"a6mv70v9jwca","geo_precision":"zip"},"type":"Feature","geometry":{"type":"Point","coordinates":[101.4127778,6.7133333]}},{"properties":{"city":"Dumaran","geo_score":1.0,"d":0,"country":"Philippines","id":"a6mv70tmw9hb","geo_precision":"zip"},"type":"Feature","geometry":{"type":"Point","coordinates":[119.7686111,10.5263889]}},{"properties":{"city":"Krong Pinang","geo_score":0.909,"d":0,"country":"Thailand","id":"a6mv70ni636g","geo_precision":"zip"},"type":"Feature","geometry":{"type":"Point","coordinates":[98.7833333,8.0333333]}},{"properties":{"city":"Dimasalang","geo_score":1.0,"d":0,"country":"Philippines","id":"a6mv70khau2p","geo_precision":"zip"},"type":"Feature","geometry":{"type":"Point","coordinates":[123.8333333,12.1666667]}},{"properties":{"city":"None","geo_score":0.929,"d":0,"country":"Thailand","id":"a6mv70qwwmdd","geo_precision":"zip"},"type":"Feature","geometry":{"type":"Point","coordinates":[100.7833333,18.7833333]}},{"properties":{"city":"Bangkok","geo_score":1.0,"d":0,"country":"Thailand","id":"a6mv70sjbobg","geo_precision":"zip"},"type":"Feature","geometry":{"type":"Point","coordinates":[100.5166667,13.75]}},{"properties":{"city":"Khok Pho","geo_score":0.918,"d":0,"country":"Thailand","id":"a6mv70gntbcf","geo_precision":"zip"},"type":"Feature","geometry":{"type":"Point","coordinates":[98.9833333,9.5666667]}},{"properties":{"city":"Tak Bai","geo_score":0.929,"d":0,"country":"Thailand","id":"a6mv70pdfd9k","geo_precision":"zip"},"type":"Feature","geometry":{"type":"Point","coordinates":[99.1333333,16.8666667]}},{"properties":{"city":"Myawadi","geo_score":0.821,"d":0,"country":"Burma","id":"a6mv70tdsuu8","geo_precision":"zip"},"type":"Feature","geometry":{"type":"Point","coordinates":[140.1166667,35.9166667]}},{"properties":{"city":"Cho-airong","geo_score":0.0,"d":0,"country":"Thailand","id":"a6mv70sl1s53","geo_precision":"unmatched"},"type":"Feature","geometry":null},{"properties":{"city":"Raman","geo_score":1.0,"d":0,"country":"Thailand","id":"a6mv70owxx5u","geo_precision":"zip"},"type":"Feature","geometry":{"type":"Point","coordinates":[101.4225,6.4797222]}},{"properties":{"city":"Chuadanga","geo_score":0.0,"d":0,"country":"Bangladesh","id":"a6mv70olb9xi","geo_precision":"unmatched"},"type":"Feature","geometry":null},{"properties":{"city":"Mueang Pattani","geo_score":0.934,"d":0,"country":"Thailand","id":"a6mv70r06e2u","geo_precision":"zip"},"type":"Feature","geometry":{"type":"Point","coordinates":[101.15,6.7833333]}},{"properties":{"city":"Sumisip","geo_score":1.0,"d":0,"country":"Philippines","id":"a6mv70l154h4","geo_precision":"zip"},"type":"Feature","geometry":{"type":"Point","coordinates":[121.9666667,6.45]}},{"properties":{"city":"Rangae","geo_score":1.0,"d":0,"country":"Thailand","id":"a6mv70vhfinw","geo_precision":"zip"},"type":"Feature","geometry":{"type":"Point","coordinates":[101.7119444,6.2908333]}},{"properties":{"city":"Aceh Besar","geo_score":0.889,"d":0,"country":"Indonesia","id":"a6mv70tsogql","geo_precision":"zip"},"type":"Feature","geometry":{"type":"Point","coordinates":[132.8166667,-2.75]}},{"properties":{"city":"Pattani","geo_score":1.0,"d":0,"country":"Thailand","id":"a6mv70p13rtx","geo_precision":"zip"},"type":"Feature","geometry":{"type":"Point","coordinates":[101.15,6.7833333]}},{"properties":{"city":"Chiang Mai","geo_score":1.0,"d":0,"country":"Thailand","id":"a6mv70u0iu1m","geo_precision":"zip"},"type":"Feature","geometry":{"type":"Point","coordinates":[98.9816667,18.7902778]}},{"properties":{"city":"Krong Pinang","geo_score":0.909,"d":0,"country":"Thailand","id":"a6mv70pw6zh0","geo_precision":"zip"},"type":"Feature","geometry":{"type":"Point","coordinates":[98.7833333,8.0333333]}},{"properties":{"city":"Tinambac","geo_score":1.0,"d":0,"country":"Philippines","id":"a6mv70rhcwhh","geo_precision":"zip"},"type":"Feature","geometry":{"type":"Point","coordinates":[123.35,13.85]}},{"properties":{"city":"Zamboanga","geo_score":0.956,"d":0,"country":"Philippines","id":"a6mv70kjq50b","geo_precision":"zip"},"type":"Feature","geometry":{"type":"Point","coordinates":[122.0666667,6.9]}},{"properties":{"city":"Rueso","geo_score":0.971,"d":0,"country":"Thailand","id":"a6mv70shvw88","geo_precision":"zip"},"type":"Feature","geometry":{"type":"Point","coordinates":[101.5197222,6.3936111]}},{"properties":{"city":"Parsa","geo_score":1.0,"d":0,"country":"Nepal","id":"a6mv70mozgxo","geo_precision":"zip"},"type":"Feature","geometry":{"type":"Point","coordinates":[84.8333333,27.3333333]}},{"properties":{"city":"Dingalan","geo_score":1.0,"d":0,"country":"Philippines","id":"a6mv70mf62an","geo_precision":"zip"},"type":"Feature","geometry":{"type":"Point","coordinates":[121.35,15.2666667]}},{"properties":{"city":"New Baneshwor","geo_score":0.0,"d":0,"country":"Nepal","id":"a6mv70qzjup9","geo_precision":"unmatched"},"type":"Feature","geometry":null},{"properties":{"city":"Yarang","geo_score":0.976,"d":0,"country":"Thailand","id":"a6mv70sh2mlx","geo_precision":"zip"},"type":"Feature","geometry":{"type":"Point","coordinates":[101.365,6.8616667]}},{"properties":{"city":"Rangae","geo_score":1.0,"d":0,"country":"Thailand","id":"a6mv70g5m0qh","geo_precision":"zip"},"type":"Feature","geometry":{"type":"Point","coordinates":[101.7119444,6.2908333]}},{"properties":{"city":"Maimbung","geo_score":1.0,"d":0,"country":"Philippines","id":"a6mv70fhki7w","geo_precision":"zip"},"type":"Feature","geometry":{"type":"Point","coordinates":[121.0333333,5.9333333]}},{"properties":{"city":"Bangkok","geo_score":1.0,"d":0,"country":"Thailand","id":"a6mv70npv4lh","geo_precision":"zip"},"type":"Feature","geometry":{"type":"Point","coordinates":[100.5166667,13.75]}},{"properties":{"city":"Shariff Aguak","geo_score":0.905,"d":0,"country":"Philippines","id":"a6mv70jqqra7","geo_precision":"zip"},"type":"Feature","geometry":{"type":"Point","coordinates":[120.5833333,18.5]}},{"properties":{"city":"Isabela","geo_score":1.0,"d":0,"country":"Philippines","id":"a6mv70s86k1h","geo_precision":"zip"},"type":"Feature","geometry":{"type":"Point","coordinates":[121.9713889,6.7063889]}},{"properties":{"city":"Jhenaidah","geo_score":0.968,"d":0,"country":"Bangladesh","id":"a6mv70mf4afj","geo_precision":"zip"},"type":"Feature","geometry":{"type":"Point","coordinates":[89.1666667,23.55]}},{"properties":{"city":"Raman","geo_score":1.0,"d":0,"country":"Thailand","id":"a6mv70mnqs97","geo_precision":"zip"},"type":"Feature","geometry":{"type":"Point","coordinates":[101.4225,6.4797222]}},{"properties":{"city":"Mabuhay","geo_score":1.0,"d":0,"country":"Philippines","id":"a6mv70td3bkd","geo_precision":"zip"},"type":"Feature","geometry":{"type":"Point","coordinates":[122.9,7.4166667]}},{"properties":{"city":"Pattani","geo_score":1.0,"d":0,"country":"Thailand","id":"a6mv70hea8la","geo_precision":"zip"},"type":"Feature","geometry":{"type":"Point","coordinates":[101.15,6.7833333]}},{"properties":{"city":"Sungai Kolok","geo_score":1.0,"d":0,"country":"Thailand","id":"a6mv70pafjwc","geo_precision":"zip"},"type":"Feature","geometry":{"type":"Point","coordinates":[101.9677778,6.0266667]}},{"properties":{"city":"Datu Salibo","geo_score":0.886,"d":0,"country":"Philippines","id":"a6mv70kaffpf","geo_precision":"zip"},"type":"Feature","geometry":{"type":"Point","coordinates":[121.1325,14.5691667]}},{"properties":{"city":"None","geo_score":0.929,"d":0,"country":"Thailand","id":"a6mv70qqvdtr","geo_precision":"zip"},"type":"Feature","geometry":{"type":"Point","coordinates":[100.7833333,18.7833333]}},{"properties":{"city":"Yarang","geo_score":0.976,"d":0,"country":"Thailand","id":"a6mv70fxb2i5","geo_precision":"zip"},"type":"Feature","geometry":{"type":"Point","coordinates":[101.365,6.8616667]}},{"properties":{"city":"Chanthaburi","geo_score":1.0,"d":0,"country":"Thailand","id":"a6mv70jflcqi","geo_precision":"zip"},"type":"Feature","geometry":{"type":"Point","coordinates":[102.15,12.6]}},{"properties":{"city":"Bekasi","geo_score":1.0,"d":0,"country":"Indonesia","id":"a6mv70r7vt2n","geo_precision":"zip"},"type":"Feature","geometry":{"type":"Point","coordinates":[106.9919444,-6.2366667]}},{"properties":{"city":"Bangkok","geo_score":1.0,"d":0,"country":"Thailand","id":"a6mv70tsdk6w","geo_precision":"zip"},"type":"Feature","geometry":{"type":"Point","coordinates":[100.5166667,13.75]}},{"properties":{"city":"Yingo","geo_score":1.0,"d":0,"country":"Thailand","id":"a6mv70vj2rvz","geo_precision":"zip"},"type":"Feature","geometry":{"type":"Point","coordinates":[101.7086111,6.4002778]}},{"properties":{"city":"Lamitan","geo_score":1.0,"d":0,"country":"Philippines","id":"a6mv70jnwbm8","geo_precision":"zip"},"type":"Feature","geometry":{"type":"Point","coordinates":[122.1,6.6333333]}},{"properties":{"city":"Thung Yang Daeng","geo_score":1.0,"d":0,"country":"Thailand","id":"a6mv70vo3erb","geo_precision":"zip"},"type":"Feature","geometry":{"type":"Point","coordinates":[101.3311111,6.6411111]}},{"properties":{"city":"Masbate","geo_score":1.0,"d":0,"country":"Philippines","id":"a6mv70j4vmhk","geo_precision":"zip"},"type":"Feature","geometry":{"type":"Point","coordinates":[123.6166667,12.3666667]}},{"properties":{"city":"Kabasalan","geo_score":1.0,"d":0,"country":"Philippines","id":"a6mv70llbd46","geo_precision":"zip"},"type":"Feature","geometry":{"type":"Point","coordinates":[122.7833333,7.8333333]}},{"properties":{"city":"Bangkok","geo_score":1.0,"d":0,"country":"Thailand","id":"a6mv70gc5yea","geo_precision":"zip"},"type":"Feature","geometry":{"type":"Point","coordinates":[100.5166667,13.75]}},{"properties":{"city":"Raman","geo_score":1.0,"d":0,"country":"Thailand","id":"a6mv70qluc30","geo_precision":"zip"},"type":"Feature","geometry":{"type":"Point","coordinates":[101.4225,6.4797222]}},{"properties":{"city":"Nong Chik","geo_score":1.0,"d":0,"country":"Thailand","id":"a6mv70moi0fu","geo_precision":"zip"},"type":"Feature","geometry":{"type":"Point","coordinates":[101.1880556,6.8452778]}},{"properties":{"city":"Murkuchi","geo_score":0.0,"d":0,"country":"Nepal","id":"a6mv70kqv5oi","geo_precision":"unmatched"},"type":"Feature","geometry":null},{"properties":{"city":"Sipalay","geo_score":1.0,"d":0,"country":"Philippines","id":"a6mv70rzj36d","geo_precision":"zip"},"type":"Feature","geometry":{"type":"Point","coordinates":[122.5,9.75]}},{"properties":{"city":"Santa Cruz","geo_score":1.0,"d":0,"country":"Philippines","id":"a6mv70pbeaae","geo_precision":"zip"},"type":"Feature","geometry":{"type":"Point","coordinates":[121.4155556,14.2786111]}},{"properties":{"city":"Bangkok","geo_score":1.0,"d":0,"country":"Thailand","id":"a6mv70srdzm3","geo_precision":"zip"},"type":"Feature","geometry":{"type":"Point","coordinates":[100.5166667,13.75]}},{"properties":{"city":"Raman","geo_score":1.0,"d":0,"country":"Thailand","id":"a6mv70pgqs7q","geo_precision":"zip"},"type":"Feature","geometry":{"type":"Point","coordinates":[101.4225,6.4797222]}},{"properties":{"city":"Bacho, Chanae, Mueang Narathiwat, Rangae, Sungai Padi, Yingo","geo_score":0.887,"d":0,"country":"Thailand","id":"a6mv70mbaoaf","geo_precision":"zip"},"type":"Feature","geometry":{"type":"Point","coordinates":[101.8236111,6.4244444]}},{"properties":{"city":"Bangkok","geo_score":1.0,"d":0,"country":"Thailand","id":"a6mv70shvzm2","geo_precision":"zip"},"type":"Feature","geometry":{"type":"Point","coordinates":[100.5166667,13.75]}},{"properties":{"city":"Monkayo","geo_score":1.0,"d":0,"country":"Philippines","id":"a6mv70ul63a0","geo_precision":"zip"},"type":"Feature","geometry":{"type":"Point","coordinates":[126.1,7.8666667]}},{"properties":{"city":"Rueso","geo_score":0.971,"d":0,"country":"Thailand","id":"a6mv70p87ncg","geo_precision":"zip"},"type":"Feature","geometry":{"type":"Point","coordinates":[101.5197222,6.3936111]}},{"properties":{"city":"Mueang Narathiwat","geo_score":0.946,"d":0,"country":"Thailand","id":"a6mv70tucaem","geo_precision":"zip"},"type":"Feature","geometry":{"type":"Point","coordinates":[101.8236111,6.4244444]}},{"properties":{"city":"Abra de Ilog","geo_score":0.886,"d":0,"country":"Philippines","id":"a6mv70l5zkml","geo_precision":"zip"},"type":"Feature","geometry":{"type":"Point","coordinates":[121.5166667,17.7]}},{"properties":{"city":"Nong Chik","geo_score":1.0,"d":0,"country":"Thailand","id":"a6mv70qzcgdw","geo_precision":"zip"},"type":"Feature","geometry":{"type":"Point","coordinates":[101.1880556,6.8452778]}},{"properties":{"city":"Bangkok","geo_score":1.0,"d":0,"country":"Thailand","id":"a6mv70ja7jy3","geo_precision":"zip"},"type":"Feature","geometry":{"type":"Point","coordinates":[100.5166667,13.75]}},{"properties":{"city":"Meherpur","geo_score":0.929,"d":0,"country":"Bangladesh","id":"a6mv70saux3g","geo_precision":"zip"},"type":"Feature","geometry":{"type":"Point","coordinates":[88.7,23.75]}},{"properties":{"city":"Bangued","geo_score":1.0,"d":0,"country":"Philippines","id":"a6mv70il47zm","geo_precision":"zip"},"type":"Feature","geometry":{"type":"Point","coordinates":[120.5833333,17.6166667]}},{"properties":{"city":"Ungkaya Pukan","geo_score":0.893,"d":0,"country":"Philippines","id":"a6mv70jwulf5","geo_precision":"zip"},"type":"Feature","geometry":{"type":"Point","coordinates":[120.1333333,13.8166667]}},{"properties":{"city":"Jolo","geo_score":1.0,"d":0,"country":"Philippines","id":"a6mv70oaxwc7","geo_precision":"zip"},"type":"Feature","geometry":{"type":"Point","coordinates":[121.0166667,6.05]}},{"properties":{"city":"Butuan","geo_score":0.929,"d":0,"country":"Philippines","id":"a6mv70j37vpf","geo_precision":"zip"},"type":"Feature","geometry":{"type":"Point","coordinates":[123.4333333,9.85]}},{"properties":{"city":"Phrae","geo_score":1.0,"d":0,"country":"Thailand","id":"a6mv70qep8yu","geo_precision":"zip"},"type":"Feature","geometry":{"type":"Point","coordinates":[100.1333333,18.15]}},{"properties":{"city":"Khok Pho","geo_score":0.918,"d":0,"country":"Thailand","id":"a6mv70qvh3h0","geo_precision":"zip"},"type":"Feature","geometry":{"type":"Point","coordinates":[98.9833333,9.5666667]}},{"properties":{"city":"Kathmandu","geo_score":1.0,"d":0,"country":"Nepal","id":"a6mv70vnb8su","geo_precision":"zip"},"type":"Feature","geometry":{"type":"Point","coordinates":[85.3166667,27.7166667]}},{"properties":{"city":"Mueang Yala","geo_score":0.914,"d":0,"country":"Thailand","id":"a6mv70umut5x","geo_precision":"zip"},"type":"Feature","geometry":{"type":"Point","coordinates":[101.2836111,6.5427778]}},{"properties":{"city":"None","geo_score":0.914,"d":0,"country":"Indonesia","id":"a6mv70k46zjy","geo_precision":"zip"},"type":"Feature","geometry":{"type":"Point","coordinates":[126.8666667,4.2]}}],"is_temporal":false,"author":{"url":"","metadata":"","contact_name":"","contact_address":"","source":"","contact_phone":""},"source":"","pagination":{"sort":null,"start":0,"total":758,"limit":1000000},"state":"complete","tags":"","published":"2014-08-13T11:22:45-04:00","id":109250}