{"type":"FeatureCollection","data_type":"Dataset","url_type":null,"permissions":[{"permissions":{"download":true,"view":true},"group_id":"everyone"}],"classification":null,"title":"Foreclosures-pending","count":318,"stream_id":109653,"contributor":{"url":"http://geocommons.com/users/19750","name":"seanlahman"},"data_attributes":null,"calculation_params":null,"icon_link":null,"link":"http://geocommons.com/overlays/109653.json","extent":[-77.9068,42.9528,-77.4184,43.3245],"geometry_types":null,"unique_name":null,"name":"Foreclosures-pending","feature_count":318,"description":"","next_feature":null,"is_raster":false,"short_classification":"Y","stats":{"lat":{"max":43.324451,"variance":0.000974026100791495,"mean":43.1677543279874,"stdev":0.0312093912275055,"min":42.952784,"median":43.1704549},"long":{"max":-77.418414,"variance":0.00207209484325081,"mean":-77.6185911119496,"stdev":0.0455202684883428,"min":-77.906774,"median":-77.625473}},"features":[{"properties":{"city":"ROCHESTER","property address":"10 FAIRCREST ROAD HENRIETTA","control no":"2.01E+11","opposite name":"GRIFFITH CYNTHIA","id":"a63e0xlagsz0","lat":43.076364,"address":"10 FAIRCREST ROAD","long":-77.592423,"state":"NY","reference 1":"I2010008372","judgment of foreclosure":"Pending","filing date":"7/1/2010"},"type":"Feature","geometry":{"type":"Point","coordinates":[-77.592423,43.076364]}},{"properties":{"city":"ROCHESTER","property address":"10 RENWOOD STREET ROCHESTER","control no":"2.01E+11","opposite name":"LORECA JEANETTE","id":"a63e0xp3kbfe","lat":43.176414,"address":"10 RENWOOD STREET","long":-77.58584,"state":"NY","reference 1":"I2011000984","judgment of foreclosure":"Pending","filing date":"1/26/2011"},"type":"Feature","geometry":{"type":"Point","coordinates":[-77.58584,43.176414]}},{"properties":{"city":"ROCHESTER","property address":"1002 SOUTH PLYMOUTH AVENUE RO","control no":"2.01E+11","opposite name":"EXCELLUS BLUE CROSS BLUE SHIELD CENTRAL NEW YORK REGION","id":"a63e0xozn1md","lat":43.137178,"address":"1002 SOUTH PLYMOUTH AVENUE","long":-77.625183,"state":"NY","reference 1":"I2011001360","judgment of foreclosure":"Pending","filing date":"2/3/2011"},"type":"Feature","geometry":{"type":"Point","coordinates":[-77.625183,43.137178]}},{"properties":{"city":"ROCHESTER","property address":"1009 JOSEPH AVENUE ROCHESTER","control no":"2.01E+11","opposite name":"ORTIZ ALFREDO","id":"a63e0xjbmctt","lat":43.1835809,"address":"1009 JOSEPH AVENUE","long":-77.608504,"state":"NY","reference 1":"I2010007911","judgment of foreclosure":"Pending","filing date":"6/22/2010 + 9/1/2010"},"type":"Feature","geometry":{"type":"Point","coordinates":[-77.608504,43.1835809]}},{"properties":{"city":"ROCHESTER","property address":"101 ARCH STREET ROCHESTER","control no":"2.01E+11","opposite name":"DOZIER JUANITA JACSKON","id":"a63e0xfc7prj","lat":43.162273,"address":"101 ARCH STREET","long":-77.568716,"state":"NY","reference 1":"I2009011079","judgment of foreclosure":"Pending","filing date":"8/4/2009 + 9/24/2009 + 2/3/2010"},"type":"Feature","geometry":{"type":"Point","coordinates":[-77.568716,43.162273]}},{"properties":{"city":"ROCHESTER","property address":"101 BOCK STREET ROCHESTER","control no":"2.01E+11","opposite name":"FEE LINDA A","id":"a63e0xhesspg","lat":43.1720619,"address":"101 BOCK STREET","long":-77.571707,"state":"NY","reference 1":"I2011001065","judgment of foreclosure":"Pending","filing date":"1/27/2011"},"type":"Feature","geometry":{"type":"Point","coordinates":[-77.571707,43.1720619]}},{"properties":{"city":"ROCHESTER","property address":"101 THOMAS STREET ROCHESTER","control no":"2.01E+11","opposite name":"BURDA JOHN","id":"a63e0xi7npf9","lat":43.176308,"address":"101 THOMAS STREET","long":-77.604965,"state":"NY","reference 1":"I2011001128","judgment of foreclosure":"Pending","filing date":"1/28/2011 + 3/24/2011"},"type":"Feature","geometry":{"type":"Point","coordinates":[-77.604965,43.176308]}},{"properties":{"city":"ROCHESTER","property address":"1019 NORTH GOODMAN STREET RO","control no":"2.01E+11","opposite name":"MONROE COUNTY OF","id":"a63e0xq9llfg","lat":43.172996,"address":"1019 NORTH GOODMAN STREET","long":-77.578079,"state":"NY","reference 1":"I2011000929","judgment of foreclosure":"Pending","filing date":"1/25/2011"},"type":"Feature","geometry":{"type":"Point","coordinates":[-77.578079,43.172996]}},{"properties":{"city":"ROCHESTER","property address":"1029-1033 PORTLAND AVENUE RO","control no":"2.01E+11","opposite name":"DAVIDOWITS SHOLOM","id":"a63e0xeul2w8","lat":43.1844685,"address":"1029-1033 PORTLAND AVENUE","long":-77.5840853,"state":"NY","reference 1":"I2011002549","judgment of foreclosure":"Pending","filing date":"3/2/2011"},"type":"Feature","geometry":{"type":"Point","coordinates":[-77.5840853,43.1844685]}},{"properties":{"city":"ROCHESTER","property address":"103 MURRAY STREET ROCHESTER","control no":"2.01E+11","opposite name":"FERRETT RICHARD F JR","id":"a63e0xhdtvzj","lat":43.161535,"address":"103 MURRAY STREET","long":-77.642486,"state":"NY","reference 1":"I2011000084","judgment of foreclosure":"Pending","filing date":"1/4/2011"},"type":"Feature","geometry":{"type":"Point","coordinates":[-77.642486,43.161535]}},{"properties":{"city":"ROCHESTER","property address":"104 DELMAR STREET ROCHESTER","control no":"2.01E+11","opposite name":"ROTHSCHILD DONALD W","id":"a63e0xqjwl23","lat":43.171199,"address":"104 DELMAR STREET","long":-77.64395,"state":"NY","reference 1":"I2010016496","judgment of foreclosure":"Pending","filing date":"12/29/2010 + 1/28/2011"},"type":"Feature","geometry":{"type":"Point","coordinates":[-77.64395,43.171199]}},{"properties":{"city":"ROCHESTER","property address":"1050 LAKE AVENUE ROCHESTER","control no":"2.01E+11","opposite name":"CITIFINANCIAL COMPANY","id":"a63e0xrx4dg5","lat":43.184799,"address":"1050 LAKE AVENUE","long":-77.630599,"state":"NY","reference 1":"I2010007918","judgment of foreclosure":"Pending","filing date":"6/22/2010 + 8/25/2010"},"type":"Feature","geometry":{"type":"Point","coordinates":[-77.630599,43.184799]}},{"properties":{"city":"ROCHESTER","property address":"105-107 DAYTON ST ROCHESTER","control no":"2.01E+11","opposite name":"DELVALLE EMMANUEL","id":"a63e0xcp3eb9","lat":43.1815273,"address":"105-107 DAYTON ST","long":-77.6000857,"state":"NY","reference 1":"I2011004312","judgment of foreclosure":"Pending","filing date":"4/7/2011"},"type":"Feature","geometry":{"type":"Point","coordinates":[-77.6000857,43.1815273]}},{"properties":{"city":"ROCHESTER","property address":"108 SHELTER STREET ROCHESTER","control no":null,"opposite name":"ANDERSON ALFRED JR","id":"a63e0xhkg29n","lat":43.139161,"address":"108 SHELTER STREET","long":-77.632103,"state":"NY","reference 1":null,"judgment of foreclosure":"Pending","filing date":"4/12/2011"},"type":"Feature","geometry":{"type":"Point","coordinates":[-77.632103,43.139161]}},{"properties":{"city":"ROCHESTER","property address":"1086F N CLINTON AVE ROCHESTER(MULT)","control no":"2.01E+11","opposite name":"DURAN ESTEBAN DEJESUS","id":"a63e0xfhio9c","lat":43.178887,"address":"1086F N CLINTON AVE","long":-77.6134962,"state":"NY","reference 1":"I2009011628","judgment of foreclosure":"Pending","filing date":"8/17/2009 + 9/24/2009"},"type":"Feature","geometry":{"type":"Point","coordinates":[-77.6134962,43.178887]}},{"properties":{"city":"BROCKPORT","property address":"1087 EULER ROAD SWEDEN","control no":"2.01E+11","opposite name":"HOUSEHOLD FINANCE REALTY CORPORATION OF NEW YORK","id":"a63e0xpuats4","lat":43.145545,"address":"1087 EULER ROAD","long":-77.906774,"state":"NY","reference 1":"I2010007633","judgment of foreclosure":"Pending","filing date":"6/16/2010 + 8/25/2010"},"type":"Feature","geometry":{"type":"Point","coordinates":[-77.906774,43.145545]}},{"properties":{"city":"ROCHESTER","property address":"1092 PORTLAND AVENUE ROCHESTER","control no":"2.01E+11","opposite name":"MONROE COUNTY OF","id":"a63e0xcocrg1","lat":43.18562,"address":"1092 PORTLAND AVENUE","long":-77.583673,"state":"NY","reference 1":"I2011001115","judgment of foreclosure":"Pending","filing date":"1/28/2011"},"type":"Feature","geometry":{"type":"Point","coordinates":[-77.583673,43.18562]}},{"properties":{"city":"ROCHESTER","property address":"1092-1096 JOSEPH AVE ROCHESTER","control no":"2.01E+11","opposite name":"SAMPLE GEORGE","id":"a63e0xk9rumr","lat":43.1851124,"address":"1092-1096 JOSEPH AVE","long":-77.6082426,"state":"NY","reference 1":"I2010008476","judgment of foreclosure":"Pending","filing date":"7/2/2010"},"type":"Feature","geometry":{"type":"Point","coordinates":[-77.6082426,43.1851124]}},{"properties":{"city":"ROCHESTER","property address":"11 BARTLETT STREET ROCHESTER","control no":"2.01E+11","opposite name":"STITH-MYERS DEBORAH H","id":"a63e0xriuzhd","lat":43.142582,"address":"11 BARTLETT STREET","long":-77.620202,"state":"NY","reference 1":"I2010011911","judgment of foreclosure":"Pending","filing date":"9/15/2010"},"type":"Feature","geometry":{"type":"Point","coordinates":[-77.620202,43.142582]}},{"properties":{"city":"ROCHESTER","property address":"11 KLUEH STREET ROCHESTER","control no":"2.01E+11","opposite name":"FIA CARD SERVICES NATIONAL ASSOCIATION","id":"a63e0xcum43y","lat":43.153867,"address":"11 KLUEH STREET","long":-77.645935,"state":"NY","reference 1":"I2010006632","judgment of foreclosure":"Pending","filing date":"5/25/2010 + 8/16/2010"},"type":"Feature","geometry":{"type":"Point","coordinates":[-77.645935,43.153867]}},{"properties":{"city":"ROCHESTER","property address":"111 EIFFEL PLACE ROCHESTER","control no":"2.01E+11","opposite name":"ENERGTIX INC","id":"a63e0xhukvn3","lat":43.179712,"address":"111 EIFFEL PLACE","long":-77.604532,"state":"NY","reference 1":"I2011002617","judgment of foreclosure":"Pending","filing date":"3/3/2011"},"type":"Feature","geometry":{"type":"Point","coordinates":[-77.604532,43.179712]}},{"properties":{"city":"ROCHESTER","property address":"111-113 ENTERPRISE STREET RO","control no":"2.01E+11","opposite name":"HARRISON SCOTT W","id":"a63e0xoblvwm","lat":43.1341461,"address":"111-113 ENTERPRISE STREET","long":-77.6504567,"state":"NY","reference 1":"I2011004222","judgment of foreclosure":"Pending","filing date":"4/6/2011"},"type":"Feature","geometry":{"type":"Point","coordinates":[-77.6504567,43.1341461]}},{"properties":{"city":"ROCHESTER","property address":"1115 TITUS AVENUE IRONDEQUOIT(MULT)","control no":"2.01E+11","opposite name":"GRIFFITH ENERGY INC","id":"a63e0xjxovcy","lat":43.21078,"address":"1115 TITUS AVENUE","long":-77.586125,"state":"NY","reference 1":"I2010008688","judgment of foreclosure":"Pending","filing date":"7/8/2010 + 9/8/2010"},"type":"Feature","geometry":{"type":"Point","coordinates":[-77.586125,43.21078]}},{"properties":{"city":"ROCHESTER","property address":"1130 LAKE AVENUE ROCHESTER","control no":"2.01E+11","opposite name":"TANTALO JOSEPH","id":"a63e0xf98kt3","lat":43.186623,"address":"1130 LAKE AVENUE","long":-77.6302259,"state":"NY","reference 1":"I2011000944","judgment of foreclosure":"Pending","filing date":"1/25/2011"},"type":"Feature","geometry":{"type":"Point","coordinates":[-77.6302259,43.186623]}},{"properties":{"city":"ROCHESTER","property address":"114 HAYWARD AVENUE ROCHESTER","control no":"2.01E+11","opposite name":"ECKMAIR CAROLYN","id":"a63e0xjv65dw","lat":43.165065,"address":"114 HAYWARD AVENUE","long":-77.587348,"state":"NY","reference 1":"I2011001702","judgment of foreclosure":"Pending","filing date":"2/11/2011"},"type":"Feature","geometry":{"type":"Point","coordinates":[-77.587348,43.165065]}},{"properties":{"city":"ROCHESTER","property address":"114-116 ANTHONY ST ROCHESTER","control no":"2.01E+11","opposite name":"BURCH RHONDA","id":"a63e0xq7n6wt","lat":43.1369629,"address":"114-116 ANTHONY ST","long":-77.6486298,"state":"NY","reference 1":"I2011002809","judgment of foreclosure":"Pending","filing date":"3/9/2011"},"type":"Feature","geometry":{"type":"Point","coordinates":[-77.6486298,43.1369629]}},{"properties":{"city":"ROCHESTER","property address":"114-124 BAY STREET ROCHESTER","control no":"2.01E+11","opposite name":"POSTWAITE AMOS","id":"a63e0xdv4mns","lat":43.1707473,"address":"114-124 BAY STREET","long":-77.5909438,"state":"NY","reference 1":"I2011000666","judgment of foreclosure":"Pending","filing date":"1/19/2011"},"type":"Feature","geometry":{"type":"Point","coordinates":[-77.5909438,43.1707473]}},{"properties":{"city":"ROCHESTER","property address":"115 LYDIA STREET ROCHESTER","control no":"2.01E+11","opposite name":"LAND TRUST NUMBER 1151298 DATED DECEMBER 21 1998 DT EARLY TRUSTEE","id":"a63e0xdovfd2","lat":43.253041,"address":"115 LYDIA STREET","long":-77.614338,"state":"NY","reference 1":"I2010016080","judgment of foreclosure":"Pending","filing date":"12/16/2010 + 4/1/2011"},"type":"Feature","geometry":{"type":"Point","coordinates":[-77.614338,43.253041]}},{"properties":{"city":"ROCHESTER","property address":"115 WETMORE PARK ROCHESTER","control no":"2.01E+11","opposite name":"MOZELESKI MARGARET M","id":"a63e0xjoel2j","lat":43.161744,"address":"115 WETMORE PARK","long":-77.657363,"state":"NY","reference 1":"I2011000102","judgment of foreclosure":"Pending","filing date":"1/4/2011"},"type":"Feature","geometry":{"type":"Point","coordinates":[-77.657363,43.161744]}},{"properties":{"city":"ROCHESTER","property address":"1157-1159 EAST MAIN STREET RO","control no":"2.01E+11","opposite name":"NYS DEPT OF TAXATION &amp; FINANCE","id":"a63e0xmzvtk8","lat":43.1620197,"address":"1157-1159 EAST MAIN STREET","long":-77.5828697,"state":"NY","reference 1":"I2010013293","judgment of foreclosure":"Pending","filing date":"10/13/2010 + 11/10/2010"},"type":"Feature","geometry":{"type":"Point","coordinates":[-77.5828697,43.1620197]}},{"properties":{"city":"ROCHESTER","property address":"117 KENWOOD AVENUE ROCHESTER","control no":"2.01E+11","opposite name":"DUVALL CLAXTON C","id":"a63e0xqaus8r","lat":43.146744,"address":"117 KENWOOD AVENUE","long":-77.639869,"state":"NY","reference 1":"I2010015123","judgment of foreclosure":"Pending","filing date":"11/24/2010"},"type":"Feature","geometry":{"type":"Point","coordinates":[-77.639869,43.146744]}},{"properties":{"city":"ROCHESTER","property address":"1172-1176 DEWEY AVE ROCHESTER","control no":"2.01E+11","opposite name":"GRANDE PAUL","id":"a63e0xqepco2","lat":43.1876651,"address":"1172-1176 DEWEY AVE","long":-77.6388455,"state":"NY","reference 1":"I2010013329","judgment of foreclosure":"Pending","filing date":"10/13/2010"},"type":"Feature","geometry":{"type":"Point","coordinates":[-77.6388455,43.1876651]}},{"properties":{"city":"ROCHESTER","property address":"119 GARFIELD STREET ROCHESTER","control no":"2.01E+11","opposite name":"TRONG VU","id":"a63e0xmkwtpo","lat":43.147416,"address":"119 GARFIELD STREET","long":-77.654952,"state":"NY","reference 1":"I2011000909","judgment of foreclosure":"Pending","filing date":"1/24/2011"},"type":"Feature","geometry":{"type":"Point","coordinates":[-77.654952,43.147416]}},{"properties":{"city":"ROCHESTER","property address":"119 LYDIA STREET ROCHESTER","control no":"2.01E+11","opposite name":"LAND TRUST NUMBER 1191298 U/D/T DATED 12/21/98 DT EARLY TRUSTEE","id":"a63e0xplc0cq","lat":43.253109,"address":"119 LYDIA STREET","long":-77.6142799,"state":"NY","reference 1":"I2011001219","judgment of foreclosure":"Pending","filing date":"1/31/2011 + 4/5/2011"},"type":"Feature","geometry":{"type":"Point","coordinates":[-77.6142799,43.253109]}},{"properties":{"city":"ROCHESTER","property address":"1193 LYELL AVENUE ROCHESTER","control no":"2.01E+11","opposite name":"FRAGNITO MARGARET","id":"a63e0xo6vkk4","lat":43.1644719,"address":"1193 LYELL AVENUE","long":-77.6566728,"state":"NY","reference 1":"I2010008135","judgment of foreclosure":"Pending","filing date":"6/28/2010"},"type":"Feature","geometry":{"type":"Point","coordinates":[-77.6566728,43.1644719]}},{"properties":{"city":"ROCHESTER","property address":"12 VILLA STREET ROCHESTER","control no":"2.01E+11","opposite name":"MONROE COUNTY OF","id":"a63e0xhg1fdd","lat":43.1718059,"address":"12 VILLA STREET","long":-77.643386,"state":"NY","reference 1":"I2011001002","judgment of foreclosure":"Pending","filing date":"1/26/2011"},"type":"Feature","geometry":{"type":"Point","coordinates":[-77.643386,43.1718059]}},{"properties":{"city":"ROCHESTER","property address":"124 GRAY STREET ROCHESTER","control no":"2.01E+11","opposite name":"JPMORGAN CHASE BANK NA","id":"a63e0xk4g76y","lat":43.186233,"address":"124 GRAY STREET","long":-77.572579,"state":"NY","reference 1":"I2010016077","judgment of foreclosure":"Pending","filing date":"12/16/2010"},"type":"Feature","geometry":{"type":"Point","coordinates":[-77.572579,43.186233]}},{"properties":{"city":"ROCHESTER","property address":"124-128 SECOND ST ROCHESTER","control no":"2.01E+11","opposite name":"TOZER LESLIE","id":"a63e0xmpephr","lat":43.1690933,"address":"124-128 SECOND ST","long":-77.5869205,"state":"NY","reference 1":"I2010013592","judgment of foreclosure":"Pending","filing date":"10/19/2010"},"type":"Feature","geometry":{"type":"Point","coordinates":[-77.5869205,43.1690933]}},{"properties":{"city":"ROCHESTER","property address":"1252 EAST MAIN ST ROCHESTER","control no":"2.01E+11","opposite name":"SPENCER ROBERT","id":"a63e0xmggo3m","lat":43.1617419,"address":"1252 EAST MAIN ST","long":-77.578485,"state":"NY","reference 1":"I2010012561","judgment of foreclosure":"Pending","filing date":"9/28/2010 + 11/5/2010"},"type":"Feature","geometry":{"type":"Point","coordinates":[-77.578485,43.1617419]}},{"properties":{"city":"ROCHESTER","property address":"126 THOMAS STREET ROCHESTER","control no":"2.01E+11","opposite name":"RADTKE WILLIAM L","id":"a63e0xr29g66","lat":43.177548,"address":"126 THOMAS STREET","long":-77.604386,"state":"NY","reference 1":"I2010008689","judgment of foreclosure":"Pending","filing date":"7/8/2010"},"type":"Feature","geometry":{"type":"Point","coordinates":[-77.604386,43.177548]}},{"properties":{"city":"ROCHESTER","property address":"1270-1276 NORTON ST ROCHESTER","control no":"2.01E+11","opposite name":"OHARA EDWARD N","id":"a63e0xnh5u75","lat":43.1872197,"address":"1270-1276 NORTON ST","long":-77.5885381,"state":"NY","reference 1":"I2011001848","judgment of foreclosure":"Pending","filing date":"2/15/2011"},"type":"Feature","geometry":{"type":"Point","coordinates":[-77.5885381,43.1872197]}},{"properties":{"city":"HAMLIN","property address":"1310-1318 WALKER LAKE ONTARIO","control no":"2.01E+11","opposite name":"FRONTIER TELEPHONE OF ROCHESTER INC","id":"a63e0xd16x5l","lat":43.3038809,"address":"1310-1318 WALKER LAKE ONTARIO","long":-77.852503,"state":"NY","reference 1":"I2010013336","judgment of foreclosure":"Pending","filing date":"10/13/2010"},"type":"Feature","geometry":{"type":"Point","coordinates":[-77.852503,43.3038809]}},{"properties":{"city":"ROCHESTER","property address":"1349 CULVER ROAD ROCHESTER","control no":"2.01E+11","opposite name":"CAVALRY PORTFOLIO SERVICES LLC","id":"a63e0xbnufs4","lat":43.170156,"address":"1349 CULVER ROAD","long":-77.560972,"state":"NY","reference 1":"I2011000933","judgment of foreclosure":"Pending","filing date":"1/25/2011"},"type":"Feature","geometry":{"type":"Point","coordinates":[-77.560972,43.170156]}},{"properties":{"city":"ROCHESTER","property address":"135 BRADBURN STREET ROCHESTER","control no":"2.01E+11","opposite name":"ADVANTAGE FEDERAL CREDIT UNION","id":"a63e0xeuo0cq","lat":43.13397,"address":"135 BRADBURN STREET","long":-77.643647,"state":"NY","reference 1":"I2011004220","judgment of foreclosure":"Pending","filing date":"4/6/2011"},"type":"Feature","geometry":{"type":"Point","coordinates":[-77.643647,43.13397]}},{"properties":{"city":"ROCHESTER","property address":"135 COLUMBIA AVENUE ROCHESTER","control no":"2.01E+11","opposite name":"BENEFICIAL HOMEOWNER SERVICE CORPORATION","id":"a63e0xf65cre","lat":43.141402,"address":"135 COLUMBIA AVENUE","long":-77.624113,"state":"NY","reference 1":"I2011000939","judgment of foreclosure":"Pending","filing date":"1/25/2011"},"type":"Feature","geometry":{"type":"Point","coordinates":[-77.624113,43.141402]}},{"properties":{"city":"ROCHESTER","property address":"137 SHERWOOD AVENUE ROCHESTER","control no":"2.01E+11","opposite name":"WILLIAMS HELEN J","id":"a63e0xg7oi4f","lat":43.143819,"address":"137 SHERWOOD AVENUE","long":-77.647299,"state":"NY","reference 1":"I2011004308","judgment of foreclosure":"Pending","filing date":"4/7/2011"},"type":"Feature","geometry":{"type":"Point","coordinates":[-77.647299,43.143819]}},{"properties":{"city":"ROCHESTER","property address":"137 WOODBINE AVENUE ROCHESTER","control no":"2.01E+11","opposite name":"BEASLEY MICHELLE","id":"a63e0xdp5tqf","lat":43.14417,"address":"137 WOODBINE AVENUE","long":-77.646177,"state":"NY","reference 1":"I2011000075","judgment of foreclosure":"Pending","filing date":"1/4/2011"},"type":"Feature","geometry":{"type":"Point","coordinates":[-77.646177,43.14417]}},{"properties":{"city":"ROCHESTER","property address":"137-139 WELLINGTON AVENUE RO","control no":"2.01E+11","opposite name":"BROWN DONALD S","id":"a63e0xcuva7q","lat":43.1458712,"address":"137-139 WELLINGTON AVENUE","long":-77.64073,"state":"NY","reference 1":"I2010015267","judgment of foreclosure":"Pending","filing date":"12/1/2010"},"type":"Feature","geometry":{"type":"Point","coordinates":[-77.64073,43.1458712]}},{"properties":{"city":"ROCHESTER","property address":"138 FERNCLIFFE DRIVE ROCHESTER","control no":"2.01E+11","opposite name":"FIRST FRANKLIN FINANCIAL CORPORATION","id":"a63e0xhulah3","lat":43.178575,"address":"138 FERNCLIFFE DRIVE","long":-77.581894,"state":"NY","reference 1":"I2011002555","judgment of foreclosure":"Pending","filing date":"3/2/2011 + 4/8/2011"},"type":"Feature","geometry":{"type":"Point","coordinates":[-77.581894,43.178575]}},{"properties":{"city":"ROCHESTER","property address":"1392-1396 CULVER RD ROCHESTER","control no":"2.01E+11","opposite name":"NOEL WILLIAM CARLOS","id":"a63e0xnnc0ox","lat":43.1710443,"address":"1392-1396 CULVER RD","long":-77.5601188,"state":"NY","reference 1":"I2010012662","judgment of foreclosure":"Pending","filing date":"9/30/2010 + 2/4/2011"},"type":"Feature","geometry":{"type":"Point","coordinates":[-77.5601188,43.1710443]}},{"properties":{"city":"ROCHESTER","property address":"141 SOUTH FITZHUGH STREET RO","control no":"2.01E+11","opposite name":"LEO REICH REALTY COMPANY","id":"a63e0xioixz9","lat":43.150102,"address":"141 SOUTH FITZHUGH STREET","long":-77.612481,"state":"NY","reference 1":"I2010013320","judgment of foreclosure":"Pending","filing date":"10/13/2010"},"type":"Feature","geometry":{"type":"Point","coordinates":[-77.612481,43.150102]}},{"properties":{"city":"ROCHESTER","property address":"1415 SCOTTSVILLE ROAD CHILI","control no":"2.01E+11","opposite name":"KEYBANK NATIONAL ASSOCIATION","id":"a63e0xgmelio","lat":43.111355,"address":"1415 SCOTTSVILLE ROAD","long":-77.672751,"state":"NY","reference 1":"I2010008369","judgment of foreclosure":"Pending","filing date":"7/1/2010 + 8/11/2010"},"type":"Feature","geometry":{"type":"Point","coordinates":[-77.672751,43.111355]}},{"properties":{"city":"ROCHESTER","property address":"143-145 UNIVERSITY AVE ROCHEST","control no":"2.01E+11","opposite name":"WYCHE JOHN A","id":"a63e0xgcp2qn","lat":43.1601226,"address":"143-145 UNIVERSITY AVE","long":-77.598971,"state":"NY","reference 1":"I2009016381","judgment of foreclosure":"Pending","filing date":"11/19/2009 + 8/25/2010"},"type":"Feature","geometry":{"type":"Point","coordinates":[-77.598971,43.1601226]}},{"properties":{"city":"ROCHESTER","property address":"144 GRAFTON STREET ROCHESTER","control no":"2.01E+11","opposite name":"ADELL PAUL J","id":"a63e0xf0p95w","lat":43.183839,"address":"144 GRAFTON STREET","long":-77.581178,"state":"NY","reference 1":"I2010002777","judgment of foreclosure":"Pending","filing date":"3/4/2010"},"type":"Feature","geometry":{"type":"Point","coordinates":[-77.581178,43.183839]}},{"properties":{"city":"ROCHESTER","property address":"144 MELVILLE STREET ROCHESTER","control no":"2.01E+11","opposite name":"FUNCHESS MELANIE","id":"a63e0xkwgtmw","lat":43.166687,"address":"144 MELVILLE STREET","long":-77.5736019,"state":"NY","reference 1":"I2011002556","judgment of foreclosure":"Pending","filing date":"3/2/2011"},"type":"Feature","geometry":{"type":"Point","coordinates":[-77.5736019,43.166687]}},{"properties":{"city":"ROCHESTER","property address":"144 STUTSON STREET ROCHESTER","control no":"2.01E+11","opposite name":"FORKELL HOWARD LOUIS","id":"a63e0xpi35ec","lat":43.251289,"address":"144 STUTSON STREET","long":-77.615424,"state":"NY","reference 1":"I2010015610","judgment of foreclosure":"Pending","filing date":"12/8/2010"},"type":"Feature","geometry":{"type":"Point","coordinates":[-77.615424,43.251289]}},{"properties":{"city":"ROCHESTER","property address":"1445 WEST RIDGE ROAD GREECE","control no":"2.01E+11","opposite name":"SPRAGUE MANAGEMENT INC","id":"a63e0xoe242d","lat":43.2048648,"address":"1445 WEST RIDGE ROAD","long":-77.6660589,"state":"NY","reference 1":"I2008007157","judgment of foreclosure":"Pending","filing date":"5/22/2008"},"type":"Feature","geometry":{"type":"Point","coordinates":[-77.6660589,43.2048648]}},{"properties":{"city":"ROCHESTER","property address":"145 DEVONSHIRE COURT ROCHESTER","control no":"2.01E+11","opposite name":"COUCHMAN ELIZABETH M","id":"a63e0xhfcz2m","lat":43.142745,"address":"145 DEVONSHIRE COURT","long":-77.655165,"state":"NY","reference 1":"I2010014853","judgment of foreclosure":"Pending","filing date":"11/18/2010"},"type":"Feature","geometry":{"type":"Point","coordinates":[-77.655165,43.142745]}},{"properties":{"city":"ROCHESTER","property address":"146 DUXBURY ROAD GREECE","control no":"2.01E+11","opposite name":"AAMES FUNDING CORPORATION","id":"a63e0xdymfb7","lat":43.212047,"address":"146 DUXBURY ROAD","long":-77.6896359,"state":"NY","reference 1":"I2010008679","judgment of foreclosure":"Pending","filing date":"7/8/2010"},"type":"Feature","geometry":{"type":"Point","coordinates":[-77.6896359,43.212047]}},{"properties":{"city":"ROCHESTER","property address":"147 KELLER STREET ROCHESTER","control no":"2.01E+11","opposite name":"CHATMAN WANDA L","id":"a63e0xesiyfl","lat":43.174127,"address":"147 KELLER STREET","long":-77.577791,"state":"NY","reference 1":"I2011000079","judgment of foreclosure":"Pending","filing date":"1/4/2011 + 3/9/2011"},"type":"Feature","geometry":{"type":"Point","coordinates":[-77.577791,43.174127]}},{"properties":{"city":"ROCHESTER","property address":"1486 EAST MAIN ST ROCHESTER","control no":"2.01E+11","opposite name":"BENEFICIAL HOMEOWNER SERVICE CORPORATION","id":"a63e0xg583t5","lat":43.160795,"address":"1486 EAST MAIN ST","long":-77.571837,"state":"NY","reference 1":"I2010013378","judgment of foreclosure":"Pending","filing date":"10/14/2010"},"type":"Feature","geometry":{"type":"Point","coordinates":[-77.571837,43.160795]}},{"properties":{"city":"ROCHESTER","property address":"149 SHELTER STREET ROCHESTER","control no":"2.01E+11","opposite name":"JONES JAMES J","id":"a63e0xj2j5t2","lat":43.138608,"address":"149 SHELTER STREET","long":-77.633179,"state":"NY","reference 1":"I2010013792","judgment of foreclosure":"Pending","filing date":"10/22/2010"},"type":"Feature","geometry":{"type":"Point","coordinates":[-77.633179,43.138608]}},{"properties":{"city":"ROCHESTER","property address":"1495 NORTH GOODMAN STREET ROCH","control no":"2.01E+11","opposite name":"ROTHSCHILD DONALD W","id":"a63e0xp4h8xw","lat":43.182315,"address":"1495 NORTH GOODMAN STREET","long":-77.576318,"state":"NY","reference 1":"I2011000402","judgment of foreclosure":"Pending","filing date":"1/11/2011"},"type":"Feature","geometry":{"type":"Point","coordinates":[-77.576318,43.182315]}},{"properties":{"city":"ROCHESTER","property address":"15 CLAIRMOUNT STREET ROCHESTER","control no":"2.01E+11","opposite name":"MIDDLEBROOK BRENT J","id":"a63e0xns3qh0","lat":43.176032,"address":"15 CLAIRMOUNT STREET","long":-77.583237,"state":"NY","reference 1":"I2011001004","judgment of foreclosure":"Pending","filing date":"1/26/2011"},"type":"Feature","geometry":{"type":"Point","coordinates":[-77.583237,43.176032]}},{"properties":{"city":"ROCHESTER","property address":"15 LARK STREET ROCHESTER","control no":"2.01E+11","opposite name":"ESL FEDERAL CREDIT UNION","id":"a63e0xbx4tfa","lat":43.1796689,"address":"15 LARK STREET","long":-77.644675,"state":"NY","reference 1":"I2010015525","judgment of foreclosure":"Pending","filing date":"12/7/2010"},"type":"Feature","geometry":{"type":"Point","coordinates":[-77.644675,43.1796689]}},{"properties":{"city":"ROCHESTER","property address":"150 CAMPBELL STREET ROCHESTER","control no":"2.01E+11","opposite name":"ROMANO GINO","id":"a63e0xllqktj","lat":43.157651,"address":"150 CAMPBELL STREET","long":-77.63134,"state":"NY","reference 1":"I2010012664","judgment of foreclosure":"Pending","filing date":"9/30/2010"},"type":"Feature","geometry":{"type":"Point","coordinates":[-77.63134,43.157651]}},{"properties":{"city":"ROCHESTER","property address":"1505 CLIFFORD AVENUE ROCHESTER","control no":"2.01E+11","opposite name":"ROCHESTER CITY OF","id":"a63e0xiborbt","lat":43.1754869,"address":"1505 CLIFFORD AVENUE","long":-77.581802,"state":"NY","reference 1":"I2010016354","judgment of foreclosure":"Pending","filing date":"12/27/2010"},"type":"Feature","geometry":{"type":"Point","coordinates":[-77.581802,43.1754869]}},{"properties":{"city":"ROCHESTER","property address":"1509-1511 E MAIN ST ROCHESTER","control no":"2.01E+11","opposite name":"MONROE COUNTY DEPT OF HUMAN SERVICES DIV OF SOCIAL SERVICES","id":"a63e0xbpbn0t","lat":43.1603369,"address":"1509-1511 E MAIN ST","long":-77.5706771,"state":"NY","reference 1":"I2010013325","judgment of foreclosure":"Pending","filing date":"10/13/2010 + 12/23/2010"},"type":"Feature","geometry":{"type":"Point","coordinates":[-77.5706771,43.1603369]}},{"properties":{"city":"ROCHESTER","property address":"151 VILLA STREET ROCHESTER","control no":"2.01E+11","opposite name":"ROTHSCHILD DONALD W","id":"a63e0xgw2til","lat":43.171433,"address":"151 VILLA STREET","long":-77.647331,"state":"NY","reference 1":"I2011000423","judgment of foreclosure":"Pending","filing date":"1/12/2011"},"type":"Feature","geometry":{"type":"Point","coordinates":[-77.647331,43.171433]}},{"properties":{"city":"ROCHESTER","property address":"151-157 UNIVERSITY AVENUE RO","control no":"2.01E+11","opposite name":"WYCHE JOHN A","id":"a63e0xfp4fn1","lat":43.1600384,"address":"151-157 UNIVERSITY AVENUE","long":-77.5986838,"state":"NY","reference 1":"I2009016378","judgment of foreclosure":"Pending","filing date":"11/19/2009 + 9/8/2010"},"type":"Feature","geometry":{"type":"Point","coordinates":[-77.5986838,43.1600384]}},{"properties":{"city":"ROCHESTER","property address":"154 FURLONG STREET ROCHESTER","control no":"2.01E+11","opposite name":"GILL WARREN J","id":"a63e0xpzdi86","lat":43.1852984,"address":"154 FURLONG STREET","long":-77.5884771,"state":"NY","reference 1":"I2011004313","judgment of foreclosure":"Pending","filing date":"4/7/2011"},"type":"Feature","geometry":{"type":"Point","coordinates":[-77.5884771,43.1852984]}},{"properties":{"city":"ROCHESTER","property address":"156-158 FLANDERS ST ROCHESTER","control no":"2.01E+11","opposite name":"WILSON JUENE","id":"a63e0xrifukc","lat":43.1359635,"address":"156-158 FLANDERS ST","long":-77.6499042,"state":"NY","reference 1":"I2011001453","judgment of foreclosure":"Pending","filing date":"2/4/2011"},"type":"Feature","geometry":{"type":"Point","coordinates":[-77.6499042,43.1359635]}},{"properties":{"city":"ROCHESTER","property address":"158 SANFORD STREET ROCHESTER","control no":"2.01E+11","opposite name":"HOUSEHOLD FINANCE REALTY CORPORATION OF NEW YORK","id":"a63e0xlb001w","lat":43.1409049,"address":"158 SANFORD STREET","long":-77.609078,"state":"NY","reference 1":"I2011004217","judgment of foreclosure":"Pending","filing date":"4/6/2011"},"type":"Feature","geometry":{"type":"Point","coordinates":[-77.609078,43.1409049]}},{"properties":{"city":"ROCHESTER","property address":"160-160.5 BARTLETT STREET ROCH","control no":"2.01E+11","opposite name":"BELL LEROY","id":"a63e0xmagwt0","lat":43.16103,"address":"160-160.5 BARTLETT STREET ROCH","long":-77.6109219,"state":"NY","reference 1":"I2010016464","judgment of foreclosure":"Pending","filing date":"12/29/2010"},"type":"Feature","geometry":{"type":"Point","coordinates":[-77.6109219,43.16103]}},{"properties":{"city":"ROCHESTER","property address":"162 CUMMINGS ST ROCHESTER(MULT)","control no":"2.01E+11","opposite name":"BANK OF AMERICA NATIONAL ASSOCIATION","id":"a63e0xhw43gr","lat":43.174183,"address":"162 CUMMINGS ST","long":-77.573258,"state":"NY","reference 1":"I2011001466","judgment of foreclosure":"Pending","filing date":"2/4/2011"},"type":"Feature","geometry":{"type":"Point","coordinates":[-77.573258,43.174183]}},{"properties":{"city":"EAST ROCHESTER","property address":"163 WEST COMMERCIAL STREET ER","control no":"2.01E+11","opposite name":"MARTIN DAVID","id":"a63e0xol78o8","lat":43.113847,"address":"163 WEST COMMERCIAL STREET","long":-77.487441,"state":"NY","reference 1":"I2010006278","judgment of foreclosure":"Pending","filing date":"5/18/2010"},"type":"Feature","geometry":{"type":"Point","coordinates":[-77.487441,43.113847]}},{"properties":{"city":"ROCHESTER","property address":"1630 CLIFFORD AVENUE ROCHESTER","control no":"2.01E+11","opposite name":"COPENHAGEN EDWARD","id":"a63e0xjivadv","lat":43.176007,"address":"1630 CLIFFORD AVENUE","long":-77.578154,"state":"NY","reference 1":"I2011001559","judgment of foreclosure":"Pending","filing date":"2/8/2011"},"type":"Feature","geometry":{"type":"Point","coordinates":[-77.578154,43.176007]}},{"properties":{"city":"ROCHESTER","property address":"165 FREY STREET ROCHESTER","control no":"2.01E+11","opposite name":"ROBBINS ANNA","id":"a63e0xo40mx4","lat":43.2402299,"address":"165 FREY STREET","long":-77.626602,"state":"NY","reference 1":"I2011002897","judgment of foreclosure":"Pending","filing date":"3/10/2011"},"type":"Feature","geometry":{"type":"Point","coordinates":[-77.626602,43.2402299]}},{"properties":{"city":"ROCHESTER","property address":"1661 NORTH CLINTON AVENUE ROCH","control no":"2.01E+11","opposite name":"SNYDER JOAN","id":"a63e0xgvwz6y","lat":43.1910959,"address":"1661 NORTH CLINTON AVENUE","long":-77.6129239,"state":"NY","reference 1":"I2010016512","judgment of foreclosure":"Pending","filing date":"12/30/2010"},"type":"Feature","geometry":{"type":"Point","coordinates":[-77.6129239,43.1910959]}},{"properties":{"city":"ROCHESTER","property address":"166-168 FLINT STREET ROCHESTER","control no":"2.01E+11","opposite name":"SHACKELFORD JACKIE M","id":"a63e0xldmo8x","lat":43.1397595,"address":"166-168 FLINT STREET","long":-77.6240309,"state":"NY","reference 1":"I2010008389","judgment of foreclosure":"Pending","filing date":"7/1/2010"},"type":"Feature","geometry":{"type":"Point","coordinates":[-77.6240309,43.1397595]}},{"properties":{"city":"ROCHESTER","property address":"1667 CLIFFORD AVENUE ROCHESTER","control no":"2.01E+11","opposite name":"USA","id":"a63e0xlngah2","lat":43.17556,"address":"1667 CLIFFORD AVENUE","long":-77.577254,"state":"NY","reference 1":"I2011001148","judgment of foreclosure":"Pending","filing date":"1/28/2011"},"type":"Feature","geometry":{"type":"Point","coordinates":[-77.577254,43.17556]}},{"properties":{"city":"ROCHESTER","property address":"167 SARATOGA AVENUE ROCHESTER","control no":"2.01E+11","opposite name":"CAMPBELL TRESEA","id":"a63e0xn5m0et","lat":43.167085,"address":"167 SARATOGA AVENUE","long":-77.631501,"state":"NY","reference 1":"I2010016507","judgment of foreclosure":"Pending","filing date":"12/30/2010"},"type":"Feature","geometry":{"type":"Point","coordinates":[-77.631501,43.167085]}},{"properties":{"city":"ROCHESTER","property address":"168 FULTON AVENUE ROCHESTER","control no":null,"opposite name":"FEDELE PHILIP","id":"a63e0xpwi4e7","lat":43.174264,"address":"168 FULTON AVENUE","long":-77.630714,"state":"NY","reference 1":null,"judgment of foreclosure":"Pending","filing date":"4/12/2011"},"type":"Feature","geometry":{"type":"Point","coordinates":[-77.630714,43.174264]}},{"properties":{"city":"ROCHESTER","property address":"169 WINBOURNE ROAD ROCHESTER","control no":"2.01E+11","opposite name":"BROOKS CHARLEEN","id":"a63e0xmmhuh5","lat":43.125225,"address":"169 WINBOURNE ROAD","long":-77.644927,"state":"NY","reference 1":"I2010014738","judgment of foreclosure":"Pending","filing date":"11/17/2010 + 1/4/2011"},"type":"Feature","geometry":{"type":"Point","coordinates":[-77.644927,43.125225]}},{"properties":{"city":"ROCHESTER","property address":"1701-1713 LYELL AVE ROCHESTER(MULT)","control no":"2.01E+11","opposite name":"MIZE JAMES C JR","id":"a63e0xkgkgqz","lat":43.164683,"address":"1701-1713 LYELL AVE","long":-77.6713479,"state":"NY","reference 1":"I2011001993","judgment of foreclosure":"Pending","filing date":"2/17/2011"},"type":"Feature","geometry":{"type":"Point","coordinates":[-77.6713479,43.164683]}},{"properties":{"city":"ROCHESTER","property address":"1717 GOODMAN ST N ROCHESTER","control no":"2.01E+11","opposite name":"MONROE COUNTY OF","id":"a63e0xcszdgn","lat":43.186872,"address":"1717 GOODMAN ST N","long":-77.576577,"state":"NY","reference 1":"I2011002550","judgment of foreclosure":"Pending","filing date":"3/2/2011"},"type":"Feature","geometry":{"type":"Point","coordinates":[-77.576577,43.186872]}},{"properties":{"city":"ROCHESTER","property address":"173 AUGUSTINE STREET ROCHESTER","control no":"2.01E+11","opposite name":"LAKE CHRISTOPHER J","id":"a63e0xie4a0g","lat":43.185937,"address":"173 AUGUSTINE STREET","long":-77.635835,"state":"NY","reference 1":"I2010007885","judgment of foreclosure":"Pending","filing date":"6/22/2010"},"type":"Feature","geometry":{"type":"Point","coordinates":[-77.635835,43.185937]}},{"properties":{"city":"ROCHESTER","property address":"1733 NORTON STREET ROCHESTER","control no":"2.01E+11","opposite name":"BANCO POPULAR NORTH AMERICA","id":"a63e0xbvr8uz","lat":43.187291,"address":"1733 NORTON STREET","long":-77.575325,"state":"NY","reference 1":"I2010013332","judgment of foreclosure":"Pending","filing date":"10/13/2010"},"type":"Feature","geometry":{"type":"Point","coordinates":[-77.575325,43.187291]}},{"properties":{"city":"WEBSTER","property address":"178 PHILLIPS ROAD WEBSTER","control no":"2.01E+11","opposite name":"RUCKDESCHEL FREDERICK R","id":"a63e0xdk6gp5","lat":43.263988,"address":"178 PHILLIPS ROAD","long":-77.418414,"state":"NY","reference 1":"I2010013786","judgment of foreclosure":"Pending","filing date":"10/22/2010"},"type":"Feature","geometry":{"type":"Point","coordinates":[-77.418414,43.263988]}},{"properties":{"city":"ROCHESTER","property address":"18 MERIDEN STREET ROCHESTER","control no":"2.01E+11","opposite name":"NYS DEPT OF TAXATION &amp; FINANCE","id":"a63e0xqxepcm","lat":43.259884,"address":"18 MERIDEN STREET","long":-77.612097,"state":"NY","reference 1":"I2011002558","judgment of foreclosure":"Pending","filing date":"3/2/2011"},"type":"Feature","geometry":{"type":"Point","coordinates":[-77.612097,43.259884]}},{"properties":{"city":"ROCHESTER","property address":"18 PLOVER STREET ROCHESTER","control no":"2.01E+11","opposite name":"ROTHSCHILD DONALD W","id":"a63e0xeq1kr2","lat":43.174301,"address":"18 PLOVER STREET","long":-77.641465,"state":"NY","reference 1":"I2011004373","judgment of foreclosure":"Pending","filing date":"4/8/2011"},"type":"Feature","geometry":{"type":"Point","coordinates":[-77.641465,43.174301]}},{"properties":{"city":"ROCHESTER","property address":"18 THURSTON ROAD ROCHESTER","control no":"2.01E+11","opposite name":"HORN KARL H","id":"a63e0xl238xd","lat":43.144939,"address":"18 THURSTON ROAD","long":-77.650681,"state":"NY","reference 1":"I2010008045","judgment of foreclosure":"Pending","filing date":"6/24/2010 + 9/1/2010"},"type":"Feature","geometry":{"type":"Point","coordinates":[-77.650681,43.144939]}},{"properties":{"city":"ROCHESTER","property address":"180 DRIVING PARK AVE ROCHESTER","control no":"2.01E+11","opposite name":"HOUSEHOLD FINANCE REALTY CORPORATION OF NEW YORK","id":"a63e0xh3vdou","lat":43.181148,"address":"180 DRIVING PARK AVE","long":-77.634634,"state":"NY","reference 1":"I2011002832","judgment of foreclosure":"Pending","filing date":"3/9/2011"},"type":"Feature","geometry":{"type":"Point","coordinates":[-77.634634,43.181148]}},{"properties":{"city":"ROCHESTER","property address":"1800 N CLINTON AVE ROCHSTER","control no":"2.01E+11","opposite name":"BOCCIA FRANK J","id":"a63e0xityx5h","lat":43.1935425,"address":"1800 N CLINTON AVE","long":-77.6123916,"state":"NY","reference 1":"I2011004226","judgment of foreclosure":"Pending","filing date":"4/6/2011"},"type":"Feature","geometry":{"type":"Point","coordinates":[-77.6123916,43.1935425]}},{"properties":{"city":"ROCHESTER","property address":"181 KLEIN STREET ROCHESTER","control no":"2.01E+11","opposite name":"ARROW FINANCIAL SERVICES LLC","id":"a63e0xr9qnrp","lat":43.1876869,"address":"181 KLEIN STREET","long":-77.604416,"state":"NY","reference 1":"I2011001558","judgment of foreclosure":"Pending","filing date":"2/8/2011"},"type":"Feature","geometry":{"type":"Point","coordinates":[-77.604416,43.1876869]}},{"properties":{"city":"ROCHESTER","property address":"18-20 TRENAMAN ST ROCHESTER","control no":"2.01E+11","opposite name":"HUNTER JENNIFER","id":"a63e0xkxydlq","lat":43.1844692,"address":"18-20 TRENAMAN ST","long":-77.615687,"state":"NY","reference 1":"I2011001402","judgment of foreclosure":"Pending","filing date":"2/3/2011"},"type":"Feature","geometry":{"type":"Point","coordinates":[-77.615687,43.1844692]}},{"properties":{"city":"ROCHESTER","property address":"185 SOUTHAMPTON DR ROCHESTER","control no":"2.01E+11","opposite name":"PEOPLE OF THE STATE OF NY","id":"a63e0xq6peif","lat":43.21333,"address":"185 SOUTHAMPTON DR","long":-77.643806,"state":"NY","reference 1":"I2010009246","judgment of foreclosure":"Pending","filing date":"12/14/2010 + 7/20/2010"},"type":"Feature","geometry":{"type":"Point","coordinates":[-77.643806,43.21333]}},{"properties":{"city":"ROCHESTER","property address":"19 KELLER STREET ROCHESTER","control no":"2.01E+11","opposite name":"DELGADO WANDA","id":"a63e0xiepvfk","lat":43.174019,"address":"19 KELLER STREET","long":-77.581451,"state":"NY","reference 1":"I2010016555","judgment of foreclosure":"Pending","filing date":"12/30/2010"},"type":"Feature","geometry":{"type":"Point","coordinates":[-77.581451,43.174019]}},{"properties":{"city":"ROCHESTER","property address":"194 MELVILLE STREET ROCHESTER","control no":"2.01E+11","opposite name":"HARRIS EDITH L","id":"a63e0xrh21jq","lat":43.166725,"address":"194 MELVILLE STREET","long":-77.572027,"state":"NY","reference 1":"I2010008388","judgment of foreclosure":"Pending","filing date":"8/25/2010"},"type":"Feature","geometry":{"type":"Point","coordinates":[-77.572027,43.166725]}},{"properties":{"city":"ROCHESTER","property address":"195 HAGUE STREET ROCHESTER","control no":"2.01E+11","opposite name":"CHASE BANK USA NATIONAL ASSOCIATION","id":"a63e0xgg4ypf","lat":43.154077,"address":"195 HAGUE STREET","long":-77.64682,"state":"NY","reference 1":"I2011001131","judgment of foreclosure":"Pending","filing date":"1/28/2011"},"type":"Feature","geometry":{"type":"Point","coordinates":[-77.64682,43.154077]}},{"properties":{"city":"ROCHESTER","property address":"195 MELVILLE STREET ROCHESTER","control no":"2.01E+11","opposite name":"HARRIS EDITH L","id":"a63e0xoy20nj","lat":43.166374,"address":"195 MELVILLE STREET","long":-77.572052,"state":"NY","reference 1":"I2010008388","judgment of foreclosure":"Pending","filing date":"7/1/2010"},"type":"Feature","geometry":{"type":"Point","coordinates":[-77.572052,43.166374]}},{"properties":{"city":"ROCHESTER","property address":"196 FOURTH STREET ROCHESTER","control no":"2.01E+11","opposite name":"TISDALE JEROME","id":"a63e0xd9582r","lat":43.166945,"address":"196 FOURTH STREET","long":-77.584243,"state":"NY","reference 1":"I2010015613","judgment of foreclosure":"Pending","filing date":"12/8/2010"},"type":"Feature","geometry":{"type":"Point","coordinates":[-77.584243,43.166945]}},{"properties":{"city":"ROCHESTER","property address":"1981 S CLINTON AVE BRIGHTON","control no":"2.01E+11","opposite name":"CRAGG RUSSELL B","id":"a63e0xgo09jo","lat":43.120347,"address":"1981 S CLINTON AVE","long":-77.595684,"state":"NY","reference 1":"I2010014546","judgment of foreclosure":"Pending","filing date":"11/10/2010"},"type":"Feature","geometry":{"type":"Point","coordinates":[-77.595684,43.120347]}},{"properties":{"city":"ROCHESTER","property address":"20 AURORA STREET ROCHESTER","control no":"2.01E+11","opposite name":"SCHWIND FREDERICK J","id":"a63e0xc6eff5","lat":43.17814,"address":"20 AURORA STREET","long":-77.584593,"state":"NY","reference 1":"I2010016343","judgment of foreclosure":"Pending","filing date":"12/27/2010 + 1/20/2011"},"type":"Feature","geometry":{"type":"Point","coordinates":[-77.584593,43.17814]}},{"properties":{"city":"ROCHESTER","property address":"2005 CLIFFORD AVENUE ROCHESTER","control no":"2.01E+11","opposite name":"WILLIAMS MARILYN","id":"a63e0xfwcazx","lat":43.175893,"address":"2005 CLIFFORD AVENUE","long":-77.567801,"state":"NY","reference 1":"I2011000937","judgment of foreclosure":"Pending","filing date":"1/25/2011"},"type":"Feature","geometry":{"type":"Point","coordinates":[-77.567801,43.175893]}},{"properties":{"city":"ROCHESTER","property address":"201 FOURTH STREET ROCHESTER","control no":"2.01E+11","opposite name":"JPMORGAN CHASE BANK NA","id":"a63e0xg98wwq","lat":43.167039,"address":"201 FOURTH STREET","long":-77.584947,"state":"NY","reference 1":"I2010016491","judgment of foreclosure":"Pending","filing date":"12/29/2010"},"type":"Feature","geometry":{"type":"Point","coordinates":[-77.584947,43.167039]}},{"properties":{"city":"ROCHESTER","property address":"203 WINTERROTH ST ROCHESTER","control no":"2.01E+11","opposite name":"BINION KATHERINDE WRIGHT","id":"a63e0xo122vv","lat":43.175053,"address":"203 WINTERROTH ST","long":-77.575759,"state":"NY","reference 1":"I2011004333","judgment of foreclosure":"Pending","filing date":"4/7/2011"},"type":"Feature","geometry":{"type":"Point","coordinates":[-77.575759,43.175053]}},{"properties":{"city":"ROCHESTER","property address":"2034 PORTLAND AVE IRONDEQUOIT","control no":"2.01E+11","opposite name":"CUVA WILLIAM W","id":"a63e0xq4vqif","lat":43.2048429,"address":"2034 PORTLAND AVE","long":-77.584871,"state":"NY","reference 1":"I2010008629","judgment of foreclosure":"Pending","filing date":"7/8/2010 + 9/8/2010"},"type":"Feature","geometry":{"type":"Point","coordinates":[-77.584871,43.2048429]}},{"properties":{"city":"ROCHESTER","property address":"2034 W HENRIETTA ROAD BRIGHTON","control no":"2.01E+11","opposite name":"COON DAVID","id":"a63e0xrwvitn","lat":43.1104157,"address":"2034 W HENRIETTA ROAD","long":-77.6246303,"state":"NY","reference 1":"I2010008641","judgment of foreclosure":"Pending","filing date":"7/8/2010"},"type":"Feature","geometry":{"type":"Point","coordinates":[-77.6246303,43.1104157]}},{"properties":{"city":"ROCHESTER","property address":"206 SAWYER STREET ROCHESTER","control no":"2.01E+11","opposite name":"KILGORE &amp; KILGORE","id":"a63e0xq2pinr","lat":43.135238,"address":"206 SAWYER STREET","long":-77.63842,"state":"NY","reference 1":"I2010016489","judgment of foreclosure":"Pending","filing date":"12/29/2010"},"type":"Feature","geometry":{"type":"Point","coordinates":[-77.63842,43.135238]}},{"properties":{"city":"ROCHESTER","property address":"2080 EAST MAIN ST ROCHESTER","control no":"2.01E+11","opposite name":"ESL FEDERAL CREDIT UNION","id":"a63e0xmmqyl5","lat":43.160347,"address":"2080 EAST MAIN ST","long":-77.555147,"state":"NY","reference 1":"I2010007246","judgment of foreclosure":"Pending","filing date":"6/8/2010"},"type":"Feature","geometry":{"type":"Point","coordinates":[-77.555147,43.160347]}},{"properties":{"city":"ROCHESTER","property address":"21 BRIGHTON STREET ROCHESTER","control no":"2.01E+11","opposite name":"MONROE COUNTY OF","id":"a63e0xj22i0m","lat":43.148753,"address":"21 BRIGHTON STREET","long":-77.59166,"state":"NY","reference 1":"I2010012562","judgment of foreclosure":"Pending","filing date":"9/28/2010"},"type":"Feature","geometry":{"type":"Point","coordinates":[-77.59166,43.148753]}},{"properties":{"city":"ROCHESTER","property address":"211 AVERY STREET ROCHESTER","control no":"2.01E+11","opposite name":"PEOPLE OF THE STATE OF NY","id":"a63e0xja925s","lat":43.169052,"address":"211 AVERY STREET","long":-77.65052,"state":"NY","reference 1":"I2010016301","judgment of foreclosure":"Pending","filing date":"12/23/2010"},"type":"Feature","geometry":{"type":"Point","coordinates":[-77.65052,43.169052]}},{"properties":{"city":"EAST ROCHESTER","property address":"212 EAST CHESTNUT STREET EROCH","control no":"2.01E+11","opposite name":"LAMBERT JANINE","id":"a63e0xocc48h","lat":43.112471,"address":"212 EAST CHESTNUT STREET","long":-77.481286,"state":"NY","reference 1":"I2010007375","judgment of foreclosure":"Pending","filing date":"6/10/2010"},"type":"Feature","geometry":{"type":"Point","coordinates":[-77.481286,43.112471]}},{"properties":{"city":"ROCHESTER","property address":"21-21.5 CLIFTON ST ROCHESTER","control no":"2.01E+11","opposite name":"FRANKLIN GENERAL","id":"a63e0xqzvqzz","lat":43.1503838,"address":"21-21.5 CLIFTON ST","long":-77.6260723,"state":"NY","reference 1":"I2011003976","judgment of foreclosure":"Pending","filing date":"3/31/2011"},"type":"Feature","geometry":{"type":"Point","coordinates":[-77.6260723,43.1503838]}},{"properties":{"city":"ROCHESTER","property address":"216 HAZELWOOD TER ROCHETER","control no":"2.01E+11","opposite name":"MARTINEZES EDWIN E","id":"a63e0xc1cwfy","lat":43.167596,"address":"216 HAZELWOOD TER","long":-77.570244,"state":"NY","reference 1":"I2010016450","judgment of foreclosure":"Pending","filing date":"12/29/2010"},"type":"Feature","geometry":{"type":"Point","coordinates":[-77.570244,43.167596]}},{"properties":{"city":"ROCHESTER","property address":"2167-2169 CLIFFORD AVENUE RO","control no":"2.01E+11","opposite name":"NYS DEPT OF TAXATION &amp; FINANCE","id":"a63e0xd3nezn","lat":43.1761966,"address":"2167-2169 CLIFFORD AVENUE","long":-77.5631281,"state":"NY","reference 1":"I2010006272","judgment of foreclosure":"Pending","filing date":"5/18/2010"},"type":"Feature","geometry":{"type":"Point","coordinates":[-77.5631281,43.1761966]}},{"properties":{"city":"ROCHESTER","property address":"217 ELLISON STREET ROCHESTER","control no":"2.01E+11","opposite name":"ROCHESTER CITY OF","id":"a63e0xo6on0b","lat":43.172996,"address":"217 ELLISON STREET","long":-77.5734499,"state":"NY","reference 1":"I2011000987","judgment of foreclosure":"Pending","filing date":"1/26/2011"},"type":"Feature","geometry":{"type":"Point","coordinates":[-77.5734499,43.172996]}},{"properties":{"city":"ROCHESTER","property address":"22 WRIGHT STREET ROCHESTER","control no":"2.01E+11","opposite name":"32 WRIGHT ST CORP","id":"a63e0xk4jzc7","lat":43.1532971,"address":"22 WRIGHT STREET","long":-77.6397503,"state":"NY","reference 1":"I2010005456","judgment of foreclosure":"Pending","filing date":"4/30/2010"},"type":"Feature","geometry":{"type":"Point","coordinates":[-77.6397503,43.1532971]}},{"properties":{"city":"ROCHESTER","property address":"221 CURTIS STREET ROCHESTER","control no":"2.01E+11","opposite name":"HOUSEHOLD FINANCE REALTY CORPORATION OF NEW YORK","id":"a63e0xfof929","lat":43.1730893,"address":"221 CURTIS STREET","long":-77.6462203,"state":"NY","reference 1":"I2011003308","judgment of foreclosure":"Pending","filing date":"3/18/2011"},"type":"Feature","geometry":{"type":"Point","coordinates":[-77.6462203,43.1730893]}},{"properties":{"city":"ROCHESTER","property address":"222 WINTERROTH ST ROCHESTER","control no":"2.01E+11","opposite name":"FRIGA TODD M","id":"a63e0xbv077s","lat":43.17526,"address":"222 WINTERROTH ST","long":-77.574976,"state":"NY","reference 1":"I2011001401","judgment of foreclosure":"Pending","filing date":"2/3/2011"},"type":"Feature","geometry":{"type":"Point","coordinates":[-77.574976,43.17526]}},{"properties":{"city":"ROCHESTER","property address":"223 OAK STREET ROCHESTER(MULT)","control no":"2.01E+11","opposite name":"MANUFACTURERS AND TRADERS TRUST COMPANY","id":"a63e0xcpfvh6","lat":43.157872,"address":"223 OAK STREET","long":-77.622728,"state":"NY","reference 1":"I2010013337","judgment of foreclosure":"Pending","filing date":"10/13/2010"},"type":"Feature","geometry":{"type":"Point","coordinates":[-77.622728,43.157872]}},{"properties":{"city":"ROCHESTER","property address":"225 CURTIS STREET ROCHESTER","control no":"2.01E+11","opposite name":"BELL CHAWAKA","id":"a63e0xc4hmki","lat":43.172879,"address":"225 CURTIS STREET","long":-77.646361,"state":"NY","reference 1":"I2010007884","judgment of foreclosure":"Pending","filing date":"6/22/2010"},"type":"Feature","geometry":{"type":"Point","coordinates":[-77.646361,43.172879]}},{"properties":{"city":"ROCHESTER","property address":"2270 CULVER ROAD IRONDEQUOIT","control no":"2.01E+11","opposite name":"DENTICO MARLENE","id":"a63e0xlu26vh","lat":43.1876648,"address":"2270 CULVER ROAD","long":-77.5606506,"state":"NY","reference 1":"I2010013335","judgment of foreclosure":"Pending","filing date":"10/13/2010"},"type":"Feature","geometry":{"type":"Point","coordinates":[-77.5606506,43.1876648]}},{"properties":{"city":"ROCHESTER","property address":"233 FULTON AVENUE ROCHESTER","control no":"2.01E+11","opposite name":"AMERICAN HOME REALTY INC","id":"a63e0xrz3qa6","lat":43.177001,"address":"233 FULTON AVENUE","long":-77.632857,"state":"NY","reference 1":"I2011000104","judgment of foreclosure":"Pending","filing date":"1/4/2011"},"type":"Feature","geometry":{"type":"Point","coordinates":[-77.632857,43.177001]}},{"properties":{"city":"ROCHESTER","property address":"235 MICHIGAN STREET ROCHESTER","control no":"2.01E+11","opposite name":"RAINMASTER IRRIGATION ASSOCIATES LLC","id":"a63e0xqq922q","lat":43.172108,"address":"235 MICHIGAN STREET","long":-77.6464139,"state":"NY","reference 1":"I2011000996","judgment of foreclosure":"Pending","filing date":"1/26/2011"},"type":"Feature","geometry":{"type":"Point","coordinates":[-77.6464139,43.172108]}},{"properties":{"city":"ROCHESTER","property address":"24 ELMDORF AVENUE ROCHESTER(MULT)","control no":"2.01E+11","opposite name":"DEUTSCHE BANK NATIONAL TRUST COMPANY","id":"a63e0xi883wo","lat":43.136945,"address":"24 ELMDORF AVENUE","long":-77.636809,"state":"NY","reference 1":"I2010015122","judgment of foreclosure":"Pending","filing date":"11/24/2010"},"type":"Feature","geometry":{"type":"Point","coordinates":[-77.636809,43.136945]}},{"properties":{"city":"ROCHESTER","property address":"246 ELECTRIC AVENUE ROCHESTER","control no":"2.01E+11","opposite name":"BREEZEE JOHN P","id":"a63e0xfqndi9","lat":43.191113,"address":"246 ELECTRIC AVENUE","long":-77.640952,"state":"NY","reference 1":"I2011004227","judgment of foreclosure":"Pending","filing date":"4/6/2011"},"type":"Feature","geometry":{"type":"Point","coordinates":[-77.640952,43.191113]}},{"properties":{"city":"ROCHESTER","property address":"246 WEST HIGH TERR ROCHESTER","control no":"2.01E+11","opposite name":"TERBORG TIMOTHY M","id":"a63e0xnzk7ht","lat":43.13594,"address":"246 WEST HIGH TERR","long":-77.6430139,"state":"NY","reference 1":"I2011002627","judgment of foreclosure":"Pending","filing date":"3/4/2011"},"type":"Feature","geometry":{"type":"Point","coordinates":[-77.6430139,43.13594]}},{"properties":{"city":"ROCHESTER","property address":"247 ASHWOOD DRIVE ROCHESTER","control no":"2.01E+11","opposite name":"SANFILIPPO CARL","id":"a63e0xciu792","lat":43.183839,"address":"247 ASHWOOD DRIVE","long":-77.56903,"state":"NY","reference 1":"I2010008678","judgment of foreclosure":"Pending","filing date":"7/8/2010"},"type":"Feature","geometry":{"type":"Point","coordinates":[-77.56903,43.183839]}},{"properties":{"city":"ROCHESTER","property address":"249 CLAY AVENUE ROCHESTER","control no":"2.01E+11","opposite name":"MANUFACTURERS AND TRADERS TRUST COMPANY","id":"a63e0xm6l2t1","lat":43.1914779,"address":"249 CLAY AVENUE","long":-77.636626,"state":"NY","reference 1":"I2011000093","judgment of foreclosure":"Pending","filing date":"1/4/2011"},"type":"Feature","geometry":{"type":"Point","coordinates":[-77.636626,43.1914779]}},{"properties":{"city":"ROCHESTER","property address":"2493 EAST RIDGE RD IRONDEQUOIT","control no":"2.01E+11","opposite name":"POLVINO JAMES R","id":"a63e0xj3znvx","lat":43.203826,"address":"2493 EAST RIDGE RD","long":-77.550682,"state":"NY","reference 1":"I2010014220","judgment of foreclosure":"Pending","filing date":"11/4/2010"},"type":"Feature","geometry":{"type":"Point","coordinates":[-77.550682,43.203826]}},{"properties":{"city":"ROCHESTER","property address":"25 BAYCLIFF DRIVE ROCHESTER","control no":"2.01E+11","opposite name":"MCCARTER ROSAQ","id":"a63e0xow5xl7","lat":43.171768,"address":"25 BAYCLIFF DRIVE","long":-77.576371,"state":"NY","reference 1":"I2011004337","judgment of foreclosure":"Pending","filing date":"4/7/2011"},"type":"Feature","geometry":{"type":"Point","coordinates":[-77.576371,43.171768]}},{"properties":{"city":"ROCHESTER","property address":"25 CHANDLER STREET ROCHESTER","control no":"2.01E+11","opposite name":"MONROE COUNTY DEPARTMENT OF SOCIAL SERVICES","id":"a63e0xcaf5f8","lat":43.1328559,"address":"25 CHANDLER STREET","long":-77.643349,"state":"NY","reference 1":"I2010015606","judgment of foreclosure":"Pending","filing date":"12/8/2010"},"type":"Feature","geometry":{"type":"Point","coordinates":[-77.643349,43.1328559]}},{"properties":{"city":"ROCHESTER","property address":"25 COLGATE STREET ROCHESTER","control no":"2.01E+11","opposite name":"GATTI JOHN R","id":"a63e0xkcjmk1","lat":43.141633,"address":"25 COLGATE STREET","long":-77.649412,"state":"NY","reference 1":"I2011003540","judgment of foreclosure":"Pending","filing date":"3/22/2011"},"type":"Feature","geometry":{"type":"Point","coordinates":[-77.649412,43.141633]}},{"properties":{"city":"ROCHESTER","property address":"25 LOUISE STREET ROCHESTER(MULT)","control no":"2.01E+11","opposite name":"FRAMING TECH HOLDINGS LLC","id":"a63e0xdmn1ce","lat":43.16005,"address":"25 LOUISE STREET","long":-77.650886,"state":"NY","reference 1":"I2010005253","judgment of foreclosure":"Pending","filing date":"4/26/2010"},"type":"Feature","geometry":{"type":"Point","coordinates":[-77.650886,43.16005]}},{"properties":{"city":"ROCHESTER","property address":"251 DORSEY ROAD GREECE","control no":"2.01E+11","opposite name":"BULSON FRANCES","id":"a63e0xjit9ts","lat":43.230887,"address":"251 DORSEY ROAD","long":-77.654014,"state":"NY","reference 1":"I2010008517","judgment of foreclosure":"Pending","filing date":"7/6/2010"},"type":"Feature","geometry":{"type":"Point","coordinates":[-77.654014,43.230887]}},{"properties":{"city":"ROCHESTER","property address":"256 DRIVING PARK AVE ROCHESTER","control no":"2.01E+11","opposite name":"WALSH PAUL","id":"a63e0xhklrdn","lat":43.1811409,"address":"256 DRIVING PARK AVE","long":-77.636816,"state":"NY","reference 1":"I2011000954","judgment of foreclosure":"Pending","filing date":"1/25/2011"},"type":"Feature","geometry":{"type":"Point","coordinates":[-77.636816,43.1811409]}},{"properties":{"city":"ROCHESTER","property address":"258 ADAMS STREET ROCHESTER","control no":"2.01E+11","opposite name":"UNITED STATES OF AMERICA","id":"a63e0xcvh8l9","lat":43.149118,"address":"258 ADAMS STREET","long":-77.625473,"state":"NY","reference 1":"I2010015263","judgment of foreclosure":"Pending","filing date":"12/1/2010"},"type":"Feature","geometry":{"type":"Point","coordinates":[-77.625473,43.149118]}},{"properties":{"city":"ROCHESTER","property address":"2-6 CHARLES STREET ROCHESTER","control no":"2.01E+11","opposite name":"GE CAPITAL SMALL BUSINESS FINANCE CORPORATION","id":"a63e0xhi74oi","lat":43.1590557,"address":"2-6 CHARLES STREET","long":-77.6257223,"state":"NY","reference 1":"I2010007642","judgment of foreclosure":"Pending","filing date":"6/16/2010"},"type":"Feature","geometry":{"type":"Point","coordinates":[-77.6257223,43.1590557]}},{"properties":{"city":"ROCHESTER","property address":"26 IMMEL STREET ROCHESTER","control no":"2.01E+11","opposite name":"ESCOFFERY STANFORD D","id":"a63e0xmh6nbh","lat":43.161162,"address":"26 IMMEL STREET","long":-77.642608,"state":"NY","reference 1":"I2011000176","judgment of foreclosure":"Pending","filing date":"1/6/2011 + 3/2/2011"},"type":"Feature","geometry":{"type":"Point","coordinates":[-77.642608,43.161162]}},{"properties":{"city":"ROCHESTER","property address":"263 ALBEMARLE STREET ROCHESTER","control no":"2.01E+11","opposite name":"KLIMCOW CAROL","id":"a63e0xgyzvnl","lat":43.187723,"address":"263 ALBEMARLE STREET","long":-77.638053,"state":"NY","reference 1":"I2010016351","judgment of foreclosure":"Pending","filing date":"12/27/2010"},"type":"Feature","geometry":{"type":"Point","coordinates":[-77.638053,43.187723]}},{"properties":{"city":"ROCHESTER","property address":"27 BERNARD STREET ROCHESTER","control no":"2.01E+11","opposite name":"INMOBILIARIA INTERNATIONAL LLC","id":"a63e0xgkjo3r","lat":43.176963,"address":"27 BERNARD STREET","long":-77.604951,"state":"NY","reference 1":"I2010013783","judgment of foreclosure":"Pending","filing date":"10/22/2010"},"type":"Feature","geometry":{"type":"Point","coordinates":[-77.604951,43.176963]}},{"properties":{"city":"ROCHESTER","property address":"27 LENRIET STREET ROCHESTER","control no":"2.01E+11","opposite name":"HASKINS CAROL A","id":"a63e0xr7nu98","lat":43.211991,"address":"27 LENRIET STREET","long":-77.639441,"state":"NY","reference 1":"I2010016300","judgment of foreclosure":"Pending","filing date":"12/23/2010"},"type":"Feature","geometry":{"type":"Point","coordinates":[-77.639441,43.211991]}},{"properties":{"city":"ROCHESTER","property address":"270-272 HAYWARD AVE ROCHESTER","control no":"2.01E+11","opposite name":"MCCRAY DOROTHY","id":"a63e0xgcbzmj","lat":43.1631846,"address":"270-272 HAYWARD AVE","long":-77.583717,"state":"NY","reference 1":"I2010008669","judgment of foreclosure":"Pending","filing date":"7/8/2010"},"type":"Feature","geometry":{"type":"Point","coordinates":[-77.583717,43.1631846]}},{"properties":{"city":"ROCHESTER","property address":"2-8 ARCHER STREET ROCHESTER","control no":"2.01E+11","opposite name":"DEAN WILLIAM J","id":"a63e0xepymoq","lat":43.1809889,"address":"2-8 ARCHER STREET","long":-77.6414896,"state":"NY","reference 1":"I2010013323","judgment of foreclosure":"Pending","filing date":"10/13/2010"},"type":"Feature","geometry":{"type":"Point","coordinates":[-77.6414896,43.1809889]}},{"properties":{"city":"ROCHESTER","property address":"28 BACKUS STREET ROCHESTER","control no":"2.01E+11","opposite name":"BANK OF AMERICA NATIONAL ASSOCIATION","id":"a63e0xoyzs3f","lat":43.1724419,"address":"28 BACKUS STREET","long":-77.631706,"state":"NY","reference 1":"I2011001058","judgment of foreclosure":"Pending","filing date":"1/27/2011"},"type":"Feature","geometry":{"type":"Point","coordinates":[-77.631706,43.1724419]}},{"properties":{"city":"ROCHESTER","property address":"282 RAVINE AVENUE ROCHESTER","control no":"2.01E+11","opposite name":"NYS DEPT OF TAXATION &amp; FINANCE","id":"a63e0xdhoog0","lat":43.175437,"address":"282 RAVINE AVENUE","long":-77.636886,"state":"NY","reference 1":"I2011002426","judgment of foreclosure":"Pending","filing date":"3/1/2011"},"type":"Feature","geometry":{"type":"Point","coordinates":[-77.636886,43.175437]}},{"properties":{"city":"ROCHESTER","property address":"285 HAGUE STREET ROCHESTER","control no":"2.01E+11","opposite name":"BANK OF AMERICA NATIONAL ASSOCIATION","id":"a63e0xliq24x","lat":43.155893,"address":"285 HAGUE STREET","long":-77.646766,"state":"NY","reference 1":"I2011000474","judgment of foreclosure":"Pending","filing date":"1/12/2011 + 2/10/2011"},"type":"Feature","geometry":{"type":"Point","coordinates":[-77.646766,43.155893]}},{"properties":{"city":"ROCHESTER","property address":"287-291 CENTRAL AVE ROCHESTER","control no":"2.01E+11","opposite name":"CABLE-WIEDEMER INC","id":"a63e0xccvu4j","lat":43.1624715,"address":"287-291 CENTRAL AVE","long":-77.6093702,"state":"NY","reference 1":"I2010014855","judgment of foreclosure":"Pending","filing date":"11/18/2010"},"type":"Feature","geometry":{"type":"Point","coordinates":[-77.6093702,43.1624715]}},{"properties":{"city":"ROCHESTER","property address":"29 DEPEW STREET ROCHESTER","control no":"2.01E+11","opposite name":"JPMORGAN CHASE BANK NATIONAL ASSOCIATION","id":"a63e0xoxxapr","lat":43.14928,"address":"29 DEPEW STREET","long":-77.653755,"state":"NY","reference 1":"I2010008639","judgment of foreclosure":"Pending","filing date":"7/8/2010"},"type":"Feature","geometry":{"type":"Point","coordinates":[-77.653755,43.14928]}},{"properties":{"city":"ROCHESTER","property address":"29 HOLBROOKE STREET ROCHESTER","control no":"2.01E+11","opposite name":"MAXWELL SHIRLEY J","id":"a63e0xnrhcd4","lat":43.180205,"address":"29 HOLBROOKE STREET","long":-77.590498,"state":"NY","reference 1":"I2010008293","judgment of foreclosure":"Pending","filing date":"6/30/2010"},"type":"Feature","geometry":{"type":"Point","coordinates":[-77.590498,43.180205]}},{"properties":{"city":"ROCHESTER","property address":"294 LEXINGTON AVENUE ROCHESTER","control no":"2.01E+11","opposite name":"ROTHSCHILD DONALD W","id":"a63e0xjjd8f5","lat":43.179525,"address":"294 LEXINGTON AVENUE","long":-77.637445,"state":"NY","reference 1":"I2011001001","judgment of foreclosure":"Pending","filing date":"1/26/2011"},"type":"Feature","geometry":{"type":"Point","coordinates":[-77.637445,43.179525]}},{"properties":{"city":"ROCHESTER","property address":"295 LEXINGTON AVENUE ROCHESTER","control no":"2.01E+11","opposite name":"SMITH PERRY E","id":"a63e0xpd0bnd","lat":43.179053,"address":"295 LEXINGTON AVENUE","long":-77.637482,"state":"NY","reference 1":"I2010016492","judgment of foreclosure":"Pending","filing date":"12/29/2010"},"type":"Feature","geometry":{"type":"Point","coordinates":[-77.637482,43.179053]}},{"properties":{"city":"ROCHESTER","property address":"298-300 AVENUE D ROCHESTER","control no":"2.01E+11","opposite name":"MATTICE SUSAN","id":"a63e0xgtx0kl","lat":43.1804068,"address":"298-300 AVENUE D","long":-77.6160431,"state":"NY","reference 1":"I2011004224","judgment of foreclosure":"Pending","filing date":"4/6/2011"},"type":"Feature","geometry":{"type":"Point","coordinates":[-77.6160431,43.1804068]}},{"properties":{"city":"ROCHESTER","property address":"30 RAINIER STREET ROCHESTER","control no":"2.01E+11","opposite name":"MADIGAN RAYMOND","id":"a63e0xl0jjiw","lat":43.178846,"address":"30 RAINIER STREET","long":-77.6356179,"state":"NY","reference 1":"I2011004228","judgment of foreclosure":"Pending","filing date":"4/6/2011"},"type":"Feature","geometry":{"type":"Point","coordinates":[-77.6356179,43.178846]}},{"properties":{"city":"ROCHESTER","property address":"30 TOWNSEND STREET ROCHESTER","control no":"2.01E+11","opposite name":"WELLS FARGO BANK NA","id":"a63e0xhjo5sf","lat":43.1852919,"address":"30 TOWNSEND STREET","long":-77.6057359,"state":"NY","reference 1":"I2011001117","judgment of foreclosure":"Pending","filing date":"1/28/2011"},"type":"Feature","geometry":{"type":"Point","coordinates":[-77.6057359,43.1852919]}},{"properties":{"city":"ROCHESTER","property address":"301 CENTRAL AVENUE ROCHESTER","control no":"2.01E+11","opposite name":"SHARIF YUSUF","id":"a63e0xoqwxo5","lat":43.162343,"address":"301 CENTRAL AVENUE","long":-77.608981,"state":"NY","reference 1":"I2009006813","judgment of foreclosure":"Pending","filing date":"5/13/2009 + 7/10/2009"},"type":"Feature","geometry":{"type":"Point","coordinates":[-77.608981,43.162343]}},{"properties":{"city":"ROCHESTER","property address":"302-304 NORTH STREET ROCHESTER","control no":"2.01E+11","opposite name":"KORDA IHOR","id":"a63e0xlfst0p","lat":43.1633482,"address":"302-304 NORTH STREET","long":-77.6018713,"state":"NY","reference 1":"I2011000670","judgment of foreclosure":"Pending","filing date":"1/19/2011"},"type":"Feature","geometry":{"type":"Point","coordinates":[-77.6018713,43.1633482]}},{"properties":{"city":"ROCHESTER","property address":"3054 WEST HENRIETTA ROAD HE","control no":"2.01E+11","opposite name":"NYS DEPT OF TAXATION &amp; FINANCE","id":"a63e0xq63i27","lat":43.090657,"address":"3054 WEST HENRIETTA ROAD","long":-77.63431,"state":"NY","reference 1":"I2011000111","judgment of foreclosure":"Pending","filing date":"1/4/2011"},"type":"Feature","geometry":{"type":"Point","coordinates":[-77.63431,43.090657]}},{"properties":{"city":"ROCHESTER","property address":"31 ALICE STREET ROCHESTER","control no":"2.01E+11","opposite name":"ROTHSCHILD DONALD W","id":"a63e0xpnm45v","lat":43.153323,"address":"31 ALICE STREET","long":-77.652955,"state":"NY","reference 1":"I2011001003","judgment of foreclosure":"Pending","filing date":"1/26/2011"},"type":"Feature","geometry":{"type":"Point","coordinates":[-77.652955,43.153323]}},{"properties":{"city":"ROCHESTER","property address":"31 BARDIN STREET ROCHESTER","control no":"2.01E+11","opposite name":"MIDLAND NATIONAL LIFE INSURANCE COMPANY","id":"a63e0xjof6dp","lat":43.194472,"address":"31 BARDIN STREET","long":-77.6327589,"state":"NY","reference 1":"I2011001009","judgment of foreclosure":"Pending","filing date":"1/26/2011"},"type":"Feature","geometry":{"type":"Point","coordinates":[-77.6327589,43.194472]}},{"properties":{"city":"ROCHESTER","property address":"310-312 HAWLEY ST ROCHESTER","control no":"2.01E+11","opposite name":"KIMBLE JOHN","id":"a63e0xbxux27","lat":43.1408839,"address":"310-312 HAWLEY ST","long":-77.6299802,"state":"NY","reference 1":"I2010007036","judgment of foreclosure":"Pending","filing date":"6/3/2010"},"type":"Feature","geometry":{"type":"Point","coordinates":[-77.6299802,43.1408839]}},{"properties":{"city":"ROCHESTER","property address":"314 AVENUE D ROCHESTER","control no":"2.01E+11","opposite name":"ROTHSCHILD DONALD W","id":"a63e0xpab7ro","lat":43.1804202,"address":"314 AVENUE D","long":-77.6156262,"state":"NY","reference 1":"I2011000938","judgment of foreclosure":"Pending","filing date":"1/25/2011"},"type":"Feature","geometry":{"type":"Point","coordinates":[-77.6156262,43.1804202]}},{"properties":{"city":"ROCHESTER","property address":"314 SCIO STREET ROCHESTER","control no":"2.01E+11","opposite name":"CEDAR HILL ASSOCIATES LP","id":"a63e0xcmg39s","lat":43.162503,"address":"314 SCIO STREET","long":-77.596565,"state":"NY","reference 1":"I2011001624","judgment of foreclosure":"Pending","filing date":"2/9/2011"},"type":"Feature","geometry":{"type":"Point","coordinates":[-77.596565,43.162503]}},{"properties":{"city":"ROCHESTER","property address":"317 ROSEWOOD TERRACE ROCHESTER","control no":"2.01E+11","opposite name":"MCCLAIN LISSA K","id":"a63e0xfm33tx","lat":43.1681553,"address":"317 ROSEWOOD TERRACE","long":-77.5659957,"state":"NY","reference 1":"I2011000476","judgment of foreclosure":"Pending","filing date":"1/12/2011"},"type":"Feature","geometry":{"type":"Point","coordinates":[-77.5659957,43.1681553]}},{"properties":{"city":"ROCHESTER","property address":"32 MICHIGAN STREET ROCHESTER","control no":"2.01E+11","opposite name":"REYES REALTY GROUP INC","id":"a63e0xeqhupz","lat":43.172571,"address":"32 MICHIGAN STREET","long":-77.640596,"state":"NY","reference 1":"I2010016381","judgment of foreclosure":"Pending","filing date":"12/28/2010"},"type":"Feature","geometry":{"type":"Point","coordinates":[-77.640596,43.172571]}},{"properties":{"city":"ROCHESTER","property address":"327 WEBSTER AVENUE ROCHESTER","control no":"2.01E+11","opposite name":"NYS DEPT OF TAXATION &amp; FINANCE","id":"a63e0xqx7b2q","lat":43.1678471,"address":"327 WEBSTER AVENUE","long":-77.575594,"state":"NY","reference 1":"I2011004379","judgment of foreclosure":"Pending","filing date":"4/8/2011"},"type":"Feature","geometry":{"type":"Point","coordinates":[-77.575594,43.1678471]}},{"properties":{"city":"ROCHESTER","property address":"33 BARTLETT STREET ROCHESTER","control no":"2.01E+11","opposite name":"WINDOM MARY A","id":"a63e0xeg4yt5","lat":43.142475,"address":"33 BARTLETT STREET","long":-77.62114,"state":"NY","reference 1":"I2010012552","judgment of foreclosure":"Pending","filing date":"9/28/2010 + 11/10/2010"},"type":"Feature","geometry":{"type":"Point","coordinates":[-77.62114,43.142475]}},{"properties":{"city":"ROCHESTER","property address":"33 FINCH STREET ROCHESTER","control no":"2.01E+11","opposite name":"SCHERBERGER MARY R","id":"a63e0xgf01xg","lat":43.177433,"address":"33 FINCH STREET","long":-77.641012,"state":"NY","reference 1":"I2011001400","judgment of foreclosure":"Pending","filing date":"2/3/2011"},"type":"Feature","geometry":{"type":"Point","coordinates":[-77.641012,43.177433]}},{"properties":{"city":"ROCHESTER","property address":"33 WELD STREET ROCHESTER(MULT)","control no":"2.01E+11","opposite name":"BANK OF AMERICA NATIONAL ASSOCIATION","id":"a63e0xry75xl","lat":43.1636732,"address":"33 WELD STREET","long":-77.6009414,"state":"NY","reference 1":"I2010013298","judgment of foreclosure":"Pending","filing date":"12/23/2010"},"type":"Feature","geometry":{"type":"Point","coordinates":[-77.6009414,43.1636732]}},{"properties":{"city":"ROCHESTER","property address":"331 GLENWOOD AVENUE ROCHESTER","control no":"2.01E+11","opposite name":"SMITH KEVIN J","id":"a63e0xrmftj4","lat":43.176635,"address":"331 GLENWOOD AVENUE","long":-77.639068,"state":"NY","reference 1":"I2011003050","judgment of foreclosure":"Pending","filing date":"3/14/2011"},"type":"Feature","geometry":{"type":"Point","coordinates":[-77.639068,43.176635]}},{"properties":{"city":"ROCHESTER","property address":"337 MAGNOLIA STREET ROCHESTER","control no":"2.01E+11","opposite name":"NYS DEPT OF TAXATION &amp; FINANCE","id":"a63e0xdrffc1","lat":43.137607,"address":"337 MAGNOLIA STREET","long":-77.631891,"state":"NY","reference 1":"I2011004016","judgment of foreclosure":"Pending","filing date":"4/1/2011"},"type":"Feature","geometry":{"type":"Point","coordinates":[-77.631891,43.137607]}},{"properties":{"city":"ROCHESTER","property address":"337-341 EMERSON ST ROCHESTER","control no":"2.01E+11","opposite name":"SALEH YASSER","id":"a63e0xc6fdy8","lat":43.1735816,"address":"337-341 EMERSON ST","long":-77.6387532,"state":"NY","reference 1":"I2010015619","judgment of foreclosure":"Pending","filing date":"12/8/2010 + 1/25/2011"},"type":"Feature","geometry":{"type":"Point","coordinates":[-77.6387532,43.1735816]}},{"properties":{"city":"ROCHESTER","property address":"34-36 DEPEW STREET ROCHESTER","control no":"2.01E+11","opposite name":"ARAMSCO INC","id":"a63e0xh63n7p","lat":43.1491709,"address":"34-36 DEPEW STREET","long":-77.6533975,"state":"NY","reference 1":"I2010013333","judgment of foreclosure":"Pending","filing date":"10/13/2010 + 12/8/2010"},"type":"Feature","geometry":{"type":"Point","coordinates":[-77.6533975,43.1491709]}},{"properties":{"city":"ROCHESTER","property address":"35 WELD STREET ROCHESTER","control no":"2.01E+11","opposite name":"BANK OF AMERICA NATIONAL ASSOCIATION","id":"a63e0xqm1ipk","lat":43.1636683,"address":"35 WELD STREET","long":-77.6009257,"state":"NY","reference 1":"I2010013298","judgment of foreclosure":"Pending","filing date":"10/13/2010"},"type":"Feature","geometry":{"type":"Point","coordinates":[-77.6009257,43.1636683]}},{"properties":{"city":"ROCHESTER","property address":"353 AVENUE A ROCHESTER","control no":"2.01E+11","opposite name":"MONROE COUNTY OF","id":"a63e0xnbnov4","lat":43.1778848,"address":"353 AVENUE A","long":-77.6148325,"state":"NY","reference 1":"I2010006621","judgment of foreclosure":"Pending","filing date":"5/25/2010 + 9/10/2010"},"type":"Feature","geometry":{"type":"Point","coordinates":[-77.6148325,43.1778848]}},{"properties":{"city":"ROCHESTER","property address":"356 POST AVENUE ROCHESTER","control no":"2.01E+11","opposite name":"NYS DEPT OF TAXATION &amp; FINANCE","id":"a63e0xlk566i","lat":43.138919,"address":"356 POST AVENUE","long":-77.647651,"state":"NY","reference 1":"I2011001868","judgment of foreclosure":"Pending","filing date":"2/15/2011"},"type":"Feature","geometry":{"type":"Point","coordinates":[-77.647651,43.138919]}},{"properties":{"city":"ROCHESTER","property address":"36 HOBART STREET ROCHESTER","control no":"2.01E+11","opposite name":"NEW YORK STATE DEPARTMENT OF TAXATION AND FINANCE","id":"a63e0xceeebx","lat":43.149192,"address":"36 HOBART STREET","long":-77.648323,"state":"NY","reference 1":"I2011004448","judgment of foreclosure":"Pending","filing date":"4/11/2011"},"type":"Feature","geometry":{"type":"Point","coordinates":[-77.648323,43.149192]}},{"properties":{"city":"ROCHESTER","property address":"36 STERLING STREET","control no":"2.01E+11","opposite name":"ROTHSCHILD DONALD W","id":"a63e0xm9j9si","lat":43.169826,"address":"36 STERLING STREET","long":-77.645118,"state":"NY","reference 1":"I2011004372","judgment of foreclosure":"Pending","filing date":"4/8/2011"},"type":"Feature","geometry":{"type":"Point","coordinates":[-77.645118,43.169826]}},{"properties":{"city":"ROCHESTER","property address":"360 RUGBY AVENUE ROCHESTER","control no":"2.01E+11","opposite name":"NYS DEPT OF TAXATION &amp; FINANCE","id":"a63e0xkw33q2","lat":43.140407,"address":"360 RUGBY AVENUE","long":-77.643027,"state":"NY","reference 1":"I2010016315","judgment of foreclosure":"Pending","filing date":"12/23/2010"},"type":"Feature","geometry":{"type":"Point","coordinates":[-77.643027,43.140407]}},{"properties":{"city":"BROCKPORT","property address":"3640 SWEDEN WALKER RD CLARKSON","control no":"2.01E+11","opposite name":"NAU DIANE","id":"a63e0xk6xw1y","lat":43.22723,"address":"3640 SWEDEN WALKER RD","long":-77.888988,"state":"NY","reference 1":"I2011001556","judgment of foreclosure":"Pending","filing date":"2/8/2011"},"type":"Feature","geometry":{"type":"Point","coordinates":[-77.888988,43.22723]}},{"properties":{"city":"ROCHESTER","property address":"37 WILTON TERRACE ROCHESTER","control no":"2.01E+11","opposite name":"HOMEAMERICAN CREDIT INC","id":"a63e0xr0q4y6","lat":43.142814,"address":"37 WILTON TERRACE","long":-77.649795,"state":"NY","reference 1":"I2010015532","judgment of foreclosure":"Pending","filing date":"12/7/2010"},"type":"Feature","geometry":{"type":"Point","coordinates":[-77.649795,43.142814]}},{"properties":{"city":"ROCHESTER","property address":"371 ALPHONSE STREET ROCHESTER","control no":"2.01E+11","opposite name":"HUMBLE TINA L","id":"a63e0xnpk04g","lat":43.176148,"address":"371 ALPHONSE STREET","long":-77.594039,"state":"NY","reference 1":"I2011000081","judgment of foreclosure":"Pending","filing date":"1/4/2011"},"type":"Feature","geometry":{"type":"Point","coordinates":[-77.594039,43.176148]}},{"properties":{"city":"ROCHESTER","property address":"371 HAYWARD AVENUE ROCHESTER","control no":"2.01E+11","opposite name":"NYS DEPT OF TAXATION &amp; FINANCE","id":"a63e0xdn7b9o","lat":43.162456,"address":"371 HAYWARD AVENUE","long":-77.581033,"state":"NY","reference 1":"I2011001006","judgment of foreclosure":"Pending","filing date":"1/26/2011"},"type":"Feature","geometry":{"type":"Point","coordinates":[-77.581033,43.162456]}},{"properties":{"city":"ROCHESTER","property address":"375-381 CHILI AVENUE ROCHESTER","control no":"2.01E+11","opposite name":"WALKER LIVINGSTON A","id":"a63e0xmis3qk","lat":43.146699,"address":"375-381 CHILI AVENUE","long":-77.6468171,"state":"NY","reference 1":"I2010012810","judgment of foreclosure":"Pending","filing date":"10/1/2010"},"type":"Feature","geometry":{"type":"Point","coordinates":[-77.6468171,43.146699]}},{"properties":{"city":"ROCHESTER","property address":"378 AUGUSTINE STREET ROCHESTER","control no":"2.01E+11","opposite name":"GAY D DYSON","id":"a63e0xisa0h9","lat":43.186443,"address":"378 AUGUSTINE STREET","long":-77.641556,"state":"NY","reference 1":"I2011001118","judgment of foreclosure":"Pending","filing date":"1/28/2011"},"type":"Feature","geometry":{"type":"Point","coordinates":[-77.641556,43.186443]}},{"properties":{"city":"ROCHESTER","property address":"38 ROSLYN STREET ROCHESTER","control no":"2.01E+11","opposite name":"WRIGHT JIMMIE LEE","id":"a63e0xcqeql4","lat":43.137829,"address":"38 ROSLYN STREET","long":-77.63723,"state":"NY","reference 1":"I2010014689","judgment of foreclosure":"Pending","filing date":"11/16/2010"},"type":"Feature","geometry":{"type":"Point","coordinates":[-77.63723,43.137829]}},{"properties":{"city":"ROCHESTER","property address":"3840 LAKE AVENUE ROCHESTER","control no":"2.01E+11","opposite name":"CASSARA GERDA B","id":"a63e0xno6toi","lat":43.240197,"address":"3840 LAKE AVENUE","long":-77.620767,"state":"NY","reference 1":"I2009011080","judgment of foreclosure":"Pending","filing date":"8/4/2009"},"type":"Feature","geometry":{"type":"Point","coordinates":[-77.620767,43.240197]}},{"properties":{"city":"ROCHESTER","property address":"385-387 FIRST STREET ROCHESTER","control no":"2.01E+11","opposite name":"VARGAS SONIA","id":"a63e0xcvmcq4","lat":43.1741182,"address":"385-387 FIRST STREET","long":-77.5862404,"state":"NY","reference 1":"I2011000425","judgment of foreclosure":"Pending","filing date":"1/12/2011"},"type":"Feature","geometry":{"type":"Point","coordinates":[-77.5862404,43.1741182]}},{"properties":{"city":"ROCHESTER","property address":"39 RINGLE STREET ROCHESTER","control no":"2.01E+11","opposite name":"SHEPARD WILLIAM","id":"a63e0xk8jvwj","lat":43.144647,"address":"39 RINGLE STREET","long":-77.649145,"state":"NY","reference 1":"I2010015592","judgment of foreclosure":"Pending","filing date":"12/8/2010"},"type":"Feature","geometry":{"type":"Point","coordinates":[-77.649145,43.144647]}},{"properties":{"city":"ROCHESTER","property address":"40 POTTER STREET ROCHESTER","control no":"2.01E+11","opposite name":"SANTIAGO CARLOS","id":"a63e0xqma5uy","lat":43.161324,"address":"40 POTTER STREET","long":-77.647872,"state":"NY","reference 1":"I2010016490","judgment of foreclosure":"Pending","filing date":"12/29/2010"},"type":"Feature","geometry":{"type":"Point","coordinates":[-77.647872,43.161324]}},{"properties":{"city":"ROCHESTER","property address":"404 EMERSON STREET ROCHESTER","control no":"2.01E+11","opposite name":"REYES REALTY GROUP INC","id":"a63e0xchg0ed","lat":43.1742009,"address":"404 EMERSON STREET","long":-77.640638,"state":"NY","reference 1":"I2010016345","judgment of foreclosure":"Pending","filing date":"12/27/2010"},"type":"Feature","geometry":{"type":"Point","coordinates":[-77.640638,43.1742009]}},{"properties":{"city":"ROCHESTER","property address":"41 DARIEN STREET ROCHESTER","control no":"2.01E+11","opposite name":"WOOD FRANK","id":"a63e0xfxuvp9","lat":43.149037,"address":"41 DARIEN STREET","long":-77.641801,"state":"NY","reference 1":"I2010013540","judgment of foreclosure":"Pending","filing date":"10/18/2010"},"type":"Feature","geometry":{"type":"Point","coordinates":[-77.641801,43.149037]}},{"properties":{"city":"ROCHESTER","property address":"41 PULLMAN AVENUE ROCHESTER","control no":"2.01E+11","opposite name":"RBS CITIZENS NA","id":"a63e0xmpvdnc","lat":43.194711,"address":"41 PULLMAN AVENUE","long":-77.63079,"state":"NY","reference 1":"I2011000989","judgment of foreclosure":"Pending","filing date":"1/26/2011"},"type":"Feature","geometry":{"type":"Point","coordinates":[-77.63079,43.194711]}},{"properties":{"city":"ROCHESTER","property address":"410 GENESEE STREET ROCHESTER","control no":"2.01E+11","opposite name":"HEMMINGS LEXFORD","id":"a63e0xh8rdi4","lat":43.14203,"address":"410 GENESEE STREET","long":-77.6358375,"state":"NY","reference 1":"I2011001067","judgment of foreclosure":"Pending","filing date":"1/27/2011"},"type":"Feature","geometry":{"type":"Point","coordinates":[-77.6358375,43.14203]}},{"properties":{"city":"ROCHESTER","property address":"411-413 MAGNOLIA ST ROCHESTER","control no":"2.01E+11","opposite name":"JM DIGG ENTERPRISES LLC","id":"a63e0xbvtlso","lat":43.1378839,"address":"411-413 MAGNOLIA ST","long":-77.634708,"state":"NY","reference 1":"I2011003212","judgment of foreclosure":"Pending","filing date":"3/17/2011"},"type":"Feature","geometry":{"type":"Point","coordinates":[-77.634708,43.1378839]}},{"properties":{"city":"ROCHESTER","property address":"42 VILLA STREET ROCHESTER","control no":"2.01E+11","opposite name":"LAFLECHE DANIEL Y","id":"a63e0xk1sgtg","lat":43.17181,"address":"42 VILLA STREET","long":-77.644195,"state":"NY","reference 1":"I2011001116","judgment of foreclosure":"Pending","filing date":"1/28/2011"},"type":"Feature","geometry":{"type":"Point","coordinates":[-77.644195,43.17181]}},{"properties":{"city":"ROCHESTER","property address":"422 GRAND AVENUE ROCHESTER","control no":"2.01E+11","opposite name":"SILAS MELANY","id":"a63e0xr5lrlg","lat":43.16505,"address":"422 GRAND AVENUE","long":-77.569345,"state":"NY","reference 1":"I2010008286","judgment of foreclosure":"Pending","filing date":"6/30/2010"},"type":"Feature","geometry":{"type":"Point","coordinates":[-77.569345,43.16505]}},{"properties":{"city":"ROCHESTER","property address":"43 ABERDEEN STREET ROCHESTER","control no":"2.01E+11","opposite name":"GOINS VIRGINIA","id":"a63e0xd05ubf","lat":43.139087,"address":"43 ABERDEEN STREET","long":-77.637383,"state":"NY","reference 1":"I2010013317","judgment of foreclosure":"Pending","filing date":"10/13/2010 + 12/14/2010"},"type":"Feature","geometry":{"type":"Point","coordinates":[-77.637383,43.139087]}},{"properties":{"city":"ROCHESTER","property address":"43 ENTERPRISE STREET ROCHESTER","control no":"2.01E+11","opposite name":"PARR DONALD B","id":"a63e0xnmqrax","lat":43.134006,"address":"43 ENTERPRISE STREET","long":-77.648438,"state":"NY","reference 1":"I2011004315","judgment of foreclosure":"Pending","filing date":"4/7/2011"},"type":"Feature","geometry":{"type":"Point","coordinates":[-77.648438,43.134006]}},{"properties":{"city":"ROCHESTER","property address":"434 MAPLE STREET ROCHESTER","control no":"2.01E+11","opposite name":"NYS DEPT OF TAXATION &amp; FINANCE","id":"a63e0xj5mnt7","lat":43.155586,"address":"434 MAPLE STREET","long":-77.63642,"state":"NY","reference 1":"I2011001572","judgment of foreclosure":"Pending","filing date":"2/8/2011 + 3/22/2011"},"type":"Feature","geometry":{"type":"Point","coordinates":[-77.63642,43.155586]}},{"properties":{"city":"ROCHESTER","property address":"43-45 HALSTEAD ST ROCHESTER","control no":"2.01E+11","opposite name":"NYS DEPT OF TAXATION &amp; FINANCE","id":"a63e0xgvldgx","lat":43.147357,"address":"43-45 HALSTEAD ST","long":-77.5527914,"state":"NY","reference 1":"I2010008690","judgment of foreclosure":"Pending","filing date":"7/8/2010"},"type":"Feature","geometry":{"type":"Point","coordinates":[-77.5527914,43.147357]}},{"properties":{"city":"ROCHESTER","property address":"435-437 HAYWARD AVE ROCHESTER","control no":"2.01E+11","opposite name":"BROWN CARMELITA A","id":"a63e0xeg0fj8","lat":43.1627307,"address":"435-437 HAYWARD AVE","long":-77.5791758,"state":"NY","reference 1":"I2011004218","judgment of foreclosure":"Pending","filing date":"4/6/2011"},"type":"Feature","geometry":{"type":"Point","coordinates":[-77.5791758,43.1627307]}},{"properties":{"city":"ROCHESTER","property address":"436 COLUMBIA AVENUE ROCHESTER","control no":"2.01E+11","opposite name":"HALL EDDIE","id":"a63e0xj5qxow","lat":43.141876,"address":"436 COLUMBIA AVENUE","long":-77.632514,"state":"NY","reference 1":"I2011003214","judgment of foreclosure":"Pending","filing date":"3/17/2011"},"type":"Feature","geometry":{"type":"Point","coordinates":[-77.632514,43.141876]}},{"properties":{"city":"ROCHESTER","property address":"437-439 COTTAGE ST ROCHESTER","control no":"2.01E+11","opposite name":"HSBC BANK USA NATIONAL ASSOCIATION","id":"a63e0xjat33e","lat":43.1358423,"address":"437-439 COTTAGE ST","long":-77.6341116,"state":"NY","reference 1":"I2011001540","judgment of foreclosure":"Pending","filing date":"2/8/2011 + 4/1/2011"},"type":"Feature","geometry":{"type":"Point","coordinates":[-77.6341116,43.1358423]}},{"properties":{"city":"ROCHESTER","property address":"44 ANTHONY STREET ROCHESTER","control no":"2.01E+11","opposite name":"BENEFICIAL HOMEOWNER SERVICE CORPORATION","id":"a63e0xli1m7v","lat":43.137254,"address":"44 ANTHONY STREET","long":-77.646699,"state":"NY","reference 1":"I2010015281","judgment of foreclosure":"Pending","filing date":"12/1/2010"},"type":"Feature","geometry":{"type":"Point","coordinates":[-77.646699,43.137254]}},{"properties":{"city":"ROCHESTER","property address":"45 BURROWS STREET ROCHESTER","control no":"2.01E+11","opposite name":"MANUFACTURERS AND TRADERS TRUST COMPANY","id":"a63e0xdvjdm0","lat":43.165691,"address":"45 BURROWS STREET","long":-77.649154,"state":"NY","reference 1":"I2011000076","judgment of foreclosure":"Pending","filing date":"1/4/2011 + 3/11/2011"},"type":"Feature","geometry":{"type":"Point","coordinates":[-77.649154,43.165691]}},{"properties":{"city":"ROCHESTER","property address":"45 GARDINER AVENUE ROCHESTER","control no":"2.01E+11","opposite name":"VANBEURDEN TODD","id":"a63e0xh8fdgh","lat":43.148959,"address":"45 GARDINER AVENUE","long":-77.651421,"state":"NY","reference 1":"I2011004378","judgment of foreclosure":"Pending","filing date":"4/8/2011"},"type":"Feature","geometry":{"type":"Point","coordinates":[-77.651421,43.148959]}},{"properties":{"city":"ROCHESTER","property address":"45 SYLVESTER STREET ROCHESTER","control no":"2.01E+11","opposite name":"HSBC MORTGAGE SERVICES INC","id":"a63e0xldjy6h","lat":43.186387,"address":"45 SYLVESTER STREET","long":-77.582678,"state":"NY","reference 1":"I2011004375","judgment of foreclosure":"Pending","filing date":"4/8/2011"},"type":"Feature","geometry":{"type":"Point","coordinates":[-77.582678,43.186387]}},{"properties":{"city":"ROCHESTER","property address":"450 MAGNOLIA STREET ROCHESTER","control no":"2.01E+11","opposite name":"HECHME CHAD","id":"a63e0xpzty7k","lat":43.138166,"address":"450 MAGNOLIA STREET","long":-77.635093,"state":"NY","reference 1":"I2011000943","judgment of foreclosure":"Pending","filing date":"1/25/2011"},"type":"Feature","geometry":{"type":"Point","coordinates":[-77.635093,43.138166]}},{"properties":{"city":"ROCHESTER","property address":"455 GLENWOOD AVENUE ROCHESTER","control no":"2.01E+11","opposite name":"NYS DEPT OF TAXATION &amp; FINANCE","id":"a63e0xdd3dq1","lat":43.176681,"address":"455 GLENWOOD AVENUE","long":-77.642257,"state":"NY","reference 1":"I2011000468","judgment of foreclosure":"Pending","filing date":"1/12/2011"},"type":"Feature","geometry":{"type":"Point","coordinates":[-77.642257,43.176681]}},{"properties":{"city":"ROCHESTER","property address":"459 WINCHESTER ST ROCHESTER","control no":"2.01E+11","opposite name":"CARMONA LUISA","id":"a63e0xrxur7w","lat":43.205471,"address":"459 WINCHESTER ST","long":-77.642021,"state":"NY","reference 1":"I2010015270","judgment of foreclosure":"Pending","filing date":"12/1/2010 + 4/1/2011"},"type":"Feature","geometry":{"type":"Point","coordinates":[-77.642021,43.205471]}},{"properties":{"city":"ROCHESTER","property address":"46 BACKUS STREET ROCHESTER","control no":"2.01E+11","opposite name":"PEARSON TRACEY","id":"a63e0xq9ts9d","lat":43.173186,"address":"46 BACKUS STREET","long":-77.631736,"state":"NY","reference 1":"I2011004328","judgment of foreclosure":"Pending","filing date":"4/7/2011"},"type":"Feature","geometry":{"type":"Point","coordinates":[-77.631736,43.173186]}},{"properties":{"city":"ROCHESTER","property address":"46 COSTAR STREET ROCHESTER","control no":"2.01E+11","opposite name":"ROTHSCHILD DONALD W","id":"a63e0xpfmd9f","lat":43.168868,"address":"46 COSTAR STREET","long":-77.633111,"state":"NY","reference 1":"I2011000475","judgment of foreclosure":"Pending","filing date":"1/12/2011"},"type":"Feature","geometry":{"type":"Point","coordinates":[-77.633111,43.168868]}},{"properties":{"city":"ROCHESTER","property address":"461 MELVILLE STREET ROCHESTER","control no":"2.01E+11","opposite name":"MEZA EYTHEL","id":"a63e0xgr3c76","lat":43.166579,"address":"461 MELVILLE STREET","long":-77.564507,"state":"NY","reference 1":"I2010012550","judgment of foreclosure":"Pending","filing date":"9/28/2010"},"type":"Feature","geometry":{"type":"Point","coordinates":[-77.564507,43.166579]}},{"properties":{"city":"ROCHESTER","property address":"4611 MT READ BOULEVARD GREECE","control no":"2.01E+11","opposite name":"ADAMS ELEANOR J","id":"a63e0xgvtbwy","lat":43.245228,"address":"4611 MT READ BOULEVARD","long":-77.659689,"state":"NY","reference 1":"I2010008382","judgment of foreclosure":"Pending","filing date":"7/1/2010"},"type":"Feature","geometry":{"type":"Point","coordinates":[-77.659689,43.245228]}},{"properties":{"city":"ROCHESTER","property address":"465 CHILI AVENUE ROCHESTER","control no":"2.01E+11","opposite name":"JOYVS SQUARE LLC","id":"a63e0xibirop","lat":43.1454809,"address":"465 CHILI AVENUE","long":-77.649177,"state":"NY","reference 1":"I2010006285","judgment of foreclosure":"Pending","filing date":"5/18/2010"},"type":"Feature","geometry":{"type":"Point","coordinates":[-77.649177,43.1454809]}},{"properties":{"city":"ROCHESTER","property address":"467 PARSELLS AVENUE ROCHESTER","control no":"2.01E+11","opposite name":"TAG DEVELOPMENT INC","id":"a63e0xmypk8i","lat":43.165551,"address":"467 PARSELLS AVENUE","long":-77.565873,"state":"NY","reference 1":"I2010012044","judgment of foreclosure":"Pending","filing date":"9/17/2010"},"type":"Feature","geometry":{"type":"Point","coordinates":[-77.565873,43.165551]}},{"properties":{"city":"ROCHESTER","property address":"468 MAPLEWOOD AVENUE ROCHESTER","control no":"2.01E+11","opposite name":"USA","id":"a63e0xpb5b8k","lat":43.190117,"address":"468 MAPLEWOOD AVENUE","long":-77.6279969,"state":"NY","reference 1":"I2011000094","judgment of foreclosure":"Pending","filing date":"1/4/2011"},"type":"Feature","geometry":{"type":"Point","coordinates":[-77.6279969,43.190117]}},{"properties":{"city":"ROCHESTER","property address":"47 WELLINGTON AVENUE ROCHESTER","control no":"2.01E+11","opposite name":"ROMONA MARIA TERESA","id":"a63e0xgcm5ov","lat":43.147758,"address":"47 WELLINGTON AVENUE","long":-77.641097,"state":"NY","reference 1":"I2011000083","judgment of foreclosure":"Pending","filing date":"1/4/2011"},"type":"Feature","geometry":{"type":"Point","coordinates":[-77.641097,43.147758]}},{"properties":{"city":"ROCHESTER","property address":"470 LAKE VIEW PARK ROCHESTER","control no":"2.01E+11","opposite name":"GARRETT SUSAN M","id":"a63e0xr7hhon","lat":43.1826007,"address":"470 LAKE VIEW PARK","long":-77.6448947,"state":"NY","reference 1":"I2011003542","judgment of foreclosure":"Pending","filing date":"3/22/2011"},"type":"Feature","geometry":{"type":"Point","coordinates":[-77.6448947,43.1826007]}},{"properties":{"city":"ROCHESTER","property address":"470 MOUNT READ BOULEVARD RO","control no":"2.01E+11","opposite name":"DEMARIO MARISA","id":"a63e0xn1ai14","lat":43.159988,"address":"470 MOUNT READ BOULEVARD","long":-77.659072,"state":"NY","reference 1":"I2011001068","judgment of foreclosure":"Pending","filing date":"1/27/2011"},"type":"Feature","geometry":{"type":"Point","coordinates":[-77.659072,43.159988]}},{"properties":{"city":"ROCHESTER","property address":"480 CARTER STREET ROCHESTER","control no":"2.01E+11","opposite name":"RIVERA PABLO O","id":"a63e0xree3uv","lat":43.185592,"address":"480 CARTER STREET","long":-77.591513,"state":"NY","reference 1":"I2011000080","judgment of foreclosure":"Pending","filing date":"1/4/2011"},"type":"Feature","geometry":{"type":"Point","coordinates":[-77.591513,43.185592]}},{"properties":{"city":"ROCHESTER","property address":"484 SAWYER STREET ROCHESTER","control no":"2.01E+11","opposite name":"OSBORNE DEVELOPMENT STRATEGIES CORP","id":"a63e0xcs3rzl","lat":43.135288,"address":"484 SAWYER STREET","long":-77.646141,"state":"NY","reference 1":"I2010015269","judgment of foreclosure":"Pending","filing date":"12/1/2010"},"type":"Feature","geometry":{"type":"Point","coordinates":[-77.646141,43.135288]}},{"properties":{"city":"ROCHESTER","property address":"49 MAZDA TERRACE ROCHESTER","control no":"2.01E+11","opposite name":"NYS DEPT OF TAXATION &amp; FINANCE","id":"a63e0xoj7kcs","lat":43.182664,"address":"49 MAZDA TERRACE","long":-77.614837,"state":"NY","reference 1":"I2011004219","judgment of foreclosure":"Pending","filing date":"4/6/2011"},"type":"Feature","geometry":{"type":"Point","coordinates":[-77.614837,43.182664]}},{"properties":{"city":"ROCHESTER","property address":"491 WEST BROAD ST ROCHESTER","control no":"2.01E+11","opposite name":"SPEZIO FRANK","id":"a63e0xcrwi54","lat":43.156749,"address":"491 WEST BROAD ST","long":-77.624604,"state":"NY","reference 1":"I2011001539","judgment of foreclosure":"Pending","filing date":"2/8/2011"},"type":"Feature","geometry":{"type":"Point","coordinates":[-77.624604,43.156749]}},{"properties":{"city":"ROCHESTER","property address":"495-499 GOODMAN ST N ROCHESTER","control no":"2.01E+11","opposite name":"KBROS INC","id":"a63e0xo2eggt","lat":43.1630968,"address":"495-499 GOODMAN ST N","long":-77.5830568,"state":"NY","reference 1":"I2010006635","judgment of foreclosure":"Pending","filing date":"5/25/2010"},"type":"Feature","geometry":{"type":"Point","coordinates":[-77.5830568,43.1630968]}},{"properties":{"city":"ROCHESTER","property address":"503 JAY STREET ROCHESTER","control no":"2.01E+11","opposite name":"ABBATE DAVID M","id":"a63e0xg3vktl","lat":43.159078,"address":"503 JAY STREET","long":-77.633765,"state":"NY","reference 1":"I2010012551","judgment of foreclosure":"Pending","filing date":"9/28/2010"},"type":"Feature","geometry":{"type":"Point","coordinates":[-77.633765,43.159078]}},{"properties":{"city":"ROCHESTER","property address":"504-506 LYELL AVENUE ROCHESTER","control no":"2.01E+11","opposite name":"SAVINA EMILIO","id":"a63e0xe8or13","lat":43.1646477,"address":"504-506 LYELL AVENUE","long":-77.6423834,"state":"NY","reference 1":"I2010006627","judgment of foreclosure":"Pending","filing date":"5/25/2010"},"type":"Feature","geometry":{"type":"Point","coordinates":[-77.6423834,43.1646477]}},{"properties":{"city":"ROCHESTER","property address":"505 CHILI AVENUE ROCHESTER","control no":"2.01E+11","opposite name":"MONROE COUNTY OF","id":"a63e0xfstroz","lat":43.145402,"address":"505 CHILI AVENUE","long":-77.649947,"state":"NY","reference 1":"I2011000106","judgment of foreclosure":"Pending","filing date":"1/4/2011"},"type":"Feature","geometry":{"type":"Point","coordinates":[-77.649947,43.145402]}},{"properties":{"city":"ROCHESTER","property address":"51 COLEMAN TERRACE ROCHESTER","control no":"2.01E+11","opposite name":"ROCHESTER CITY OF","id":"a63e0xpz5ux0","lat":43.1742599,"address":"51 COLEMAN TERRACE","long":-77.584923,"state":"NY","reference 1":"I2010015262","judgment of foreclosure":"Pending","filing date":"12/1/2010"},"type":"Feature","geometry":{"type":"Point","coordinates":[-77.584923,43.1742599]}},{"properties":{"city":"ROCHESTER","property address":"519-523 THURSTON ROAD ROCHESTE","control no":"2.01E+11","opposite name":"PHELPS YVETTE L","id":"a63e0xqwyo82","lat":43.1345022,"address":"519-523 THURSTON ROAD","long":-77.6509665,"state":"NY","reference 1":"I2011003820","judgment of foreclosure":"Pending","filing date":"3/28/2011"},"type":"Feature","geometry":{"type":"Point","coordinates":[-77.6509665,43.1345022]}},{"properties":{"city":"ROCHESTER","property address":"53 ALBERTA STREET ROCHESTER","control no":"2.01E+11","opposite name":"MONROE COUNTY OF","id":"a63e0xq01md8","lat":43.143672,"address":"53 ALBERTA STREET","long":-77.6494,"state":"NY","reference 1":"I2011000995","judgment of foreclosure":"Pending","filing date":"1/26/2011"},"type":"Feature","geometry":{"type":"Point","coordinates":[-77.6494,43.143672]}},{"properties":{"city":"ROCHESTER","property address":"53 CUTLER STREET ROCHESTER","control no":"2.01E+11","opposite name":"GREENWOOD TRUST COMPANY","id":"a63e0xdvhfma","lat":43.184596,"address":"53 CUTLER STREET","long":-77.620149,"state":"NY","reference 1":"I2010011160","judgment of foreclosure":"Pending","filing date":"8/25/2010"},"type":"Feature","geometry":{"type":"Point","coordinates":[-77.620149,43.184596]}},{"properties":{"city":"ROCHESTER","property address":"53 MANOR DRIVE IRONDEQUOIT","control no":"2.01E+11","opposite name":"PNC BANK NATIONAL ASSOCIATION","id":"a63e0xkbgz12","lat":43.240646,"address":"53 MANOR DRIVE","long":-77.597197,"state":"NY","reference 1":"I2010008149","judgment of foreclosure":"Pending","filing date":"6/28/2010 + 8/16/2010"},"type":"Feature","geometry":{"type":"Point","coordinates":[-77.597197,43.240646]}},{"properties":{"city":"ROCHESTER","property address":"53 WESTCHESTER AVE ROCHESTER","control no":"2.01E+11","opposite name":"XCEED FINANCIAL FEDERAL CREDIT UNION","id":"a63e0xqpowj1","lat":43.173001,"address":"53 WESTCHESTER AVE","long":-77.562781,"state":"NY","reference 1":"I2010016495","judgment of foreclosure":"Pending","filing date":"12/29/2010 + 1/20/2011"},"type":"Feature","geometry":{"type":"Point","coordinates":[-77.562781,43.173001]}},{"properties":{"city":"ROCHESTER","property address":"540 LAKE VIEW PARK ROCHESTER","control no":"2.01E+11","opposite name":"MUHAMMAD NYOTA","id":"a63e0xjo8nmp","lat":43.1825892,"address":"540 LAKE VIEW PARK","long":-77.6468834,"state":"NY","reference 1":"I2010016347","judgment of foreclosure":"Pending","filing date":"12/27/2010"},"type":"Feature","geometry":{"type":"Point","coordinates":[-77.6468834,43.1825892]}},{"properties":{"city":"ROCHESTER","property address":"547-549 REMINGTON ST ROCHESTER","control no":"2.01E+11","opposite name":"MATTICE SUSAN","id":"a63e0xrd4ozx","lat":43.1864213,"address":"547-549 REMINGTON ST","long":-77.6112349,"state":"NY","reference 1":"I2011000108","judgment of foreclosure":"Pending","filing date":"1/4/2011"},"type":"Feature","geometry":{"type":"Point","coordinates":[-77.6112349,43.1864213]}},{"properties":{"city":"ROCHESTER","property address":"553 CHILI AVENUE ROCHESTER","control no":"2.01E+11","opposite name":"RESNICK BARRY","id":"a63e0xjlh4l2","lat":43.1448449,"address":"553 CHILI AVENUE","long":-77.651267,"state":"NY","reference 1":"I2010006474","judgment of foreclosure":"Pending","filing date":"5/21/2010"},"type":"Feature","geometry":{"type":"Point","coordinates":[-77.651267,43.1448449]}},{"properties":{"city":"ROCHESTER","property address":"556 NORTON STREET ROCHESTER","control no":"2.01E+11","opposite name":"GRIFFITH ENERGY INC","id":"a63e0xo3llop","lat":43.18679,"address":"556 NORTON STREET","long":-77.60869,"state":"NY","reference 1":"I2011000077","judgment of foreclosure":"Pending","filing date":"1/4/2011"},"type":"Feature","geometry":{"type":"Point","coordinates":[-77.60869,43.18679]}},{"properties":{"city":"ROCHESTER","property address":"560 CONKEY AVENUE ROCHESTER","control no":"2.01E+11","opposite name":"NEW YORK STATE DEPARTMENT OF TAXATION &amp; FINANCE","id":"a63e0xgxvzb1","lat":43.184323,"address":"560 CONKEY AVENUE","long":-77.618699,"state":"NY","reference 1":"I2010016396","judgment of foreclosure":"Pending","filing date":"12/28/2010"},"type":"Feature","geometry":{"type":"Point","coordinates":[-77.618699,43.184323]}},{"properties":{"city":"ROCHESTER","property address":"57 HUNTINGTON PARK ROCHESTER","control no":"2.01E+11","opposite name":"SALMON LESLIE R","id":"a63e0xlpdoqf","lat":43.175141,"address":"57 HUNTINGTON PARK","long":-77.623094,"state":"NY","reference 1":"I2010015477","judgment of foreclosure":"Pending","filing date":"12/6/2010"},"type":"Feature","geometry":{"type":"Point","coordinates":[-77.623094,43.175141]}},{"properties":{"city":"ROCHESTER","property address":"587 WILKINS STREET ROCHESTER","control no":"2.01E+11","opposite name":"ROTHSCHILD DONALD W","id":"a63e0xmz90c5","lat":43.178666,"address":"587 WILKINS STREET","long":-77.594025,"state":"NY","reference 1":"I2011000671","judgment of foreclosure":"Pending","filing date":"1/19/2011"},"type":"Feature","geometry":{"type":"Point","coordinates":[-77.594025,43.178666]}},{"properties":{"city":"ROCHESTER","property address":"588 GLIDE STREET ROCHESTER","control no":"2.01E+11","opposite name":"TS AUTO CARE INC","id":"a63e0xlrjtwl","lat":43.163102,"address":"588 GLIDE STREET","long":-77.653673,"state":"NY","reference 1":"I2010006628","judgment of foreclosure":"Pending","filing date":"5/25/2010 + 9/10/2010"},"type":"Feature","geometry":{"type":"Point","coordinates":[-77.653673,43.163102]}},{"properties":{"city":"ROCHESTER","property address":"59 JACKSON STREET ROCHESTER","control no":"2.01E+11","opposite name":"CRAYONE LOUIS T JR","id":"a63e0xbr02id","lat":43.1848839,"address":"59 JACKSON STREET","long":-77.582136,"state":"NY","reference 1":"I2011000874","judgment of foreclosure":"Pending","filing date":"1/24/2011"},"type":"Feature","geometry":{"type":"Point","coordinates":[-77.582136,43.1848839]}},{"properties":{"city":"ROCHESTER","property address":"59 NIAGARA STREET ROCHESTER","control no":"2.01E+11","opposite name":"HAYNES LOUISE","id":"a63e0xfq7os1","lat":43.17015,"address":"59 NIAGARA STREET","long":-77.589585,"state":"NY","reference 1":"I2010005397","judgment of foreclosure":"Pending","filing date":"4/29/2010"},"type":"Feature","geometry":{"type":"Point","coordinates":[-77.589585,43.17015]}},{"properties":{"city":"ROCHESTER","property address":"595-599 PORTLAND AVE ROCHESTER","control no":"2.01E+11","opposite name":"SALEH ABDUL","id":"a63e0xm1xxq9","lat":43.1768369,"address":"595-599 PORTLAND AVE","long":-77.590319,"state":"NY","reference 1":"I2010016352","judgment of foreclosure":"Pending","filing date":"12/27/2010"},"type":"Feature","geometry":{"type":"Point","coordinates":[-77.590319,43.1768369]}},{"properties":{"city":"ROCHESTER","property address":"599 AUGUSTINE STREET ROCHESTER","control no":"2.01E+11","opposite name":"MONROE COUNTY DEPT OF SOCIAL SERVICES COMMISSIONER/DIRECTOR","id":"a63e0xq53yrv","lat":43.185901,"address":"599 AUGUSTINE STREET","long":-77.647826,"state":"NY","reference 1":"I2011004380","judgment of foreclosure":"Pending","filing date":"4/8/2011"},"type":"Feature","geometry":{"type":"Point","coordinates":[-77.647826,43.185901]}},{"properties":{"city":"ROCHESTER","property address":"599 EMERSON STREET ROCHESTER","control no":"2.01E+11","opposite name":"ROTHSCHILD DONALD W","id":"a63e0xdtkndu","lat":43.173646,"address":"599 EMERSON STREET","long":-77.64624,"state":"NY","reference 1":"I2010007925","judgment of foreclosure":"Pending","filing date":"6/22/2010"},"type":"Feature","geometry":{"type":"Point","coordinates":[-77.64624,43.173646]}},{"properties":{"city":"ROCHESTER","property address":"61 MICHIGAN STREET ROCHESTER","control no":"2.01E+11","opposite name":"TRIMBLE-VALLON KEESHA","id":"a63e0xjhqud3","lat":43.172051,"address":"61 MICHIGAN STREET","long":-77.641395,"state":"NY","reference 1":"I2011000983","judgment of foreclosure":"Pending","filing date":"1/26/2011"},"type":"Feature","geometry":{"type":"Point","coordinates":[-77.641395,43.172051]}},{"properties":{"city":"ROCHESTER","property address":"613 PARSELLS AVENUE ROCHESTER","control no":"2.01E+11","opposite name":"NOWLIN LINDA J HOLMES","id":"a63e0xl50g12","lat":43.165963,"address":"613 PARSELLS AVENUE","long":-77.561586,"state":"NY","reference 1":"I2011000930","judgment of foreclosure":"Pending","filing date":"1/25/2011"},"type":"Feature","geometry":{"type":"Point","coordinates":[-77.561586,43.165963]}},{"properties":{"city":"ROCHESTER","property address":"613-625 WEST MAIN ST ROCHESTER","control no":"2.01E+11","opposite name":"ROCHESTER CITY OF","id":"a63e0xfh81nl","lat":43.1517495,"address":"613-625 WEST MAIN ST","long":-77.6297245,"state":"NY","reference 1":"I2010008290","judgment of foreclosure":"Pending","filing date":"6/30/2010"},"type":"Feature","geometry":{"type":"Point","coordinates":[-77.6297245,43.1517495]}},{"properties":{"city":"ROCHESTER","property address":"636 MERCHANTS ROAD ROCHESTER","control no":"2.01E+11","opposite name":"VERBJAR DIANE R","id":"a63e0xhxlwbe","lat":43.165613,"address":"636 MERCHANTS ROAD","long":-77.55619,"state":"NY","reference 1":"I2010007626","judgment of foreclosure":"Pending","filing date":"6/16/2010 + 9/8/2010"},"type":"Feature","geometry":{"type":"Point","coordinates":[-77.55619,43.165613]}},{"properties":{"city":"ROCHESTER","property address":"64 SPENCER STREET ROCHESTER","control no":"2.01E+11","opposite name":"UKRAINIAN FEDERAL CREDIT UNION","id":"a63e0xfzby6d","lat":43.167127,"address":"64 SPENCER STREET","long":-77.6243439,"state":"NY","reference 1":"I2011001552","judgment of foreclosure":"Pending","filing date":"2/8/2011"},"type":"Feature","geometry":{"type":"Point","coordinates":[-77.6243439,43.167127]}},{"properties":{"city":"ROCHESTER","property address":"64 WETMORE PARK ROCHESTER","control no":"2.01E+11","opposite name":"PETRILLO JOANNE M","id":"a63e0xhdhv1e","lat":43.160751,"address":"64 WETMORE PARK","long":-77.656684,"state":"NY","reference 1":"I2011000941","judgment of foreclosure":"Pending","filing date":"1/25/2011"},"type":"Feature","geometry":{"type":"Point","coordinates":[-77.656684,43.160751]}},{"properties":{"city":"ROCHESTER","property address":"65 DEVONSHIRE COURT ROCHESTER","control no":"2.01E+11","opposite name":"STATHE MICKLE","id":"a63e0xk0tw0i","lat":43.142831,"address":"65 DEVONSHIRE COURT","long":-77.652938,"state":"NY","reference 1":"I2010016346","judgment of foreclosure":"Pending","filing date":"12/27/2010"},"type":"Feature","geometry":{"type":"Point","coordinates":[-77.652938,43.142831]}},{"properties":{"city":"HILTON","property address":"662 MOUL ROAD PARMA","control no":"2.01E+11","opposite name":"BUTKOWSKY CHRISTINE J","id":"a63e0xcjuwc8","lat":43.324451,"address":"662 MOUL ROAD","long":-77.813624,"state":"NY","reference 1":"I2010014125","judgment of foreclosure":"Pending","filing date":"11/3/2010"},"type":"Feature","geometry":{"type":"Point","coordinates":[-77.813624,43.324451]}},{"properties":{"city":"ROCHESTER","property address":"67 CANTON STREET ROCHESTER","control no":"2.01E+11","opposite name":"NYS DEPT OF TAXATION &amp; FINANCE","id":"a63e0xcl7lma","lat":43.1669849,"address":"67 CANTON STREET","long":-77.652658,"state":"NY","reference 1":"I2011004371","judgment of foreclosure":"Pending","filing date":"4/8/2011"},"type":"Feature","geometry":{"type":"Point","coordinates":[-77.652658,43.1669849]}},{"properties":{"city":"ROCHESTER","property address":"67 DIX STREET ROCHESTER","control no":"2.01E+11","opposite name":"ROTHSCHILD DONALD W","id":"a63e0xc9nqyw","lat":43.1704549,"address":"67 DIX STREET","long":-77.646889,"state":"NY","reference 1":"I2011003825","judgment of foreclosure":"Pending","filing date":"3/28/2011"},"type":"Feature","geometry":{"type":"Point","coordinates":[-77.646889,43.1704549]}},{"properties":{"city":"ROCHESTER","property address":"674 PORTLAND AVENUE ROCHESTER","control no":"2.01E+11","opposite name":"ROTHSCHILD DONALD W","id":"a63e0xgw5qhl","lat":43.177991,"address":"674 PORTLAND AVENUE","long":-77.588915,"state":"NY","reference 1":"I2010016494","judgment of foreclosure":"Pending","filing date":"12/29/2010"},"type":"Feature","geometry":{"type":"Point","coordinates":[-77.588915,43.177991]}},{"properties":{"city":"ROCHESTER","property address":"67-69 AVENUE ROCHESTER","control no":"2.01E+11","opposite name":"MURA-JOHNSON MICHELLE A","id":"a63e0xrhxjsz","lat":43.0269922,"address":"67-69 AVENUE","long":-77.6265625,"state":"NY","reference 1":"I2010016455","judgment of foreclosure":"Pending","filing date":"12/29/2010"},"type":"Feature","geometry":{"type":"Point","coordinates":[-77.6265625,43.0269922]}},{"properties":{"city":"ROCHESTER","property address":"68-92 GENESEE STREET ROCHESTER","control no":"2.01E+11","opposite name":"MITHANI AMIR A","id":"a63e0xfacuti","lat":43.1484535,"address":"68-92 GENESEE STREET","long":-77.6357869,"state":"NY","reference 1":"I2009012026","judgment of foreclosure":"Pending","filing date":"8/24/2009 + 10/13/2010"},"type":"Feature","geometry":{"type":"Point","coordinates":[-77.6357869,43.1484535]}},{"properties":{"city":"ROCHESTER","property address":"702-706 JEFFERSON AVENUE RO","control no":"2.01E+11","opposite name":"ROCHESTER CITY OF","id":"a63e0xrm3zaw","lat":43.1407435,"address":"702-706 JEFFERSON AVENUE","long":-77.6289335,"state":"NY","reference 1":"I2010012886","judgment of foreclosure":"Pending","filing date":"10/4/2010"},"type":"Feature","geometry":{"type":"Point","coordinates":[-77.6289335,43.1407435]}},{"properties":{"city":"ROCHESTER","property address":"704 CARTER STREET ROCHESTER","control no":"2.01E+11","opposite name":"NYS DEPT OF TAXATION &amp; FINANCE","id":"a63e0xpyj9ji","lat":43.190181,"address":"704 CARTER STREET","long":-77.5917429,"state":"NY","reference 1":"I2011001010","judgment of foreclosure":"Pending","filing date":"1/26/2011"},"type":"Feature","geometry":{"type":"Point","coordinates":[-77.5917429,43.190181]}},{"properties":{"city":"ROCHESTER","property address":"704-708 JOSEPH AVE ROCHESTER","control no":"2.01E+11","opposite name":"ZIMMERMANN RUTH M","id":"a63e0xglo9de","lat":43.1773855,"address":"704-708 JOSEPH AVE","long":-77.6075566,"state":"NY","reference 1":"I2011001112","judgment of foreclosure":"Pending","filing date":"1/28/2011"},"type":"Feature","geometry":{"type":"Point","coordinates":[-77.6075566,43.1773855]}},{"properties":{"city":"ROCHESTER","property address":"705 HOLLENBECK ST ROCHESTER","control no":"2.01E+11","opposite name":"COTTON FELICIA WILLIAMS","id":"a63e0xqc53uj","lat":43.192398,"address":"705 HOLLENBECK ST","long":-77.615425,"state":"NY","reference 1":"I2010014487","judgment of foreclosure":"Pending","filing date":"11/10/2010"},"type":"Feature","geometry":{"type":"Point","coordinates":[-77.615425,43.192398]}},{"properties":{"city":"ROCHESTER","property address":"71 FILLMORE STREET ROCHESTER","control no":null,"opposite name":"WALKER LIVINGSTON","id":"a63e0xi4zas4","lat":43.1484219,"address":"71 FILLMORE STREET","long":-77.650193,"state":"NY","reference 1":null,"judgment of foreclosure":"Pending","filing date":"4/12/2011"},"type":"Feature","geometry":{"type":"Point","coordinates":[-77.650193,43.1484219]}},{"properties":{"city":"ROCHESTER","property address":"71 MALLING DRIVE ROCHESTER","control no":"2.01E+11","opposite name":"PRESERVATION PROPERTIES LLC","id":"a63e0xqqxcyf","lat":43.181671,"address":"71 MALLING DRIVE","long":-77.6229989,"state":"NY","reference 1":"I2011002001","judgment of foreclosure":"Pending","filing date":"2/17/2011 + 3/23/2011"},"type":"Feature","geometry":{"type":"Point","coordinates":[-77.6229989,43.181671]}},{"properties":{"city":"ROCHESTER","property address":"71 STERLING STREET ROCHESTER","control no":"2.01E+11","opposite name":"JPMORGAN CHASE BANK NA","id":"a63e0xkqtozf","lat":43.170567,"address":"71 STERLING STREET","long":-77.645781,"state":"NY","reference 1":"I2010016508","judgment of foreclosure":"Pending","filing date":"12/30/2010"},"type":"Feature","geometry":{"type":"Point","coordinates":[-77.645781,43.170567]}},{"properties":{"city":"ROCHESTER","property address":"713 CHILI AVENUE ROCHESTER","control no":"2.01E+11","opposite name":"COOPER FRANK","id":"a63e0xkzs5o9","lat":43.143537,"address":"713 CHILI AVENUE","long":-77.655427,"state":"NY","reference 1":"I2010014251","judgment of foreclosure":"Pending","filing date":"11/4/2010"},"type":"Feature","geometry":{"type":"Point","coordinates":[-77.655427,43.143537]}},{"properties":{"city":"ROCHESTER","property address":"714 OTIS STREET ROCHESTER","control no":"2.01E+11","opposite name":"AKHTAR SYED","id":"a63e0xh7gn47","lat":43.168911,"address":"714 OTIS STREET","long":-77.6587459,"state":"NY","reference 1":"I2011000424","judgment of foreclosure":"Pending","filing date":"1/12/2011"},"type":"Feature","geometry":{"type":"Point","coordinates":[-77.6587459,43.168911]}},{"properties":{"city":"ROCHESTER","property address":"72 FELIX STREET ROCHESTER","control no":"2.01E+11","opposite name":"ROTHSCHILD DONALD W","id":"a63e0xdzwu06","lat":43.169326,"address":"72 FELIX STREET","long":-77.638352,"state":"NY","reference 1":"I2011001133","judgment of foreclosure":"Pending","filing date":"1/28/2011"},"type":"Feature","geometry":{"type":"Point","coordinates":[-77.638352,43.169326]}},{"properties":{"city":"ROCHESTER","property address":"72 JACKSON STREET ROCHESTER","control no":"2.01E+11","opposite name":"FEDRICK BETTY L","id":"a63e0xhw96ss","lat":43.185338,"address":"72 JACKSON STREET","long":-77.58187,"state":"NY","reference 1":"I2010016448","judgment of foreclosure":"Pending","filing date":"12/29/2010"},"type":"Feature","geometry":{"type":"Point","coordinates":[-77.58187,43.185338]}},{"properties":{"city":"ROCHESTER","property address":"73 CLEON STREET ROCHESTER","control no":"2.01E+11","opposite name":"NATIONSCREDIT FINANCIAL SERVICES CORPORATION","id":"a63e0xhv1q3v","lat":43.183135,"address":"73 CLEON STREET","long":-77.597076,"state":"NY","reference 1":"I2011003223","judgment of foreclosure":"Pending","filing date":"3/17/2011"},"type":"Feature","geometry":{"type":"Point","coordinates":[-77.597076,43.183135]}},{"properties":{"city":"ROCHESTER","property address":"73 RAND STREET ROCHESTER","control no":"2.01E+11","opposite name":"MONROE COUNTY OF","id":"a63e0xgg4nfy","lat":43.197619,"address":"73 RAND STREET","long":-77.641066,"state":"NY","reference 1":"I2010016316","judgment of foreclosure":"Pending","filing date":"12/23/2010"},"type":"Feature","geometry":{"type":"Point","coordinates":[-77.641066,43.197619]}},{"properties":{"city":"ROCHESTER","property address":"75 CLAIRMOUNT STREET ROCHESTER","control no":"2.01E+11","opposite name":"JACKSON GRACIE L","id":"a63e0xfzr58u","lat":43.177234,"address":"75 CLAIRMOUNT STREET","long":-77.583296,"state":"NY","reference 1":"I2011002560","judgment of foreclosure":"Pending","filing date":"3/2/2011"},"type":"Feature","geometry":{"type":"Point","coordinates":[-77.583296,43.177234]}},{"properties":{"city":"ROCHESTER","property address":"75 ROSSITER ROAD ROCHESTER","control no":"2.01E+11","opposite name":"SEXTON MARIANNE R","id":"a63e0xp6n1k6","lat":43.120011,"address":"75 ROSSITER ROAD","long":-77.621751,"state":"NY","reference 1":"I2011003823","judgment of foreclosure":"Pending","filing date":"3/28/2011"},"type":"Feature","geometry":{"type":"Point","coordinates":[-77.621751,43.120011]}},{"properties":{"city":"ROCHESTER","property address":"76 DUNBAR STREET ROCHESTER","control no":"2.01E+11","opposite name":"TISDALE MARY E","id":"a63e0xqsp6u4","lat":43.132985,"address":"76 DUNBAR STREET","long":-77.6500609,"state":"NY","reference 1":"I2011004374","judgment of foreclosure":"Pending","filing date":"4/8/2011"},"type":"Feature","geometry":{"type":"Point","coordinates":[-77.6500609,43.132985]}},{"properties":{"city":"ROCHESTER","property address":"76 ORIOLE STREET ROCHESTER","control no":"2.01E+11","opposite name":"ROTHSCHILD DONALD W","id":"a63e0xnjzn4g","lat":43.177432,"address":"76 ORIOLE STREET","long":-77.641504,"state":"NY","reference 1":"I2010016493","judgment of foreclosure":"Pending","filing date":"12/29/2010"},"type":"Feature","geometry":{"type":"Point","coordinates":[-77.641504,43.177432]}},{"properties":{"city":"ROCHESTER","property address":"77 CHAPIN STREET ROCHESTER","control no":"2.01E+11","opposite name":"STATHE MICKLE","id":"a63e0xpum8xt","lat":43.184128,"address":"77 CHAPIN STREET","long":-77.581939,"state":"NY","reference 1":"I2011002797","judgment of foreclosure":"Pending","filing date":"3/9/2011 + 4/4/2011"},"type":"Feature","geometry":{"type":"Point","coordinates":[-77.581939,43.184128]}},{"properties":{"city":"ROCHESTER","property address":"77 LOCUST STREET ROCHESTER","control no":"2.01E+11","opposite name":"COSGROVE ALAN","id":"a63e0xd63nsr","lat":43.174115,"address":"77 LOCUST STREET","long":-77.636932,"state":"NY","reference 1":"I2010016298","judgment of foreclosure":"Pending","filing date":"12/23/2010 + 1/20/2011"},"type":"Feature","geometry":{"type":"Point","coordinates":[-77.636932,43.174115]}},{"properties":{"city":"ROCHESTER","property address":"773-775 AVENUE D ROCHESTER","control no":"2.01E+11","opposite name":"GAMBLE CHERYL","id":"a63e0xcagrlf","lat":43.1807166,"address":"773-775 AVENUE D","long":-77.6032867,"state":"NY","reference 1":"I2011000994","judgment of foreclosure":"Pending","filing date":"1/26/2011"},"type":"Feature","geometry":{"type":"Point","coordinates":[-77.6032867,43.1807166]}},{"properties":{"city":"ROCHESTER","property address":"79 COTTAGE STREET ROCHESTER","control no":"2.01E+11","opposite name":"WELLS FARGO FINANCIAL CREDIT SERVICES OF NEW YORK INC","id":"a63e0xpm86hp","lat":43.134549,"address":"79 COTTAGE STREET","long":-77.625213,"state":"NY","reference 1":"I2011002551","judgment of foreclosure":"Pending","filing date":"3/2/2011"},"type":"Feature","geometry":{"type":"Point","coordinates":[-77.625213,43.134549]}},{"properties":{"city":"ROCHESTER","property address":"797 SEWARD STREET ROCHESTER","control no":"2.01E+11","opposite name":"SNOWDEN DAVID JR","id":"a63e0xis7b2d","lat":43.133926,"address":"797 SEWARD STREET","long":-77.633675,"state":"NY","reference 1":"I2010008159","judgment of foreclosure":"Pending","filing date":"6/28/2010"},"type":"Feature","geometry":{"type":"Point","coordinates":[-77.633675,43.133926]}},{"properties":{"city":"ROCHESTER","property address":"8 EPISCOPAL AVENUE MENDON","control no":"2.01E+11","opposite name":"MATHSTONE CORP","id":"a63e0xop9ww4","lat":42.952784,"address":"8 EPISCOPAL AVENUE","long":-77.592919,"state":"NY","reference 1":"I2010007630","judgment of foreclosure":"Pending","filing date":"6/16/2010"},"type":"Feature","geometry":{"type":"Point","coordinates":[-77.592919,42.952784]}},{"properties":{"city":"ROCHESTER","property address":"800 SAINT PAUL ST ROCHESTER","control no":"2.01E+11","opposite name":"NYS DEPT OF TAXATION &amp; FINANCE","id":"a63e0xrlcr4p","lat":43.170909,"address":"800 SAINT PAUL ST","long":-77.6199479,"state":"NY","reference 1":"I2010006275","judgment of foreclosure":"Pending","filing date":"5/18/2010"},"type":"Feature","geometry":{"type":"Point","coordinates":[-77.6199479,43.170909]}},{"properties":{"city":"ROCHESTER","property address":"81 MELROSE STREET ROCHESTER","control no":"2.01E+11","opposite name":"DIRECTV INC","id":"a63e0xcee3q9","lat":43.138177,"address":"81 MELROSE STREET","long":-77.6384269,"state":"NY","reference 1":"I2010016353","judgment of foreclosure":"Pending","filing date":"12/27/2010"},"type":"Feature","geometry":{"type":"Point","coordinates":[-77.6384269,43.138177]}},{"properties":{"city":"ROCHESTER","property address":"826 JOSPEH AVENUE ROCHESTER","control no":"2.01E+11","opposite name":"NYS DEPT OF TAXATION &amp; FINANCE","id":"a63e0xcmyuwj","lat":43.179858,"address":"826 JOSPEH AVENUE","long":-77.607559,"state":"NY","reference 1":"I2010006282","judgment of foreclosure":"Pending","filing date":"5/18/2010"},"type":"Feature","geometry":{"type":"Point","coordinates":[-77.607559,43.179858]}},{"properties":{"city":"ROCHESTER","property address":"84 KINGSTON STREET ROCHESTER","control no":"2.01E+11","opposite name":"GONZALEZ KATHERINE","id":"a63e0xez2hij","lat":43.161706,"address":"84 KINGSTON STREET","long":-77.5672,"state":"NY","reference 1":"I2010015431","judgment of foreclosure":"Pending","filing date":"12/6/2010"},"type":"Feature","geometry":{"type":"Point","coordinates":[-77.5672,43.161706]}},{"properties":{"city":"ROCHESTER","property address":"855-861 JAY STREET ROCHESTER","control no":"2.01E+11","opposite name":"LADIGES GUY","id":"a63e0xd4gt5d","lat":43.1593248,"address":"855-861 JAY STREET","long":-77.6439231,"state":"NY","reference 1":"I2010002621","judgment of foreclosure":"Pending","filing date":"3/1/2010"},"type":"Feature","geometry":{"type":"Point","coordinates":[-77.6439231,43.1593248]}},{"properties":{"city":"ROCHESTER","property address":"857 PORTLAND AVENUE ROCHESTER","control no":"2.01E+11","opposite name":"MICHAEL KENNETH L","id":"a63e0xkc3nct","lat":43.181572,"address":"857 PORTLAND AVENUE","long":-77.587432,"state":"NY","reference 1":"I2010007883","judgment of foreclosure":"Pending","filing date":"6/22/2010"},"type":"Feature","geometry":{"type":"Point","coordinates":[-77.587432,43.181572]}},{"properties":{"city":"ROCHESTER","property address":"859-863 BAY STREET ROCHESTER","control no":"2.01E+11","opposite name":"NYS DEPT OF TAXATION &amp; FINANCE","id":"a63e0xrcwzka","lat":43.1712465,"address":"859-863 BAY STREET","long":-77.5704248,"state":"NY","reference 1":"I2011002553","judgment of foreclosure":"Pending","filing date":"3/2/2011"},"type":"Feature","geometry":{"type":"Point","coordinates":[-77.5704248,43.1712465]}},{"properties":{"city":"ROCHESTER","property address":"864 DRIVING PARK AVE ROCHESTER","control no":"2.01E+11","opposite name":"MAC PROPERTIES INC","id":"a63e0xhn9mbq","lat":43.183442,"address":"864 DRIVING PARK AVE","long":-77.652794,"state":"NY","reference 1":"I2009011167","judgment of foreclosure":"Pending","filing date":"8/5/2009"},"type":"Feature","geometry":{"type":"Point","coordinates":[-77.652794,43.183442]}},{"properties":{"city":"ROCHESTER","property address":"87 DIX STREET ROCHESTER","control no":"2.01E+11","opposite name":"ROTHSCHILD DONALD W","id":"a63e0xj9li4e","lat":43.170883,"address":"87 DIX STREET","long":-77.646882,"state":"NY","reference 1":"I2011001011","judgment of foreclosure":"Pending","filing date":"1/26/2011"},"type":"Feature","geometry":{"type":"Point","coordinates":[-77.646882,43.170883]}},{"properties":{"city":"ROCHESTER","property address":"87 TERRACE PARK ROCHESTER","control no":"2.01E+11","opposite name":"MONROE COUNTY OF","id":"a63e0xmxatlv","lat":43.129917,"address":"87 TERRACE PARK","long":-77.638993,"state":"NY","reference 1":"I2010014795","judgment of foreclosure":"Pending","filing date":"11/17/2010"},"type":"Feature","geometry":{"type":"Point","coordinates":[-77.638993,43.129917]}},{"properties":{"city":"ROCHESTER","property address":"87 VANSTALLEN STREET ROCHESTER","control no":"2.01E+11","opposite name":"RUBENSTEIN DORIS","id":"a63e0xdo2ngi","lat":43.184408,"address":"87 VANSTALLEN STREET","long":-77.605675,"state":"NY","reference 1":"I2010013328","judgment of foreclosure":"Pending","filing date":"10/13/2010"},"type":"Feature","geometry":{"type":"Point","coordinates":[-77.605675,43.184408]}},{"properties":{"city":"ROCHESTER","property address":"88 HOBART STREET ROCHESTER","control no":"2.01E+11","opposite name":"ASPIRE FEDERAL CREDIT UNION","id":"a63e0xedg6rt","lat":43.148094,"address":"88 HOBART STREET","long":-77.648317,"state":"NY","reference 1":"I2011003910","judgment of foreclosure":"Pending","filing date":"3/30/2011"},"type":"Feature","geometry":{"type":"Point","coordinates":[-77.648317,43.148094]}},{"properties":{"city":"ROCHESTER","property address":"88 ONEIDA STREET ROCHESTER","control no":"2.01E+11","opposite name":"ROTHSCHILD DONALD W","id":"a63e0xlctcwb","lat":43.182988,"address":"88 ONEIDA STREET","long":-77.583618,"state":"NY","reference 1":"I2011000206","judgment of foreclosure":"Pending","filing date":"1/7/2011"},"type":"Feature","geometry":{"type":"Point","coordinates":[-77.583618,43.182988]}},{"properties":{"city":"ROCHESTER","property address":"890 NORTH PLYMOUTH AVENUE RO","control no":"2.01E+11","opposite name":"SEARS MIMI","id":"a63e0xfn61gn","lat":43.1389772,"address":"890 NORTH PLYMOUTH AVENUE","long":-77.6231482,"state":"NY","reference 1":"I2010008151","judgment of foreclosure":"Pending","filing date":"6/28/2010"},"type":"Feature","geometry":{"type":"Point","coordinates":[-77.6231482,43.1389772]}},{"properties":{"city":"ROCHESTER","property address":"9 POMANDER WALK EAST ROCHESTER","control no":"2.01E+11","opposite name":"JESINGER JOHN H","id":"a63e0xkm1bsv","lat":43.115178,"address":"9 POMANDER WALK EAST","long":-77.49753,"state":"NY","reference 1":"I2010006362","judgment of foreclosure":"Pending","filing date":"5/19/2010"},"type":"Feature","geometry":{"type":"Point","coordinates":[-77.49753,43.115178]}},{"properties":{"city":"WEBSTER","property address":"9 SPRINGWOOD DRIVE WEBSTER","control no":"2.01E+11","opposite name":"EMERY H AND VIRGINIA M CAREY TRUST","id":"a63e0xbmdxqu","lat":43.1999179,"address":"9 SPRINGWOOD DRIVE","long":-77.461862,"state":"NY","reference 1":"I2009012321","judgment of foreclosure":"Pending","filing date":"8/31/2009"},"type":"Feature","geometry":{"type":"Point","coordinates":[-77.461862,43.1999179]}},{"properties":{"city":"ROCHESTER","property address":"900 DEWEY AVENUE ROCHESTER","control no":"2.01E+11","opposite name":"PERRI JOYCE","id":"a63e0xpszgo6","lat":43.181824,"address":"900 DEWEY AVENUE","long":-77.638429,"state":"NY","reference 1":"I2010013784","judgment of foreclosure":"Pending","filing date":"10/22/2010"},"type":"Feature","geometry":{"type":"Point","coordinates":[-77.638429,43.181824]}},{"properties":{"city":"ROCHESTER","property address":"917-937 NORTH STREET ROCHESTER","control no":"2.01E+11","opposite name":"SUPERIOR SHOLESALE INC","id":"a63e0xdy21id","lat":43.1753339,"address":"917-937 NORTH STREET","long":-77.595166,"state":"NY","reference 1":"I2009011629","judgment of foreclosure":"Pending","filing date":"8/17/2009"},"type":"Feature","geometry":{"type":"Point","coordinates":[-77.595166,43.1753339]}},{"properties":{"city":"ROCHESTER","property address":"91-903 WILBUR STREET ROCHESTER","control no":"2.01E+11","opposite name":"JONES MIRANDA","id":"a63e0xescawi","lat":43.1457361,"address":"91-903 WILBUR STREET","long":-77.6585561,"state":"NY","reference 1":"I2011001560","judgment of foreclosure":"Pending","filing date":"2/8/2011"},"type":"Feature","geometry":{"type":"Point","coordinates":[-77.6585561,43.1457361]}},{"properties":{"city":"ROCHESTER","property address":"92 CAMERON STREET ROCHESTER","control no":"2.01E+11","opposite name":"KILGORE &amp; KILGORE LTD","id":"a63e0xnxufci","lat":43.166604,"address":"92 CAMERON STREET","long":-77.639428,"state":"NY","reference 1":"I2011001129","judgment of foreclosure":"Pending","filing date":"1/28/2011"},"type":"Feature","geometry":{"type":"Point","coordinates":[-77.639428,43.166604]}},{"properties":{"city":"ROCHESTER","property address":"92 ENTERPRISE STREET ROCHESTER","control no":"2.01E+11","opposite name":"STRACHAN LETICIA","id":"a63e0xgwu9i5","lat":43.134442,"address":"92 ENTERPRISE STREET","long":-77.64978,"state":"NY","reference 1":"I2010013785","judgment of foreclosure":"Pending","filing date":"10/22/2010"},"type":"Feature","geometry":{"type":"Point","coordinates":[-77.64978,43.134442]}},{"properties":{"city":"ROCHESTER","property address":"924-928 NORTH CLINTON AVENUE","control no":"2.01E+11","opposite name":"BANK OF AMERICA NATIONAL ASSOCIATION","id":"a63e0xgg9ivf","lat":43.1757407,"address":"924-928 NORTH CLINTON AVENUE","long":-77.6132953,"state":"NY","reference 1":"I2010012549","judgment of foreclosure":"Pending","filing date":"9/28/2010"},"type":"Feature","geometry":{"type":"Point","coordinates":[-77.6132953,43.1757407]}},{"properties":{"city":"ROCHESTER","property address":"93 DORBETH ROAD ROCHESTER","control no":"2.01E+11","opposite name":"BEMBRY ADRIENNE","id":"a63e0xlkwcwp","lat":43.182422,"address":"93 DORBETH ROAD","long":-77.622275,"state":"NY","reference 1":"I2011000110","judgment of foreclosure":"Pending","filing date":"1/4/2011"},"type":"Feature","geometry":{"type":"Point","coordinates":[-77.622275,43.182422]}},{"properties":{"city":"ROCHESTER","property address":"93 THOMAS STREET ROCHESTER","control no":"2.01E+11","opposite name":"HOLLAMBY BENJAMIN","id":"a63e0xcbv04s","lat":43.175956,"address":"93 THOMAS STREET","long":-77.6049479,"state":"NY","reference 1":"I2010008640","judgment of foreclosure":"Pending","filing date":"7/8/2010"},"type":"Feature","geometry":{"type":"Point","coordinates":[-77.6049479,43.175956]}},{"properties":{"city":"WEBSTER","property address":"930 DIBBLES TRAIL WEBSTER","control no":"2.01E+11","opposite name":"ORICO RICHARD","id":"a63e0xod6tl1","lat":43.200215,"address":"930 DIBBLES TRAIL","long":-77.466958,"state":"NY","reference 1":"I2009012380","judgment of foreclosure":"Pending","filing date":"9/1/2009"},"type":"Feature","geometry":{"type":"Point","coordinates":[-77.466958,43.200215]}},{"properties":{"city":"ROCHESTER","property address":"937 N CLINTON AVENUE ROCHESTER","control no":"2.01E+11","opposite name":"COLLINS FINANCIAL SERVICES INC","id":"a63e0xhcx9jd","lat":43.1757956,"address":"937 N CLINTON AVENUE","long":-77.6133464,"state":"NY","reference 1":"I2010008515","judgment of foreclosure":"Pending","filing date":"7/6/2010"},"type":"Feature","geometry":{"type":"Point","coordinates":[-77.6133464,43.1757956]}},{"properties":{"city":"ROCHESTER","property address":"94 MURRAY STREET ROCHESTER(MULT)","control no":"2.01E+11","opposite name":"BATES TERRANCE N","id":"a63e0xi6laqo","lat":43.16148,"address":"94 MURRAY STREET","long":-77.641891,"state":"NY","reference 1":"I2010002595","judgment of foreclosure":"Pending","filing date":"3/1/2010"},"type":"Feature","geometry":{"type":"Point","coordinates":[-77.641891,43.16148]}},{"properties":{"city":"ROCHESTER","property address":"94 SOBIESKI STREET ROCHESTER","control no":"2.01E+11","opposite name":"SHEPARD WILLIAM JR","id":"a63e0xn05d27","lat":43.184685,"address":"94 SOBIESKI STREET","long":-77.59671,"state":"NY","reference 1":"I2010016145","judgment of foreclosure":"Pending","filing date":"12/17/2010"},"type":"Feature","geometry":{"type":"Point","coordinates":[-77.59671,43.184685]}},{"properties":{"city":"ROCHESTER","property address":"95 MARYLAND STREET ROCHESTER","control no":"2.01E+11","opposite name":"LOUIS SONJA","id":"a63e0xj025oi","lat":43.177273,"address":"95 MARYLAND STREET","long":-77.638548,"state":"NY","reference 1":"I2010016078","judgment of foreclosure":"Pending","filing date":"12/16/2010"},"type":"Feature","geometry":{"type":"Point","coordinates":[-77.638548,43.177273]}},{"properties":{"city":"ROCHESTER","property address":"95-97 GLIDE STREET ROCHESTER","control no":"2.01E+11","opposite name":"BARLETTA DEBRA A","id":"a63e0xlk9bhv","lat":43.1531246,"address":"95-97 GLIDE STREET","long":-77.6540658,"state":"NY","reference 1":"I2011000091","judgment of foreclosure":"Pending","filing date":"1/4/2011"},"type":"Feature","geometry":{"type":"Point","coordinates":[-77.6540658,43.1531246]}},{"properties":{"city":"ROCHESTER","property address":"96 COPELAND STREET ROCHESTER","control no":"2.01E+11","opposite name":"PONDER LORETTA","id":"a63e0xf8kqba","lat":43.169936,"address":"96 COPELAND STREET","long":-77.574921,"state":"NY","reference 1":"I2010015476","judgment of foreclosure":"Pending","filing date":"12/6/2010"},"type":"Feature","geometry":{"type":"Point","coordinates":[-77.574921,43.169936]}},{"properties":{"city":"ROCHESTER","property address":"97 PRINCE STREET ROCHESTER","control no":"2.01E+11","opposite name":"USA","id":"a63e0xdub1zb","lat":43.162705,"address":"97 PRINCE STREET","long":-77.590392,"state":"NY","reference 1":"I2011002548","judgment of foreclosure":"Pending","filing date":"3/2/2011"},"type":"Feature","geometry":{"type":"Point","coordinates":[-77.590392,43.162705]}}],"is_temporal":false,"author":{"url":"","metadata":"","contact_name":"","contact_address":"","source":"","contact_phone":""},"source":"","pagination":{"sort":null,"start":0,"total":318,"limit":1000000},"state":"complete","tags":"","published":"2014-08-13T11:47:09-04:00","id":109653}