{"type":"FeatureCollection","data_type":"Dataset","url_type":null,"permissions":[{"permissions":{"download":true,"view":true},"group_id":"everyone"}],"classification":null,"title":"a1aadafasdf","count":79,"stream_id":109965,"contributor":{"url":"http://geocommons.com/users/25690","name":"turboguy"},"data_attributes":null,"calculation_params":null,"icon_link":null,"link":"http://geocommons.com/overlays/109965.json","extent":[-155.818,20.2227,-71.4145,46.2131],"geometry_types":null,"unique_name":null,"name":"a1aadafasdf","feature_count":79,"description":"adf","next_feature":null,"is_raster":false,"short_classification":"Y","stats":{"latitude":{"max":46.213131,"variance":22.5206205255427,"mean":37.9920114556962,"stdev":4.74558958671551,"min":20.222737,"median":39.750471},"all ages":{"max":157,"variance":1860.89224277832,"mean":63.4556962025316,"stdev":43.138060257484,"min":-1,"median":51},"geo_score":{"max":0.857,"variance":0.0249219840960727,"mean":0.72179746835443,"stdev":0.157866982285951,"min":0.2,"median":0.771},"bg_long":{"max":-70.950219,"variance":296.235953087316,"mean":-88.1004003417722,"stdev":17.2115064153988,"min":-157.857619,"median":-83.536259},"bg_lat":{"max":47.65726,"variance":21.9516560303802,"mean":39.5422990126582,"stdev":4.68525944109611,"min":21.304735,"median":40.916465},"pheumonia and influenza":{"max":18,"variance":18.763388510224,"mean":4.92405063291139,"stdev":4.33167271504022,"min":-1,"median":4},"longitude":{"max":-71.414451,"variance":202.996685486011,"mean":-86.8403821898734,"stdev":14.247690531662,"min":-155.818291,"median":-83.339496}},"features":[{"properties":{"city":"Akron,","latitude":41.012239,"all ages":62,"geo_score":0.743,"bg_long":-81.514059,"bg_lat":41.084195,"pheumonia and influenza":1,"longitude":-81.507831,"id":"a68hbjx8wcvs","geo_precision":"city","state":"Ohio"},"type":"Feature","geometry":{"type":"Point","coordinates":[-81.507831,41.012239]}},{"properties":{"city":"Albany,","latitude":42.614852,"all ages":38,"geo_score":0.857,"bg_long":-73.755254,"bg_lat":42.651445,"pheumonia and influenza":2,"longitude":-73.970812,"id":"a68hbjma3l4p","geo_precision":"city","state":"N.Y."},"type":"Feature","geometry":{"type":"Point","coordinates":[-73.970812,42.614852]}},{"properties":{"city":"Albuquerque,","latitude":35.084491,"all ages":141,"geo_score":0.857,"bg_long":-106.648639,"bg_lat":35.08418,"pheumonia and influenza":7,"longitude":-106.651137,"id":"a68hbjrz5mby","geo_precision":"city","state":"N.M."},"type":"Feature","geometry":{"type":"Point","coordinates":[-106.651137,35.084491]}},{"properties":{"city":"Allentown,","latitude":40.607497,"all ages":18,"geo_score":0.857,"bg_long":-75.470204,"bg_lat":40.60257,"pheumonia and influenza":0,"longitude":-75.470026,"id":"a68hbjnbytpx","geo_precision":"city","state":"Pa."},"type":"Feature","geometry":{"type":"Point","coordinates":[-75.470026,40.607497]}},{"properties":{"city":"Atlanta,","latitude":33.844371,"all ages":134,"geo_score":0.857,"bg_long":-84.391109,"bg_lat":33.748315,"pheumonia and influenza":3,"longitude":-84.47405,"id":"a68hbjxumb1v","geo_precision":"city","state":"Ga."},"type":"Feature","geometry":{"type":"Point","coordinates":[-84.47405,33.844371]}},{"properties":{"city":"Austin,","latitude":34.998627,"all ages":97,"geo_score":0.857,"bg_long":-97.742984,"bg_lat":30.267605,"pheumonia and influenza":13,"longitude":-91.981879,"id":"a68hbjwda3zo","geo_precision":"street","state":"Tex."},"type":"Feature","geometry":{"type":"Point","coordinates":[-91.981879,34.998627]}},{"properties":{"city":"Baltimore,","latitude":39.296536,"all ages":150,"geo_score":0.857,"bg_long":-76.609604,"bg_lat":39.290555,"pheumonia and influenza":18,"longitude":-76.623489,"id":"a68hbjnw17iq","geo_precision":"city","state":"Md."},"type":"Feature","geometry":{"type":"Point","coordinates":[-76.623489,39.296536]}},{"properties":{"city":"Berkeley,","latitude":42.181667,"all ages":16,"geo_score":0.771,"bg_long":-122.270499,"bg_lat":37.869505,"pheumonia and influenza":2,"longitude":-87.82423,"id":"a68hbjmd3r7g","geo_precision":"street","state":"Calif."},"type":"Feature","geometry":{"type":"Point","coordinates":[-87.82423,42.181667]}},{"properties":{"city":"Boise,","latitude":43.603768,"all ages":30,"geo_score":0.857,"bg_long":-116.193409,"bg_lat":43.60698,"pheumonia and influenza":2,"longitude":-116.272921,"id":"a68hbjwy7wru","geo_precision":"city","state":"Idaho"},"type":"Feature","geometry":{"type":"Point","coordinates":[-116.272921,43.603768]}},{"properties":{"city":"Boston,","latitude":33.419154,"all ages":125,"geo_score":0.5,"bg_long":-71.056699,"bg_lat":42.358635,"pheumonia and influenza":9,"longitude":-111.749344,"id":"a68hbjpwkiwi","geo_precision":"street","state":"Mass."},"type":"Feature","geometry":{"type":"Point","coordinates":[-111.749344,33.419154]}},{"properties":{"city":"Bridgeport,","latitude":46.213131,"all ages":41,"geo_score":0.5,"bg_long":-73.191269,"bg_lat":41.18188,"pheumonia and influenza":3,"longitude":-119.376198,"id":"a68hbjiikc71","geo_precision":"street","state":"Conn."},"type":"Feature","geometry":{"type":"Point","coordinates":[-119.376198,46.213131]}},{"properties":{"city":"Buffalo,","latitude":42.929303,"all ages":70,"geo_score":0.857,"bg_long":-78.878464,"bg_lat":42.88544,"pheumonia and influenza":5,"longitude":-78.832706,"id":"a68hbjxhezct","geo_precision":"city","state":"N.Y."},"type":"Feature","geometry":{"type":"Point","coordinates":[-78.832706,42.929303]}},{"properties":{"city":"Cambridge,","latitude":42.492416,"all ages":15,"geo_score":0.589,"bg_long":-71.106019,"bg_lat":42.36679,"pheumonia and influenza":5,"longitude":-90.701208,"id":"a68hbjnsa8ab","geo_precision":"street","state":"Mass."},"type":"Feature","geometry":{"type":"Point","coordinates":[-90.701208,42.492416]}},{"properties":{"city":"Camden,","latitude":39.80237,"all ages":35,"geo_score":0.857,"bg_long":-75.119129,"bg_lat":39.945255,"pheumonia and influenza":1,"longitude":-74.938259,"id":"a68hbjqtyqlh","geo_precision":"city","state":"N.J."},"type":"Feature","geometry":{"type":"Point","coordinates":[-74.938259,39.80237]}},{"properties":{"city":"Canton,","latitude":40.417288,"all ages":46,"geo_score":0.75,"bg_long":-81.371569,"bg_lat":40.79781,"pheumonia and influenza":2,"longitude":-81.146491,"id":"a68hbjhkg8tl","geo_precision":"city","state":"Ohio"},"type":"Feature","geometry":{"type":"Point","coordinates":[-81.146491,40.417288]}},{"properties":{"city":"Charlotte,","latitude":35.26002,"all ages":97,"geo_score":0.857,"bg_long":-80.837539,"bg_lat":35.2225,"pheumonia and influenza":10,"longitude":-80.804151,"id":"a68hbjk61bda","geo_precision":"city","state":"N.C."},"type":"Feature","geometry":{"type":"Point","coordinates":[-80.804151,35.26002]}},{"properties":{"city":"Chattanooga,","latitude":34.049394,"all ages":68,"geo_score":0.791,"bg_long":-85.309464,"bg_lat":35.04644,"pheumonia and influenza":7,"longitude":-118.542459,"id":"a68hbjrpjryt","geo_precision":"street","state":"Tenn."},"type":"Feature","geometry":{"type":"Point","coordinates":[-118.542459,34.049394]}},{"properties":{"city":"Cincinnati,","latitude":39.166759,"all ages":90,"geo_score":0.729,"bg_long":-84.504694,"bg_lat":39.106441,"pheumonia and influenza":8,"longitude":-84.53822,"id":"a68hbjohuzz0","geo_precision":"city","state":"Ohio"},"type":"Feature","geometry":{"type":"Point","coordinates":[-84.53822,39.166759]}},{"properties":{"city":"Dayton,","latitude":39.750471,"all ages":121,"geo_score":0.738,"bg_long":-84.194439,"bg_lat":39.75911,"pheumonia and influenza":5,"longitude":-84.268593,"id":"a68hbjoywfiv","geo_precision":"city","state":"Ohio"},"type":"Feature","geometry":{"type":"Point","coordinates":[-84.268593,39.750471]}},{"properties":{"city":"Denver,","latitude":40.478961,"all ages":96,"geo_score":0.493,"bg_long":-93.317499,"bg_lat":42.022525,"pheumonia and influenza":1,"longitude":-80.074209,"id":"a68hbjoa69n6","geo_precision":"street","state":"Colo."},"type":"Feature","geometry":{"type":"Point","coordinates":[-80.074209,40.478961]}},{"properties":{"city":"Detroit,","latitude":35.565063,"all ages":138,"geo_score":0.762,"bg_long":-83.047924,"bg_lat":42.331685,"pheumonia and influenza":10,"longitude":-89.834834,"id":"a68hbjt1tj8q","geo_precision":"street","state":"Mich."},"type":"Feature","geometry":{"type":"Point","coordinates":[-89.834834,35.565063]}},{"properties":{"city":"Duluth,","latitude":36.472812,"all ages":26,"geo_score":0.75,"bg_long":-92.099849,"bg_lat":46.787965,"pheumonia and influenza":2,"longitude":-80.457743,"id":"a68hbjon0wtc","geo_precision":"street","state":"Minn."},"type":"Feature","geometry":{"type":"Point","coordinates":[-80.457743,36.472812]}},{"properties":{"city":"Elizabeth,","latitude":40.672052,"all ages":14,"geo_score":0.857,"bg_long":-74.211467,"bg_lat":40.663517,"pheumonia and influenza":0,"longitude":-74.183438,"id":"a68hbjwn22uu","geo_precision":"city","state":"N.J."},"type":"Feature","geometry":{"type":"Point","coordinates":[-74.183438,40.672052]}},{"properties":{"city":"Erie,","latitude":42.087337,"all ages":46,"geo_score":0.857,"bg_long":-80.085239,"bg_lat":42.129445,"pheumonia and influenza":7,"longitude":-80.087341,"id":"a68hbjjnuywj","geo_precision":"city","state":"Pa."},"type":"Feature","geometry":{"type":"Point","coordinates":[-80.087341,42.087337]}},{"properties":{"city":"Evansville,","latitude":32.525138,"all ages":49,"geo_score":0.593,"bg_long":-87.564125,"bg_lat":37.976911,"pheumonia and influenza":2,"longitude":-96.616103,"id":"a68hbjtgtjeb","geo_precision":"city","state":"Ind."},"type":"Feature","geometry":{"type":"Point","coordinates":[-96.616103,32.525138]}},{"properties":{"city":"Fresno,","latitude":26.347573,"all ages":144,"geo_score":0.714,"bg_long":-119.785734,"bg_lat":36.740685,"pheumonia and influenza":18,"longitude":-80.16888,"id":"a68hbjoddqp1","geo_precision":"street","state":"Calif."},"type":"Feature","geometry":{"type":"Point","coordinates":[-80.16888,26.347573]}},{"properties":{"city":"Gary,","latitude":36.287381,"all ages":13,"geo_score":0.514,"bg_long":-87.337154,"bg_lat":41.60299,"pheumonia and influenza":1,"longitude":-88.29081,"id":"a68hbjrbd2oi","geo_precision":"street","state":"Ind."},"type":"Feature","geometry":{"type":"Point","coordinates":[-88.29081,36.287381]}},{"properties":{"city":"Glendale,","latitude":35.803028,"all ages":43,"geo_score":0.771,"bg_long":-118.248364,"bg_lat":34.14633,"pheumonia and influenza":10,"longitude":-80.243098,"id":"a68hbjx6zgnp","geo_precision":"street","state":"Calif."},"type":"Feature","geometry":{"type":"Point","coordinates":[-80.243098,35.803028]}},{"properties":{"city":"Hartford,","latitude":35.948502,"all ages":40,"geo_score":0.557,"bg_long":-72.674069,"bg_lat":41.763325,"pheumonia and influenza":2,"longitude":-80.500672,"id":"a68hbjud70td","geo_precision":"street","state":"Conn."},"type":"Feature","geometry":{"type":"Point","coordinates":[-80.500672,35.948502]}},{"properties":{"city":"Honolulu,","latitude":20.222737,"all ages":76,"geo_score":0.81,"bg_long":-157.857619,"bg_lat":21.304735,"pheumonia and influenza":7,"longitude":-155.818291,"id":"a68hbjk0ws5j","geo_precision":"city","state":"Hawaii"},"type":"Feature","geometry":{"type":"Point","coordinates":[-155.818291,20.222737]}},{"properties":{"city":"Knoxville,","latitude":34.635183,"all ages":117,"geo_score":0.779,"bg_long":-83.920914,"bg_lat":35.960495,"pheumonia and influenza":12,"longitude":-78.696991,"id":"a68hbjpsz0jr","geo_precision":"street","state":"Tenn."},"type":"Feature","geometry":{"type":"Point","coordinates":[-78.696991,34.635183]}},{"properties":{"city":"Lansing,","latitude":39.998655,"all ages":41,"geo_score":0.762,"bg_long":-84.552249,"bg_lat":42.73194,"pheumonia and influenza":4,"longitude":-86.009898,"id":"a68hbjrpptuv","geo_precision":"street","state":"Mich."},"type":"Feature","geometry":{"type":"Point","coordinates":[-86.009898,39.998655]}},{"properties":{"city":"Lexington,","latitude":38.037847,"all ages":68,"geo_score":0.857,"bg_long":-84.500319,"bg_lat":38.048595,"pheumonia and influenza":7,"longitude":-84.61645,"id":"a68hbjsb1b49","geo_precision":"city","state":"Ky."},"type":"Feature","geometry":{"type":"Point","coordinates":[-84.61645,38.037847]}},{"properties":{"city":"Lincoln,","latitude":41.233098,"all ages":24,"geo_score":0.548,"bg_long":-96.707739,"bg_lat":40.81362,"pheumonia and influenza":3,"longitude":-77.048814,"id":"a68hbjpxiht0","geo_precision":"street","state":"Nebr."},"type":"Feature","geometry":{"type":"Point","coordinates":[-77.048814,41.233098]}},{"properties":{"city":"Lowell,","latitude":42.511639,"all ages":16,"geo_score":0.56,"bg_long":-71.312844,"bg_lat":42.64589,"pheumonia and influenza":2,"longitude":-90.672831,"id":"a68hbjl8w726","geo_precision":"street","state":"Mass."},"type":"Feature","geometry":{"type":"Point","coordinates":[-90.672831,42.511639]}},{"properties":{"city":"Lynn,","latitude":31.1067,"all ages":8,"geo_score":0.5,"bg_long":-70.950219,"bg_lat":42.4637,"pheumonia and influenza":1,"longitude":-90.15002,"id":"a68hbjopjq5m","geo_precision":"street","state":"Mass."},"type":"Feature","geometry":{"type":"Point","coordinates":[-90.15002,31.1067]}},{"properties":{"city":"Miami,","latitude":39.95951,"all ages":121,"geo_score":0.322,"bg_long":-80.237419,"bg_lat":25.728985,"pheumonia and influenza":12,"longitude":-83.775376,"id":"a68hbjpgfufo","geo_precision":"street","state":"Fla."},"type":"Feature","geometry":{"type":"Point","coordinates":[-83.775376,39.95951]}},{"properties":{"city":"Milwaukee,","latitude":44.940244,"all ages":86,"geo_score":0.512,"bg_long":-87.906844,"bg_lat":43.04181,"pheumonia and influenza":13,"longitude":-89.606269,"id":"a68hbjufk6bx","geo_precision":"street","state":"Wis."},"type":"Feature","geometry":{"type":"Point","coordinates":[-89.606269,44.940244]}},{"properties":{"city":"Minneapolis,","latitude":45.502361,"all ages":65,"geo_score":0.791,"bg_long":-93.264929,"bg_lat":44.979035,"pheumonia and influenza":1,"longitude":-99.882404,"id":"a68hbjla30yp","geo_precision":"street","state":"Minn."},"type":"Feature","geometry":{"type":"Point","coordinates":[-99.882404,45.502361]}},{"properties":{"city":"Mobile,","latitude":35.26958,"all ages":66,"geo_score":0.686,"bg_long":-88.053239,"bg_lat":30.686395,"pheumonia and influenza":4,"longitude":-93.118394,"id":"a68hbjwoo0h0","geo_precision":"street","state":"Ala."},"type":"Feature","geometry":{"type":"Point","coordinates":[-93.118394,35.26958]}},{"properties":{"city":"Montgomery,","latitude":33.116847,"all ages":51,"geo_score":0.557,"bg_long":-86.300629,"bg_lat":32.38012,"pheumonia and influenza":2,"longitude":-84.783155,"id":"a68hbjr9rf00","geo_precision":"street","state":"Ala."},"type":"Feature","geometry":{"type":"Point","coordinates":[-84.783155,33.116847]}},{"properties":{"city":"Nashville,","latitude":39.998718,"all ages":134,"geo_score":0.779,"bg_long":-86.778365,"bg_lat":36.167783,"pheumonia and influenza":11,"longitude":-84.258335,"id":"a68hbjhpkhxw","geo_precision":"street","state":"Tenn."},"type":"Feature","geometry":{"type":"Point","coordinates":[-84.258335,39.998718]}},{"properties":{"city":"Newark,","latitude":40.736101,"all ages":35,"geo_score":0.857,"bg_long":-74.174184,"bg_lat":40.73197,"pheumonia and influenza":4,"longitude":-74.22509,"id":"a68hbjhzwe0q","geo_precision":"city","state":"N.J."},"type":"Feature","geometry":{"type":"Point","coordinates":[-74.22509,40.736101]}},{"properties":{"city":"Norfolk,","latitude":36.895911,"all ages":41,"geo_score":0.857,"bg_long":-76.285069,"bg_lat":36.846825,"pheumonia and influenza":1,"longitude":-76.208521,"id":"a68hbjnjt71i","geo_precision":"city","state":"Va."},"type":"Feature","geometry":{"type":"Point","coordinates":[-76.208521,36.895911]}},{"properties":{"city":"Ogden,","latitude":41.244261,"all ages":40,"geo_score":0.714,"bg_long":-111.970459,"bg_lat":41.222365,"pheumonia and influenza":4,"longitude":-112.007924,"id":"a68hbjldlrsc","geo_precision":"city","state":"Utah"},"type":"Feature","geometry":{"type":"Point","coordinates":[-112.007924,41.244261]}},{"properties":{"city":"Omaha,","latitude":41.443715,"all ages":101,"geo_score":0.696,"bg_long":-95.940469,"bg_lat":41.260675,"pheumonia and influenza":8,"longitude":-82.155028,"id":"a68hbjwoejd9","geo_precision":"street","state":"Nebr."},"type":"Feature","geometry":{"type":"Point","coordinates":[-82.155028,41.443715]}},{"properties":{"city":"Pasadena,","latitude":26.495461,"all ages":17,"geo_score":0.74,"bg_long":-118.144264,"bg_lat":34.147235,"pheumonia and influenza":1,"longitude":-80.137163,"id":"a68hbjwtiyou","geo_precision":"street","state":"Calif."},"type":"Feature","geometry":{"type":"Point","coordinates":[-80.137163,26.495461]}},{"properties":{"city":"Paterson,","latitude":40.915045,"all ages":9,"geo_score":0.857,"bg_long":-74.171084,"bg_lat":40.916465,"pheumonia and influenza":0,"longitude":-74.174488,"id":"a68hbjua67p1","geo_precision":"city","state":"N.J."},"type":"Feature","geometry":{"type":"Point","coordinates":[-74.174488,40.915045]}},{"properties":{"city":"Peoria,","latitude":30.673544,"all ages":56,"geo_score":0.398,"bg_long":-89.587764,"bg_lat":40.69214,"pheumonia and influenza":4,"longitude":-96.137874,"id":"a68hbjnqp6bu","geo_precision":"street","state":"Ill."},"type":"Feature","geometry":{"type":"Point","coordinates":[-96.137874,30.673544]}},{"properties":{"city":"Phoenix,","latitude":33.687811,"all ages":157,"geo_score":0.2,"bg_long":-112.075774,"bg_lat":33.44826,"pheumonia and influenza":12,"longitude":-86.631943,"id":"a68hbjik5go8","geo_precision":"street","state":"Ariz."},"type":"Feature","geometry":{"type":"Point","coordinates":[-86.631943,33.687811]}},{"properties":{"city":"Pittsburgh,","latitude":40.434436,"all ages":-1,"geo_score":0.857,"bg_long":-79.997449,"bg_lat":40.438315,"pheumonia and influenza":-1,"longitude":-80.024817,"id":"a68hbjp9m6ij","geo_precision":"city","state":"Pa."},"type":"Feature","geometry":{"type":"Point","coordinates":[-80.024817,40.434436]}},{"properties":{"city":"Portland,","latitude":35.290835,"all ages":121,"geo_score":0.74,"bg_long":-122.675629,"bg_lat":45.511795,"pheumonia and influenza":5,"longitude":-93.168382,"id":"a68hbjtrhay3","geo_precision":"street","state":"Oreg."},"type":"Feature","geometry":{"type":"Point","coordinates":[-93.168382,35.290835]}},{"properties":{"city":"Providence,","latitude":41.82275,"all ages":49,"geo_score":0.857,"bg_long":-71.411994,"bg_lat":41.823875,"pheumonia and influenza":3,"longitude":-71.414451,"id":"a68hbjnn4iif","geo_precision":"city","state":"R.I."},"type":"Feature","geometry":{"type":"Point","coordinates":[-71.414451,41.82275]}},{"properties":{"city":"Pueblo,","latitude":37.8309,"all ages":40,"geo_score":0.521,"bg_long":-93.317499,"bg_lat":42.022525,"pheumonia and influenza":1,"longitude":-121.215343,"id":"a68hbjpm65r0","geo_precision":"street","state":"Colo."},"type":"Feature","geometry":{"type":"Point","coordinates":[-121.215343,37.8309]}},{"properties":{"city":"Reading,","latitude":40.357242,"all ages":31,"geo_score":0.857,"bg_long":-75.927843,"bg_lat":40.336585,"pheumonia and influenza":3,"longitude":-75.940153,"id":"a68hbjhjv4xq","geo_precision":"city","state":"Pa."},"type":"Feature","geometry":{"type":"Point","coordinates":[-75.940153,40.357242]}},{"properties":{"city":"Richmond,","latitude":37.553758,"all ages":68,"geo_score":0.857,"bg_long":-77.433654,"bg_lat":37.5407,"pheumonia and influenza":6,"longitude":-77.460262,"id":"a68hbjj9yxgq","geo_precision":"city","state":"Va."},"type":"Feature","geometry":{"type":"Point","coordinates":[-77.460262,37.553758]}},{"properties":{"city":"Rochester,","latitude":43.286024,"all ages":134,"geo_score":0.857,"bg_long":-77.616033,"bg_lat":43.1555,"pheumonia and influenza":12,"longitude":-77.684264,"id":"a68hbjkrlszk","geo_precision":"city","state":"N.Y."},"type":"Feature","geometry":{"type":"Point","coordinates":[-77.684264,43.286024]}},{"properties":{"city":"Rockford,","latitude":33.91252,"all ages":56,"geo_score":0.771,"bg_long":-89.078354,"bg_lat":42.2669,"pheumonia and influenza":11,"longitude":-83.339496,"id":"a68hbjl6cs8n","geo_precision":"street","state":"Ill."},"type":"Feature","geometry":{"type":"Point","coordinates":[-83.339496,33.91252]}},{"properties":{"city":"Savannah,","latitude":32.072257,"all ages":66,"geo_score":0.857,"bg_long":-81.090719,"bg_lat":32.08078,"pheumonia and influenza":3,"longitude":-81.135618,"id":"a68hbjlfvr96","geo_precision":"city","state":"Ga."},"type":"Feature","geometry":{"type":"Point","coordinates":[-81.135618,32.072257]}},{"properties":{"city":"Schenectady,","latitude":42.833261,"all ages":27,"geo_score":0.857,"bg_long":-73.941026,"bg_lat":42.81226,"pheumonia and influenza":5,"longitude":-74.058015,"id":"a68hbjuf3e4t","geo_precision":"city","state":"N.Y."},"type":"Feature","geometry":{"type":"Point","coordinates":[-74.058015,42.833261]}},{"properties":{"city":"Scranton,","latitude":41.401881,"all ages":29,"geo_score":0.857,"bg_long":-75.660794,"bg_lat":41.410135,"pheumonia and influenza":0,"longitude":-75.637626,"id":"a68hbjkexin3","geo_precision":"city","state":"Pa.***"},"type":"Feature","geometry":{"type":"Point","coordinates":[-75.637626,41.401881]}},{"properties":{"city":"Seattle,","latitude":30.619694,"all ages":119,"geo_score":0.307,"bg_long":-122.329439,"bg_lat":47.60356,"pheumonia and influenza":10,"longitude":-92.045036,"id":"a68hbjmqmhsn","geo_precision":"street","state":"Wash."},"type":"Feature","geometry":{"type":"Point","coordinates":[-92.045036,30.619694]}},{"properties":{"city":"Shreveport,","latitude":32.498202,"all ages":31,"geo_score":0.857,"bg_long":-93.747274,"bg_lat":32.514615,"pheumonia and influenza":3,"longitude":-93.750228,"id":"a68hbjoxbp1c","geo_precision":"city","state":"La."},"type":"Feature","geometry":{"type":"Point","coordinates":[-93.750228,32.498202]}},{"properties":{"city":"Somerville,","latitude":34.512847,"all ages":3,"geo_score":0.786,"bg_long":-71.098264,"bg_lat":42.386675,"pheumonia and influenza":0,"longitude":-86.882183,"id":"a68hbjkkdnug","geo_precision":"street","state":"Mass."},"type":"Feature","geometry":{"type":"Point","coordinates":[-86.882183,34.512847]}},{"properties":{"city":"Spokane,","latitude":37.354219,"all ages":61,"geo_score":0.597,"bg_long":-117.412279,"bg_lat":47.65726,"pheumonia and influenza":7,"longitude":-86.122194,"id":"a68hbjtypan0","geo_precision":"city","state":"Wash."},"type":"Feature","geometry":{"type":"Point","coordinates":[-86.122194,37.354219]}},{"properties":{"city":"Springfield,","latitude":42.517034,"all ages":45,"geo_score":0.488,"bg_long":-72.589294,"bg_lat":42.10125,"pheumonia and influenza":2,"longitude":-90.682043,"id":"a68hbjhsn98x","geo_precision":"street","state":"Mass."},"type":"Feature","geometry":{"type":"Point","coordinates":[-90.682043,42.517034]}},{"properties":{"city":"Syracuse,","latitude":43.02143,"all ages":93,"geo_score":0.857,"bg_long":-76.147389,"bg_lat":43.04999,"pheumonia and influenza":6,"longitude":-76.197701,"id":"a68hbjnd68kf","geo_precision":"city","state":"N.Y."},"type":"Feature","geometry":{"type":"Point","coordinates":[-76.197701,43.02143]}},{"properties":{"city":"Tacoma,","latitude":39.162037,"all ages":113,"geo_score":0.714,"bg_long":-122.441654,"bg_lat":47.255135,"pheumonia and influenza":8,"longitude":-119.778511,"id":"a68hbjwr9qvp","geo_precision":"street","state":"Wash."},"type":"Feature","geometry":{"type":"Point","coordinates":[-119.778511,39.162037]}},{"properties":{"city":"Toledo,","latitude":41.720684,"all ages":104,"geo_score":0.762,"bg_long":-83.536259,"bg_lat":41.65381,"pheumonia and influenza":3,"longitude":-83.569359,"id":"a68hbjp6k7tk","geo_precision":"city","state":"Ohio"},"type":"Feature","geometry":{"type":"Point","coordinates":[-83.569359,41.720684]}},{"properties":{"city":"Trenton,","latitude":40.280531,"all ages":31,"geo_score":0.857,"bg_long":-74.759404,"bg_lat":40.217875,"pheumonia and influenza":0,"longitude":-74.712018,"id":"a68hbjvfed2s","geo_precision":"city","state":"N.J."},"type":"Feature","geometry":{"type":"Point","coordinates":[-74.712018,40.280531]}},{"properties":{"city":"Tucson,","latitude":33.73149,"all ages":121,"geo_score":0.586,"bg_long":-110.969754,"bg_lat":32.221553,"pheumonia and influenza":7,"longitude":-86.563598,"id":"a68hbjkmf2bv","geo_precision":"city","state":"Ariz."},"type":"Feature","geometry":{"type":"Point","coordinates":[-86.563598,33.73149]}},{"properties":{"city":"Tulsa,","latitude":33.098061,"all ages":121,"geo_score":0.429,"bg_long":-95.993334,"bg_lat":36.149745,"pheumonia and influenza":10,"longitude":-80.085295,"id":"a68hbjmzogwb","geo_precision":"street","state":"Okla."},"type":"Feature","geometry":{"type":"Point","coordinates":[-80.085295,33.098061]}},{"properties":{"city":"Utica,","latitude":43.077369,"all ages":14,"geo_score":0.857,"bg_long":-75.242762,"bg_lat":43.095808,"pheumonia and influenza":1,"longitude":-75.233208,"id":"a68hbjmhqe5q","geo_precision":"city","state":"N.Y."},"type":"Feature","geometry":{"type":"Point","coordinates":[-75.233208,43.077369]}},{"properties":{"city":"Waterbury,","latitude":42.310565,"all ages":36,"geo_score":0.779,"bg_long":-73.046179,"bg_lat":41.554077,"pheumonia and influenza":4,"longitude":-83.358167,"id":"a68hbjrmf6dl","geo_precision":"street","state":"Conn."},"type":"Feature","geometry":{"type":"Point","coordinates":[-83.358167,42.310565]}},{"properties":{"city":"Wichita,","latitude":39.751419,"all ages":61,"geo_score":0.762,"bg_long":-97.335579,"bg_lat":37.68698,"pheumonia and influenza":5,"longitude":-78.392339,"id":"a68hbjuj8dmx","geo_precision":"street","state":"Kans."},"type":"Feature","geometry":{"type":"Point","coordinates":[-78.392339,39.751419]}},{"properties":{"city":"Wilmington,","latitude":32.432899,"all ages":17,"geo_score":0.786,"bg_long":-75.550844,"bg_lat":39.740235,"pheumonia and influenza":2,"longitude":-80.677402,"id":"a68hbjle9hbe","geo_precision":"street","state":"Del."},"type":"Feature","geometry":{"type":"Point","coordinates":[-80.677402,32.432899]}},{"properties":{"city":"Worcester,","latitude":38.964202,"all ages":-1,"geo_score":0.779,"bg_long":-71.802354,"bg_lat":42.26299,"pheumonia and influenza":-1,"longitude":-76.346313,"id":"a68hbjtv8cli","geo_precision":"street","state":"Mass."},"type":"Feature","geometry":{"type":"Point","coordinates":[-76.346313,38.964202]}},{"properties":{"city":"Yonkers,","latitude":40.946107,"all ages":22,"geo_score":0.857,"bg_long":-73.898917,"bg_lat":40.932527,"pheumonia and influenza":2,"longitude":-73.866926,"id":"a68hbjviq1o3","geo_precision":"city","state":"N.Y."},"type":"Feature","geometry":{"type":"Point","coordinates":[-73.866926,40.946107]}},{"properties":{"city":"Youngstown,","latitude":41.017082,"all ages":70,"geo_score":0.743,"bg_long":-80.650789,"bg_lat":41.0981,"pheumonia and influenza":3,"longitude":-80.802854,"id":"a68hbjwhi3xr","geo_precision":"city","state":"Ohio"},"type":"Feature","geometry":{"type":"Point","coordinates":[-80.802854,41.017082]}}],"is_temporal":false,"author":{"url":"","metadata":"","contact_name":"","contact_address":"","source":"","contact_phone":""},"source":"","pagination":{"sort":null,"start":0,"total":79,"limit":1000000},"state":"complete","tags":"afa","published":"2014-08-13T12:05:44-04:00","id":109965}