{"type":"FeatureCollection","data_type":"Dataset","url_type":null,"permissions":[{"permissions":{"download":true,"view":true},"group_id":"everyone"}],"classification":null,"title":"Republicans - 43rd Congress - Residences","count":190,"stream_id":110471,"contributor":{"url":"http://geocommons.com/users/25572","name":"rungiraffe"},"data_attributes":null,"calculation_params":null,"icon_link":null,"link":"http://geocommons.com/overlays/110471.json","extent":[-77.0451,38.8858,-77.0004,38.9027],"geometry_types":["point"],"unique_name":null,"name":"Republicans - 43rd Congress - Residences","feature_count":190,"description":"","next_feature":null,"is_raster":false,"short_classification":"Y","stats":{"latitude":{"max":38.90273,"mean":38.8967291894737,"variance":1.24859919850774e-05,"stdev":0.00353355231814635,"min":38.885776,"median":38.897239},"longitude":{"max":-77.000413,"mean":-77.0253417368421,"variance":9.22059804383085e-05,"stdev":0.0096023945158647,"min":-77.045108,"median":-77.029517}},"features":[{"properties":{"city":"Washington","name":"Abraham Herr SMITH of PA","latitude":38.896264,"hotel":"Willard's Hotel","street address":"1401 Pennsylvania Ave. NW","longitude":-77.032066,"id":"a67wdtiusbek","state":"DC","party":"Republican"},"type":"Feature","geometry":{"type":"Point","coordinates":[-77.032066,38.896264]}},{"properties":{"city":"Washington","name":"Albert Richards HOWE of MS","latitude":38.901236,"hotel":null,"street address":"1340 I St. NW","longitude":-77.030447,"id":"a67wdtn0wctu","state":"DC","party":"Republican"},"type":"Feature","geometry":{"type":"Point","coordinates":[-77.030447,38.901236]}},{"properties":{"city":"Washington","name":"Alexander Stuart McDILL of WI","latitude":38.892638,"hotel":"National Hotel","street address":"600 Pennsylvania Ave. NW","longitude":-77.020077,"id":"a67wdtlbd8la","state":"DC","party":"Republican"},"type":"Feature","geometry":{"type":"Point","coordinates":[-77.020077,38.892638]}},{"properties":{"city":"Washington","name":"Alexander Stuart WALLACE of SC","latitude":38.891093,"hotel":null,"street address":"106 3rd St. NW","longitude":-77.002189,"id":"a67wdttp4r59","state":"DC","party":"Republican"},"type":"Feature","geometry":{"type":"Point","coordinates":[-77.002189,38.891093]}},{"properties":{"city":"Washington","name":"Alexander WHITE of AL","latitude":38.89746,"hotel":null,"street address":"1335 F St. NW","longitude":-77.030497,"id":"a67wdtleat3w","state":"DC","party":"Republican"},"type":"Feature","geometry":{"type":"Point","coordinates":[-77.030497,38.89746]}},{"properties":{"city":"Washington","name":"Alexander Wilson TAYLOR of PA","latitude":38.88867,"hotel":null,"street address":"217 A St. SE","longitude":-77.002019,"id":"a67wdtjov41n","state":"DC","party":"Republican"},"type":"Feature","geometry":{"type":"Point","coordinates":[-77.002019,38.88867]}},{"properties":{"city":"Washington","name":"Alfred Crout HARMER of PA","latitude":38.897193,"hotel":null,"street address":"1310 F St. NW","longitude":-77.030041,"id":"a67wdtqyykrs","state":"DC","party":"Republican"},"type":"Feature","geometry":{"type":"Point","coordinates":[-77.030041,38.897193]}},{"properties":{"city":"Washington","name":"Alvah CROCKER of MA","latitude":38.902688,"hotel":"Hamilton House","street address":"1001 14th St. NW","longitude":-77.031891,"id":"a67wdtstmrk2","state":"DC","party":"Republican"},"type":"Feature","geometry":{"type":"Point","coordinates":[-77.031891,38.902688]}},{"properties":{"city":"Washington","name":"Amos, Jr. CLARK of NJ","latitude":38.896264,"hotel":"Willard's Hotel","street address":"1401 Pennsylvania Ave. NW","longitude":-77.032066,"id":"a67wdtmukapg","state":"DC","party":"Republican"},"type":"Feature","geometry":{"type":"Point","coordinates":[-77.032066,38.896264]}},{"properties":{"city":"Washington","name":"Asa HODGES of AR","latitude":38.893007,"hotel":"Metropolitan Hotel","street address":"601 Pennsylvania Ave. NW","longitude":-77.020076,"id":"a67wdtmgjaqb","state":"DC","party":"Republican"},"type":"Feature","geometry":{"type":"Point","coordinates":[-77.020076,38.893007]}},{"properties":{"city":"Washington","name":"Austin Franklin PIKE of NH","latitude":38.897461,"hotel":null,"street address":"1325 F St. NW","longitude":-77.030308,"id":"a67wdtjynchx","state":"DC","party":"Republican"},"type":"Feature","geometry":{"type":"Point","coordinates":[-77.030308,38.897461]}},{"properties":{"city":"Washington","name":"Aylett Rains COTTON of IA","latitude":38.893728,"hotel":null,"street address":"321 C St. NW","longitude":-77.015928,"id":"a67wdtuslxq2","state":"DC","party":"Republican"},"type":"Feature","geometry":{"type":"Point","coordinates":[-77.015928,38.893728]}},{"properties":{"city":"Washington","name":"Barbour LEWIS of TN","latitude":38.898107,"hotel":null,"street address":"1314 G St. NW","longitude":-77.03012,"id":"a67wdtg0k1y0","state":"DC","party":"Republican"},"type":"Feature","geometry":{"type":"Point","coordinates":[-77.03012,38.898107]}},{"properties":{"city":"Washington","name":"Benjamin Franklin BUTLER of MA","latitude":38.901457,"hotel":null,"street address":"1423 I St. NW","longitude":-77.032428,"id":"a67wdti2edks","state":"DC","party":"Republican"},"type":"Feature","geometry":{"type":"Point","coordinates":[-77.032428,38.901457]}},{"properties":{"city":"Washington","name":"Benjamin Tucker EAMES of RI","latitude":38.900542,"hotel":"Wormley's Hotel","street address":"809 15th St NW","longitude":-77.033468,"id":"a67wdtspf7nr","state":"DC","party":"Republican"},"type":"Feature","geometry":{"type":"Point","coordinates":[-77.033468,38.900542]}},{"properties":{"city":"Washington","name":"Benjamin Winslow HARRIS of MA","latitude":38.88867,"hotel":null,"street address":"220 A St. SE","longitude":-77.002019,"id":"a67wdtn43o48","state":"DC","party":"Republican"},"type":"Feature","geometry":{"type":"Point","coordinates":[-77.002019,38.88867]}},{"properties":{"city":"Washington","name":"Carlton Brandaga CURTIS of PA","latitude":38.896264,"hotel":"Willard's Hotel","street address":"1401 Pennsylvania Ave. NW","longitude":-77.032066,"id":"a67wdtg3y3v2","state":"DC","party":"Republican"},"type":"Feature","geometry":{"type":"Point","coordinates":[-77.032066,38.896264]}},{"properties":{"city":"Washington","name":"Charles ALBRIGHT of PA","latitude":38.897191,"hotel":null,"street address":"1324 F St. NW","longitude":-77.030306,"id":"a67wdtpsbegx","state":"DC","party":"Republican"},"type":"Feature","geometry":{"type":"Point","coordinates":[-77.030306,38.897191]}},{"properties":{"city":"Washington","name":"Charles Benjamin FARWELL of IL","latitude":38.900305,"hotel":null,"street address":"810 12th St. NW","longitude":-77.028184,"id":"a67wdtmlsr5s","state":"DC","party":"Republican"},"type":"Feature","geometry":{"type":"Point","coordinates":[-77.028184,38.900305]}},{"properties":{"city":"Washington","name":"Charles Christopher SHEATS of AL","latitude":38.895103,"hotel":null,"street address":"419 4th St. NW","longitude":-77.016034,"id":"a67wdtle4y91","state":"DC","party":"Republican"},"type":"Feature","geometry":{"type":"Point","coordinates":[-77.016034,38.895103]}},{"properties":{"city":"Washington","name":"Charles CLAYTON of CA","latitude":38.90046,"hotel":"The Arlington","street address":"810 Vermont Ave. NW","longitude":-77.035152,"id":"a67wdtlc24g4","state":"DC","party":"Republican"},"type":"Feature","geometry":{"type":"Point","coordinates":[-77.035152,38.90046]}},{"properties":{"city":"Washington","name":"Charles FOSTER of OH","latitude":38.897433,"hotel":null,"street address":"601 13th St. NW","longitude":-77.029517,"id":"a67wdtgc7ucz","state":"DC","party":"Republican"},"type":"Feature","geometry":{"type":"Point","coordinates":[-77.029517,38.897433]}},{"properties":{"city":"Washington","name":"Charles Grandison WILLIAMS of WI","latitude":38.897463,"hotel":null,"street address":"605 13th St. NW","longitude":-77.029493,"id":"a67wdtklr79t","state":"DC","party":"Republican"},"type":"Feature","geometry":{"type":"Point","coordinates":[-77.029493,38.897463]}},{"properties":{"city":"Washington","name":"Charles HAYS of AL","latitude":38.897575,"hotel":null,"street address":"617 11th St. NW","longitude":-77.026858,"id":"a67wdtq6ho0h","state":"DC","party":"Republican"},"type":"Feature","geometry":{"type":"Point","coordinates":[-77.026858,38.897575]}},{"properties":{"city":"Washington","name":"Charles O'NEILL of PA","latitude":38.896422,"hotel":null,"street address":"516 13th St. NW","longitude":-77.02978,"id":"a67wdtl8909k","state":"DC","party":"Republican"},"type":"Feature","geometry":{"type":"Point","coordinates":[-77.02978,38.896422]}},{"properties":{"city":"Washington","name":"Charles PELHAM of AL","latitude":38.897488,"hotel":null,"street address":"1733 F St. NW","longitude":-77.040262,"id":"a67wdtfpsiyx","state":"DC","party":"Republican"},"type":"Feature","geometry":{"type":"Point","coordinates":[-77.040262,38.897488]}},{"properties":{"city":"Washington","name":"Charles Randolph THOMAS of NC","latitude":38.898473,"hotel":null,"street address":"919 G St. NW","longitude":-77.024439,"id":"a67wdtj27n7u","state":"DC","party":"Republican"},"type":"Feature","geometry":{"type":"Point","coordinates":[-77.024439,38.898473]}},{"properties":{"city":"Washington","name":"Charles ST. JOHN of NY","latitude":38.892638,"hotel":"National Hotel","street address":"600 Pennsylvania Ave. NW","longitude":-77.020077,"id":"a67wdtjx05wr","state":"DC","party":"Republican"},"type":"Feature","geometry":{"type":"Point","coordinates":[-77.020077,38.892638]}},{"properties":{"city":"Washington","name":"Charles Wesley WILLARD of VT","latitude":38.893603,"hotel":null,"street address":"302 Indiana Ave.","longitude":-77.012812,"id":"a67wdttmzuln","state":"DC","party":"Republican"},"type":"Feature","geometry":{"type":"Point","coordinates":[-77.012812,38.893603]}},{"properties":{"city":"Washington","name":"Chester Bidwell DARRALL of LA","latitude":38.895163,"hotel":null,"street address":"421 11th St. NW","longitude":-77.026831,"id":"a67wdtq6t7iw","state":"DC","party":"Republican"},"type":"Feature","geometry":{"type":"Point","coordinates":[-77.026831,38.895163]}},{"properties":{"city":"Washington","name":"Christopher Yancy THOMAS of VA","latitude":38.894626,"hotel":null,"street address":"300 D St. NW","longitude":-77.016408,"id":"a67wdto53wus","state":"DC","party":"Republican"},"type":"Feature","geometry":{"type":"Point","coordinates":[-77.016408,38.894626]}},{"properties":{"city":"Washington","name":"Clinton Dugald MacDOUGALL of NY","latitude":38.896409,"hotel":null,"street address":"515 12th St. NW","longitude":-77.0279,"id":"a67wdtffggmk","state":"DC","party":"Republican"},"type":"Feature","geometry":{"type":"Point","coordinates":[-77.0279,38.896409]}},{"properties":{"city":"Washington","name":"Clinton Levering COBB of NC","latitude":38.892354,"hotel":null,"street address":"229 4th St. NW","longitude":-77.000413,"id":"a67wdthyx2g3","state":"DC","party":"Republican"},"type":"Feature","geometry":{"type":"Point","coordinates":[-77.000413,38.892354]}},{"properties":{"city":"Washington","name":"Clinton Levi MERRIAM of NY","latitude":38.900376,"hotel":null,"street address":"812 12th St. NW","longitude":-77.028184,"id":"a67wdtfgmwzx","state":"DC","party":"Republican"},"type":"Feature","geometry":{"type":"Point","coordinates":[-77.028184,38.900376]}},{"properties":{"city":"Washington","name":"Daniel Wheelwright GOOCH of MA","latitude":38.902269,"hotel":null,"street address":"1514 K St. NW","longitude":-77.035012,"id":"a67wdtffkt5s","state":"DC","party":"Republican"},"type":"Feature","geometry":{"type":"Point","coordinates":[-77.035012,38.902269]}},{"properties":{"city":"Washington","name":"David Alexander NUNN of TN","latitude":38.897458,"hotel":"Ebbitt House","street address":"1345 F St NW","longitude":-77.030686,"id":"a67wdth3e69n","state":"DC","party":"Republican"},"type":"Feature","geometry":{"type":"Point","coordinates":[-77.030686,38.897458]}},{"properties":{"city":"Washington","name":"David Perley LOWE of KS","latitude":38.896264,"hotel":"Willard's Hotel","street address":"1401 Pennsylvania Ave. NW","longitude":-77.032066,"id":"a67wdtfbugxu","state":"DC","party":"Republican"},"type":"Feature","geometry":{"type":"Point","coordinates":[-77.032066,38.896264]}},{"properties":{"city":"Washington","name":"David WILBER of NY","latitude":38.88867,"hotel":null,"street address":"218 A St. SE","longitude":-77.000748,"id":"a67wdtqd71cx","state":"DC","party":"Republican"},"type":"Feature","geometry":{"type":"Point","coordinates":[-77.000748,38.88867]}},{"properties":{"city":"Washington","name":"Ebenezer Rockwood HOAR of MA","latitude":38.901388,"hotel":null,"street address":"905 13th St. NW","longitude":-77.029501,"id":"a67wdtj86jl9","state":"DC","party":"Republican"},"type":"Feature","geometry":{"type":"Point","coordinates":[-77.029501,38.901388]}},{"properties":{"city":"Washington","name":"Edwin Obed STANARD of MO","latitude":38.896264,"hotel":"Willard's Hotel","street address":"1401 Pennsylvania Ave. NW","longitude":-77.032066,"id":"a67wdtlsaogl","state":"DC","party":"Republican"},"type":"Feature","geometry":{"type":"Point","coordinates":[-77.032066,38.896264]}},{"properties":{"city":"Washington","name":"Ellis Henry ROBERTS of NY","latitude":38.902688,"hotel":"Hamilton House","street address":"1001 14th St. NW","longitude":-77.031891,"id":"a67wdtn6en6z","state":"DC","party":"Republican"},"type":"Feature","geometry":{"type":"Point","coordinates":[-77.031891,38.902688]}},{"properties":{"city":"Washington","name":"Eugene HALE of ME","latitude":38.900038,"hotel":null,"street address":"1408 H St. NW","longitude":-77.032162,"id":"a67wdtgo0lup","state":"DC","party":"Republican"},"type":"Feature","geometry":{"type":"Point","coordinates":[-77.032162,38.900038]}},{"properties":{"city":"Washington","name":"Frank MOREY of LA","latitude":38.896218,"hotel":null,"street address":"509 E St. NW","longitude":-77.019096,"id":"a67wdtrjhq62","state":"DC","party":"Republican"},"type":"Feature","geometry":{"type":"Point","coordinates":[-77.019096,38.896218]}},{"properties":{"city":"Washington","name":"Franklin CORWIN of IL","latitude":38.891043,"hotel":"Washington House","street address":"100 3rd St. NW","longitude":-77.002137,"id":"a67wdtiym8xv","state":"DC","party":"Republican"},"type":"Feature","geometry":{"type":"Point","coordinates":[-77.002137,38.891043]}},{"properties":{"city":"Washington","name":"Freeman CLARKE of NY","latitude":38.90046,"hotel":"The Arlington","street address":"810 Vermont Ave. NW","longitude":-77.035152,"id":"a67wdtnqozb7","state":"DC","party":"Republican"},"type":"Feature","geometry":{"type":"Point","coordinates":[-77.035152,38.90046]}},{"properties":{"city":"Washington","name":"George Colin McKEE of MS","latitude":38.891043,"hotel":"Washington House","street address":"100 3rd St. NW","longitude":-77.002137,"id":"a67wdtpcq00l","state":"DC","party":"Republican"},"type":"Feature","geometry":{"type":"Point","coordinates":[-77.002137,38.891043]}},{"properties":{"city":"Washington","name":"George Frisbie HOAR of MA","latitude":38.902267,"hotel":null,"street address":"1208 K St. NW","longitude":-77.028643,"id":"a67wdtl2l6at","state":"DC","party":"Republican"},"type":"Feature","geometry":{"type":"Point","coordinates":[-77.028643,38.902267]}},{"properties":{"city":"Washington","name":"George Gilbert HOSKINS of NY","latitude":38.897458,"hotel":"Ebbitt House","street address":"1345 F St NW","longitude":-77.030686,"id":"a67wdtkhqjel","state":"DC","party":"Republican"},"type":"Feature","geometry":{"type":"Point","coordinates":[-77.030686,38.897458]}},{"properties":{"city":"Washington","name":"George Luke SMITH of LA","latitude":38.901187,"hotel":null,"street address":"1412 I St. NW","longitude":-77.032295,"id":"a67wdtubdexx","state":"DC","party":"Republican"},"type":"Feature","geometry":{"type":"Point","coordinates":[-77.032295,38.901187]}},{"properties":{"city":"Washington","name":"George Washington McCRARY of IA","latitude":38.894809,"hotel":null,"street address":"207 D St. NW","longitude":-77.014055,"id":"a67wdtqy44ch","state":"DC","party":"Republican"},"type":"Feature","geometry":{"type":"Point","coordinates":[-77.014055,38.894809]}},{"properties":{"city":"Washington","name":"George Whitman HENDEE of VT","latitude":38.890133,"hotel":null,"street address":"23 1st St. NE","longitude":-77.005719,"id":"a67wdts7y53q","state":"DC","party":"Republican"},"type":"Feature","geometry":{"type":"Point","coordinates":[-77.005719,38.890133]}},{"properties":{"city":"Washington","name":"George WILLARD of MI","latitude":38.892638,"hotel":"National Hotel","street address":"600 Pennsylvania Ave. NW","longitude":-77.020077,"id":"a67wdtoaio96","state":"DC","party":"Republican"},"type":"Feature","geometry":{"type":"Point","coordinates":[-77.020077,38.892638]}},{"properties":{"city":"Washington","name":"Gerry Whiting HAZELTON of WI","latitude":38.892638,"hotel":"National Hotel","street address":"600 Pennsylvania Ave. NW","longitude":-77.020077,"id":"a67wdtld9psq","state":"DC","party":"Republican"},"type":"Feature","geometry":{"type":"Point","coordinates":[-77.020077,38.892638]}},{"properties":{"city":"Washington","name":"Glenni William SCOFIELD of PA","latitude":38.896264,"hotel":"Willard's Hotel","street address":"1401 Pennsylvania Ave. NW","longitude":-77.032066,"id":"a67wdtl4iifj","state":"DC","party":"Republican"},"type":"Feature","geometry":{"type":"Point","coordinates":[-77.032066,38.896264]}},{"properties":{"city":"Washington","name":"Godlove Stein ORTH of IN","latitude":38.901236,"hotel":null,"street address":"1340 I St. NW","longitude":-77.030447,"id":"a67wdtsmgfyj","state":"DC","party":"Republican"},"type":"Feature","geometry":{"type":"Point","coordinates":[-77.030447,38.901236]}},{"properties":{"city":"Washington","name":"Granville BARRERE of IL","latitude":38.894286,"hotel":null,"street address":"326 4th St. NW","longitude":-77.000764,"id":"a67wdtslsvqu","state":"DC","party":"Republican"},"type":"Feature","geometry":{"type":"Point","coordinates":[-77.000764,38.894286]}},{"properties":{"city":"Washington","name":"Greenbury Lafayette FORT of IL","latitude":38.896264,"hotel":"Willard's Hotel","street address":"1401 Pennsylvania Ave. NW","longitude":-77.032066,"id":"a67wdtt4kbub","state":"DC","party":"Republican"},"type":"Feature","geometry":{"type":"Point","coordinates":[-77.032066,38.896264]}},{"properties":{"city":"Washington","name":"Harrison Eugene HAVENS of MO","latitude":38.895037,"hotel":null,"street address":"415 6th St. NW","longitude":-77.01973,"id":"a67wdttvswhb","state":"DC","party":"Republican"},"type":"Feature","geometry":{"type":"Point","coordinates":[-77.01973,38.895037]}},{"properties":{"city":"Washington","name":"Henry Benton SAYLER of IN","latitude":38.89746,"hotel":null,"street address":"1327 F St. NW","longitude":-77.030346,"id":"a67wdtfcm7b3","state":"DC","party":"Republican"},"type":"Feature","geometry":{"type":"Point","coordinates":[-77.030346,38.89746]}},{"properties":{"city":"Washington","name":"Henry Harrison HATHORN of NY","latitude":38.90046,"hotel":"The Arlington","street address":"810 Vermont Ave. NW","longitude":-77.035152,"id":"a67wdtfzq1ww","state":"DC","party":"Republican"},"type":"Feature","geometry":{"type":"Point","coordinates":[-77.035152,38.90046]}},{"properties":{"city":"Washington","name":"Henry Howard STARKWEATHER of CT","latitude":38.896264,"hotel":"Willard's Hotel","street address":"1401 Pennsylvania Ave. NW","longitude":-77.032066,"id":"a67wdtes5bra","state":"DC","party":"Republican"},"type":"Feature","geometry":{"type":"Point","coordinates":[-77.032066,38.896264]}},{"properties":{"city":"Washington","name":"Henry Joel SCUDDER of NY","latitude":38.896264,"hotel":"Willard's Hotel","street address":"1401 Pennsylvania Ave. NW","longitude":-77.032066,"id":"a67wdtsabu8q","state":"DC","party":"Republican"},"type":"Feature","geometry":{"type":"Point","coordinates":[-77.032066,38.896264]}},{"properties":{"city":"Washington","name":"Henry Laurens DAWES of MA","latitude":38.897458,"hotel":"Ebbitt House","street address":"1345 F St NW","longitude":-77.030686,"id":"a67wdtrdlcoz","state":"DC","party":"Republican"},"type":"Feature","geometry":{"type":"Point","coordinates":[-77.030686,38.897458]}},{"properties":{"city":"Washington","name":"Henry Lillie PIERCE of MA","latitude":38.900542,"hotel":"Wormley's Hotel","street address":"809 15th St NW","longitude":-77.033468,"id":"a67wdtu1yxk2","state":"DC","party":"Republican"},"type":"Feature","geometry":{"type":"Point","coordinates":[-77.033468,38.900542]}},{"properties":{"city":"Washington","name":"Henry Otis PRATT of IA","latitude":38.892638,"hotel":"National Hotel","street address":"600 Pennsylvania Ave. NW","longitude":-77.020077,"id":"a67wdtiafr06","state":"DC","party":"Republican"},"type":"Feature","geometry":{"type":"Point","coordinates":[-77.020077,38.892638]}},{"properties":{"city":"Washington","name":"Henry W. BARRY of MS","latitude":38.892638,"hotel":"National Hotel","street address":"600 Pennsylvania Ave. NW","longitude":-77.020077,"id":"a67wdthill6w","state":"DC","party":"Republican"},"type":"Feature","geometry":{"type":"Point","coordinates":[-77.020077,38.892638]}},{"properties":{"city":"Washington","name":"Henry WALDRON of MI","latitude":38.892638,"hotel":"National Hotel","street address":"600 Pennsylvania Ave. NW","longitude":-77.020077,"id":"a67wdtfra4q6","state":"DC","party":"Republican"},"type":"Feature","geometry":{"type":"Point","coordinates":[-77.020077,38.892638]}},{"properties":{"city":"Washington","name":"Hezekiah Sanford BUNDY of OH","latitude":38.895389,"hotel":null,"street address":"1416 Pennsylvania Ave. NW","longitude":-77.032243,"id":"a67wdtet1vfj","state":"DC","party":"Republican"},"type":"Feature","geometry":{"type":"Point","coordinates":[-77.032243,38.895389]}},{"properties":{"city":"Washington","name":"Hiram Lawton RICHMOND of PA","latitude":38.897192,"hotel":null,"street address":"1320 F St. NW","longitude":-77.03023,"id":"a67wdtesov5r","state":"DC","party":"Republican"},"type":"Feature","geometry":{"type":"Point","coordinates":[-77.03023,38.897192]}},{"properties":{"city":"Washington","name":"Horace Boardman SMITH of NY","latitude":38.90273,"hotel":null,"street address":"1213 K St. NW","longitude":-77.028817,"id":"a67wdtpldilc","state":"DC","party":"Republican"},"type":"Feature","geometry":{"type":"Point","coordinates":[-77.028817,38.90273]}},{"properties":{"city":"Washington","name":"Horace Burton STRAIT of MN","latitude":38.896299,"hotel":null,"street address":"1011 E St. NW","longitude":-77.026215,"id":"a67wdtkrc5v1","state":"DC","party":"Republican"},"type":"Feature","geometry":{"type":"Point","coordinates":[-77.026215,38.896299]}},{"properties":{"city":"Washington","name":"Horace Francis PAGE of CA","latitude":38.89621,"hotel":null,"street address":"201 E St. NW","longitude":-77.014339,"id":"a67wdtk8t6mj","state":"DC","party":"Republican"},"type":"Feature","geometry":{"type":"Point","coordinates":[-77.014339,38.89621]}},{"properties":{"city":"Washington","name":"Horace Harrison HARRISON of TN","latitude":38.897458,"hotel":"Ebbitt House","street address":"1345 F St NW","longitude":-77.030686,"id":"a67wdtsw3xe5","state":"DC","party":"Republican"},"type":"Feature","geometry":{"type":"Point","coordinates":[-77.030686,38.897458]}},{"properties":{"city":"Washington","name":"Horace MAYNARD of TN","latitude":38.893459,"hotel":null,"street address":"332 C St. NW","longitude":-77.016081,"id":"a67wdtq5776h","state":"DC","party":"Republican"},"type":"Feature","geometry":{"type":"Point","coordinates":[-77.016081,38.893459]}},{"properties":{"city":"Washington","name":"Horatio Chapin BURCHARD of IL","latitude":38.902688,"hotel":"Hamilton House","street address":"1001 14th St. NW","longitude":-77.031891,"id":"a67wdtklluy3","state":"DC","party":"Republican"},"type":"Feature","geometry":{"type":"Point","coordinates":[-77.031891,38.902688]}},{"properties":{"city":"Washington","name":"Ira Barnes HYDE of MO","latitude":38.894825,"hotel":null,"street address":"201 D St. NW","longitude":-77.01377,"id":"a67wdtjlkzfn","state":"DC","party":"Republican"},"type":"Feature","geometry":{"type":"Point","coordinates":[-77.01377,38.894825]}},{"properties":{"city":"Washington","name":"Isaac Charles PARKER of MO","latitude":38.896291,"hotel":null,"street address":"507 6th St. NW","longitude":-77.019711,"id":"a67wdtk3kc9r","state":"DC","party":"Republican"},"type":"Feature","geometry":{"type":"Point","coordinates":[-77.019711,38.896291]}},{"properties":{"city":"Washington","name":"Isaac CLEMENTS of IL","latitude":38.898161,"hotel":null,"street address":"1114 G St. NW","longitude":-77.027261,"id":"a67wdtm4hy51","state":"DC","party":"Republican"},"type":"Feature","geometry":{"type":"Point","coordinates":[-77.027261,38.898161]}},{"properties":{"city":"Washington","name":"Isaac R. SHERWOOD of OH","latitude":38.897472,"hotel":null,"street address":"1225 F St. NW","longitude":-77.028515,"id":"a67wdtjkldt6","state":"DC","party":"Republican"},"type":"Feature","geometry":{"type":"Point","coordinates":[-77.028515,38.897472]}},{"properties":{"city":"Washington","name":"Isaac Williamson SCUDDER of NJ","latitude":38.900542,"hotel":"Wormley's Hotel","street address":"809 15th St NW","longitude":-77.033468,"id":"a67wdtseubii","state":"DC","party":"Republican"},"type":"Feature","geometry":{"type":"Point","coordinates":[-77.033468,38.900542]}},{"properties":{"city":"Washington","name":"Jackson ORR of IA","latitude":38.897458,"hotel":"Ebbitt House","street address":"1345 F St NW","longitude":-77.030686,"id":"a67wdts23xtp","state":"DC","party":"Republican"},"type":"Feature","geometry":{"type":"Point","coordinates":[-77.030686,38.897458]}},{"properties":{"city":"Washington","name":"Jacob Hale SYPHER of LA","latitude":38.897239,"hotel":null,"street address":"1108 F St. NW","longitude":-77.027203,"id":"a67wdtk7iqcp","state":"DC","party":"Republican"},"type":"Feature","geometry":{"type":"Point","coordinates":[-77.027203,38.897239]}},{"properties":{"city":"Washington","name":"Jacob Montgomery THORNBURGH of TN","latitude":38.897458,"hotel":"Ebbitt House","street address":"1345 F St NW","longitude":-77.030686,"id":"a67wdtrsifvg","state":"DC","party":"Republican"},"type":"Feature","geometry":{"type":"Point","coordinates":[-77.030686,38.897458]}},{"properties":{"city":"Washington","name":"James Abram GARFIELD of OH","latitude":38.901445,"hotel":null,"street address":"1227 I St. NW","longitude":-77.028557,"id":"a67wdtqunnpw","state":"DC","party":"Republican"},"type":"Feature","geometry":{"type":"Point","coordinates":[-77.028557,38.901445]}},{"properties":{"city":"Washington","name":"James Beverley SENER of VA","latitude":38.89916,"hotel":null,"street address":"720 14th St. NW","longitude":-77.032104,"id":"a67wdtotj8ts","state":"DC","party":"Republican"},"type":"Feature","geometry":{"type":"Point","coordinates":[-77.032104,38.89916]}},{"properties":{"city":"Washington","name":"James BUFFINTON of MA","latitude":38.897458,"hotel":"Ebbitt House","street address":"1345 F St NW","longitude":-77.030686,"id":"a67wdthyngfv","state":"DC","party":"Republican"},"type":"Feature","geometry":{"type":"Point","coordinates":[-77.030686,38.897458]}},{"properties":{"city":"Washington","name":"James Crawford FREEMAN of GA","latitude":38.896347,"hotel":null,"street address":"511 4th St. NW","longitude":-77.015994,"id":"a67wdtsebe44","state":"DC","party":"Republican"},"type":"Feature","geometry":{"type":"Point","coordinates":[-77.015994,38.896347]}},{"properties":{"city":"Washington","name":"James Dale STRAWBRIDGE of PA","latitude":38.899983,"hotel":null,"street address":"933 H St. NW","longitude":-77.024685,"id":"a67wdtflye9g","state":"DC","party":"Republican"},"type":"Feature","geometry":{"type":"Point","coordinates":[-77.024685,38.899983]}},{"properties":{"city":"Washington","name":"James Gillespie BLAINE of ME","latitude":38.900845,"hotel":null,"street address":"821 15th St. NW","longitude":-77.033549,"id":"a67wdtnc0lo1","state":"DC","party":"Republican"},"type":"Feature","geometry":{"type":"Point","coordinates":[-77.033549,38.900845]}},{"properties":{"city":"Washington","name":"James Henry, Jr. PLATT of VA","latitude":38.90046,"hotel":"The Arlington","street address":"810 Vermont Ave. NW","longitude":-77.035152,"id":"a67wdtglmrut","state":"DC","party":"Republican"},"type":"Feature","geometry":{"type":"Point","coordinates":[-77.035152,38.90046]}},{"properties":{"city":"Washington","name":"James MONROE of OH","latitude":38.900376,"hotel":null,"street address":"813 12th St. NW","longitude":-77.027914,"id":"a67wdttng3pf","state":"DC","party":"Republican"},"type":"Feature","geometry":{"type":"Point","coordinates":[-77.027914,38.900376]}},{"properties":{"city":"Washington","name":"James Monroe PENDLETON of RI","latitude":38.897493,"hotel":null,"street address":"608 13th St. NW","longitude":-77.02973,"id":"a67wdthrnu49","state":"DC","party":"Republican"},"type":"Feature","geometry":{"type":"Point","coordinates":[-77.02973,38.897493]}},{"properties":{"city":"Washington","name":"James Noble TYNER of IN","latitude":38.897458,"hotel":"Ebbitt House","street address":"1345 F St NW","longitude":-77.030686,"id":"a67wdtf3f7t1","state":"DC","party":"Republican"},"type":"Feature","geometry":{"type":"Point","coordinates":[-77.030686,38.897458]}},{"properties":{"city":"Washington","name":"James Rush LOFLAND of DE","latitude":38.896252,"hotel":"Imperial Hotel","street address":"1331 Pennsylvania Ave. NW","longitude":-77.030426,"id":"a67wdtke7zoq","state":"DC","party":"Republican"},"type":"Feature","geometry":{"type":"Point","coordinates":[-77.030426,38.896252]}},{"properties":{"city":"Washington","name":"James Scott NEGLEY of PA","latitude":38.896264,"hotel":"Willard's Hotel","street address":"1401 Pennsylvania Ave. NW","longitude":-77.032066,"id":"a67wdtigx8ge","state":"DC","party":"Republican"},"type":"Feature","geometry":{"type":"Point","coordinates":[-77.032066,38.896264]}},{"properties":{"city":"Washington","name":"James Soloman BIERY of PA","latitude":38.896264,"hotel":"Willard's Hotel","street address":"1401 Pennsylvania Ave. NW","longitude":-77.032066,"id":"a67wdteo3d3u","state":"DC","party":"Republican"},"type":"Feature","geometry":{"type":"Point","coordinates":[-77.032066,38.896264]}},{"properties":{"city":"Washington","name":"James Stevenson SMART of NY","latitude":38.897239,"hotel":null,"street address":"1108 F St. NW","longitude":-77.027203,"id":"a67wdtuo4xbc","state":"DC","party":"Republican"},"type":"Feature","geometry":{"type":"Point","coordinates":[-77.027203,38.897239]}},{"properties":{"city":"Washington","name":"James Stewart MARTIN of IL","latitude":38.897493,"hotel":null,"street address":"609 13th St. NW","longitude":-77.029468,"id":"a67wdtm0hacl","state":"DC","party":"Republican"},"type":"Feature","geometry":{"type":"Point","coordinates":[-77.029468,38.897493]}},{"properties":{"city":"Washington","name":"James Wallace ROBINSON of OH","latitude":38.897458,"hotel":"Ebbitt House","street address":"1345 F St NW","longitude":-77.030686,"id":"a67wdtpg2r6z","state":"DC","party":"Republican"},"type":"Feature","geometry":{"type":"Point","coordinates":[-77.030686,38.897458]}},{"properties":{"city":"Washington","name":"James Wilson McDILL of IA","latitude":38.898708,"hotel":null,"street address":"713 14th St. NW","longitude":-77.031834,"id":"a67wdto16mdg","state":"DC","party":"Republican"},"type":"Feature","geometry":{"type":"Point","coordinates":[-77.031834,38.898708]}},{"properties":{"city":"Washington","name":"James WILSON of IA","latitude":38.892312,"hotel":"St. James Hotel","street address":"401 Constitution Ave. NW","longitude":-77.018672,"id":"a67wdtoo2lci","state":"DC","party":"Republican"},"type":"Feature","geometry":{"type":"Point","coordinates":[-77.018672,38.892312]}},{"properties":{"city":"Washington","name":"Jason NILES of MS","latitude":38.896264,"hotel":"Willard's Hotel","street address":"1401 Pennsylvania Ave. NW","longitude":-77.032066,"id":"a67wdturj7x6","state":"DC","party":"Republican"},"type":"Feature","geometry":{"type":"Point","coordinates":[-77.032066,38.896264]}},{"properties":{"city":"Washington","name":"Jasper Delos WARD of IL","latitude":38.900446,"hotel":null,"street address":"814 12th St. NW","longitude":-77.028184,"id":"a67wdth1q7vg","state":"DC","party":"Republican"},"type":"Feature","geometry":{"type":"Point","coordinates":[-77.028184,38.900446]}},{"properties":{"city":"Washington","name":"Jasper PACKARD of IN","latitude":38.88867,"hotel":null,"street address":"203 A St., SE","longitude":-77.002019,"id":"a67wdteaw14s","state":"DC","party":"Republican"},"type":"Feature","geometry":{"type":"Point","coordinates":[-77.002019,38.88867]}},{"properties":{"city":"Washington","name":"Jay Abel HUBBELL of MI","latitude":38.88867,"hotel":null,"street address":"215 A St. SE","longitude":-77.002019,"id":"a67wdtr3nd6y","state":"DC","party":"Republican"},"type":"Feature","geometry":{"type":"Point","coordinates":[-77.002019,38.88867]}},{"properties":{"city":"Washington","name":"Jeremiah McLain RUSK of WI","latitude":38.897458,"hotel":"Ebbitt House","street address":"1345 F St NW","longitude":-77.030686,"id":"a67wdtltrlco","state":"DC","party":"Republican"},"type":"Feature","geometry":{"type":"Point","coordinates":[-77.030686,38.897458]}},{"properties":{"city":"Washington","name":"Jeremiah Morrow WILSON of IN","latitude":38.897458,"hotel":"Ebbitt House","street address":"1345 F St NW","longitude":-77.030686,"id":"a67wdtgk2w2g","state":"DC","party":"Republican"},"type":"Feature","geometry":{"type":"Point","coordinates":[-77.030686,38.897458]}},{"properties":{"city":"Washington","name":"Joel Allen BARBER of WI","latitude":38.891043,"hotel":"Washington House","street address":"100 3rd St. NW","longitude":-77.002137,"id":"a67wdthv6k7q","state":"DC","party":"Republican"},"type":"Feature","geometry":{"type":"Point","coordinates":[-77.002137,38.891043]}},{"properties":{"city":"Washington","name":"John Adam KASSON of IA","latitude":38.89815,"hotel":null,"street address":"1406 G St. NW","longitude":-77.032237,"id":"a67wdtsttklz","state":"DC","party":"Republican"},"type":"Feature","geometry":{"type":"Point","coordinates":[-77.032237,38.89815]}},{"properties":{"city":"Washington","name":"John Ambler SMITH of VA","latitude":38.902662,"hotel":null,"street address":"1007 K St. NW","longitude":-77.026114,"id":"a67wdtmv4nlj","state":"DC","party":"Republican"},"type":"Feature","geometry":{"type":"Point","coordinates":[-77.026114,38.902662]}},{"properties":{"city":"Washington","name":"John Baldwin HAWLEY of IL","latitude":38.894998,"hotel":null,"street address":"410 6th St. NW","longitude":-77.020076,"id":"a67wdtm0l77g","state":"DC","party":"Republican"},"type":"Feature","geometry":{"type":"Point","coordinates":[-77.020076,38.894998]}},{"properties":{"city":"Washington","name":"John Blake RICE of IL","latitude":38.897458,"hotel":"Ebbitt House","street address":"1345 F St NW","longitude":-77.030686,"id":"a67wdtj71ugr","state":"DC","party":"Republican"},"type":"Feature","geometry":{"type":"Point","coordinates":[-77.030686,38.897458]}},{"properties":{"city":"Washington","name":"John CESSNA of PA","latitude":38.896252,"hotel":"Imperial Hotel","street address":"1331 Pennsylvania Ave. NW","longitude":-77.030426,"id":"a67wdtq6697g","state":"DC","party":"Republican"},"type":"Feature","geometry":{"type":"Point","coordinates":[-77.030426,38.896252]}},{"properties":{"city":"Washington","name":"John Daniel LAWSON of NY","latitude":38.90046,"hotel":"The Arlington","street address":"810 Vermont Ave. NW","longitude":-77.035152,"id":"a67wdtml5i6u","state":"DC","party":"Republican"},"type":"Feature","geometry":{"type":"Point","coordinates":[-77.035152,38.90046]}},{"properties":{"city":"Washington","name":"John Holmes BURLEIGH of ME","latitude":38.90046,"hotel":"The Arlington","street address":"810 Vermont Ave. NW","longitude":-77.035152,"id":"a67wdtkikekn","state":"DC","party":"Republican"},"type":"Feature","geometry":{"type":"Point","coordinates":[-77.035152,38.90046]}},{"properties":{"city":"Washington","name":"John Marshall HAGANS of WV","latitude":38.893007,"hotel":"Metropolitan Hotel","street address":"601 Pennsylvania Ave. NW","longitude":-77.020076,"id":"a67wdtrvqyqy","state":"DC","party":"Republican"},"type":"Feature","geometry":{"type":"Point","coordinates":[-77.020076,38.893007]}},{"properties":{"city":"Washington","name":"John McCandless THOMPSON of PA","latitude":38.897458,"hotel":"Ebbitt House","street address":"1345 F St NW","longitude":-77.030686,"id":"a67wdtn98d4m","state":"DC","party":"Republican"},"type":"Feature","geometry":{"type":"Point","coordinates":[-77.030686,38.897458]}},{"properties":{"city":"Washington","name":"John McKeown Snow WILLIAMS of MA","latitude":38.900373,"hotel":null,"street address":"1505 H St. NW","longitude":-77.034046,"id":"a67wdtijs5gh","state":"DC","party":"Republican"},"type":"Feature","geometry":{"type":"Point","coordinates":[-77.034046,38.900373]}},{"properties":{"city":"Washington","name":"John McNULTA of IL","latitude":38.898161,"hotel":null,"street address":"1114 G St. NW","longitude":-77.027261,"id":"a67wdtmbuxsm","state":"DC","party":"Republican"},"type":"Feature","geometry":{"type":"Point","coordinates":[-77.027261,38.898161]}},{"properties":{"city":"Washington","name":"John Peter Cleaver SHANKS of IN","latitude":38.885776,"hotel":null,"street address":"315 New Jersey Ave. SE","longitude":-77.007688,"id":"a67wdtihxx32","state":"DC","party":"Republican"},"type":"Feature","geometry":{"type":"Point","coordinates":[-77.007688,38.885776]}},{"properties":{"city":"Washington","name":"John Quincy SMITH of OH","latitude":38.897458,"hotel":"Ebbitt House","street address":"1345 F St NW","longitude":-77.030686,"id":"a67wdtpl6gc3","state":"DC","party":"Republican"},"type":"Feature","geometry":{"type":"Point","coordinates":[-77.030686,38.897458]}},{"properties":{"city":"Washington","name":"John Thomas AVERILL of MN","latitude":38.892638,"hotel":"National Hotel","street address":"600 Pennsylvania Ave. NW","longitude":-77.020077,"id":"a67wdteizpew","state":"DC","party":"Republican"},"type":"Feature","geometry":{"type":"Point","coordinates":[-77.020077,38.892638]}},{"properties":{"city":"Washington","name":"John Weinland KILLINGER of PA","latitude":38.900164,"hotel":null,"street address":"806 12th St. NW","longitude":-77.028184,"id":"a67wdtf9wixr","state":"DC","party":"Republican"},"type":"Feature","geometry":{"type":"Point","coordinates":[-77.028184,38.900164]}},{"properties":{"city":"Washington","name":"John Wright HAZELTON of NJ","latitude":38.892818,"hotel":null,"street address":"227 3rd St. NW","longitude":-77.001841,"id":"a67wdtmhsven","state":"DC","party":"Republican"},"type":"Feature","geometry":{"type":"Point","coordinates":[-77.001841,38.892818]}},{"properties":{"city":"Washington","name":"Joseph Gurney CANNON of IL","latitude":38.892638,"hotel":"National Hotel","street address":"600 Pennsylvania Ave. NW","longitude":-77.020077,"id":"a67wdtgcm1oz","state":"DC","party":"Republican"},"type":"Feature","geometry":{"type":"Point","coordinates":[-77.020077,38.892638]}},{"properties":{"city":"Washington","name":"Joseph Roswell HAWLEY of CT","latitude":38.897493,"hotel":null,"street address":"608 13th St. NW","longitude":-77.02973,"id":"a67wdtqhl9fy","state":"DC","party":"Republican"},"type":"Feature","geometry":{"type":"Point","coordinates":[-77.02973,38.897493]}},{"properties":{"city":"Washington","name":"Josiah Williams BEGOLE of MI","latitude":38.892638,"hotel":"National Hotel","street address":"600 Pennsylvania Ave. NW","longitude":-77.020077,"id":"a67wdtjr20v7","state":"DC","party":"Republican"},"type":"Feature","geometry":{"type":"Point","coordinates":[-77.020077,38.892638]}},{"properties":{"city":"Washington","name":"Julius Caesar BURROWS of MI","latitude":38.896403,"hotel":null,"street address":"514 13th St. NW","longitude":-77.02978,"id":"a67wdtnh83if","state":"DC","party":"Republican"},"type":"Feature","geometry":{"type":"Point","coordinates":[-77.02978,38.896403]}},{"properties":{"city":"Washington","name":"Laurin Dewey WOODWORTH of OH","latitude":38.897162,"hotel":null,"street address":"644 F St. NW","longitude":-77.020826,"id":"a67wdtplrxzb","state":"DC","party":"Republican"},"type":"Feature","geometry":{"type":"Point","coordinates":[-77.020826,38.897162]}},{"properties":{"city":"Washington","name":"Lazarus Denison SHOEMAKER of PA","latitude":38.896264,"hotel":"Willard's Hotel","street address":"1401 Pennsylvania Ave. NW","longitude":-77.032066,"id":"a67wdtgpl401","state":"DC","party":"Republican"},"type":"Feature","geometry":{"type":"Point","coordinates":[-77.032066,38.896264]}},{"properties":{"city":"Washington","name":"Lemuel TODD of PA","latitude":38.897217,"hotel":null,"street address":"910 F St. NW","longitude":-77.024311,"id":"a67wdtmdfow9","state":"DC","party":"Republican"},"type":"Feature","geometry":{"type":"Point","coordinates":[-77.024311,38.897217]}},{"properties":{"city":"Washington","name":"Leonard MYERS of PA","latitude":38.895203,"hotel":null,"street address":"424 11th St. NW","longitude":-77.027178,"id":"a67wdtjilpp7","state":"DC","party":"Republican"},"type":"Feature","geometry":{"type":"Point","coordinates":[-77.027178,38.895203]}},{"properties":{"city":"Washington","name":"Lewis B. GUNCKEL of OH","latitude":38.896264,"hotel":"Willard's Hotel","street address":"1401 Pennsylvania Ave. NW","longitude":-77.032066,"id":"a67wdts6ctz9","state":"DC","party":"Republican"},"type":"Feature","geometry":{"type":"Point","coordinates":[-77.032066,38.896264]}},{"properties":{"city":"Washington","name":"Lewis Cass CARPENTER of SC","latitude":38.899628,"hotel":null,"street address":"1338 New York Ave. NW","longitude":-77.030909,"id":"a67wdth1ei5n","state":"DC","party":"Republican"},"type":"Feature","geometry":{"type":"Point","coordinates":[-77.030909,38.899628]}},{"properties":{"city":"Washington","name":"Lionel Allen SHELDON of LA","latitude":38.896264,"hotel":"Willard's Hotel","street address":"1401 Pennsylvania Ave. NW","longitude":-77.032066,"id":"a67wdtpg31en","state":"DC","party":"Republican"},"type":"Feature","geometry":{"type":"Point","coordinates":[-77.032066,38.896264]}},{"properties":{"city":"Washington","name":"Lloyd, Jr. LOWNDES of MD","latitude":38.902709,"hotel":null,"street address":"1209 K St. NW","longitude":-77.028786,"id":"a67wdtipugf5","state":"DC","party":"Republican"},"type":"Feature","geometry":{"type":"Point","coordinates":[-77.028786,38.902709]}},{"properties":{"city":"Washington","name":"Lorenzo CROUNSE of NE","latitude":38.892638,"hotel":"National Hotel","street address":"600 Pennsylvania Ave. NW","longitude":-77.020077,"id":"a67wdti72fcq","state":"DC","party":"Republican"},"type":"Feature","geometry":{"type":"Point","coordinates":[-77.020077,38.892638]}},{"properties":{"city":"Washington","name":"Lorenzo DANFORD of OH","latitude":38.896252,"hotel":"Imperial Hotel","street address":"1331 Pennsylvania Ave. NW","longitude":-77.030426,"id":"a67wdtnmd9zl","state":"DC","party":"Republican"},"type":"Feature","geometry":{"type":"Point","coordinates":[-77.030426,38.896252]}},{"properties":{"city":"Washington","name":"Luke Potter POLAND of VT","latitude":38.890133,"hotel":null,"street address":"23 1st St. NE","longitude":-77.005719,"id":"a67wdtn71qkp","state":"DC","party":"Republican"},"type":"Feature","geometry":{"type":"Point","coordinates":[-77.005719,38.890133]}},{"properties":{"city":"Washington","name":"Lyman Kidder BASS of NY","latitude":38.901187,"hotel":null,"street address":"1412 I St. NW","longitude":-77.032295,"id":"a67wdtr2w4uh","state":"DC","party":"Republican"},"type":"Feature","geometry":{"type":"Point","coordinates":[-77.032295,38.901187]}},{"properties":{"city":"Washington","name":"Lyman TREMAIN of NY","latitude":38.90046,"hotel":"The Arlington","street address":"810 Vermont Ave. NW","longitude":-77.035152,"id":"a67wdtg9kvyq","state":"DC","party":"Republican"},"type":"Feature","geometry":{"type":"Point","coordinates":[-77.035152,38.90046]}},{"properties":{"city":"Washington","name":"Marcus Lawrence WARD of NJ","latitude":38.901189,"hotel":null,"street address":"1336 I St. NW","longitude":-77.030376,"id":"a67wdtn6uybe","state":"DC","party":"Republican"},"type":"Feature","geometry":{"type":"Point","coordinates":[-77.030376,38.901189]}},{"properties":{"city":"Washington","name":"Mark Hill DUNNELL of MN","latitude":38.892312,"hotel":"St. James Hotel","street address":"401 Constitution Ave. NW","longitude":-77.018672,"id":"a67wdtprj95h","state":"DC","party":"Republican"},"type":"Feature","geometry":{"type":"Point","coordinates":[-77.018672,38.892312]}},{"properties":{"city":"Washington","name":"Morton Craig HUNTER of IN","latitude":38.902688,"hotel":"Hamilton House","street address":"1001 14th St. NW","longitude":-77.031891,"id":"a67wdtehbbis","state":"DC","party":"Republican"},"type":"Feature","geometry":{"type":"Point","coordinates":[-77.031891,38.902688]}},{"properties":{"city":"Washington","name":"Moses Whelock FIELD of MI","latitude":38.901497,"hotel":null,"street address":"2001 I St. NW","longitude":-77.045108,"id":"a67wdtk1tand","state":"DC","party":"Republican"},"type":"Feature","geometry":{"type":"Point","coordinates":[-77.045108,38.901497]}},{"properties":{"city":"Washington","name":"Nathan Ball BRADLEY of MI","latitude":38.893458,"hotel":null,"street address":"316 C St. NW","longitude":-77.015879,"id":"a67wdtk7r7ui","state":"DC","party":"Republican"},"type":"Feature","geometry":{"type":"Point","coordinates":[-77.015879,38.893458]}},{"properties":{"city":"Washington","name":"Oliver P. SNYDER of AR","latitude":38.89508,"hotel":null,"street address":"419 6th St. NW","longitude":-77.019729,"id":"a67wdtogamjd","state":"DC","party":"Republican"},"type":"Feature","geometry":{"type":"Point","coordinates":[-77.019729,38.89508]}},{"properties":{"city":"Washington","name":"Omar Dwight CONGER of MI","latitude":38.892638,"hotel":"National Hotel","street address":"600 Pennsylvania Ave. NW","longitude":-77.020077,"id":"a67wdti0gvsr","state":"DC","party":"Republican"},"type":"Feature","geometry":{"type":"Point","coordinates":[-77.020077,38.892638]}},{"properties":{"city":"Washington","name":"Philetus SAWYER of WI","latitude":38.901188,"hotel":null,"street address":"1424 I St. NW","longitude":-77.032457,"id":"a67wdtilc7fs","state":"DC","party":"Republican"},"type":"Feature","geometry":{"type":"Point","coordinates":[-77.032457,38.901188]}},{"properties":{"city":"Washington","name":"Philip Schuyler CROOKE of NY","latitude":38.90046,"hotel":"The Arlington","street address":"810 Vermont Ave. NW","longitude":-77.035152,"id":"a67wdtr0wq0q","state":"DC","party":"Republican"},"type":"Feature","geometry":{"type":"Point","coordinates":[-77.035152,38.90046]}},{"properties":{"city":"Washington","name":"Richard Chappel PARSONS of OH","latitude":38.90046,"hotel":"The Arlington","street address":"810 Vermont Ave. NW","longitude":-77.035152,"id":"a67wdtthrqn5","state":"DC","party":"Republican"},"type":"Feature","geometry":{"type":"Point","coordinates":[-77.035152,38.90046]}},{"properties":{"city":"Washington","name":"Richard Henry WHITELEY of GA","latitude":38.892638,"hotel":"National Hotel","street address":"600 Pennsylvania Ave. NW","longitude":-77.020077,"id":"a67wdtltkhf2","state":"DC","party":"Republican"},"type":"Feature","geometry":{"type":"Point","coordinates":[-77.020077,38.892638]}},{"properties":{"city":"Washington","name":"Robert Safford HALE of NY","latitude":38.900305,"hotel":null,"street address":"810 12th St. NW","longitude":-77.028184,"id":"a67wdtkeo62i","state":"DC","party":"Republican"},"type":"Feature","geometry":{"type":"Point","coordinates":[-77.028184,38.900305]}},{"properties":{"city":"Washington","name":"Roderick Randum BUTLER of TN","latitude":38.897458,"hotel":"Ebbitt House","street address":"1345 F St NW","longitude":-77.030686,"id":"a67wdtuhpwbl","state":"DC","party":"Republican"},"type":"Feature","geometry":{"type":"Point","coordinates":[-77.030686,38.897458]}},{"properties":{"city":"Washington","name":"Rodolphus Holland DUELL of NY","latitude":38.892312,"hotel":"St. James Hotel","street address":"401 Constitution Ave. NW","longitude":-77.018672,"id":"a67wdtkiv3w2","state":"DC","party":"Republican"},"type":"Feature","geometry":{"type":"Point","coordinates":[-77.018672,38.892312]}},{"properties":{"city":"Washington","name":"Samuel Atkinson DOBBINS of NJ","latitude":38.896264,"hotel":"Willard's Hotel","street address":"1401 Pennsylvania Ave. NW","longitude":-77.032066,"id":"a67wdtkqz5l2","state":"DC","party":"Republican"},"type":"Feature","geometry":{"type":"Point","coordinates":[-77.032066,38.896264]}},{"properties":{"city":"Washington","name":"Samuel Freeman HERSEY of ME","latitude":38.896264,"hotel":"Willard's Hotel","street address":"1401 Pennsylvania Ave. NW","longitude":-77.032066,"id":"a67wdtkbvy6m","state":"DC","party":"Republican"},"type":"Feature","geometry":{"type":"Point","coordinates":[-77.032066,38.896264]}},{"properties":{"city":"Washington","name":"Samuel HOOPER of MA","latitude":38.900361,"hotel":null,"street address":"1501 H St. NW","longitude":-77.033831,"id":"a67wdtqp8s8p","state":"DC","party":"Republican"},"type":"Feature","geometry":{"type":"Point","coordinates":[-77.033831,38.900361]}},{"properties":{"city":"Washington","name":"Sherman Otis HOUGHTON of CA","latitude":38.894972,"hotel":null,"street address":"407 4th St. NW","longitude":-77.016034,"id":"a67wdtmxbvj6","state":"DC","party":"Republican"},"type":"Feature","geometry":{"type":"Point","coordinates":[-77.016034,38.894972]}},{"properties":{"city":"Washington","name":"Sobieski ROSS of PA","latitude":38.897463,"hotel":null,"street address":"1405 F St. NW","longitude":-77.032197,"id":"a67wdtkkrps2","state":"DC","party":"Republican"},"type":"Feature","geometry":{"type":"Point","coordinates":[-77.032197,38.897463]}},{"properties":{"city":"Washington","name":"Stephen Alonzo COBB of KS","latitude":38.892354,"hotel":null,"street address":"229 4th St. NW","longitude":-77.000413,"id":"a67wdtgejuum","state":"DC","party":"Republican"},"type":"Feature","geometry":{"type":"Point","coordinates":[-77.000413,38.892354]}},{"properties":{"city":"Washington","name":"Stephen Augustus HURLBUT of IL","latitude":38.900305,"hotel":null,"street address":"811 12th St. NW","longitude":-77.027914,"id":"a67wdtlmv4vz","state":"DC","party":"Republican"},"type":"Feature","geometry":{"type":"Point","coordinates":[-77.027914,38.900305]}},{"properties":{"city":"Washington","name":"Stephen Wright KELLOGG of CT","latitude":38.896264,"hotel":"Willard's Hotel","street address":"1401 Pennsylvania Ave. NW","longitude":-77.032066,"id":"a67wdtrlr4qd","state":"DC","party":"Republican"},"type":"Feature","geometry":{"type":"Point","coordinates":[-77.032066,38.896264]}},{"properties":{"city":"Washington","name":"Stewart Lyndon WOODFORD of NY","latitude":38.90046,"hotel":"The Arlington","street address":"810 Vermont Ave. NW","longitude":-77.035152,"id":"a67wdtphwusu","state":"DC","party":"Republican"},"type":"Feature","geometry":{"type":"Point","coordinates":[-77.035152,38.90046]}},{"properties":{"city":"Washington","name":"Thomas Collier PLATT of NY","latitude":38.900027,"hotel":null,"street address":"1518 H St. NW","longitude":-77.0348,"id":"a67wdtfbjv63","state":"DC","party":"Republican"},"type":"Feature","geometry":{"type":"Point","coordinates":[-77.0348,38.900027]}},{"properties":{"city":"Washington","name":"Thomas Jefferson CASON of IN","latitude":38.891047,"hotel":null,"street address":"242 A St. NE","longitude":-77.002955,"id":"a67wdtipm80d","state":"DC","party":"Republican"},"type":"Feature","geometry":{"type":"Point","coordinates":[-77.002955,38.891047]}},{"properties":{"city":"Washington","name":"Walter Loomis SESSIONS of NY","latitude":38.901167,"hotel":null,"street address":"1324 I St. NW","longitude":-77.030157,"id":"a67wdtm2bmjq","state":"DC","party":"Republican"},"type":"Feature","geometry":{"type":"Point","coordinates":[-77.030157,38.901167]}},{"properties":{"city":"Washington","name":"Washington TOWNSEND of PA","latitude":38.898708,"hotel":null,"street address":"713 14th St. NW","longitude":-77.031834,"id":"a67wdtuow1op","state":"DC","party":"Republican"},"type":"Feature","geometry":{"type":"Point","coordinates":[-77.031834,38.898708]}},{"properties":{"city":"Washington","name":"Wilder De Ayr FOSTER of MI","latitude":38.897458,"hotel":"Ebbitt House","street address":"1345 F St NW","longitude":-77.030686,"id":"a67wdttrqw2t","state":"DC","party":"Republican"},"type":"Feature","geometry":{"type":"Point","coordinates":[-77.030686,38.897458]}},{"properties":{"city":"Washington","name":"William Addison PHILLIPS of KS","latitude":38.899667,"hotel":null,"street address":"1330 New York Ave. NW","longitude":-77.030798,"id":"a67wdtsocd6a","state":"DC","party":"Republican"},"type":"Feature","geometry":{"type":"Point","coordinates":[-77.030798,38.899667]}},{"properties":{"city":"Washington","name":"William Alexander SMITH of NC","latitude":38.897509,"hotel":null,"street address":"610 13th St. NW","longitude":-77.029734,"id":"a67wdtujuo3d","state":"DC","party":"Republican"},"type":"Feature","geometry":{"type":"Point","coordinates":[-77.029734,38.897509]}},{"properties":{"city":"Washington","name":"William Almon WHEELER of NY","latitude":38.900446,"hotel":null,"street address":"815 12th St. NW","longitude":-77.027914,"id":"a67wdts5drrg","state":"DC","party":"Republican"},"type":"Feature","geometry":{"type":"Point","coordinates":[-77.027914,38.900446]}},{"properties":{"city":"Washington","name":"William Bradbury SMALL of NH","latitude":38.892638,"hotel":"National Hotel","street address":"600 Pennsylvania Ave. NW","longitude":-77.020077,"id":"a67wdtf5wi8o","state":"DC","party":"Republican"},"type":"Feature","geometry":{"type":"Point","coordinates":[-77.020077,38.892638]}},{"properties":{"city":"Washington","name":"William Brewster WILLIAMS of MI","latitude":38.892638,"hotel":"National Hotel","street address":"600 Pennsylvania Ave. NW","longitude":-77.020077,"id":"a67wdtgr0i88","state":"DC","party":"Republican"},"type":"Feature","geometry":{"type":"Point","coordinates":[-77.020077,38.892638]}},{"properties":{"city":"Washington","name":"William CRUTCHFIELD of TN","latitude":38.897458,"hotel":"Ebbitt House","street address":"1345 F St NW","longitude":-77.030686,"id":"a67wdthdk63u","state":"DC","party":"Republican"},"type":"Feature","geometry":{"type":"Point","coordinates":[-77.030686,38.897458]}},{"properties":{"city":"Washington","name":"William Darrah KELLEY of PA","latitude":38.898757,"hotel":null,"street address":"715 14th St. NW","longitude":-77.031834,"id":"a67wdtgogjn4","state":"DC","party":"Republican"},"type":"Feature","geometry":{"type":"Point","coordinates":[-77.031834,38.898757]}},{"properties":{"city":"Washington","name":"William Esselstyne LANSING of NY","latitude":38.896264,"hotel":"Willard's Hotel","street address":"1401 Pennsylvania Ave. NW","longitude":-77.032066,"id":"a67wdtp2k77a","state":"DC","party":"Republican"},"type":"Feature","geometry":{"type":"Point","coordinates":[-77.032066,38.896264]}},{"properties":{"city":"Washington","name":"William G. DONNAN of IA","latitude":38.892017,"hotel":null,"street address":"300 Constitution Ave. NW","longitude":-77.01531,"id":"a67wdtq9gp5k","state":"DC","party":"Republican"},"type":"Feature","geometry":{"type":"Point","coordinates":[-77.01531,38.892017]}},{"properties":{"city":"Washington","name":"William Henry Harrison STOWELL of VA","latitude":38.892638,"hotel":"National Hotel","street address":"600 Pennsylvania Ave. NW","longitude":-77.020077,"id":"a67wdtigy5rr","state":"DC","party":"Republican"},"type":"Feature","geometry":{"type":"Point","coordinates":[-77.020077,38.892638]}},{"properties":{"city":"Washington","name":"William Henry LAMPORT of NY","latitude":38.90072,"hotel":null,"street address":"814 I St. NW","longitude":-77.023095,"id":"a67wdto6ybfg","state":"DC","party":"Republican"},"type":"Feature","geometry":{"type":"Point","coordinates":[-77.023095,38.90072]}},{"properties":{"city":"Washington","name":"William Henry RAY of IL","latitude":38.900446,"hotel":null,"street address":"814 12th St. NW","longitude":-77.028184,"id":"a67wdtka3s8c","state":"DC","party":"Republican"},"type":"Feature","geometry":{"type":"Point","coordinates":[-77.028184,38.900446]}},{"properties":{"city":"Washington","name":"William James PURMAN of FL","latitude":38.8948,"hotel":null,"street address":"205 D St. NW","longitude":-77.013994,"id":"a67wdtseo3mr","state":"DC","party":"Republican"},"type":"Feature","geometry":{"type":"Point","coordinates":[-77.013994,38.8948]}},{"properties":{"city":"Washington","name":"William Julian ALBERT of MD","latitude":38.899628,"hotel":null,"street address":"717 Madison Place NW","longitude":-77.035012,"id":"a67wdtoy9ud7","state":"DC","party":"Republican"},"type":"Feature","geometry":{"type":"Point","coordinates":[-77.035012,38.899628]}},{"properties":{"city":"Washington","name":"William LAWRENCE of OH","latitude":38.891043,"hotel":"Washington House","street address":"100 3rd St. NW","longitude":-77.002137,"id":"a67wdto0crn7","state":"DC","party":"Republican"},"type":"Feature","geometry":{"type":"Point","coordinates":[-77.002137,38.891043]}},{"properties":{"city":"Washington","name":"William LOUGHRIDGE of IA","latitude":38.895059,"hotel":null,"street address":"417 6th St. NW","longitude":-77.019729,"id":"a67wdtn4rn1j","state":"DC","party":"Republican"},"type":"Feature","geometry":{"type":"Point","coordinates":[-77.019729,38.895059]}},{"properties":{"city":"Washington","name":"William Peter SPRAGUE of OH","latitude":38.892638,"hotel":"National Hotel","street address":"600 Pennsylvania Ave. NW","longitude":-77.020077,"id":"a67wdtpv6v0g","state":"DC","party":"Republican"},"type":"Feature","geometry":{"type":"Point","coordinates":[-77.020077,38.892638]}},{"properties":{"city":"Washington","name":"William Pierce FRYE of ME","latitude":38.900514,"hotel":null,"street address":"1235 New York Ave. NW","longitude":-77.029193,"id":"a67wdtq8fd33","state":"DC","party":"Republican"},"type":"Feature","geometry":{"type":"Point","coordinates":[-77.029193,38.900514]}},{"properties":{"city":"Washington","name":"William Sutton MOORE of PA","latitude":38.895225,"hotel":null,"street address":"426 11th St. NW","longitude":-77.027178,"id":"a67wdtqytvjn","state":"DC","party":"Republican"},"type":"Feature","geometry":{"type":"Point","coordinates":[-77.027178,38.895225]}},{"properties":{"city":"Washington","name":"William Walter PHELPS of NJ","latitude":38.900027,"hotel":null,"street address":"1518 H St. NW","longitude":-77.0348,"id":"a67wdtjzabew","state":"DC","party":"Republican"},"type":"Feature","geometry":{"type":"Point","coordinates":[-77.0348,38.900027]}},{"properties":{"city":"Washington","name":"William WILLIAMS of IN","latitude":38.88867,"hotel":null,"street address":"200 A St. SE","longitude":-77.002019,"id":"a67wdtju3fym","state":"DC","party":"Republican"},"type":"Feature","geometry":{"type":"Point","coordinates":[-77.002019,38.88867]}}],"is_temporal":false,"author":{"url":"","metadata":"","contact_name":"","contact_address":"","source":"Congress","contact_phone":""},"source":"","pagination":{"sort":null,"start":0,"total":190,"limit":1000000},"state":"complete","tags":"","published":"2011-04-24T17:55:02Z","id":110471}