{"type":"FeatureCollection","data_type":"Dataset","url_type":null,"permissions":[{"permissions":{"download":true,"view":true},"group_id":"everyone"}],"classification":null,"title":"West - House - 43rd Congress","count":5,"stream_id":110564,"contributor":{"url":"http://geocommons.com/users/25572","name":"rungiraffe"},"data_attributes":null,"calculation_params":null,"icon_link":null,"link":"http://geocommons.com/overlays/110564.json","extent":[-77.0351,38.895,-77.0143,38.9005],"geometry_types":["point"],"unique_name":null,"name":"West - House - 43rd Congress","feature_count":5,"description":"","next_feature":null,"is_raster":false,"short_classification":"Y","stats":{"latitude":{"max":38.90046,"mean":38.8973716,"variance":5.09251279999831e-06,"stdev":0.00225665965533093,"min":38.894972,"median":38.896264},"longitude":{"max":-77.014339,"mean":-77.025885,"variance":9.74562419999328e-05,"stdev":0.00987199280793563,"min":-77.035152,"median":-77.031834}},"features":[{"properties":{"city":"Washington","name":"Charles CLAYTON of CA","latitude":38.90046,"hotel":"The Arlington","region":"West","street":"810 Vermont Ave. NW","longitude":-77.035152,"id":"a64n32285lek","state":"DC","party":"Republican"},"type":"Feature","geometry":{"type":"Point","coordinates":[-77.035152,38.90046]}},{"properties":{"city":"Washington","name":"Horace Francis PAGE of CA","latitude":38.89621,"hotel":null,"region":"West","street":"201 E St. NW","longitude":-77.014339,"id":"a64n31x12syi","state":"DC","party":"Republican"},"type":"Feature","geometry":{"type":"Point","coordinates":[-77.014339,38.89621]}},{"properties":{"city":"Washington","name":"James Willis NESMITH of OR","latitude":38.898952,"hotel":null,"region":"West","street":"723 14th St. NW","longitude":-77.031834,"id":"a64n31unyvtq","state":"DC","party":"Democrat"},"type":"Feature","geometry":{"type":"Point","coordinates":[-77.031834,38.898952]}},{"properties":{"city":"Washington","name":"John King LUTTRELL of CA","latitude":38.896264,"hotel":"Willard's Hotel","region":"West","street":"1401 Pennsylvania Ave. NW","longitude":-77.032066,"id":"a64n31zj127u","state":"DC","party":"Democrat"},"type":"Feature","geometry":{"type":"Point","coordinates":[-77.032066,38.896264]}},{"properties":{"city":"Washington","name":"Sherman Otis HOUGHTON of CA","latitude":38.894972,"hotel":null,"region":"West","street":"407 4th St. NW","longitude":-77.016034,"id":"a64n31puy371","state":"DC","party":"Republican"},"type":"Feature","geometry":{"type":"Point","coordinates":[-77.016034,38.894972]}}],"is_temporal":false,"author":{"url":"","metadata":"","contact_name":"","contact_address":"","source":"Congressional Directory","contact_phone":""},"source":"","pagination":{"sort":null,"start":0,"total":5,"limit":1000000},"state":"complete","tags":"","published":"2011-04-25T16:00:00Z","id":110564}