{"type":"FeatureCollection","data_type":"Dataset","url_type":null,"permissions":[{"permissions":{"download":true,"edit":true,"view":true},"group_id":13923},{"permissions":{"download":true,"view":true},"group_id":"everyone"}],"classification":null,"title":"MSHA Field Offices","count":17,"stream_id":110595,"contributor":{"url":"http://geocommons.com/users/695","name":"Bill"},"data_attributes":null,"calculation_params":null,"icon_link":null,"link":"http://geocommons.com/overlays/110595.json","extent":[-121.97,32.7791,-75.8783,46.7827],"geometry_types":["point"],"unique_name":null,"name":"MSHA Field Offices","feature_count":17,"description":"MSHA District field office locations divided by coal and metal/non-metal district offices. ","next_feature":null,"is_raster":false,"short_classification":"Y","stats":{},"features":[{"properties":{"city":"Duluth","zip":"55802","geo_score":0.902,"notes":"Metal / Non-metal District office","msha office":"North Central District","id":"a6a7x5juzkmc","geo_precision":"range","address":"515 west 1st street","state":"MN"},"type":"Feature","geometry":{"type":"Point","coordinates":[-92.105658,46.782715]}},{"properties":{"city":"Warrendale","zip":"15086","geo_score":1.0,"notes":"Metal / Non-metal District office","msha office":"Northeastern District","id":"a6a7x5gewfmi","geo_precision":"range","address":"547 Keystone Drive","state":"PA"},"type":"Feature","geometry":{"type":"Point","coordinates":[-80.114519,40.668361]}},{"properties":{"city":"Birmingham","zip":"35209","geo_score":0.912,"notes":"Metal / Non-metal District office","msha office":"South Eastern District","id":"a6a7x5e73cpo","geo_precision":"range","address":"135 Gemini Circle","state":"AL"},"type":"Feature","geometry":{"type":"Point","coordinates":[-86.837682,33.462084]}},{"properties":{"city":"Dallas","zip":"75242","geo_score":1.0,"notes":"Metal / Non-metal District office","msha office":"South Central District","id":"a6a7x5jkb9p6","geo_precision":"range","address":"1100 Commerce street","state":"TX"},"type":"Feature","geometry":{"type":"Point","coordinates":[-96.802903,32.77908]}},{"properties":{"city":"Vacaville","zip":"95687","geo_score":1.0,"notes":"Metal / Non-metal District office","msha office":"Western District","id":"a6a7x5m2y9kw","geo_precision":"range","address":"2060 peabody road","state":"CA"},"type":"Feature","geometry":{"type":"Point","coordinates":[-121.970463,38.333764]}},{"properties":{"city":"Denver","zip":"80225","geo_score":0.714,"notes":"Metal / Non-metal District office","msha office":"Rocky Mountain District","id":"a6a7x5iijex2","geo_precision":"street","address":"Kipling street","state":"CO"},"type":"Feature","geometry":{"type":"Point","coordinates":[-105.10968,39.716687]}},{"properties":{"city":"Wilkes-Barre","zip":"18702","geo_score":0.941,"notes":"Coal","msha office":"District 1","id":"a6a7x5h7qmbh","geo_precision":"range","address":"7 North Wilkes-barre blvd","state":"PA"},"type":"Feature","geometry":{"type":"Point","coordinates":[-75.878298,41.24212]}},{"properties":{"city":"Mount Pleasant","zip":"15666","geo_score":0.608,"notes":"Coal","msha office":"District 2","id":"a6a7x5hxfirk","geo_precision":"zip","address":"631 excel drive","state":"PA"},"type":"Feature","geometry":{"type":"Point","coordinates":[-79.533094,40.164794]}},{"properties":{"city":"Morgantown","zip":"26508","geo_score":0.709,"notes":"Coal","msha office":"District 3","id":"a6a7x5gxmqz2","geo_precision":"street","address":"604 Cheat Road","state":"WV"},"type":"Feature","geometry":{"type":"Point","coordinates":[-79.884845,39.654322]}},{"properties":{"city":"Mt. Hope","zip":"25880","geo_score":0.902,"notes":"Coal","msha office":"District 4","id":"a6a7x5i405t0","geo_precision":"range","address":"100 Bluestone road","state":"WV"},"type":"Feature","geometry":{"type":"Point","coordinates":[-81.167684,37.895809]}},{"properties":{"city":"Norton","zip":"24273","geo_score":0.886,"notes":"Coal","msha office":"District 5","id":"a6a7x5e1p84d","geo_precision":"zip","address":null,"state":"VA"},"type":"Feature","geometry":{"type":"Point","coordinates":[-82.635713,36.974822]}},{"properties":{"city":"Pikesville","zip":"41501","geo_score":0.582,"notes":"Coal","msha office":"District 6","id":"a6a7x5me85g8","geo_precision":"street","address":"100 Faye Ramsey Lane","state":"KY"},"type":"Feature","geometry":{"type":"Point","coordinates":[-82.550519,37.511264]}},{"properties":{"city":"Barbourville","zip":"40906","geo_score":0.577,"notes":"Coal","msha office":"District 7","id":"a6a7x5hmrv96","geo_precision":"street","address":"3837 S US Highway 25E.","state":"KY"},"type":"Feature","geometry":{"type":"Point","coordinates":[-83.704102,36.763567]}},{"properties":{"city":"vincennes","zip":"47591","geo_score":0.751,"notes":"Coal","msha office":"District 8","id":"a6a7x5h6a986","geo_precision":"street","address":"2300 Willow street","state":"IN"},"type":"Feature","geometry":{"type":"Point","coordinates":[-87.530572,38.658111]}},{"properties":{"city":"Denver","zip":"80225","geo_score":0.357,"notes":"Coal","msha office":"District 9","id":"a6a7x5cld2vm","geo_precision":"street","address":"DFC 6th &amp; Kipling Street","state":"CO"},"type":"Feature","geometry":{"type":"Point","coordinates":[-104.964527,39.779985]}},{"properties":{"city":"Madisonville","zip":"42431","geo_score":0.911,"notes":"Coal","msha office":"District 10","id":"a6a7x5j9mpyu","geo_precision":"range","address":"100 YMCA Drive","state":"KY"},"type":"Feature","geometry":{"type":"Point","coordinates":[-87.496751,37.355686]}},{"properties":{"city":"Birmingham","zip":"35209","geo_score":0.912,"notes":"Coal","msha office":"District 11","id":"a6a7x5qv4xg8","geo_precision":"range","address":"135 Gemini Circle","state":"AL"},"type":"Feature","geometry":{"type":"Point","coordinates":[-86.837682,33.462084]}}],"is_temporal":false,"author":{"url":"","metadata":"","contact_name":"","contact_address":"","source":"","contact_phone":""},"source":"","pagination":{"sort":null,"start":0,"total":17,"limit":1000000},"state":"complete","tags":"","published":"2011-04-25T18:05:53Z","id":110595}