{"type":"FeatureCollection","data_type":"Dataset","url_type":null,"permissions":[{"permissions":{"download":true,"view":true},"group_id":"everyone"}],"classification":null,"title":"Midwest - House - 43rd Congress","count":86,"stream_id":110561,"contributor":{"url":"http://geocommons.com/users/25572","name":"rungiraffe"},"data_attributes":null,"calculation_params":null,"icon_link":null,"link":"http://geocommons.com/overlays/110561.json","extent":[-77.064,38.8858,-77.0004,38.9582],"geometry_types":["point"],"unique_name":null,"name":"Midwest - House - 43rd Congress","feature_count":86,"description":"","next_feature":null,"is_raster":false,"short_classification":"Y","stats":{"latitude":{"max":38.958211,"mean":38.8967438255814,"variance":5.95689832751053e-05,"stdev":0.00771809453654886,"min":38.885776,"median":38.896403},"longitude":{"max":-77.000413,"mean":-77.0242714069768,"variance":0.0001138138024324,"stdev":0.0106683551887065,"min":-77.063976,"median":-77.028184}},"features":[{"properties":{"city":"Washington","name":"Alexander MITCHELL of WI","latitude":38.900542,"hotel":"Wormley's Hotel","region":"Midwest","street":"809 15th St NW","longitude":-77.033468,"id":"a64eyg56p6gj","state":"DC","party":"Democrat"},"type":"Feature","geometry":{"type":"Point","coordinates":[-77.033468,38.900542]}},{"properties":{"city":"Washington","name":"Alexander Stuart McDILL of WI","latitude":38.892638,"hotel":"National Hotel","region":"Midwest","street":"600 Pennsylvania Ave. NW","longitude":-77.020077,"id":"a64eyfrenv6k","state":"DC","party":"Republican"},"type":"Feature","geometry":{"type":"Point","coordinates":[-77.020077,38.892638]}},{"properties":{"city":"Washington","name":"Aylett Rains COTTON of IA","latitude":38.893728,"hotel":null,"region":"Midwest","street":"321 C St. NW","longitude":-77.015928,"id":"a64eyg1dxst6","state":"DC","party":"Republican"},"type":"Feature","geometry":{"type":"Point","coordinates":[-77.015928,38.893728]}},{"properties":{"city":"Washington","name":"Charles Augustus ELDREDGE of WI","latitude":38.897478,"hotel":null,"region":"Midwest","street":"607 13th St. NW","longitude":-77.02948,"id":"a64eyfsbpx3x","state":"DC","party":"Democrat"},"type":"Feature","geometry":{"type":"Point","coordinates":[-77.02948,38.897478]}},{"properties":{"city":"Washington","name":"Charles Benjamin FARWELL of IL","latitude":38.900305,"hotel":null,"region":"Midwest","street":"810 12th St. NW","longitude":-77.028184,"id":"a64eyg2rhbw6","state":"DC","party":"Republican"},"type":"Feature","geometry":{"type":"Point","coordinates":[-77.028184,38.900305]}},{"properties":{"city":"Washington","name":"Charles FOSTER of OH","latitude":38.897433,"hotel":null,"region":"Midwest","street":"601 13th St. NW","longitude":-77.029517,"id":"a64eyfyjf93g","state":"DC","party":"Republican"},"type":"Feature","geometry":{"type":"Point","coordinates":[-77.029517,38.897433]}},{"properties":{"city":"Washington","name":"Charles Grandison WILLIAMS of WI","latitude":38.897463,"hotel":null,"region":"Midwest","street":"605 13th St. NW","longitude":-77.029493,"id":"a64eyfvghwhb","state":"DC","party":"Republican"},"type":"Feature","geometry":{"type":"Point","coordinates":[-77.029493,38.897463]}},{"properties":{"city":"Washington","name":"Charles Nelson LAMISON of OH","latitude":38.896264,"hotel":"Willard's Hotel","region":"Midwest","street":"1401 Pennsylvania Ave. NW","longitude":-77.032066,"id":"a64eyfwrdlrj","state":"DC","party":"Democrat"},"type":"Feature","geometry":{"type":"Point","coordinates":[-77.032066,38.896264]}},{"properties":{"city":"Washington","name":"David Perley LOWE of KS","latitude":38.896264,"hotel":"Willard's Hotel","region":"Midwest","street":"1401 Pennsylvania Ave. NW","longitude":-77.032066,"id":"a64eyfz83rbb","state":"DC","party":"Republican"},"type":"Feature","geometry":{"type":"Point","coordinates":[-77.032066,38.896264]}},{"properties":{"city":"Washington","name":"Franklin CORWIN of IL","latitude":38.891043,"hotel":"Washington House","region":"Midwest","street":"100 3rd St. NW","longitude":-77.002137,"id":"a64eyg59by7i","state":"DC","party":"Republican"},"type":"Feature","geometry":{"type":"Point","coordinates":[-77.002137,38.891043]}},{"properties":{"city":"Washington","name":"George Washington McCRARY of IA","latitude":38.894809,"hotel":null,"region":"Midwest","street":"207 D St. NW","longitude":-77.014055,"id":"a64eyfwg70ei","state":"DC","party":"Republican"},"type":"Feature","geometry":{"type":"Point","coordinates":[-77.014055,38.894809]}},{"properties":{"city":"Washington","name":"George WILLARD of MI","latitude":38.892638,"hotel":"National Hotel","region":"Midwest","street":"600 Pennsylvania Ave. NW","longitude":-77.020077,"id":"a64eyfttm4gw","state":"DC","party":"Republican"},"type":"Feature","geometry":{"type":"Point","coordinates":[-77.020077,38.892638]}},{"properties":{"city":"Washington","name":"Gerry Whiting HAZELTON of WI","latitude":38.892638,"hotel":"National Hotel","region":"Midwest","street":"600 Pennsylvania Ave. NW","longitude":-77.020077,"id":"a64eyg0ae4be","state":"DC","party":"Republican"},"type":"Feature","geometry":{"type":"Point","coordinates":[-77.020077,38.892638]}},{"properties":{"city":"Washington","name":"Godlove Stein ORTH of IN","latitude":38.901236,"hotel":null,"region":"Midwest","street":"1340 I St. NW","longitude":-77.030447,"id":"a64eyfrvs3k2","state":"DC","party":"Republican"},"type":"Feature","geometry":{"type":"Point","coordinates":[-77.030447,38.901236]}},{"properties":{"city":"Washington","name":"Granville BARRERE of IL","latitude":38.894286,"hotel":null,"region":"Midwest","street":"326 4th St. NW","longitude":-77.000764,"id":"a64eyg0j3h2w","state":"DC","party":"Republican"},"type":"Feature","geometry":{"type":"Point","coordinates":[-77.000764,38.894286]}},{"properties":{"city":"Washington","name":"Greenbury Lafayette FORT of IL","latitude":38.896264,"hotel":"Willard's Hotel","region":"Midwest","street":"1401 Pennsylvania Ave. NW","longitude":-77.032066,"id":"a64eyfxoj4wf","state":"DC","party":"Republican"},"type":"Feature","geometry":{"type":"Point","coordinates":[-77.032066,38.896264]}},{"properties":{"city":"Washington","name":"Henry Benton SAYLER of IN","latitude":38.89746,"hotel":null,"region":"Midwest","street":"1327 F St. NW","longitude":-77.030346,"id":"a64eyfwf3xci","state":"DC","party":"Republican"},"type":"Feature","geometry":{"type":"Point","coordinates":[-77.030346,38.89746]}},{"properties":{"city":"Washington","name":"Henry Blackstone BANNING of OH","latitude":38.897493,"hotel":null,"region":"Midwest","street":"609 13th St. NW","longitude":-77.029468,"id":"a64eyg3yp9r0","state":"DC","party":"Democrat"},"type":"Feature","geometry":{"type":"Point","coordinates":[-77.029468,38.897493]}},{"properties":{"city":"Washington","name":"Henry Otis PRATT of IA","latitude":38.892638,"hotel":"National Hotel","region":"Midwest","street":"600 Pennsylvania Ave. NW","longitude":-77.020077,"id":"a64eyg1lovk0","state":"DC","party":"Republican"},"type":"Feature","geometry":{"type":"Point","coordinates":[-77.020077,38.892638]}},{"properties":{"city":"Washington","name":"Henry WALDRON of MI","latitude":38.892638,"hotel":"National Hotel","region":"Midwest","street":"600 Pennsylvania Ave. NW","longitude":-77.020077,"id":"a64eyg30mt22","state":"DC","party":"Republican"},"type":"Feature","geometry":{"type":"Point","coordinates":[-77.020077,38.892638]}},{"properties":{"city":"Washington","name":"Hezekiah Sanford BUNDY of OH","latitude":38.895389,"hotel":null,"region":"Midwest","street":"1416 Pennsylvania Ave. NW","longitude":-77.032243,"id":"a64eyfqm6tqq","state":"DC","party":"Republican"},"type":"Feature","geometry":{"type":"Point","coordinates":[-77.032243,38.895389]}},{"properties":{"city":"Washington","name":"Horace Burton STRAIT of MN","latitude":38.896299,"hotel":null,"region":"Midwest","street":"1011 E St. NW","longitude":-77.026215,"id":"a64eyfzu75x5","state":"DC","party":"Republican"},"type":"Feature","geometry":{"type":"Point","coordinates":[-77.026215,38.896299]}},{"properties":{"city":"Washington","name":"Horatio Chapin BURCHARD of IL","latitude":38.902688,"hotel":"Hamilton House","region":"Midwest","street":"1001 14th St. NW","longitude":-77.031891,"id":"a64eyg2r7bn5","state":"DC","party":"Republican"},"type":"Feature","geometry":{"type":"Point","coordinates":[-77.031891,38.902688]}},{"properties":{"city":"Washington","name":"Hugh Judge JEWETT of OH","latitude":38.900542,"hotel":"Wormley's Hotel","region":"Midwest","street":"809 15th St NW","longitude":-77.033468,"id":"a64eyfqx1rcl","state":"DC","party":"Democrat"},"type":"Feature","geometry":{"type":"Point","coordinates":[-77.033468,38.900542]}},{"properties":{"city":"Washington","name":"Isaac CLEMENTS of IL","latitude":38.898161,"hotel":null,"region":"Midwest","street":"1114 G St. NW","longitude":-77.027261,"id":"a64eyg2k2gs6","state":"DC","party":"Republican"},"type":"Feature","geometry":{"type":"Point","coordinates":[-77.027261,38.898161]}},{"properties":{"city":"Washington","name":"Isaac R. SHERWOOD of OH","latitude":38.897472,"hotel":null,"region":"Midwest","street":"1225 F St. NW","longitude":-77.028515,"id":"a64eyfxw5edg","state":"DC","party":"Republican"},"type":"Feature","geometry":{"type":"Point","coordinates":[-77.028515,38.897472]}},{"properties":{"city":"Washington","name":"Jackson ORR of IA","latitude":38.897458,"hotel":"Ebbitt House","region":"Midwest","street":"1345 F St NW","longitude":-77.030686,"id":"a64eyfzym5bs","state":"DC","party":"Republican"},"type":"Feature","geometry":{"type":"Point","coordinates":[-77.030686,38.897458]}},{"properties":{"city":"Washington","name":"James Abram GARFIELD of OH","latitude":38.901445,"hotel":null,"region":"Midwest","street":"1227 I St. NW","longitude":-77.028557,"id":"a64eyg2linzb","state":"DC","party":"Republican"},"type":"Feature","geometry":{"type":"Point","coordinates":[-77.028557,38.901445]}},{"properties":{"city":"Washington","name":"James Carroll ROBINSON of IL","latitude":38.893007,"hotel":"Metropolitan Hotel","region":"Midwest","street":"601 Pennsylvania Ave. NW","longitude":-77.020076,"id":"a64eyfwcgf4g","state":"DC","party":"Democrat"},"type":"Feature","geometry":{"type":"Point","coordinates":[-77.020076,38.893007]}},{"properties":{"city":"Washington","name":"James MONROE of OH","latitude":38.900376,"hotel":null,"region":"Midwest","street":"813 12th St. NW","longitude":-77.027914,"id":"a64eyg0fsjh5","state":"DC","party":"Republican"},"type":"Feature","geometry":{"type":"Point","coordinates":[-77.027914,38.900376]}},{"properties":{"city":"Washington","name":"James Noble TYNER of IN","latitude":38.897458,"hotel":"Ebbitt House","region":"Midwest","street":"1345 F St NW","longitude":-77.030686,"id":"a64eyg11mgt2","state":"DC","party":"Republican"},"type":"Feature","geometry":{"type":"Point","coordinates":[-77.030686,38.897458]}},{"properties":{"city":"Washington","name":"James Stewart MARTIN of IL","latitude":38.897493,"hotel":null,"region":"Midwest","street":"609 13th St. NW","longitude":-77.029468,"id":"a64eyg2425xz","state":"DC","party":"Republican"},"type":"Feature","geometry":{"type":"Point","coordinates":[-77.029468,38.897493]}},{"properties":{"city":"Washington","name":"James Wallace ROBINSON of OH","latitude":38.897458,"hotel":"Ebbitt House","region":"Midwest","street":"1345 F St NW","longitude":-77.030686,"id":"a64eyfzj16j1","state":"DC","party":"Republican"},"type":"Feature","geometry":{"type":"Point","coordinates":[-77.030686,38.897458]}},{"properties":{"city":"Washington","name":"James Wilson McDILL of IA","latitude":38.898708,"hotel":null,"region":"Midwest","street":"713 14th St. NW","longitude":-77.031834,"id":"a64eyg1vrdqq","state":"DC","party":"Republican"},"type":"Feature","geometry":{"type":"Point","coordinates":[-77.031834,38.898708]}},{"properties":{"city":"Washington","name":"James WILSON of IA","latitude":38.892312,"hotel":"St. James Hotel","region":"Midwest","street":"401 Constitution Ave. NW","longitude":-77.018672,"id":"a64eyfxsrva2","state":"DC","party":"Republican"},"type":"Feature","geometry":{"type":"Point","coordinates":[-77.018672,38.892312]}},{"properties":{"city":"Washington","name":"Jasper Delos WARD of IL","latitude":38.900446,"hotel":null,"region":"Midwest","street":"814 12th St.","longitude":-77.028184,"id":"a64eyfrqftpi","state":"DC","party":"Republican"},"type":"Feature","geometry":{"type":"Point","coordinates":[-77.028184,38.900446]}},{"properties":{"city":"Washington","name":"Jasper PACKARD of IN","latitude":38.88867,"hotel":null,"region":"Midwest","street":"203 A St., SE","longitude":-77.002019,"id":"a64eyfspfv6j","state":"DC","party":"Republican"},"type":"Feature","geometry":{"type":"Point","coordinates":[-77.002019,38.88867]}},{"properties":{"city":"Washington","name":"Jay Abel HUBBELL of MI","latitude":38.88867,"hotel":null,"region":"Midwest","street":"215 A St. SE","longitude":-77.002019,"id":"a64eyg0dj9wr","state":"DC","party":"Republican"},"type":"Feature","geometry":{"type":"Point","coordinates":[-77.002019,38.88867]}},{"properties":{"city":"Washington","name":"Jeremiah McLain RUSK of WI","latitude":38.897458,"hotel":"Ebbitt House","region":"Midwest","street":"1345 F St NW","longitude":-77.030686,"id":"a64eyfqark0m","state":"DC","party":"Republican"},"type":"Feature","geometry":{"type":"Point","coordinates":[-77.030686,38.897458]}},{"properties":{"city":"Washington","name":"Jeremiah Morrow WILSON of IN","latitude":38.897458,"hotel":"Ebbitt House","region":"Midwest","street":"1345 F St NW","longitude":-77.030686,"id":"a64eyfzm1rrt","state":"DC","party":"Republican"},"type":"Feature","geometry":{"type":"Point","coordinates":[-77.030686,38.897458]}},{"properties":{"city":"Washington","name":"Joel Allen BARBER of WI","latitude":38.891043,"hotel":"Washington House","region":"Midwest","street":"100 3rd St. NW","longitude":-77.002137,"id":"a64eyg2wb3vj","state":"DC","party":"Republican"},"type":"Feature","geometry":{"type":"Point","coordinates":[-77.002137,38.891043]}},{"properties":{"city":"Washington","name":"John Adam KASSON of IA","latitude":38.89815,"hotel":null,"region":"Midwest","street":"1406 G St. NW","longitude":-77.032237,"id":"a64eyfzujdok","state":"DC","party":"Republican"},"type":"Feature","geometry":{"type":"Point","coordinates":[-77.032237,38.89815]}},{"properties":{"city":"Washington","name":"John Baldwin HAWLEY of IL","latitude":38.894998,"hotel":null,"region":"Midwest","street":"410 6th St. NW","longitude":-77.020076,"id":"a64eyfwb0idq","state":"DC","party":"Republican"},"type":"Feature","geometry":{"type":"Point","coordinates":[-77.020076,38.894998]}},{"properties":{"city":"Washington","name":"John BERRY of OH","latitude":38.893007,"hotel":"Metropolitan Hotel","region":"Midwest","street":"601 Pennsylvania Ave. NW","longitude":-77.020076,"id":"a64eyfrdyhwa","state":"DC","party":"Democrat"},"type":"Feature","geometry":{"type":"Point","coordinates":[-77.020076,38.893007]}},{"properties":{"city":"Washington","name":"John Blake RICE of IL","latitude":38.897458,"hotel":"Ebbitt House","region":"Midwest","street":"1345 F St NW","longitude":-77.030686,"id":"a64eyg3gdftd","state":"DC","party":"Republican"},"type":"Feature","geometry":{"type":"Point","coordinates":[-77.030686,38.897458]}},{"properties":{"city":"Washington","name":"John McNULTA of IL","latitude":38.898161,"hotel":null,"region":"Midwest","street":"1114 G St. NW","longitude":-77.027261,"id":"a64eyfr2urbo","state":"DC","party":"Republican"},"type":"Feature","geometry":{"type":"Point","coordinates":[-77.027261,38.898161]}},{"properties":{"city":"Washington","name":"John Peter Cleaver SHANKS of IN","latitude":38.885776,"hotel":null,"region":"Midwest","street":"315 New Jersey Ave. SE","longitude":-77.007688,"id":"a64eyfqohxy2","state":"DC","party":"Republican"},"type":"Feature","geometry":{"type":"Point","coordinates":[-77.007688,38.885776]}},{"properties":{"city":"Washington","name":"John Quincy SMITH of OH","latitude":38.897458,"hotel":"Ebbitt House","region":"Midwest","street":"1345 F St NW","longitude":-77.030686,"id":"a64eyfxze45w","state":"DC","party":"Republican"},"type":"Feature","geometry":{"type":"Point","coordinates":[-77.030686,38.897458]}},{"properties":{"city":"Washington","name":"John Thomas AVERILL of MN","latitude":38.892638,"hotel":"National Hotel","region":"Midwest","street":"600 Pennsylvania Ave. NW","longitude":-77.020077,"id":"a64eyfs6d7ok","state":"DC","party":"Republican"},"type":"Feature","geometry":{"type":"Point","coordinates":[-77.020077,38.892638]}},{"properties":{"city":"Washington","name":"Joseph Gurney CANNON of IL","latitude":38.892638,"hotel":"National Hotel","region":"Midwest","street":"600 Pennsylvania Ave. NW","longitude":-77.020077,"id":"a64eyfyhkzii","state":"DC","party":"Republican"},"type":"Feature","geometry":{"type":"Point","coordinates":[-77.020077,38.892638]}},{"properties":{"city":"Washington","name":"Josiah Williams BEGOLE of MI","latitude":38.892638,"hotel":"National Hotel","region":"Midwest","street":"600 Pennsylvania Ave. NW","longitude":-77.020077,"id":"a64eyg3kv1y7","state":"DC","party":"Republican"},"type":"Feature","geometry":{"type":"Point","coordinates":[-77.020077,38.892638]}},{"properties":{"city":"Washington","name":"Julius Caesar BURROWS of MI","latitude":38.896403,"hotel":null,"region":"Midwest","street":"514 13th St. NW","longitude":-77.02978,"id":"a64eyfsasqou","state":"DC","party":"Republican"},"type":"Feature","geometry":{"type":"Point","coordinates":[-77.02978,38.896403]}},{"properties":{"city":"Washington","name":"Laurin Dewey WOODWORTH of OH","latitude":38.897162,"hotel":null,"region":"Midwest","street":"644 F St. NW","longitude":-77.020826,"id":"a64eyg0uuyz3","state":"DC","party":"Republican"},"type":"Feature","geometry":{"type":"Point","coordinates":[-77.020826,38.897162]}},{"properties":{"city":"Washington","name":"Lawrence Talbot NEAL of OH","latitude":38.897509,"hotel":null,"region":"Midwest","street":"611 13th St. NW","longitude":-77.029464,"id":"a64eyg07b37r","state":"DC","party":"Democrat"},"type":"Feature","geometry":{"type":"Point","coordinates":[-77.029464,38.897509]}},{"properties":{"city":"Washington","name":"Lewis B. GUNCKEL of OH","latitude":38.896264,"hotel":"Willard's Hotel","region":"Midwest","street":"1401 Pennsylvania Ave. NW","longitude":-77.032066,"id":"a64eyg5cwxwt","state":"DC","party":"Republican"},"type":"Feature","geometry":{"type":"Point","coordinates":[-77.032066,38.896264]}},{"properties":{"city":"Washington","name":"Lorenzo CROUNSE of NE","latitude":38.892638,"hotel":"National Hotel","region":"Midwest","street":"600 Pennsylvania Ave. NW","longitude":-77.020077,"id":"a64eyg2bpps9","state":"DC","party":"Republican"},"type":"Feature","geometry":{"type":"Point","coordinates":[-77.020077,38.892638]}},{"properties":{"city":"Washington","name":"Lorenzo DANFORD of OH","latitude":38.896252,"hotel":"Imperial Hotel","region":"Midwest","street":"1331 Pennsylvania Ave. NW","longitude":-77.030426,"id":"a64eyg5tggs1","state":"DC","party":"Republican"},"type":"Feature","geometry":{"type":"Point","coordinates":[-77.030426,38.896252]}},{"properties":{"city":"Washington","name":"Mark Hill DUNNELL of MN","latitude":38.892312,"hotel":"St. James Hotel","region":"Midwest","street":"401 Constitution Ave. NW","longitude":-77.018672,"id":"a64eyfq6tbpi","state":"DC","party":"Republican"},"type":"Feature","geometry":{"type":"Point","coordinates":[-77.018672,38.892312]}},{"properties":{"city":"Washington","name":"Milton Isaiah SOUTHARD of OH","latitude":38.897458,"hotel":"Ebbitt House","region":"Midwest","street":"1345 F St NW","longitude":-77.030686,"id":"a64eyfv6s99v","state":"DC","party":"Democrat"},"type":"Feature","geometry":{"type":"Point","coordinates":[-77.030686,38.897458]}},{"properties":{"city":"Washington","name":"Milton SAYLER of OH","latitude":38.90046,"hotel":"The Arlington","region":"Midwest","street":"810 Vermont Ave. NW","longitude":-77.035152,"id":"a64eyg1xl1xz","state":"DC","party":"Democrat"},"type":"Feature","geometry":{"type":"Point","coordinates":[-77.035152,38.90046]}},{"properties":{"city":"Washington","name":"Morton Craig HUNTER of IN","latitude":38.902688,"hotel":"Hamilton House","region":"Midwest","street":"1001 14th St. NW","longitude":-77.031891,"id":"a64eyfwnnsbh","state":"DC","party":"Republican"},"type":"Feature","geometry":{"type":"Point","coordinates":[-77.031891,38.902688]}},{"properties":{"city":"Washington","name":"Moses Whelock FIELD of MI","latitude":38.901497,"hotel":null,"region":"Midwest","street":"2001 I St. NW","longitude":-77.045108,"id":"a64eyg4vwtyb","state":"DC","party":"Republican"},"type":"Feature","geometry":{"type":"Point","coordinates":[-77.045108,38.901497]}},{"properties":{"city":"Washington","name":"Nathan Ball BRADLEY of MI","latitude":38.893458,"hotel":null,"region":"Midwest","street":"316 C St. NW","longitude":-77.015879,"id":"a64eyfzcjx27","state":"DC","party":"Republican"},"type":"Feature","geometry":{"type":"Point","coordinates":[-77.015879,38.893458]}},{"properties":{"city":"Washington","name":"Omar Dwight CONGER of MI","latitude":38.892638,"hotel":"National Hotel","region":"Midwest","street":"600 Pennsylvania Ave. NW","longitude":-77.020077,"id":"a64eyg5loqeo","state":"DC","party":"Republican"},"type":"Feature","geometry":{"type":"Point","coordinates":[-77.020077,38.892638]}},{"properties":{"city":"Washington","name":"Philetus SAWYER of WI","latitude":38.901188,"hotel":null,"region":"Midwest","street":"1424 I St. NW","longitude":-77.032457,"id":"a64eyfx8chj9","state":"DC","party":"Republican"},"type":"Feature","geometry":{"type":"Point","coordinates":[-77.032457,38.901188]}},{"properties":{"city":"Washington","name":"Richard Chappel PARSONS of OH","latitude":38.90046,"hotel":"The Arlington","region":"Midwest","street":"810 Vermont Ave. NW","longitude":-77.035152,"id":"a64eyfz9n8jc","state":"DC","party":"Republican"},"type":"Feature","geometry":{"type":"Point","coordinates":[-77.035152,38.90046]}},{"properties":{"city":"Washington","name":"Robert McCarty KNAPP of IL","latitude":38.893007,"hotel":"Metropolitan Hotel","region":"Midwest","street":"601 Pennsylvania Ave. NW","longitude":-77.020076,"id":"a64eyg2obqp9","state":"DC","party":"Democrat"},"type":"Feature","geometry":{"type":"Point","coordinates":[-77.020076,38.893007]}},{"properties":{"city":"Washington","name":"Samuel Scott MARSHALL of IL","latitude":38.893007,"hotel":"Metropolitan Hotel","region":"Midwest","street":"601 Pennsylvania Ave. NW","longitude":-77.020076,"id":"a64eyft10ydh","state":"DC","party":"Democrat"},"type":"Feature","geometry":{"type":"Point","coordinates":[-77.020076,38.893007]}},{"properties":{"city":"Washington","name":"Samuel Sullivan COX of OH","latitude":38.90046,"hotel":"The Arlington","region":"Midwest","street":"810 Vermont Ave. NW","longitude":-77.035152,"id":"a64eyfwd9ogh","state":"DC","party":"Democrat"},"type":"Feature","geometry":{"type":"Point","coordinates":[-77.035152,38.90046]}},{"properties":{"city":"Washington","name":"Simeon Kalfius WOLFE of IN","latitude":38.898107,"hotel":null,"region":"Midwest","street":"1222 G St. NW","longitude":-77.028504,"id":"a64eyfsl12oe","state":"DC","party":"Democrat"},"type":"Feature","geometry":{"type":"Point","coordinates":[-77.028504,38.898107]}},{"properties":{"city":"Washington","name":"Stephen Alonzo COBB of KS","latitude":38.892354,"hotel":null,"region":"Midwest","street":"229 4th St. NW","longitude":-77.000413,"id":"a64eyfuhugqd","state":"DC","party":"Republican"},"type":"Feature","geometry":{"type":"Point","coordinates":[-77.000413,38.892354]}},{"properties":{"city":"Washington","name":"Stephen Augustus HURLBUT of IL","latitude":38.900305,"hotel":null,"region":"Midwest","street":"811 12th St. NW","longitude":-77.027914,"id":"a64eyfxje6m8","state":"DC","party":"Republican"},"type":"Feature","geometry":{"type":"Point","coordinates":[-77.027914,38.900305]}},{"properties":{"city":"Washington","name":"Thomas Jefferson CASON of IN","latitude":38.891047,"hotel":null,"region":"Midwest","street":"242 A St. NE","longitude":-77.002955,"id":"a64eyfvdotb5","state":"DC","party":"Republican"},"type":"Feature","geometry":{"type":"Point","coordinates":[-77.002955,38.891047]}},{"properties":{"city":"Washington","name":"Wilder De Ayr FOSTER of MI","latitude":38.897458,"hotel":"Ebbitt House","region":"Midwest","street":"1345 F St NW","longitude":-77.030686,"id":"a64eyfuiqk97","state":"DC","party":"Republican"},"type":"Feature","geometry":{"type":"Point","coordinates":[-77.030686,38.897458]}},{"properties":{"city":"Washington","name":"William Addison PHILLIPS of KS","latitude":38.899667,"hotel":null,"region":"Midwest","street":"1330 New York Ave. NW","longitude":-77.030798,"id":"a64eyfqryl5s","state":"DC","party":"Republican"},"type":"Feature","geometry":{"type":"Point","coordinates":[-77.030798,38.899667]}},{"properties":{"city":"Washington","name":"William Brewster WILLIAMS of MI","latitude":38.892638,"hotel":"National Hotel","region":"Midwest","street":"600 Pennsylvania Ave. NW","longitude":-77.020077,"id":"a64eyfy410b8","state":"DC","party":"Republican"},"type":"Feature","geometry":{"type":"Point","coordinates":[-77.020077,38.892638]}},{"properties":{"city":"Washington","name":"William Edward FINCK of OH","latitude":38.893007,"hotel":"Metropolitan Hotel","region":"Midwest","street":"601 Pennsylvania Ave. NW","longitude":-77.020076,"id":"a64eyfrwthj3","state":"DC","party":"Democrat"},"type":"Feature","geometry":{"type":"Point","coordinates":[-77.020076,38.893007]}},{"properties":{"city":"Washington","name":"William Ellis NIBLACK of IN","latitude":38.907986,"hotel":null,"region":"Midwest","street":"3207 O St. NW","longitude":-77.063976,"id":"a64eyfr611a5","state":"DC","party":"Democrat"},"type":"Feature","geometry":{"type":"Point","coordinates":[-77.063976,38.907986]}},{"properties":{"city":"Washington","name":"William G. DONNAN of IA","latitude":38.892017,"hotel":null,"region":"Midwest","street":"300 Constitution Ave. NW","longitude":-77.01531,"id":"a64eyg5jmi19","state":"DC","party":"Republican"},"type":"Feature","geometry":{"type":"Point","coordinates":[-77.01531,38.892017]}},{"properties":{"city":"Washington","name":"William Henry RAY of IL","latitude":38.900446,"hotel":null,"region":"Midwest","street":"814 12th St. NW","longitude":-77.028184,"id":"a64eyg30w5ig","state":"DC","party":"Republican"},"type":"Feature","geometry":{"type":"Point","coordinates":[-77.028184,38.900446]}},{"properties":{"city":"Washington","name":"William LAWRENCE of OH","latitude":38.891043,"hotel":"Washington House","region":"Midwest","street":"100 3rd St. NW","longitude":-77.002137,"id":"a64eyfwcw8nn","state":"DC","party":"Republican"},"type":"Feature","geometry":{"type":"Point","coordinates":[-77.002137,38.891043]}},{"properties":{"city":"Washington","name":"William LOUGHRIDGE of IA","latitude":38.895059,"hotel":null,"region":"Midwest","street":"417 6th St. NW","longitude":-77.019729,"id":"a64eyfr02sho","state":"DC","party":"Republican"},"type":"Feature","geometry":{"type":"Point","coordinates":[-77.019729,38.895059]}},{"properties":{"city":"Washington","name":"William Peter SPRAGUE of OH","latitude":38.892638,"hotel":"National Hotel","region":"Midwest","street":"600 Pennsylvania Ave. NW","longitude":-77.020077,"id":"a64eyfq5qyew","state":"DC","party":"Republican"},"type":"Feature","geometry":{"type":"Point","coordinates":[-77.020077,38.892638]}},{"properties":{"city":"Washington","name":"William Ralls MORRISON of IL","latitude":38.896264,"hotel":"Willard's Hotel","region":"Midwest","street":"1401 Pennsylvania Ave. NW","longitude":-77.032066,"id":"a64eyg2e388y","state":"DC","party":"Democrat"},"type":"Feature","geometry":{"type":"Point","coordinates":[-77.032066,38.896264]}},{"properties":{"city":"Washington","name":"William Steele HOLMAN of IN","latitude":38.958211,"hotel":null,"region":"Midwest","street":"314 Madison Dr. NW","longitude":-77.016689,"id":"a64eyg180hfi","state":"DC","party":"Democrat"},"type":"Feature","geometry":{"type":"Point","coordinates":[-77.016689,38.958211]}},{"properties":{"city":"Washington","name":"William WILLIAMS of IN","latitude":38.88867,"hotel":null,"region":"Midwest","street":"200 A St. SE","longitude":-77.002019,"id":"a64eyg2e4go8","state":"DC","party":"Republican"},"type":"Feature","geometry":{"type":"Point","coordinates":[-77.002019,38.88867]}}],"is_temporal":false,"author":{"url":"","metadata":"","contact_name":"","contact_address":"","source":"Congres","contact_phone":""},"source":"","pagination":{"sort":null,"start":0,"total":86,"limit":1000000},"state":"complete","tags":"","published":"2011-04-25T14:33:30Z","id":110561}