{"type":"FeatureCollection","data_type":"Dataset","url_type":null,"permissions":[{"permissions":{"download":true,"view":true},"group_id":"everyone"}],"classification":null,"title":"CleanerCSV","count":68,"stream_id":110921,"contributor":{"url":"http://geocommons.com/users/6032","name":"jordanengel"},"data_attributes":null,"calculation_params":null,"icon_link":null,"link":"http://geocommons.com/overlays/110921.json","extent":[-123.035,30.4213,-72.2106,48.6091],"geometry_types":["point"],"unique_name":null,"name":"CleanerCSV","feature_count":68,"description":"","next_feature":null,"is_raster":false,"short_classification":"Y","stats":{},"features":[{"properties":{"city":"Goodyear","name":"Suntech","zipcode":"85338","url":"www.suntech-power.com","geo_score":0.857,"date of opening":"October, 2010","information":"New Initial 30MW capacity of Production with a potential of 50 MW of Production and the employment of 150 people by the end of 2011.","id":"a6ea8armityk","group":"PV","geo_precision":"city","state":"Arizona"},"type":"Feature","geometry":{"type":"Point","coordinates":[-112.18717,33.276539]}},{"properties":{"city":"Princeton","name":"Princeton Power Systems","zipcode":"08542","url":"www.princetonpower.com","geo_score":0.806,"date of opening":"January, 2011","information":"The production capability for inverters is now over 12 megawatts (MW) annually, and will reach over 40 MW in 2012.","id":"a6ea8apyxpe5","group":"Inverter","geo_precision":"city","state":"New Jersey"},"type":"Feature","geometry":{"type":"Point","coordinates":[-74.64795,40.363882]}},{"properties":{"city":"Sacramento","name":"Conergy","zipcode":"94203","url":"www.conergy.us","geo_score":0.857,"date of opening":"January, 2011","information":"A 100 megawatt, ?5 million production site for solar mounting systems will accompany the Conergy production site in Frankfurt, Germany of 250MW.","id":"a6ea8anjf82f","group":"PV","geo_precision":"city","state":"California"},"type":"Feature","geometry":{"type":"Point","coordinates":[-121.4944,38.581572]}},{"properties":{"city":"Norcross","name":"Suniva","zipcode":"30092","url":"www.suniva.com","geo_score":0.857,"date of opening":"November, 2008","information":"The new manufacturing plant expanded its production capacity to 170M from 96 MW by adding a third cell line at its metro-Atlanta plant.","id":"a6ea8adbnsup","group":"PV","geo_precision":"city","state":"Georgia"},"type":"Feature","geometry":{"type":"Point","coordinates":[-84.213531,33.941213]}},{"properties":{"city":"Blythewood","name":"AQT","zipcode":"29016","url":"www.aqtsolar.com","geo_score":0.857,"date of opening":"January, 2012","information":"The South Carolina factory will eventually produce 1 GW of CIGS PV solar panels by the end of 2014 and employ 1,000 people.","id":"a6ea8an0z7c8","group":"PV","geo_precision":"city","state":"South Carolina"},"type":"Feature","geometry":{"type":"Point","coordinates":[-80.918919,34.104758]}},{"properties":{"city":"Sunnyvale","name":"AQT","zipcode":"94085","url":"www.aqtsolar.com","geo_score":0.857,"date of opening":"August, 2010","information":"The factory is home to a current 15MW production plant of CIGS PV solar panels that will expand to a 30MW production facility by the end of 2011.","id":"a6ea8adsrmj4","group":"PV","geo_precision":"city","state":"California"},"type":"Feature","geometry":{"type":"Point","coordinates":[-122.03635,37.36883]}},{"properties":{"city":"Hattiesburg","name":"Stion","zipcode":"39401","url":"www.stion.com","geo_score":0.857,"date of opening":"*January, 2011","information":"Stion, a manufacturer of CIGS high-efficiency thin-film solar panels, will build a new 100MW production facility in Hattiesburg, Mississippi as part of an incentive agreement with the state that includes a $75 million dollar loan and other tax and training incentives.","id":"a6ea8afe373i","group":"PV","geo_precision":"city","state":"Mississippi"},"type":"Feature","geometry":{"type":"Point","coordinates":[-89.28071,31.245138]}},{"properties":{"city":"Dane County","name":"W Solar Group","zipcode":null,"url":"www.wsolar.com","geo_score":0.771,"date of opening":"2012","information":"The move of W Solar Group to Wisconsin will create 600 jobs and the project represents a capital investment of over $300 million. There exists an undisclosed manufacturing facility that will build CIGS thin-film solar cells starting in 2012.","id":"a6ea8apt205a","group":"PV","geo_precision":"city","state":"Wisconsin"},"type":"Feature","geometry":{"type":"Point","coordinates":[-89.523346,43.239966]}},{"properties":{"city":"San Diego","name":"Kyocera","zipcode":"92126","url":"www.global.kyocera.com/","geo_score":0.857,"date of opening":"June, 2010","information":"Kyocera plans to expand its photovoltaic cell output 2.5-fold to 1 million kilowatts in fiscal 2012.","id":"a6ea8aqty11i","group":"PV","geo_precision":"city","state":"California"},"type":"Feature","geometry":{"type":"Point","coordinates":[-117.157255,32.715329]}},{"properties":{"city":"Sacramento","name":"Solar Power Inc.","zipcode":"94203","url":"www.solarpowerinc.net","geo_score":0.857,"date of opening":"*January, 2011","information":"The facility will be 100,000 square feet with an annual production capacity of 50MW of Solar Power, Inc.'s PV panels.","id":"a6ea8aqdew3c","group":"PV","geo_precision":"city","state":"California"},"type":"Feature","geometry":{"type":"Point","coordinates":[-121.4944,38.581572]}},{"properties":{"city":"Clarksville","name":"Hemlock Semiconductor Corp.","zipcode":"37040","url":"www.hscpoly.com","geo_score":0.714,"date of opening":"2012","information":"The plant will cost $1.2 billion dollars and produce polysilicon, a raw material used to make solar cells and semiconductor devices.","id":"a6ea8alapvie","group":"Metal Manufacturing (MM)","geo_precision":"city","state":"Tennesee"},"type":"Feature","geometry":{"type":"Point","coordinates":[-87.893059,31.729047]}},{"properties":{"city":"Salem","name":"Sanyo","zipcode":"97301","url":"www.us.sanyo.com/Solar","geo_score":0.857,"date of opening":"April, 2010","information":"The plant will be producing silicon ingots and wafers and core materials to manufacture Sanyo?s patented HIT solar cells and modules. The plant plans to reach its full capacity of 70MW.","id":"a6ea8aduztft","group":"PV","geo_precision":"city","state":"Oregon"},"type":"Feature","geometry":{"type":"Point","coordinates":[-122.921721,44.90472]}},{"properties":{"city":"Rockford","name":"Wanxiang America Corporation","zipcode":"61107","url":"www.wanxiang-energy.com/","geo_score":0.857,"date of opening":"September, 2009","information":"A $2 million dollar project in two years will start out churning out 50,000 solar panels a year. The facility immediately generated 60 new jobs.","id":"a6ea8ap4a64j","group":"PV","geo_precision":"city","state":"Illinois"},"type":"Feature","geometry":{"type":"Point","coordinates":[-89.093995,42.271131]}},{"properties":{"city":"Albuquerque","name":"Schott Solar","zipcode":"87106","url":"www.schottsolar.com/us","geo_score":0.857,"date of opening":"May, 2009","information":"The current facility represents a $100M investment, employs 350 people, and at full capacity will produce 85MW of photovoltaic panels and 200MW of trough receiver tubes annually.","id":"a6ea8at4iq0v","group":"PV","geo_precision":"city","state":"New Mexico"},"type":"Feature","geometry":{"type":"Point","coordinates":[-106.651137,35.084491]}},{"properties":{"city":"Longmont","name":"Abound Solar","zipcode":"80501","url":"www.abound.com","geo_score":0.857,"date of opening":"April, 2009","information":"The fully automated facility will create more than 300 new jobs and, when at capacity, will produce 200MW of solar modules annually.","id":"a6ea8aj02fy9","group":"PV","geo_precision":"city","state":"Colorado"},"type":"Feature","geometry":{"type":"Point","coordinates":[-105.1633,40.165634]}},{"properties":{"city":"Perrysburg","name":"First Solar","zipcode":"43552","url":"www.firstsolar.com","geo_score":0.857,"date of opening":"March, 2010","information":"The expansion is expected to be completed in the second quarter of 2010 and will increase the annual capacity at the Perrysburg facility to approximately 192 megawatts.","id":"a6ea8ahjl8h1","group":"PV","geo_precision":"city","state":"Ohio"},"type":"Feature","geometry":{"type":"Point","coordinates":[-83.577701,41.535057]}},{"properties":{"city":"San Luis Obispo","name":"Optisolar","zipcode":"93401","url":"www.optisolar.com/company.htm","geo_score":0.736,"date of opening":"2011","information":"Optisolar and Sunpower Corp. entered into a contract  commitment that will deliver PV energy of around 1.65 billion kilowatt-hours of renewable energy annually. This would be equivalent to the amount of energy needed to serve approximately 239,000 residential homes each year.","id":"a6ea8as9tpwe","group":"PV","geo_precision":"city","state":"California"},"type":"Feature","geometry":{"type":"Point","coordinates":[-118.345664,37.400762]}},{"properties":{"city":"San Luis Obispo","name":"SunPower Corporation","zipcode":"93401","url":"www.sunpowercorp.com","geo_score":0.736,"date of opening":"2011","information":"Optisolar and Sunpower Corp. entered into a contract  commitment that will deliver PV energy of around 1.65 billion kilowatt-hours of renewable energy annually. This would be equivalent to the amount of energy needed to serve approximately 239,000 residential homes each year.","id":"a6ea8akl4k4h","group":"PV","geo_precision":"city","state":"California"},"type":"Feature","geometry":{"type":"Point","coordinates":[-118.345664,37.400762]}},{"properties":{"city":"Menomonee Falls","name":"ZBB Battery","zipcode":"53051","url":"www.zbbenergy.com","geo_score":0.735,"date of opening":"2011","information":"ZBB is using $1.3 million in Recovery Act funding through the Department of Energy's State Energy Program to help fund a $4.5 million factory renovation, allowing the company to triple their capacity to manufacture flow batteries and power systems.","id":"a6ea8aeod732","group":"AB","geo_precision":"city","state":"Wisconsin"},"type":"Feature","geometry":{"type":"Point","coordinates":[-89.234838,43.089719]}},{"properties":{"city":"Milwaukee","name":"Helios USA","zipcode":"53233","url":"www.helios-usa.com","geo_score":0.857,"date of opening":"March, 2011","information":"The facility is going to create approximately 50 new jobs. Also, the annual production capacity is currently 40MW. However, the company is preparing to ramp up to 120MW in terms of square footage and installed power supply.","id":"a6ea8afwbxue","group":"PV","geo_precision":"city","state":"Wisconsin"},"type":"Feature","geometry":{"type":"Point","coordinates":[-87.906474,43.038903]}},{"properties":{"city":"Crossett","name":"Pinnacle Biofuels Inc.","zipcode":"71635","url":"www.pinnaclebiofuels.com","geo_score":0.857,"date of opening":"May, 2008","information":"The new plant in Crossett now employs about 20 people and produces 28,000 to 30,000 gallons of biodiesel a day. Officials say the plant can produce up to 10 million gallons of biodiesel annually. The plant uses vegetable oils and animal fats to make the fuel.","id":"a6ea8antzqjq","group":"BF","geo_precision":"city","state":"Arkansas"},"type":"Feature","geometry":{"type":"Point","coordinates":[-91.806256,33.180855]}},{"properties":{"city":"Batesville","name":"Future Fuel Chemical Comp.","zipcode":"72501","url":"www.futurefuelcorporation.com","geo_score":0.814,"date of opening":"October, 2006","information":"Future Fuel operates the24MMgy biodiesel manufacturing facility with around 400 employees.","id":"a6ea8arybusy","group":"BF","geo_precision":"city","state":"Arkansas"},"type":"Feature","geometry":{"type":"Point","coordinates":[-90.383715,36.334229]}},{"properties":{"city":"Stuttgart","name":"Patriot BioFuels","zipcode":"72160","url":"?","geo_score":0.857,"date of opening":"April, 2006","information":"Patriot BioFuels has announced its intention to quadruple annual production of biodiesel to 13 million gallons per year, up from 3 million gallons with the addition of the new Stuttgart plant.","id":"a6ea8ad58pai","group":"BF","geo_precision":"city","state":"Arkansas"},"type":"Feature","geometry":{"type":"Point","coordinates":[-91.419955,34.387577]}},{"properties":{"city":"Burley","name":"Pacific Ethanol, Inc.","zipcode":"83318","url":"www.pacificethanol.net","geo_score":0.857,"date of opening":"April, 2008","information":"The Union Pacific Railroad will deliver 10 rail car loads of feedstock a week to the facility in Idaho which plans to produce 60 Mgy of ethanol.","id":"a6ea8aefbe25","group":"BF","geo_precision":"city","state":"Idaho"},"type":"Feature","geometry":{"type":"Point","coordinates":[-113.848558,42.399472]}},{"properties":{"city":"Hartley","name":"Valero","zipcode":"51346","url":"www.valero.com","geo_score":0.857,"date of opening":"August, 2008","information":"This ethanol facility uses a dry-grind production method to produce the alcohol in a 350-acre bio-refinery.","id":"a6ea8ajedp8t","group":"BF","geo_precision":"city","state":"Iowa"},"type":"Feature","geometry":{"type":"Point","coordinates":[-95.505959,43.154712]}},{"properties":{"city":"Albert City","name":"Valero","zipcode":"50510","url":"www.valero.com","geo_score":0.729,"date of opening":"December, 2006","information":"This facility produces ethanol using dry-grind production method in a 78-acre bio-refinery.","id":"a6ea8adsdol6","group":"BF","geo_precision":"city","state":"Iowa"},"type":"Feature","geometry":{"type":"Point","coordinates":[-92.161281,43.198027]}},{"properties":{"city":"Albion","name":"Valero","zipcode":"68620","url":"www.valero.com","geo_score":0.857,"date of opening":"October, 2007","information":"This facilty produces 110 million gallons of ethanol per year, processes enarly 40 million bushels of corn per year, and produces 350,000 tons of distiller grains.","id":"a6ea8aj44557","group":"BF","geo_precision":"city","state":"Nebraska"},"type":"Feature","geometry":{"type":"Point","coordinates":[-98.011092,41.648736]}},{"properties":{"city":"Aurora","name":"Valero","zipcode":"57002","url":"www.valero.com","geo_score":0.857,"date of opening":"November, 2003","information":"This facility produces standard ethanol using dry-grind production method in a 420-acre facility.","id":"a6ea8arfxwhn","group":"BF","geo_precision":"city","state":"South Dakota"},"type":"Feature","geometry":{"type":"Point","coordinates":[-96.667977,44.304195]}},{"properties":{"city":"Bloomingburg","name":"Valero","zipcode":"43106","url":"www.valero.com","geo_score":0.802,"date of opening":"March, 2008","information":"This facilty produces 110 million gallons of ethanol per year, processes enarly 40 million bushels of corn per year, and produces 350,000 tons of distiller grains.","id":"a6ea8alyksql","group":"BF","geo_precision":"city","state":"Ohio"},"type":"Feature","geometry":{"type":"Point","coordinates":[-82.716566,40.707836]}},{"properties":{"city":"Charles City","name":"Valero","zipcode":"50106","url":"www.valero.com","geo_score":0.74,"date of opening":"April, 2007","information":"This facility produces standard ethanol using dry-grind production method in a 225-acre facility.","id":"a6ea8aixeypa","group":"BF","geo_precision":"city","state":"Iowa"},"type":"Feature","geometry":{"type":"Point","coordinates":[-92.161281,43.198027]}},{"properties":{"city":"Fort Dodge","name":"Valero","zipcode":"50501","url":"www.valero.com","geo_score":0.857,"date of opening":"October, 2005","information":"This facility produces standard ethanol using dry-grind production method in a 270-acre facility.","id":"a6ea8ahohwux","group":"BF","geo_precision":"city","state":"Iowa"},"type":"Feature","geometry":{"type":"Point","coordinates":[-94.166587,42.438596]}},{"properties":{"city":"Jefferson","name":"Valero","zipcode":"53549","url":"www.valero.com","geo_score":0.79,"date of opening":"January, 2008","information":"This facility produces standard ethanol using dry-grind production method in a 344-acre facility.","id":"a6ea8ai8wmdx","group":"BF","geo_precision":"city","state":"Wisconsin"},"type":"Feature","geometry":{"type":"Point","coordinates":[-88.790105,43.036947]}},{"properties":{"city":"Linden","name":"Valero","zipcode":"47955","url":"www.valero.com","geo_score":0.81,"date of opening":"August, 2007","information":"This facilty on an 80-acre facility produces 110 million gallons of ethanol per year, processes enarly 40 million bushels of corn per year, and produces 350,000 tons of distiller grains.","id":"a6ea8aovsuy4","group":"BF","geo_precision":"city","state":"Indiana"},"type":"Feature","geometry":{"type":"Point","coordinates":[-85.920259,39.625602]}},{"properties":{"city":"Emmetsburg","name":"Voyager Ethanol","zipcode":"50536","url":"?","geo_score":0.857,"date of opening":"February, 2005","information":"Voyager Ethanol is expected to process approximately 21 million bushels of corn annually into 50 million gallons of ethanol per year.","id":"a6ea8anv2g3w","group":"BF","geo_precision":"city","state":"Iowa"},"type":"Feature","geometry":{"type":"Point","coordinates":[-94.690755,43.118345]}},{"properties":{"city":"Ellsworth","name":"Horizon Wind Energy","zipcode":"13682","url":"www.horizonwind.com","geo_score":0.857,"date of opening":"February, 2008","information":"The site produces enough power to power about 120,000 homes, or approximately 1.3 billion kilowatt hours annually.","id":"a6ea8aigz8si","group":"UW","geo_precision":"city","state":"Illinois"},"type":"Feature","geometry":{"type":"Point","coordinates":[-88.717168,40.44998]}},{"properties":{"city":"Coulter","name":"Alliant Energy","zipcode":"50431","url":"www.alliantenergy.com","geo_score":0.857,"date of opening":"2009","information":"Located in Franklin County, Iowa, the wind farm has a capacity of 200MW. It consists of 121 wind turbines spread out over roughly 140 square kilometres (54 sq mi).","id":"a6ea8advhal6","group":"UW","geo_precision":"city","state":"Iowa"},"type":"Feature","geometry":{"type":"Point","coordinates":[-93.369996,42.738164]}},{"properties":{"city":"Barber County","name":"BP","zipcode":null,"url":"www.bp.com","geo_score":0.726,"date of opening":"March, 2009","information":"BP Wind Energy?s 50 MW of the electrical power from the wind farm has been sold to Westar Energy under a long-term power purchase agreement and the remaining 50 MW are owned by Westar Energy. BP operates the full 100 MW.","id":"a6ea8ahslpgf","group":"UW","geo_precision":"city","state":"Kansas"},"type":"Feature","geometry":{"type":"Point","coordinates":[-97.112803,38.35418]}},{"properties":{"city":"Hawesville","name":"AMP &amp; Kenergy","zipcode":"42348","url":"www.amppartners.org &amp; www.kenergy.com","geo_score":0.857,"date of opening":"2014","information":"The 84-megawatt run-of-the-river project, called the Cannelton Hydroelectric Plant, will cost $419 million and will take four years to build","id":"a6ea8afn6t5h","group":"HP","geo_precision":"city","state":"Kentucky"},"type":"Feature","geometry":{"type":"Point","coordinates":[-86.782723,37.832151]}},{"properties":{"city":"Cobscock Bay","name":"Ocean Renewable Power Company","zipcode":null,"url":"www.oceanrenewablepower.com","geo_score":0.0,"date of opening":"Late 2011","information":"In late 2011, following FERC approval, ORPC will begin the Maine Tidal Energy Project by installing a commercial TidGen? Power System in Cobscook Bay.","id":"a6ea8ams80g9","group":"OT","geo_precision":"unmatched","state":"Maine"},"type":"Feature","geometry":null},{"properties":{"city":"Howard City","name":"Heat Transfer International","zipcode":"49329","url":"www.heatxfer.com","geo_score":0.798,"date of opening":"August, 2009","information":"The system at Sietsema Farm Feeds is capable of handling 4,000 to 5,000 pounds, or 35 tons, of turkey litter per day, although this type of system uses a fixed-bed gasifier and can handle nearly any type of biomass, as long as size and moisture content is previously configured.","id":"a6ea8ah00cx4","group":"BP","geo_precision":"city","state":"Michigan"},"type":"Feature","geometry":{"type":"Point","coordinates":[-85.718331,42.025045]}},{"properties":{"city":"Hastings","name":"Hydro Green Energy LLC","zipcode":"55033","url":"www.hgenergy.com","geo_score":0.857,"date of opening":"Spring, 2009","information":"Hydro Green Energy is installing a two-turbine Hydro+ project downstream from its 4.4MW run-of-river hydropower plant. Once the electrical systems are tested, the hydrokinetic turbine will send electricity to the Minnesota electric power grid.","id":"a6ea8aou14ef","group":"HP;FF","geo_precision":"city","state":"Minnesota"},"type":"Feature","geometry":{"type":"Point","coordinates":[-93.032909,44.737166]}},{"properties":{"city":"Wiggins","name":"Piney Woods Pellets LLC","zipcode":"39577","url":"www.pellets-wood.com","geo_score":0.857,"date of opening":"June, 2009","information":"The plant should produce 50,000 tons of pellets each year. The pellets will act as feedstock for alternative energy.","id":"a6ea8aicadc3","group":"BT","geo_precision":"city","state":"Mississippi"},"type":"Feature","geometry":{"type":"Point","coordinates":[-89.636741,32.70208]}},{"properties":{"city":"Ethridge","name":"NaturEner","zipcode":"59435","url":"www.naturener.net","geo_score":0.857,"date of opening":"November, 2008","information":"The giant wind turbines will supply 106.5 MW of wind energy at full production, employing a total of seventy-one 1.5 MW wind turbines.","id":"a6ea8asumc7g","group":"*UW","geo_precision":"city","state":"Montana"},"type":"Feature","geometry":{"type":"Point","coordinates":[-111.731852,48.609072]}},{"properties":{"city":"Elkhorn Ridge","name":"Edison Mission Group","zipcode":"68718","url":"www.edison.com/ourcompany/emg.asp","geo_score":0.798,"date of opening":"March, 2009","information":"The largest wind energy facility in the state, Elkhorn Ridge can generate up to 80 megawatts (MW) of power, enough energy on an annual basis to meet the needs of approximately 25,000 homes.","id":"a6ea8ahecebj","group":"*UW","geo_precision":"city","state":"Nebraska"},"type":"Feature","geometry":{"type":"Point","coordinates":[-96.238818,41.288631]}},{"properties":{"city":"Lempster","name":"Iberdrola Renewables","zipcode":"03605","url":"www.iberdrolarenewables.us","geo_score":0.857,"date of opening":"?","information":"The project?s 12 wind turbines span 1,500-acres and generate 24MW of electricity annually to power around 10,000 New Hampshire homes.","id":"a6ea8agbtn1k","group":"*CW","geo_precision":"city","state":"New Hampshire"},"type":"Feature","geometry":{"type":"Point","coordinates":[-72.210642,43.238409]}},{"properties":{"city":"Lowville","name":"Horizon Wind Energy","zipcode":"13367","url":"www.horizonwind.com","geo_score":0.857,"date of opening":"October, 2007","information":"The farm houses 120 wind turbines, the Maple Ridge Wind Farm can produce approximately 240 megawatts (MW) online that provide electricity for about 60,000 residents.","id":"a6ea8ady7ris","group":"*UW","geo_precision":"city","state":"New York"},"type":"Feature","geometry":{"type":"Point","coordinates":[-75.415599,43.789296]}},{"properties":{"city":"Hankinson","name":"VeraSun Energy Corp.","zipcode":"58041","url":"?","geo_score":0.857,"date of opening":"July, 2008","information":"The 220-acre site generating 110 million gallons of ethanol will annually process approximately 39 million bushels of corn and produce about 350,000 tons of distillers grains for livestock feed.","id":"a6ea8am6jmyp","group":"BF","geo_precision":"city","state":"North Dakota"},"type":"Feature","geometry":{"type":"Point","coordinates":[-96.92473,46.073423]}},{"properties":{"city":"Rugby","name":"Iberdrola Renewables","zipcode":"58368","url":"www.iberdrolarenewables.us","geo_score":0.857,"date of opening":"December, 2009","information":"This wind farm houses 71 turbines on 16.4 miles of road and operations building in Pierce County and generates 149MW of electricity.","id":"a6ea8ael3m2u","group":"*UW","geo_precision":"city","state":"North Dakota"},"type":"Feature","geometry":{"type":"Point","coordinates":[-99.989912,48.254504]}},{"properties":{"city":"Elk City","name":"Accioa","zipcode":"73644","url":"www.acciona.com","geo_score":0.857,"date of opening":"June, 2009","information":"This wind farm 82 ACCIONA Windpower 1.5 MW wind turbines, Red Hills Wind Farm is able to generate enough clean energy to power over 40,000 U.S. homes and offset approximately 294,000 tons of CO2 emissions annually.","id":"a6ea8afzi42o","group":"*UW","geo_precision":"city","state":"Oklahoma"},"type":"Feature","geometry":{"type":"Point","coordinates":[-99.624253,35.320621]}},{"properties":{"city":"Birdsboro","name":"Green Gas Americas Inc.","zipcode":"19508","url":"www.greengas.net","geo_score":0.771,"date of opening":"October, 2008","information":"The project uses gas from the Pioneer Crossing landfill, which would normally be lost through flaring, to produce 6.4MW of electricity.","id":"a6ea8anprc5s","group":"BP (similar)","geo_precision":"city","state":"Pennsylvania"},"type":"Feature","geometry":{"type":"Point","coordinates":[-79.629492,40.996453]}},{"properties":{"city":"Upton","name":"KL Energy Corp.","zipcode":"82730","url":"www.klenergycorp.com","geo_score":0.857,"date of opening":"January, 2008","information":"The cellulosic ethanol plant uses waste wood to produce 1.5 million gallons of ethanol annually.","id":"a6ea8aoxh9hp","group":"BF","geo_precision":"city","state":"Wyoming"},"type":"Feature","geometry":{"type":"Point","coordinates":[-104.620856,43.937319]}},{"properties":{"city":"Lincoln Township","name":"MGE","zipcode":"54001","url":"www.mge.com","geo_score":0.781,"date of opening":"June, 1999","information":"The farm has 17 turbines that produce 23 million kWh annually.","id":"a6ea8aola391","group":"*UW","geo_precision":"city","state":"Wisconsin"},"type":"Feature","geometry":{"type":"Point","coordinates":[-87.642038,44.618052]}},{"properties":{"city":"Mt. Storm","name":"Dominion &amp; Shell WindEnergy Inc.","zipcode":"26739","url":"www.dom.com &amp; www.shell.com/wind","geo_score":0.735,"date of opening":"December, 2008","information":"The project consists of 132 wind turbines along 12 miles of the Allegheny Front and can generates 264MW annually enough electricity to serve about 66,000 homes and businesses.","id":"a6ea8aselvg9","group":"*UW","geo_precision":"city","state":"West Virginia"},"type":"Feature","geometry":{"type":"Point","coordinates":[-81.260657,37.624559]}},{"properties":{"city":"Bickleton","name":"PPM Energy","zipcode":"99322","url":"?","geo_score":0.857,"date of opening":"March, 2007","information":"The wind farm consists of 133 GE Energy 1.5 MW turbines and generates 200MW annually.","id":"a6ea8ae2a8ae","group":"*UW","geo_precision":"city","state":"Washington"},"type":"Feature","geometry":{"type":"Point","coordinates":[-120.281675,45.887647]}},{"properties":{"city":"Wessington Springs","name":"Babcock &amp; Brown Renewable Holdings Inc.","zipcode":"57382","url":"?","geo_score":0.739,"date of opening":"November, 2008","information":"The wind farm consists of 34 General Electric 1.5-megawatt wind turbines that are expected to generate enough clean and renewable energy to power 15,000 homes per year.","id":"a6ea8at2si4x","group":"*UW","geo_precision":"city","state":"South Dakota"},"type":"Feature","geometry":{"type":"Point","coordinates":[-97.268946,43.204156]}},{"properties":{"city":"Columbia","name":"NA","zipcode":"29208","url":"?","geo_score":0.857,"date of opening":"March, 2008","information":"This waste food gasification plant uses existing waste products from sawmills, logging and timber operations in the Midlands to produce 60,000 pounds of steam per hour (about 85 percent of campus steam needs), ~1MW of electricity.","id":"a6ea8ae2zyzr","group":"BP","geo_precision":"city","state":"South Carolina"},"type":"Feature","geometry":{"type":"Point","coordinates":[-81.024864,33.987454]}},{"properties":{"city":"Elgin","name":"Winergy Drive Systems Corp. &amp; Siemens Drive Technologies","zipcode":"60123","url":"www.winergy-group.com &amp; www.siemens.com","geo_score":0.857,"date of opening":"August, 2009","information":"This wind turbine production facility will create approximately 300 new jobs in production and 55 new office jobs over the next three to four years, more than double the current number of employees in Elgin.","id":"a6ea8akufbxz","group":"UW","geo_precision":"city","state":"Illinois"},"type":"Feature","geometry":{"type":"Point","coordinates":[-88.429777,41.990689]}},{"properties":{"city":"Tehachapi","name":"GE Wind Energy LLC","zipcode":"93561","url":"www.gepower.com","geo_score":0.857,"date of opening":"?","information":"This GE facility manufactures 1.5MW wind turbines.","id":"a6ea8af8upq3","group":"UW","geo_precision":"city","state":"California"},"type":"Feature","geometry":{"type":"Point","coordinates":[-118.502209,35.043028]}},{"properties":{"city":"Greenville","name":"GE Wind Energy LLC","zipcode":"29615","url":"www.gepower.com","geo_score":0.857,"date of opening":"?","information":"This GE facility manufactures 1.5MW wind turbines.","id":"a6ea8aq05o3x","group":"UW","geo_precision":"city","state":"South Carolina"},"type":"Feature","geometry":{"type":"Point","coordinates":[-82.402871,34.848567]}},{"properties":{"city":"Pensacola","name":"GE Wind Energy LLC","zipcode":"32514","url":"www.gepower.com","geo_score":0.857,"date of opening":"?","information":"This GE facility manufactures 1.5MW wind turbines.","id":"a6ea8anhjot5","group":"UW","geo_precision":"city","state":"Florida"},"type":"Feature","geometry":{"type":"Point","coordinates":[-87.216915,30.421309]}},{"properties":{"city":"Ontario","name":"Green Shine New Energy Company, Ltd.","zipcode":"91761","url":"www.streetlamp-solar.com","geo_score":0.857,"date of opening":"?","information":"This firm generates small-scale PV panels to power lights as well as large scale PV.","id":"a6ea8ag0nduz","group":"PV","geo_precision":"city","state":"California"},"type":"Feature","geometry":{"type":"Point","coordinates":[-117.650888,34.063344]}},{"properties":{"city":"Roswell","name":"G.S. Battery USA","zipcode":"30076","url":"www.gsbattery.com","geo_score":0.857,"date of opening":"September, 2009","information":"GS Battery assembles Valve-regulated Lead-Acid Batteries (VRLA), motorcycle batteries, Li-ion batteries, power supplies and lighting equipment.","id":"a6ea8anxagxy","group":"ES","geo_precision":"city","state":"Georgia"},"type":"Feature","geometry":{"type":"Point","coordinates":[-84.370475,34.055198]}},{"properties":{"city":"Midland","name":"Evergreen Solar","zipcode":"48642","url":"www.evergreensolar.com","geo_score":0.805,"date of opening":"?","information":"Evergreen Solar manufactures 215-220W silicon PV panels.","id":"a6ea8alrccos","group":"PV","geo_precision":"city","state":"Michigan"},"type":"Feature","geometry":{"type":"Point","coordinates":[-85.385559,42.390872]}},{"properties":{"city":"Tempe","name":"First Solar","zipcode":"85281","url":"www.firstsolar.com","geo_score":0.857,"date of opening":"1999","information":null,"id":"a6ea8acp445k","group":"PV","geo_precision":"city","state":"Arizona"},"type":"Feature","geometry":{"type":"Point","coordinates":[-111.90931,33.414768]}},{"properties":{"city":"Perrysburg","name":"First Solar","zipcode":"43551","url":"www.firstsolar.com","geo_score":0.857,"date of opening":"1999","information":"This facility's line was expanded to a more automated line producing 25MW by 2005. In March of 2010, the Perrysburg facility was expanded\nto 900,000 square feet consisting of one plant equaling four manufacturing lines, offices, and research and development capabilities.","id":"a6ea8aig68ej","group":"PV","geo_precision":"city","state":"Ohio"},"type":"Feature","geometry":{"type":"Point","coordinates":[-83.577701,41.535057]}},{"properties":{"city":"San Dimas","name":"AC Propulsion, Inc.","zipcode":"91773","url":"www.acpropulsion.com","geo_score":0.768,"date of opening":"1992","information":"In 1994, AC Propulsion unveiled the AC-150, an innovative 200 horsepower integrated drive system for compact to mid-size passenger cars that attained 0-60 mph acceleration in 6.2 seconds and a 145-mile range. In 2006, AC Propulsion created the eBox, the world's first vehicle-to-grid (V2G) capable electric vehicle.","id":"a6ea8ammzawi","group":"ES","geo_precision":"city","state":"California"},"type":"Feature","geometry":{"type":"Point","coordinates":[-123.034604,40.672576]}},{"properties":{"city":"Auburn","name":"Electric Fuel Corporation","zipcode":"36832","url":"www.electric-fuel.com","geo_score":0.857,"date of opening":"1997","information":"Electric Fuel Corp. is the military division of Arotech dealing with primary and rechargable battery technologies.","id":"a6ea8ah1zlti","group":"ES","geo_precision":"city","state":"Alabama"},"type":"Feature","geometry":{"type":"Point","coordinates":[-85.468222,32.547542]}},{"properties":{"city":"Arab","name":"Symmetry Resources, Inc.","zipcode":"35106","url":"www.symmetryresourcesinc.com","geo_score":0.857,"date of opening":"1994","information":"Symmetry Resources consults, assembles battery packs, and does extensive battery research.","id":"a6ea8am0n8sj","group":"ES","geo_precision":"city","state":"Alabama"},"type":"Feature","geometry":{"type":"Point","coordinates":[-86.365403,34.393855]}}],"is_temporal":false,"author":{"url":"","metadata":"","contact_name":"","contact_address":"","source":"","contact_phone":""},"source":"","pagination":{"sort":null,"start":0,"total":68,"limit":1000000},"state":"complete","tags":"","published":"2014-08-12T22:31:28-04:00","id":110921}