{"type":"FeatureCollection","data_type":"Dataset","url_type":null,"permissions":[{"permissions":{"download":true,"view":true},"group_id":"everyone"}],"classification":null,"title":"Tanning Salon Facilities1.3","count":83,"stream_id":111420,"contributor":{"url":"http://geocommons.com/users/25880","name":"natashaz"},"data_attributes":null,"calculation_params":null,"icon_link":null,"link":"http://geocommons.com/overlays/111420.json","extent":[-121.002,33.7232,-118.185,40.3025],"geometry_types":["point"],"unique_name":null,"name":"Tanning Salon Facilities1.3","feature_count":83,"description":"Tanning Salons in LA City","next_feature":null,"is_raster":false,"short_classification":"Y","stats":{},"features":[{"properties":{"city":"Los Angeles","zip":"90046","facility":"99 Unlimited A Year Tanning","geo_score":1.0,"id":"a6a0s7dwu9qx","geo_precision":"range","address":"7115 W Sunset Blvd","state":"CA"},"type":"Feature","geometry":{"type":"Point","coordinates":[-118.34451,34.097966]}},{"properties":{"city":"Los Angeles","zip":"90004","facility":"Agua Sun International","geo_score":0.963,"id":"a6a0s7bb58c4","geo_precision":"range","address":"214 Gower St","state":"CA"},"type":"Feature","geometry":{"type":"Point","coordinates":[-118.322593,34.074784]}},{"properties":{"city":"Los Angeles","zip":"90046","facility":"Body Factory Sunset Strip","geo_score":1.0,"id":"a6a0s714weco","geo_precision":"range","address":"8000 W Sunset Blvd","state":"CA"},"type":"Feature","geometry":{"type":"Point","coordinates":[-118.364499,34.098008]}},{"properties":{"city":"Los Angeles","zip":"9007","facility":"Bronze Body Tan","geo_score":0.805,"id":"a6a0s7a0kqo8","geo_precision":"range","address":"2236 S Figueroa St","state":"CA"},"type":"Feature","geometry":{"type":"Point","coordinates":[-118.273977,34.031279]}},{"properties":{"city":"Los Angeles","zip":"90066","facility":"California Tan Inc","geo_score":0.912,"id":"a6a0s7an1if2","geo_precision":"range","address":"12777 W Jefferson Blvd","state":"CA"},"type":"Feature","geometry":{"type":"Point","coordinates":[-118.417921,33.977234]}},{"properties":{"city":"Los Angeles","zip":"90036","facility":"California Tanning Salons","geo_score":0.973,"id":"a6a0s7cmnam1","geo_precision":"range","address":"110 Fairfax Ave","state":"CA"},"type":"Feature","geometry":{"type":"Point","coordinates":[-118.36142,34.073758]}},{"properties":{"city":"Los Angeles","zip":"90035","facility":"Chess and Burman Salons","geo_score":1.0,"id":"a6a0s7abcy24","geo_precision":"range","address":"9911 W Pico Blvd","state":"CA"},"type":"Feature","geometry":{"type":"Point","coordinates":[-118.404439,34.053171]}},{"properties":{"city":"Los Angeles","zip":"90025","facility":"Darque Tan","geo_score":0.972,"id":"a6a0s7au0ar2","geo_precision":"range","address":"12013 Wilshire Blvd","state":"CA"},"type":"Feature","geometry":{"type":"Point","coordinates":[-118.466214,34.045096]}},{"properties":{"city":"Los Angeles","zip":"90034","facility":"Dhs Enterprises Inc","geo_score":0.834,"id":"a6a0s75gv29u","geo_precision":"street","address":"3500 Overland Ave","state":"CA"},"type":"Feature","geometry":{"type":"Point","coordinates":[-118.411628,34.024756]}},{"properties":{"city":"Los Angeles","zip":"90028","facility":"Diamond Nails","geo_score":0.912,"id":"a6a0s712iw8v","geo_precision":"range","address":"7095 Hollywood Blvd","state":"CA"},"type":"Feature","geometry":{"type":"Point","coordinates":[-118.344945,34.101598]}},{"properties":{"city":"Los Angeles","zip":"90077","facility":"Epitome Salon","geo_score":1.0,"id":"a6a0s6z0a6f1","geo_precision":"range","address":"2938 N Beverly Glen Cir","state":"CA"},"type":"Feature","geometry":{"type":"Point","coordinates":[-118.444497,34.12738]}},{"properties":{"city":"Los Angeles","zip":"90028","facility":"Hollywood Tans","geo_score":0.912,"id":"a6a0s7axxswk","geo_precision":"range","address":"6360 W Sunset Blvd","state":"CA"},"type":"Feature","geometry":{"type":"Point","coordinates":[-118.327929,34.097991]}},{"properties":{"city":"Los Angeles","zip":"90010","facility":"K Tan","geo_score":1.0,"id":"a6a0s7d6yuzk","geo_precision":"range","address":"4525 Wilshire Blvd","state":"CA"},"type":"Feature","geometry":{"type":"Point","coordinates":[-118.328005,34.06192]}},{"properties":{"city":"Los Angeles","zip":"90028","facility":"LA Tanning","geo_score":0.912,"id":"a6a0s7ceo6xw","geo_precision":"range","address":"7071 W Sunset Blvd","state":"CA"},"type":"Feature","geometry":{"type":"Point","coordinates":[-118.343348,34.097964]}},{"properties":{"city":"Los Angeles","zip":"90035","facility":"Le Beach Club","geo_score":1.0,"id":"a6a0s74axxmt","geo_precision":"range","address":"998 S Robertson Blvd","state":"CA"},"type":"Feature","geometry":{"type":"Point","coordinates":[-118.383614,34.059366]}},{"properties":{"city":"Los Angeles","zip":"90048","facility":"Le Beach Club","geo_score":1.0,"id":"a6a0s7e3vse6","geo_precision":"range","address":"8471 Beverly Blvd","state":"CA"},"type":"Feature","geometry":{"type":"Point","coordinates":[-118.375561,34.076042]}},{"properties":{"city":"Los Angeles","zip":"90049","facility":"Le Beach Club","geo_score":0.912,"id":"a6a0s70hjwaz","geo_precision":"range","address":"11761 San Vicente Blvd","state":"CA"},"type":"Feature","geometry":{"type":"Point","coordinates":[-118.467547,34.053058]}},{"properties":{"city":"Los Angeles","zip":"90064","facility":"Le Beach Club","geo_score":1.0,"id":"a6a0s79yobdy","geo_precision":"range","address":"2520 Overland Ave","state":"CA"},"type":"Feature","geometry":{"type":"Point","coordinates":[-118.423467,34.040062]}},{"properties":{"city":"Los Angeles","zip":"90015","facility":"Lumiere","geo_score":0.895,"id":"a6a0s77t0vo7","geo_precision":"range","address":"1200 San Pedro St","state":"CA"},"type":"Feature","geometry":{"type":"Point","coordinates":[-118.253319,34.033699]}},{"properties":{"city":"Los Angeles","zip":"90042","facility":"Marisol Tanning","geo_score":0.919,"id":"a6a0s7cwynhr","geo_precision":"range","address":"5904 Monterey Rd","state":"CA"},"type":"Feature","geometry":{"type":"Point","coordinates":[-118.184807,34.104558]}},{"properties":{"city":"Los Angeles","zip":"90041","facility":"Mega Tan","geo_score":0.912,"id":"a6a0s74ifpos","geo_precision":"range","address":"2904 Colorado Blvd","state":"CA"},"type":"Feature","geometry":{"type":"Point","coordinates":[-118.228164,34.142769]}},{"properties":{"city":"Los Angeles","zip":"90064","facility":"Melrose Beach Spa","geo_score":0.805,"id":"a6a0s7dhq7um","geo_precision":"range","address":"7901 Melrose Ave","state":"CA"},"type":"Feature","geometry":{"type":"Point","coordinates":[-118.361417,34.083811]}},{"properties":{"city":"Los Angeles","zip":"90046","facility":"Melrose Tanning Co","geo_score":1.0,"id":"a6a0s76uqb4w","geo_precision":"range","address":"7226 Melrose Ave","state":"CA"},"type":"Feature","geometry":{"type":"Point","coordinates":[-118.346764,34.083492]}},{"properties":{"city":"Los Angeles","zip":"90034","facility":"Moonlight Tan","geo_score":0.834,"id":"a6a0s7c4peoj","geo_precision":"street","address":"3500 Overland Ave","state":"CA"},"type":"Feature","geometry":{"type":"Point","coordinates":[-118.411628,34.024756]}},{"properties":{"city":"Los Angeles","zip":"90048","facility":"Mystic Tan","geo_score":0.902,"id":"a6a0s79lyqgs","geo_precision":"range","address":"8242 W 3rd St","state":"CA"},"type":"Feature","geometry":{"type":"Point","coordinates":[-118.369109,34.072567]}},{"properties":{"city":"Los Angeles","zip":"90069","facility":"Roman Salon","geo_score":0.422,"id":"a6a0s7ebwb03","geo_precision":"street","address":"818 N La Cienega Blvd","state":"CA"},"type":"Feature","geometry":{"type":"Point","coordinates":[-118.258106,34.120747]}},{"properties":{"city":"Los Angeles","zip":"90035","facility":"Soleil Tanning Salon","geo_score":0.979,"id":"a6a0s742dbwj","geo_precision":"range","address":"820 Robertson Blvd","state":"CA"},"type":"Feature","geometry":{"type":"Point","coordinates":[-118.383547,34.062262]}},{"properties":{"city":"Los Angeles","zip":"90007","facility":"Soluna","geo_score":1.0,"id":"a6a0s72coph8","geo_precision":"range","address":"2312 S Union Ave","state":"CA"},"type":"Feature","geometry":{"type":"Point","coordinates":[-118.283468,34.034859]}},{"properties":{"city":"Los Angeles","zip":"90064","facility":"Starlight Tanning Salon","geo_score":1.0,"id":"a6a0s7bm8rap","geo_precision":"range","address":"10844 W Olympic Blvd","state":"CA"},"type":"Feature","geometry":{"type":"Point","coordinates":[-118.4312,34.044152]}},{"properties":{"city":"Los Angeles","zip":"90068","facility":"Sun Lounge","geo_score":0.977,"id":"a6a0s76blf9r","geo_precision":"range","address":"3270 Cahuenga Blvd","state":"CA"},"type":"Feature","geometry":{"type":"Point","coordinates":[-118.349387,34.12998]}},{"properties":{"city":"Los Angeles","zip":"90020","facility":"Sun Plus","geo_score":1.0,"id":"a6a0s7a6t9m7","geo_precision":"range","address":"555 S Western Ave","state":"CA"},"type":"Feature","geometry":{"type":"Point","coordinates":[-118.309097,34.06433]}},{"properties":{"city":"Los Angeles","zip":"90027","facility":"Sun Silverlake","geo_score":1.0,"id":"a6a0s71u7yb5","geo_precision":"range","address":"2728 Griffith Park Blvd","state":"CA"},"type":"Feature","geometry":{"type":"Point","coordinates":[-118.272521,34.106953]}},{"properties":{"city":"Los Angeles","zip":"90027","facility":"Sun Works Tanning","geo_score":1.0,"id":"a6a0s79uln1c","geo_precision":"range","address":"1913 Hillhurst Ave","state":"CA"},"type":"Feature","geometry":{"type":"Point","coordinates":[-118.287416,34.10578]}},{"properties":{"city":"Los Angeles","zip":"90025","facility":"Sunset Tan","geo_score":0.972,"id":"a6a0s758tqqt","geo_precision":"range","address":"1856 S Sepulveda Blvd","state":"CA"},"type":"Feature","geometry":{"type":"Point","coordinates":[-118.444333,34.047646]}},{"properties":{"city":"Los Angeles","zip":"90031","facility":"Tan Fashion","geo_score":0.93,"id":"a6a0s77sipev","geo_precision":"range","address":"654 Gibbons St","state":"CA"},"type":"Feature","geometry":{"type":"Point","coordinates":[-118.223876,34.066069]}},{"properties":{"city":"Los Angeles","zip":"90046","facility":"TanMan Tanning Salon","geo_score":1.0,"id":"a6a0s71tpmiv","geo_precision":"range","address":"7101 Sunset Blvd","state":"CA"},"type":"Feature","geometry":{"type":"Point","coordinates":[-118.344119,34.097963]}},{"properties":{"city":"Los Angeles","zip":"90015","facility":"Tanovations","geo_score":0.922,"id":"a6a0s71topx9","geo_precision":"range","address":"1366 S Flower St","state":"CA"},"type":"Feature","geometry":{"type":"Point","coordinates":[-118.26739,34.039111]}},{"properties":{"city":"Los Angeles","zip":"90004","facility":"The R2 Salon Spa","geo_score":1.0,"id":"a6a0s76dj2s7","geo_precision":"range","address":"463 N Western Ave","state":"CA"},"type":"Feature","geometry":{"type":"Point","coordinates":[-118.309162,34.079686]}},{"properties":{"city":"Los Angeles","zip":"90024","facility":"The Tanning Club","geo_score":1.0,"id":"a6a0s73tb013","geo_precision":"range","address":"1132 Westwood Blvd","state":"Ca"},"type":"Feature","geometry":{"type":"Point","coordinates":[-118.445058,34.060128]}},{"properties":{"city":"Los Angeles","zip":"90036","facility":"Unique Tan","geo_score":0.961,"id":"a6a0s75gzo1u","geo_precision":"street","address":"Fairfax Ave","state":"CA"},"type":"Feature","geometry":{"type":"Point","coordinates":[-118.361422,34.074304]}},{"properties":{"city":"Los Angeles","zip":"90048","facility":"Uvasun of Holllywood","geo_score":0.902,"id":"a6a0s75mh7f0","geo_precision":"range","address":"8242 W 3rd St","state":"CA"},"type":"Feature","geometry":{"type":"Point","coordinates":[-118.369109,34.072567]}},{"properties":{"city":"Los Angeles","zip":"90048","facility":"Zen Glow","geo_score":1.0,"id":"a6a0s7czm055","geo_precision":"range","address":"406 S San Vicente Blvd","state":"CA"},"type":"Feature","geometry":{"type":"Point","coordinates":[-118.376267,34.071276]}},{"properties":{"city":"Tujunga","zip":"91042","facility":"Exotique Tan &amp; Spa","geo_score":1.0,"id":"a6a0s77vth1t","geo_precision":"range","address":"6540 Foothill Blvd","state":"CA"},"type":"Feature","geometry":{"type":"Point","coordinates":[-118.274425,34.245628]}},{"properties":{"city":"Sunland","zip":"91040","facility":"Paradise Tan","geo_score":1.0,"id":"a6a0s70sy8sr","geo_precision":"range","address":"8325 Foothill Blvd","state":"CA"},"type":"Feature","geometry":{"type":"Point","coordinates":[-118.31429,34.259686]}},{"properties":{"city":"North Hollywood","zip":"91602","facility":"On the Beach","geo_score":1.0,"id":"a6a0s70ulj2o","geo_precision":"range","address":"10660 Riverside Dr","state":"CA"},"type":"Feature","geometry":{"type":"Point","coordinates":[-118.363205,34.152219]}},{"properties":{"city":"Studio City","zip":"91604","facility":"Spray di Sole","geo_score":1.0,"id":"a6a0s7ef0lxr","geo_precision":"range","address":"12240 Ventura Blvd","state":"CA"},"type":"Feature","geometry":{"type":"Point","coordinates":[-118.398205,34.143301]}},{"properties":{"city":"Studio City","zip":"91604","facility":"Sunset Tan","geo_score":1.0,"id":"a6a0s73nd3wd","geo_precision":"range","address":"12050 Ventura Blvd","state":"CA"},"type":"Feature","geometry":{"type":"Point","coordinates":[-118.393556,34.143705]}},{"properties":{"city":"Studio City","zip":"91604","facility":"City Tan","geo_score":0.805,"id":"a6a0s7cbwi9u","geo_precision":"street","address":"1185 Ventura Blvd","state":"CA"},"type":"Feature","geometry":{"type":"Point","coordinates":[-118.365228,34.138495]}},{"properties":{"city":"Studio City","zip":"91604","facility":"Runway Tan","geo_score":1.0,"id":"a6a0s7d7m0be","geo_precision":"range","address":"11239 Ventura Blvd","state":"CA"},"type":"Feature","geometry":{"type":"Point","coordinates":[-118.37507,34.141617]}},{"properties":{"city":"Studio City","zip":"91604","facility":"Touch of Gold Tanning","geo_score":1.0,"id":"a6a0s74kapre","geo_precision":"range","address":"12215 Ventura Blvd","state":"CA"},"type":"Feature","geometry":{"type":"Point","coordinates":[-118.397907,34.143323]}},{"properties":{"city":"Studio City","zip":"91604","facility":"Acapulco Sun","geo_score":1.0,"id":"a6a0s7df9i33","geo_precision":"range","address":"11701 Moorpark St","state":"CA"},"type":"Feature","geometry":{"type":"Point","coordinates":[-118.38772,34.150368]}},{"properties":{"city":"Studio City","zip":"91604","facility":"Tanning Plus","geo_score":1.0,"id":"a6a0s73ot5p2","geo_precision":"range","address":"11321 Ventura Blvd","state":"CA"},"type":"Feature","geometry":{"type":"Point","coordinates":[-118.376553,34.140336]}},{"properties":{"city":"Valley Village","zip":"91607","facility":"Oasis Tan and Spa","geo_score":0.951,"id":"a6a0s78y8nyt","geo_precision":"range","address":"4411 Laurel Canyon Blvd","state":"CA"},"type":"Feature","geometry":{"type":"Point","coordinates":[-118.396468,34.150614]}},{"properties":{"city":"Van Nuys","zip":"91405","facility":"Dream Tan","geo_score":0.902,"id":"a6a0s7di7rf9","geo_precision":"range","address":"14141 Covello St","state":"CA"},"type":"Feature","geometry":{"type":"Point","coordinates":[-118.440726,34.207132]}},{"properties":{"city":"Granada Hills","zip":"91344","facility":"Sunsations","geo_score":1.0,"id":"a6a0s7f283py","geo_precision":"range","address":"16257 San Fernando Mission Blvd","state":"CA"},"type":"Feature","geometry":{"type":"Point","coordinates":[-118.485728,34.271924]}},{"properties":{"city":"Northridge","zip":"91325","facility":"Supertans","geo_score":1.0,"id":"a6a0s75c43ma","geo_precision":"range","address":"18431 Nordhoff St","state":"CA"},"type":"Feature","geometry":{"type":"Point","coordinates":[-118.534401,34.23549]}},{"properties":{"city":"Northridge","zip":"91325","facility":"A Tan For All Seasons","geo_score":1.0,"id":"a6a0s7fcf7lb","geo_precision":"range","address":"8678 Lindley Ave","state":"CA"},"type":"Feature","geometry":{"type":"Point","coordinates":[-118.527346,34.22795]}},{"properties":{"city":"Northridge","zip":"91324","facility":"NVS Tan","geo_score":1.0,"id":"a6a0s7e5ss57","geo_precision":"range","address":"9675 Reseda Blvd","state":"CA"},"type":"Feature","geometry":{"type":"Point","coordinates":[-118.53609,34.246059]}},{"properties":{"city":"Northridge","zip":"91324","facility":"Miami Tan","geo_score":1.0,"id":"a6a0s6z3xb3s","geo_precision":"range","address":"8968 Corbin Ave","state":"CA"},"type":"Feature","geometry":{"type":"Point","coordinates":[-118.562306,34.233481]}},{"properties":{"city":"Chatsworth","zip":"91311","facility":"Venetian Tan","geo_score":0.917,"id":"a6a0s7acy4dp","geo_precision":"range","address":"21032 Devonshire St","state":"CA"},"type":"Feature","geometry":{"type":"Point","coordinates":[-118.591342,34.25724]}},{"properties":{"city":"Chatsworth","zip":"91311","facility":"Miami Tan","geo_score":0.917,"id":"a6a0s7dxa8hx","geo_precision":"range","address":"9800 Topanga Canyon Blvd","state":"CA"},"type":"Feature","geometry":{"type":"Point","coordinates":[-118.606308,34.247679]}},{"properties":{"city":"Woodland Hills","zip":"91303","facility":"Supertans","geo_score":0.91,"id":"a6a0s79lzk5z","geo_precision":"range","address":"22012 Vanowen St","state":"CA"},"type":"Feature","geometry":{"type":"Point","coordinates":[-118.60603,34.193748]}},{"properties":{"city":"Canoga Park","zip":"91303","facility":"Supertans","geo_score":1.0,"id":"a6a0s7deghh7","geo_precision":"range","address":"22323 Sherman Way","state":"CA"},"type":"Feature","geometry":{"type":"Point","coordinates":[-118.612021,34.201003]}},{"properties":{"city":"Woodland Hills","zip":"91364","facility":"Insatiable Sun","geo_score":0.93,"id":"a6a0s7ay9w98","geo_precision":"range","address":"21732 Ventura Blvd","state":"CA"},"type":"Feature","geometry":{"type":"Point","coordinates":[-118.601073,34.168322]}},{"properties":{"city":"Woodland Hills","zip":"91364","facility":"Miami Tan","geo_score":0.93,"id":"a6a0s749atop","geo_precision":"range","address":"22140 Ventura Blvd","state":"CA"},"type":"Feature","geometry":{"type":"Point","coordinates":[-118.608883,34.168588]}},{"properties":{"city":"Tarzana","zip":"91356","facility":"Insatiable Sun","geo_score":1.0,"id":"a6a0s75hl98w","geo_precision":"range","address":"18727 Ventura Blvd","state":"CA"},"type":"Feature","geometry":{"type":"Point","coordinates":[-118.541173,34.170893]}},{"properties":{"city":"Encino","zip":"91316","facility":"Media City Sun 2 Inc","geo_score":1.0,"id":"a6a0s7e7ra7w","geo_precision":"range","address":"17035 Ventura Blvd","state":"CA"},"type":"Feature","geometry":{"type":"Point","coordinates":[-118.504462,34.160047]}},{"properties":{"city":"Encino","zip":"91316","facility":"Insatiable Sun","geo_score":1.0,"id":"a6a0s745psqj","geo_precision":"range","address":"17035 Ventura Blvd","state":"CA"},"type":"Feature","geometry":{"type":"Point","coordinates":[-118.504462,34.160047]}},{"properties":{"city":"Encino","zip":"91316","facility":"Maui Tanning","geo_score":1.0,"id":"a6a0s70exhi6","geo_precision":"range","address":"17401 Ventura Blvd","state":"CA"},"type":"Feature","geometry":{"type":"Point","coordinates":[-118.511552,34.161114]}},{"properties":{"city":"Encino","zip":"91316","facility":"Fingers N Toes","geo_score":0.805,"id":"a6a0s7ee167z","geo_precision":"street","address":"15826 Ventura Blvd","state":"CA"},"type":"Feature","geometry":{"type":"Point","coordinates":[-118.501077,34.159256]}},{"properties":{"city":"Sherman Oaks","zip":"91403","facility":"Sun Spa Tanning","geo_score":1.0,"id":"a6a0s72pzzab","geo_precision":"range","address":"14670 Ventura Blvd","state":"CA"},"type":"Feature","geometry":{"type":"Point","coordinates":[-118.452342,34.151548]}},{"properties":{"city":"Sherman Oaks","zip":"91423","facility":"Le Beach Club","geo_score":1.0,"id":"a6a0s715kydu","geo_precision":"range","address":"14364 Ventura Blvd","state":"CA"},"type":"Feature","geometry":{"type":"Point","coordinates":[-118.444548,34.150312]}},{"properties":{"city":"Sherman Oaks","zip":"91423","facility":"Beauty by Julianne","geo_score":1.0,"id":"a6a0s74uxqlb","geo_precision":"range","address":"14025 Moorpark St","state":"CA"},"type":"Feature","geometry":{"type":"Point","coordinates":[-118.438534,34.150378]}},{"properties":{"city":"Sherman Oaks","zip":"91403","facility":"Tan Galleria","geo_score":1.0,"id":"a6a0s7fgnt4i","geo_precision":"range","address":"15301 Ventura Blvd","state":"CA"},"type":"Feature","geometry":{"type":"Point","coordinates":[-118.466216,34.153817]}},{"properties":{"city":"Sherman Oaks","zip":"91423","facility":"Suntans To Go","geo_score":1.0,"id":"a6a0s70ennin","geo_precision":"range","address":"13317 Moorpark St","state":"CA"},"type":"Feature","geometry":{"type":"Point","coordinates":[-118.422683,34.150355]}},{"properties":{"city":"Westwood","zip":"96137","facility":"Always Sunny Tanning","geo_score":0.912,"id":"a6a0s7arxwj8","geo_precision":"range","address":"319 Birch St","state":"CA"},"type":"Feature","geometry":{"type":"Point","coordinates":[-121.001874,40.302536]}},{"properties":{"city":"Venice","zip":"90291","facility":"Lavish Tan","geo_score":1.0,"id":"a6a0s72h6obj","geo_precision":"range","address":"1636 Abbot Kinney Blvd","state":"CA"},"type":"Feature","geometry":{"type":"Point","coordinates":[-118.463436,33.989644]}},{"properties":{"city":"Venice","zip":"90291","facility":"Rio Tan","geo_score":1.0,"id":"a6a0s744rqg3","geo_precision":"range","address":"707 Lincoln Blvd","state":"CA"},"type":"Feature","geometry":{"type":"Point","coordinates":[-118.464423,33.999681]}},{"properties":{"city":"Marina Del Rey","zip":"90292","facility":"Hollywood Tans","geo_score":1.0,"id":"a6a0s70pmw61","geo_precision":"range","address":"4270 Lincoln Blvd","state":"CA"},"type":"Feature","geometry":{"type":"Point","coordinates":[-118.443798,33.986029]}},{"properties":{"city":"Venice","zip":"90291","facility":"Sunset Tan","geo_score":1.0,"id":"a6a0s77ecqx7","geo_precision":"range","address":"245 Main St","state":"CA"},"type":"Feature","geometry":{"type":"Point","coordinates":[-118.478514,33.99686]}},{"properties":{"city":"Marina Del Rey","zip":"90292","facility":"Cop-A-Tan","geo_score":1.0,"id":"a6a0s777wnz2","geo_precision":"range","address":"4371 Glencoe Ave","state":"CA"},"type":"Feature","geometry":{"type":"Point","coordinates":[-118.439196,33.986236]}},{"properties":{"city":"Marina Del Rey","zip":"90292","facility":"Total Tan Inc","geo_score":1.0,"id":"a6a0s7e7qn3y","geo_precision":"range","address":"4716 Lincoln Blvd","state":"CA"},"type":"Feature","geometry":{"type":"Point","coordinates":[-118.438593,33.980181]}},{"properties":{"city":"San Pedro","zip":"90732","facility":"Tropical Sun Tanning Salon","geo_score":0.916,"id":"a6a0s7bb27vj","geo_precision":"range","address":"1625 W 25th St","state":"CA"},"type":"Feature","geometry":{"type":"Point","coordinates":[-118.313254,33.723249]}}],"is_temporal":false,"author":{"url":"","metadata":"","contact_name":"","contact_address":"","source":"Yellowpages","contact_phone":""},"source":"","pagination":{"sort":null,"start":0,"total":83,"limit":1000000},"state":"complete","tags":"","published":"2014-08-12T23:10:48-04:00","id":111420}