{"type":"FeatureCollection","data_type":"Dataset","url_type":null,"permissions":[{"permissions":{"download":true,"view":true},"group_id":"everyone"}],"classification":null,"title":"Habitat Map","count":50,"stream_id":111650,"contributor":{"url":"http://geocommons.com/users/24748","name":"trauthtc"},"data_attributes":null,"calculation_params":null,"icon_link":null,"link":"http://geocommons.com/overlays/111650.json","extent":[-105.069,39.3767,-104.408,39.8494],"geometry_types":["point"],"unique_name":null,"name":"Habitat Map","feature_count":50,"description":"","next_feature":null,"is_raster":false,"short_classification":"Y","stats":{"pick-ups":{"max":16,"mean":6.9,"variance":18.2551020408163,"stdev":4.27259897963948,"min":1,"median":7}},"features":[{"properties":{"zip":"80010","geo_score":0.714,"pick-ups":2,"id":"a65k55tgdmb9","geo_precision":"zip"},"type":"Feature","geometry":{"type":"Point","coordinates":[-104.804418,39.740265]}},{"properties":{"zip":"80011","geo_score":0.714,"pick-ups":5,"id":"a65k55ugf8tm","geo_precision":"zip"},"type":"Feature","geometry":{"type":"Point","coordinates":[-104.822765,39.788286]}},{"properties":{"zip":"80012","geo_score":0.714,"pick-ups":8,"id":"a65k55vs2s2a","geo_precision":"zip"},"type":"Feature","geometry":{"type":"Point","coordinates":[-104.80973,39.681201]}},{"properties":{"zip":"80013","geo_score":0.714,"pick-ups":7,"id":"a65k560r2m4l","geo_precision":"zip"},"type":"Feature","geometry":{"type":"Point","coordinates":[-104.76275,39.660654]}},{"properties":{"zip":"80014","geo_score":0.714,"pick-ups":9,"id":"a65k55uz5tos","geo_precision":"zip"},"type":"Feature","geometry":{"type":"Point","coordinates":[-104.82933,39.660437]}},{"properties":{"zip":"80015","geo_score":0.714,"pick-ups":14,"id":"a65k55xsgfxs","geo_precision":"zip"},"type":"Feature","geometry":{"type":"Point","coordinates":[-104.876923,39.579155]}},{"properties":{"zip":"80016","geo_score":0.714,"pick-ups":8,"id":"a65k55pqny0j","geo_precision":"zip"},"type":"Feature","geometry":{"type":"Point","coordinates":[-104.792475,39.591655]}},{"properties":{"zip":"80017","geo_score":0.714,"pick-ups":2,"id":"a65k55yykd2g","geo_precision":"zip"},"type":"Feature","geometry":{"type":"Point","coordinates":[-104.80667,39.702142]}},{"properties":{"zip":"80022","geo_score":0.714,"pick-ups":2,"id":"a65k55n9txsk","geo_precision":"zip"},"type":"Feature","geometry":{"type":"Point","coordinates":[-104.897199,39.84943]}},{"properties":{"zip":"80104","geo_score":0.714,"pick-ups":10,"id":"a65k55nz54in","geo_precision":"zip"},"type":"Feature","geometry":{"type":"Point","coordinates":[-104.865812,39.418045]}},{"properties":{"zip":"80108","geo_score":0.714,"pick-ups":9,"id":"a65k55z20uor","geo_precision":"zip"},"type":"Feature","geometry":{"type":"Point","coordinates":[-104.773313,39.505205]}},{"properties":{"zip":"80109","geo_score":0.714,"pick-ups":1,"id":"a65k55qp58rk","geo_precision":"zip"},"type":"Feature","geometry":{"type":"Point","coordinates":[-104.853375,39.376698]}},{"properties":{"zip":"80110","geo_score":0.714,"pick-ups":3,"id":"a65k55nqyb4o","geo_precision":"zip"},"type":"Feature","geometry":{"type":"Point","coordinates":[-105.025261,39.646932]}},{"properties":{"zip":"80111","geo_score":0.714,"pick-ups":10,"id":"a65k55rrt7g4","geo_precision":"zip"},"type":"Feature","geometry":{"type":"Point","coordinates":[-104.864703,39.666811]}},{"properties":{"zip":"80112","geo_score":0.714,"pick-ups":12,"id":"a65k55r33bkt","geo_precision":"zip"},"type":"Feature","geometry":{"type":"Point","coordinates":[-104.862194,39.581238]}},{"properties":{"zip":"80113","geo_score":0.714,"pick-ups":10,"id":"a65k55r1iwjc","geo_precision":"zip"},"type":"Feature","geometry":{"type":"Point","coordinates":[-104.98776,39.647765]}},{"properties":{"zip":"80120","geo_score":0.714,"pick-ups":4,"id":"a65k55yst1me","geo_precision":"zip"},"type":"Feature","geometry":{"type":"Point","coordinates":[-105.06943,39.587766]}},{"properties":{"zip":"80121","geo_score":0.714,"pick-ups":16,"id":"a65k560p27bf","geo_precision":"zip"},"type":"Feature","geometry":{"type":"Point","coordinates":[-104.88773,39.612789]}},{"properties":{"zip":"80122","geo_score":0.714,"pick-ups":13,"id":"a65k55qe8oyx","geo_precision":"zip"},"type":"Feature","geometry":{"type":"Point","coordinates":[-104.952759,39.58721]}},{"properties":{"zip":"80124","geo_score":0.714,"pick-ups":10,"id":"a65k55v0ai0s","geo_precision":"zip"},"type":"Feature","geometry":{"type":"Point","coordinates":[-104.861962,39.531381]}},{"properties":{"zip":"80125","geo_score":0.714,"pick-ups":2,"id":"a65k55pvpiv6","geo_precision":"zip"},"type":"Feature","geometry":{"type":"Point","coordinates":[-105.05897,39.495327]}},{"properties":{"zip":"80126","geo_score":0.714,"pick-ups":16,"id":"a65k55sq6nzb","geo_precision":"zip"},"type":"Feature","geometry":{"type":"Point","coordinates":[-104.969426,39.553877]}},{"properties":{"zip":"80129","geo_score":0.714,"pick-ups":9,"id":"a65k55v25140","geo_precision":"zip"},"type":"Feature","geometry":{"type":"Point","coordinates":[-105.011797,39.545917]}},{"properties":{"zip":"80130","geo_score":0.714,"pick-ups":11,"id":"a65k55q9eh2s","geo_precision":"zip"},"type":"Feature","geometry":{"type":"Point","coordinates":[-104.920445,39.541893]}},{"properties":{"zip":"80134","geo_score":0.714,"pick-ups":10,"id":"a65k55sq8a95","geo_precision":"zip"},"type":"Feature","geometry":{"type":"Point","coordinates":[-104.734419,39.455267]}},{"properties":{"zip":"80138","geo_score":0.714,"pick-ups":7,"id":"a65k5614xvr4","geo_precision":"zip"},"type":"Feature","geometry":{"type":"Point","coordinates":[-104.721607,39.510214]}},{"properties":{"zip":"80202","geo_score":0.714,"pick-ups":7,"id":"a65k55yco449","geo_precision":"zip"},"type":"Feature","geometry":{"type":"Point","coordinates":[-104.996553,39.760189]}},{"properties":{"zip":"80203","geo_score":0.714,"pick-ups":1,"id":"a65k55sfx7mw","geo_precision":"zip"},"type":"Feature","geometry":{"type":"Point","coordinates":[-104.970331,39.729205]}},{"properties":{"zip":"80204","geo_score":0.714,"pick-ups":1,"id":"a65k55pr6oh8","geo_precision":"zip"},"type":"Feature","geometry":{"type":"Point","coordinates":[-105.021502,39.720136]}},{"properties":{"zip":"80205","geo_score":0.714,"pick-ups":3,"id":"a65k55rucyf3","geo_precision":"zip"},"type":"Feature","geometry":{"type":"Point","coordinates":[-104.967585,39.760137]}},{"properties":{"zip":"80206","geo_score":0.714,"pick-ups":12,"id":"a65k55z64l1i","geo_precision":"zip"},"type":"Feature","geometry":{"type":"Point","coordinates":[-104.953335,39.730787]}},{"properties":{"zip":"80207","geo_score":0.714,"pick-ups":6,"id":"a65k55ykzlfy","geo_precision":"zip"},"type":"Feature","geometry":{"type":"Point","coordinates":[-104.903532,39.713186]}},{"properties":{"zip":"80209","geo_score":0.714,"pick-ups":13,"id":"a65k55xlg15a","geo_precision":"zip"},"type":"Feature","geometry":{"type":"Point","coordinates":[-104.964236,39.707332]}},{"properties":{"zip":"80210","geo_score":0.714,"pick-ups":12,"id":"a65k560db6qn","geo_precision":"zip"},"type":"Feature","geometry":{"type":"Point","coordinates":[-104.964186,39.701677]}},{"properties":{"zip":"80211","geo_score":0.714,"pick-ups":7,"id":"a65k55n8enl0","geo_precision":"zip"},"type":"Feature","geometry":{"type":"Point","coordinates":[-105.018387,39.765291]}},{"properties":{"zip":"80216","geo_score":0.714,"pick-ups":2,"id":"a65k55rcqdvu","geo_precision":"zip"},"type":"Feature","geometry":{"type":"Point","coordinates":[-104.942034,39.777036]}},{"properties":{"zip":"80218","geo_score":0.714,"pick-ups":10,"id":"a65k55p0u0pv","geo_precision":"zip"},"type":"Feature","geometry":{"type":"Point","coordinates":[-104.968759,39.720236]}},{"properties":{"zip":"80220","geo_score":0.714,"pick-ups":12,"id":"a65k55pp3zp9","geo_precision":"zip"},"type":"Feature","geometry":{"type":"Point","coordinates":[-104.910843,39.732436]}},{"properties":{"zip":"80222","geo_score":0.714,"pick-ups":6,"id":"a65k55n3bu82","geo_precision":"zip"},"type":"Feature","geometry":{"type":"Point","coordinates":[-104.924134,39.709343]}},{"properties":{"zip":"80223","geo_score":0.714,"pick-ups":4,"id":"a65k55z5j005","geo_precision":"zip"},"type":"Feature","geometry":{"type":"Point","coordinates":[-105.008762,39.707186]}},{"properties":{"zip":"80224","geo_score":0.714,"pick-ups":4,"id":"a65k55mxtrvs","geo_precision":"zip"},"type":"Feature","geometry":{"type":"Point","coordinates":[-104.911434,39.702037]}},{"properties":{"zip":"80229","geo_score":0.714,"pick-ups":2,"id":"a65k55moxofo","geo_precision":"zip"},"type":"Feature","geometry":{"type":"Point","coordinates":[-104.984703,39.739154]}},{"properties":{"zip":"80230","geo_score":0.714,"pick-ups":2,"id":"a65k55xtoot7","geo_precision":"zip"},"type":"Feature","geometry":{"type":"Point","coordinates":[-104.895093,39.721848]}},{"properties":{"zip":"80231","geo_score":0.714,"pick-ups":2,"id":"a65k55yphltw","geo_precision":"zip"},"type":"Feature","geometry":{"type":"Point","coordinates":[-104.886785,39.68493]}},{"properties":{"zip":"80237","geo_score":0.714,"pick-ups":5,"id":"a65k55ytg6hx","geo_precision":"zip"},"type":"Feature","geometry":{"type":"Point","coordinates":[-104.903984,39.638537]}},{"properties":{"zip":"80238","geo_score":0.714,"pick-ups":9,"id":"a65k55z2s7sc","geo_precision":"zip"},"type":"Feature","geometry":{"type":"Point","coordinates":[-104.408349,39.738752]}},{"properties":{"zip":"80239","geo_score":0.714,"pick-ups":4,"id":"a65k55x46l9e","geo_precision":"zip"},"type":"Feature","geometry":{"type":"Point","coordinates":[-104.833586,39.793598]}},{"properties":{"zip":"80246","geo_score":0.714,"pick-ups":2,"id":"a65k55qqkdyq","geo_precision":"zip"},"type":"Feature","geometry":{"type":"Point","coordinates":[-104.933591,39.704987]}},{"properties":{"zip":"80247","geo_score":0.714,"pick-ups":4,"id":"a65k55w9z7u8","geo_precision":"zip"},"type":"Feature","geometry":{"type":"Point","coordinates":[-104.881751,39.696961]}},{"properties":{"zip":"80249","geo_score":0.714,"pick-ups":5,"id":"a65k55nzmisk","geo_precision":"zip"},"type":"Feature","geometry":{"type":"Point","coordinates":[-104.697674,39.83776]}}],"is_temporal":false,"author":{"url":"","metadata":"","contact_name":"","contact_address":"","source":"","contact_phone":""},"source":"","pagination":{"sort":null,"start":0,"total":50,"limit":1000000},"state":"complete","tags":"","published":"2014-08-12T23:36:12-04:00","id":111650}