{"type":"FeatureCollection","data_type":"Dataset","url_type":null,"permissions":[{"permissions":{"download":true,"view":true},"group_id":"everyone"}],"classification":null,"title":"Costco Locations","count":417,"stream_id":111728,"contributor":{"url":"http://geocommons.com/users/26163","name":"kerithen"},"data_attributes":null,"calculation_params":null,"icon_link":null,"link":"http://geocommons.com/overlays/111728.json","extent":[-159.376,19.6866,-70.9585,61.2097],"geometry_types":["point"],"unique_name":null,"name":"Costco Locations","feature_count":417,"description":"Locations of Costco Stores","next_feature":null,"is_raster":false,"short_classification":"Y","stats":{"warehouse number":{"max":1088,"mean":488.870503597122,"variance":90916.4543442169,"stdev":301.523555206251,"min":1,"median":436}},"features":[{"properties":{"city":"Huntsville","geo_score":0.473,"opening date":"11/2/2000","zip code":"35801-5930","id":"a62j88tlc9tw","geo_precision":"street","phone number":"(256) 519-2223","address":"1205 N. Memorial Parkway","state":"Alabama","warehouse number":356},"type":"Feature","geometry":{"type":"Point","coordinates":[-86.598035,34.735304]}},{"properties":{"city":"Hoover","geo_score":0.902,"opening date":"11/20/2003","zip code":"35244-2346","id":"a62j88xmvtkt","geo_precision":"range","phone number":"(205) 909-1039","address":"3650 Galleria Circle","state":"Alabama","warehouse number":362},"type":"Feature","geometry":{"type":"Point","coordinates":[-86.808195,33.376257]}},{"properties":{"city":"Montgomery","geo_score":0.683,"opening date":"10/4/2007","zip code":"36117","id":"a62j88uk3t6k","geo_precision":"zip","phone number":"(334) 270-7460","address":"8251 Eastchase Parkway","state":"Alabama","warehouse number":1009},"type":"Feature","geometry":{"type":"Point","coordinates":[-86.116486,32.370048]}},{"properties":{"city":"Juneau","geo_score":0.961,"opening date":"11/4/1993","zip code":"99801-7210","id":"a62j88xq3r6q","geo_precision":"range","phone number":"(907) 780-6740","address":"5225 Commercial Boulevard","state":"Alaska","warehouse number":107},"type":"Feature","geometry":{"type":"Point","coordinates":[-134.482198,58.357792]}},{"properties":{"city":"Anchorage","geo_score":1.0,"opening date":"10/25/1984","zip code":"99515-1950","id":"a62j88zuy3dv","geo_precision":"range","phone number":"(907) 349-2335","address":"330 West Dimond Blvd","state":"Alaska","warehouse number":10},"type":"Feature","geometry":{"type":"Point","coordinates":[-149.883997,61.144725]}},{"properties":{"city":"Anchorage","geo_score":0.919,"opening date":"11/5/1992","zip code":"99508-3115","id":"a62j88y5dnpb","geo_precision":"range","phone number":"(907) 269-9510","address":"4125 DeBarr Road","state":"Alaska","warehouse number":63},"type":"Feature","geometry":{"type":"Point","coordinates":[-149.803861,61.209704]}},{"properties":{"city":"Prescott","geo_score":0.756,"opening date":"6/27/1996","zip code":"86301-6717","id":"a62j88u6xo91","geo_precision":"range","phone number":"(928) 541-2203","address":"3911 Highway 69","state":"Arizona","warehouse number":466},"type":"Feature","geometry":{"type":"Point","coordinates":[-112.395968,34.548997]}},{"properties":{"city":"Tucson","geo_score":1.0,"opening date":"4/24/1989","zip code":"85741-2864","id":"a62j88xrjzio","geo_precision":"range","phone number":"(520) 797-1980","address":"3901 West Costco Drive","state":"Arizona","warehouse number":431},"type":"Feature","geometry":{"type":"Point","coordinates":[-111.046844,32.32648]}},{"properties":{"city":"Tucson","geo_score":1.0,"opening date":"5/24/1982","zip code":"85712-5834","id":"a62j88t87qjy","geo_precision":"range","phone number":"(520) 886-6376","address":"6255 East Grant Road","state":"Arizona","warehouse number":407},"type":"Feature","geometry":{"type":"Point","coordinates":[-110.859344,32.250645]}},{"properties":{"city":"Glendale","geo_score":0.633,"opening date":"8/16/2001","zip code":"85308-8711","id":"a62j896smrpe","geo_precision":"street","phone number":"(623) 776-4003","address":"17550 N. 79th Ave.","state":"Arizona","warehouse number":674},"type":"Feature","geometry":{"type":"Point","coordinates":[-112.231278,33.655886]}},{"properties":{"city":"Gilbert","geo_score":0.522,"opening date":"5/4/2006","zip code":"85296-6303","id":"a62j891gknra","geo_precision":"street","phone number":"(480) 366-3950","address":"2887 S Market St","state":"Arizona","warehouse number":644},"type":"Feature","geometry":{"type":"Point","coordinates":[-111.88408,33.276725]}},{"properties":{"city":"Tempe","geo_score":1.0,"opening date":"11/11/1989","zip code":"85284-1103","id":"a62j88qw445p","geo_precision":"range","phone number":"(480) 496-6651","address":"1445 West Elliot Road","state":"Arizona","warehouse number":436},"type":"Feature","geometry":{"type":"Point","coordinates":[-111.963413,33.349099]}},{"properties":{"city":"Scottsdale","geo_score":1.0,"opening date":"7/6/1987","zip code":"85260-2507","id":"a62j88vn4jd1","geo_precision":"range","phone number":"(480) 948-5040","address":"15255 North Hayden Road","state":"Arizona","warehouse number":427},"type":"Feature","geometry":{"type":"Point","coordinates":[-111.902116,33.624198]}},{"properties":{"city":"Gilbert","geo_score":0.805,"opening date":"7/1/1999","zip code":"85233-1616","id":"a62j88rjrwta","geo_precision":"range","phone number":"(480) 293-0053","address":"1415 North Arizona Avenue","state":"Arizona","warehouse number":481},"type":"Feature","geometry":{"type":"Point","coordinates":[-111.841666,33.328033]}},{"properties":{"city":"Chandler","geo_score":0.341,"opening date":"12/1/2005","zip code":"85226-4932","id":"a62j88shdf31","geo_precision":"street","phone number":"(480) 375-2051","address":"595 S Galleria Way","state":"Arizona","warehouse number":736},"type":"Feature","geometry":{"type":"Point","coordinates":[-111.672622,32.752429]}},{"properties":{"city":"Mesa","geo_score":0.806,"opening date":"6/5/2008","zip code":"85209-3400","id":"a62j88r1u5bn","geo_precision":"street","phone number":"(480) 333-6550","address":"1444 S Sossaman Rd","state":"Arizona","warehouse number":1028},"type":"Feature","geometry":{"type":"Point","coordinates":[-111.667522,33.386617]}},{"properties":{"city":"Phoenix","geo_score":1.0,"opening date":"11/11/2005","zip code":"85050-1300","id":"a62j88t7rk80","geo_precision":"range","phone number":"(480) 375-2850","address":"2450 E Beardsley Rd","state":"Arizona","warehouse number":738},"type":"Feature","geometry":{"type":"Point","coordinates":[-112.029858,33.669573]}},{"properties":{"city":"Phoenix","geo_score":0.49,"opening date":"6/22/2000","zip code":"85027-5036","id":"a62j88xi3ynd","geo_precision":"street","phone number":"(623) 293-4403","address":"19001 N. 27th Ave","state":"Arizona","warehouse number":490},"type":"Feature","geometry":{"type":"Point","coordinates":[-112.024437,33.824522]}},{"properties":{"city":"Phoenix","geo_score":0.633,"opening date":"11/20/2001","zip code":"85017-4508","id":"a62j890lrhmi","geo_precision":"street","phone number":"(480) 293-2123","address":"3801 N. 33rd Avenue","state":"Arizona","warehouse number":827},"type":"Feature","geometry":{"type":"Point","coordinates":[-112.130993,33.495061]}},{"properties":{"city":"Phoenix","geo_score":0.602,"opening date":"11/21/2000","zip code":"85015-2557","id":"a62j88uearoz","geo_precision":"street","phone number":"(602) 293-4524","address":"1646 W. Montebello","state":"Arizona","warehouse number":665},"type":"Feature","geometry":{"type":"Point","coordinates":[-112.093162,33.519647]}},{"properties":{"city":"Phoenix","geo_score":1.0,"opening date":"12/1/1994","zip code":"85008-2411","id":"a62j892ezibw","geo_precision":"range","phone number":"(602) 808-0101","address":"4502 East Oak Street","state":"Arizona","warehouse number":465},"type":"Feature","geometry":{"type":"Point","coordinates":[-111.984729,33.472933]}},{"properties":{"city":"Avondale","geo_score":0.61,"opening date":"10/11/2002","zip code":"85323","id":"a62j88s74e4x","geo_precision":"street","phone number":"(623) 907-5663","address":"10000 W. McDowell Road","state":"Arizona","warehouse number":691},"type":"Feature","geometry":{"type":"Point","coordinates":[-112.2613,33.464961]}},{"properties":{"city":"Phoenix","geo_score":0.902,"opening date":"9/18/2009","zip code":"85032","id":"a62j895d36hu","geo_precision":"range","phone number":"(480) 308-7044","address":"4570 E Cactus Rd","state":"Arizona","warehouse number":1058},"type":"Feature","geometry":{"type":"Point","coordinates":[-111.980931,33.598852]}},{"properties":{"city":"San Diego","geo_score":0.434,"opening date":"6/29/2000","zip code":"92108-4743","id":"a62j88tlkqzv","geo_precision":"street","phone number":"(619) 358-4003","address":"2345 Fenton Pkwy","state":"California","warehouse number":488},"type":"Feature","geometry":{"type":"Point","coordinates":[-117.200338,32.799414]}},{"properties":{"city":"Redding","geo_score":1.0,"opening date":"4/5/1990","zip code":"96003-4071","id":"a62j88tv1ifl","geo_precision":"range","phone number":"(530) 222-0199","address":"1300 Dana Drive","state":"California","warehouse number":133},"type":"Feature","geometry":{"type":"Point","coordinates":[-122.34777,40.585774]}},{"properties":{"city":"Chico","geo_score":0.602,"opening date":"9/28/2007","zip code":"95928-4422","id":"a62j88uujgjq","geo_precision":"street","phone number":"(530) 332-1740","address":"2100 Dr Martin Luther King Jr Way","state":"California","warehouse number":1011},"type":"Feature","geometry":{"type":"Point","coordinates":[-121.820821,39.726741]}},{"properties":{"city":"Sacramento","geo_score":0.922,"opening date":"2/1/1994","zip code":"95823-9606","id":"a62j890dcbid","geo_precision":"range","phone number":"(916) 682-3569","address":"7981 East Stockton Boulevard","state":"California","warehouse number":464},"type":"Feature","geometry":{"type":"Point","coordinates":[-121.41544,38.467769]}},{"properties":{"city":"Sacramento","geo_score":0.967,"opening date":"8/6/1984","zip code":"95815-4228","id":"a62j88txs5x7","geo_precision":"range","phone number":"(916) 563-7002","address":"1600 Expo Parkway","state":"California","warehouse number":471},"type":"Feature","geometry":{"type":"Point","coordinates":[-121.455223,38.597943]}},{"properties":{"city":"Woodland","geo_score":0.634,"opening date":"2/22/2008","zip code":"95776-5409","id":"a62j890uhocg","geo_precision":"street","phone number":"(530) 406-2120","address":"2299 Bronze Star Drive","state":"California","warehouse number":1003},"type":"Feature","geometry":{"type":"Point","coordinates":[-121.742824,38.664659]}},{"properties":{"city":"Rancho Cordova","geo_score":1.0,"opening date":"6/23/1990","zip code":"95742-6571","id":"a62j8968mg8f","geo_precision":"range","phone number":"(916) 724-2240","address":"11260 White Rock Road","state":"California","warehouse number":438},"type":"Feature","geometry":{"type":"Point","coordinates":[-121.263591,38.589941]}},{"properties":{"city":"Roseville","geo_score":0.734,"opening date":"11/10/1995","zip code":"95678-1907","id":"a62j88w5o3wm","geo_precision":"street","phone number":"(916) 789-1485","address":"6750 Stanford Ranch Road","state":"California","warehouse number":29},"type":"Feature","geometry":{"type":"Point","coordinates":[-121.269164,38.789933]}},{"properties":{"city":"Folsom","geo_score":0.447,"opening date":"5/23/2003","zip code":"95630-6235","id":"a62j8942e903","geo_precision":"street","phone number":"(916) 850-1000","address":"1800 Cavitt Court","state":"California","warehouse number":765},"type":"Feature","geometry":{"type":"Point","coordinates":[-121.70647,38.559051]}},{"properties":{"city":"Citrus Heights","geo_score":1.0,"opening date":"12/1/2003","zip code":"95621-4342","id":"a62j891ye8rn","geo_precision":"range","phone number":"(916) 560-4000","address":"7000 Auburn Blvd","state":"California","warehouse number":771},"type":"Feature","geometry":{"type":"Point","coordinates":[-121.295742,38.69271]}},{"properties":{"city":"Eureka","geo_score":0.92,"opening date":"11/3/1994","zip code":"95501-2121","id":"a62j88s9etlt","geo_precision":"range","phone number":"(707) 441-8750","address":"1006 West Wabash Avenue","state":"California","warehouse number":125},"type":"Feature","geometry":{"type":"Point","coordinates":[-124.179127,40.791517]}},{"properties":{"city":"Santa Rosa","geo_score":0.913,"opening date":"11/11/1986","zip code":"95407-7636","id":"a62j88ruasb6","geo_precision":"range","phone number":"(707) 566-6420","address":"1900 Santa Rosa Avenue","state":"California","warehouse number":41},"type":"Feature","geometry":{"type":"Point","coordinates":[-122.713491,38.420905]}},{"properties":{"city":"Modesto","geo_score":1.0,"opening date":"8/10/1989","zip code":"95356-8300","id":"a62j88x8enrl","geo_precision":"range","phone number":"(209) 342-4903","address":"3801 Pelandale Ave.","state":"California","warehouse number":661},"type":"Feature","geometry":{"type":"Point","coordinates":[-121.065449,37.700078]}},{"properties":{"city":"Merced","geo_score":0.902,"opening date":"12/2/1993","zip code":"95340-5850","id":"a62j88wc0li3","geo_precision":"range","phone number":"(209) 725-5020","address":"1445 R Street","state":"California","warehouse number":142},"type":"Feature","geometry":{"type":"Point","coordinates":[-120.494088,37.301894]}},{"properties":{"city":"Manteca","geo_score":0.61,"opening date":"8/14/2008","zip code":"95336-6745","id":"a62j895pagg9","geo_precision":"street","phone number":"(209) 825-8200","address":"2440 Daniels St","state":"California","warehouse number":1031},"type":"Feature","geometry":{"type":"Point","coordinates":[-121.245426,37.784669]}},{"properties":{"city":"Stockton","geo_score":0.0,"opening date":"10/23/1986","zip code":"95210-4119","id":"a62j890lvlem","geo_precision":"unmatched","phone number":"(209) 478-2045","address":"1616 East Hammer Lane","state":"California","warehouse number":38},"type":"Feature","geometry":null},{"properties":{"city":"San Jose","geo_score":0.0,"opening date":"8/23/2007","zip code":"95131-1866","id":"a62j88tedecj","geo_precision":"unmatched","phone number":"(408) 678-2150","address":"1709 Automation Parkway","state":"California","warehouse number":1004},"type":"Feature","geometry":null},{"properties":{"city":"San Jose","geo_score":0.0,"opening date":"10/30/1996","zip code":"95118-3603","id":"a62j88xe75ig","geo_precision":"unmatched","phone number":"(408) 723-0964","address":"5301 Almaden Expressway","state":"California","warehouse number":470},"type":"Feature","geometry":null},{"properties":{"city":"San Jose","geo_score":1.0,"opening date":"6/23/1994","zip code":"95112-2627","id":"a62j88sr9cno","geo_precision":"range","phone number":"(408) 275-0199","address":"2201 Senter Road","state":"California","warehouse number":148},"type":"Feature","geometry":{"type":"Point","coordinates":[-121.851219,37.311327]}},{"properties":{"city":"Santa Cruz","geo_score":0.911,"opening date":"8/18/1994","zip code":"95060-2161","id":"a62j8971aqy3","geo_precision":"range","phone number":"(831) 469-0961","address":"220 Sylvania Avenue","state":"California","warehouse number":149},"type":"Feature","geometry":{"type":"Point","coordinates":[-122.034915,36.984714]}},{"properties":{"city":"Santa Clara","geo_score":0.902,"opening date":"8/17/1995","zip code":"95050-3100","id":"a62j8929os0o","geo_precision":"range","phone number":"(408) 567-9000","address":"1601 Coleman Avenue","state":"California","warehouse number":129},"type":"Feature","geometry":{"type":"Point","coordinates":[-121.939489,37.358233]}},{"properties":{"city":"Novato","geo_score":0.912,"opening date":"3/11/1992","zip code":"94945-5007","id":"a62j89578gai","geo_precision":"range","phone number":"(415) 899-1332","address":"300 Vintage Way","state":"California","warehouse number":141},"type":"Feature","geometry":{"type":"Point","coordinates":[-122.553596,38.087356]}},{"properties":{"city":"Richmond","geo_score":1.0,"opening date":"7/27/1999","zip code":"94804-5878","id":"a62j88ykkz7j","geo_precision":"range","phone number":"(510) 898-2003","address":"4801 Central Avenue","state":"California","warehouse number":482},"type":"Feature","geometry":{"type":"Point","coordinates":[-122.321619,37.896789]}},{"properties":{"city":"Vallejo","geo_score":0.916,"opening date":"12/7/1989","zip code":"94591-3702","id":"a62j8934wgm7","geo_precision":"range","phone number":"(707) 553-6400","address":"198 Plaza Drive","state":"California","warehouse number":132},"type":"Feature","geometry":{"type":"Point","coordinates":[-122.21772,38.135394]}},{"properties":{"city":"Fairfield","geo_score":0.805,"opening date":"10/31/1992","zip code":"94585-1624","id":"a62j88tuwvvo","geo_precision":"range","phone number":"(707) 864-3816","address":"5101 Business Center Drive","state":"California","warehouse number":453},"type":"Feature","geometry":{"type":"Point","coordinates":[-122.141392,38.218222]}},{"properties":{"city":"San Leandro","geo_score":1.0,"opening date":"1/25/1996","zip code":"94577-1209","id":"a62j891j4bh1","geo_precision":"range","phone number":"(510) 562-6708","address":"1900 Davis Street","state":"California","warehouse number":118},"type":"Feature","geometry":{"type":"Point","coordinates":[-122.179898,37.718284]}},{"properties":{"city":"Livermore","geo_score":0.805,"opening date":"11/17/1993","zip code":"94550-7628","id":"a62j892i75xz","geo_precision":"range","phone number":"(925) 443-6306","address":"2800 Independence Drive","state":"California","warehouse number":146},"type":"Feature","geometry":{"type":"Point","coordinates":[-121.81195,37.704029]}},{"properties":{"city":"Hayward","geo_score":0.941,"opening date":"12/11/1997","zip code":"94541-4861","id":"a62j88sa3fjs","geo_precision":"range","phone number":"(510) 259-6600","address":"22330 Hathaway Avenue","state":"California","warehouse number":823},"type":"Feature","geometry":{"type":"Point","coordinates":[-122.103517,37.666782]}},{"properties":{"city":"Fremont","geo_score":0.668,"opening date":"3/17/2005","zip code":"94538-3809","id":"a62j895w8ky4","geo_precision":"street","phone number":"(510) 897-1091","address":"43621 Pacific Commons Blvd","state":"California","warehouse number":778},"type":"Feature","geometry":{"type":"Point","coordinates":[-121.970916,37.535998]}},{"properties":{"city":"Danville","geo_score":0.642,"opening date":"3/16/1989","zip code":"94526-5553","id":"a62j88synamn","geo_precision":"street","phone number":"(925) 277-0407","address":"3150 Fostoria Way","state":"California","warehouse number":21},"type":"Feature","geometry":{"type":"Point","coordinates":[-121.971285,37.783858]}},{"properties":{"city":"Antioch","geo_score":0.912,"opening date":"8/13/2008","zip code":"94509-7911","id":"a62j88ttji0e","geo_precision":"range","phone number":"(925) 470-4603","address":"2201 Verne Roberts Circle","state":"California","warehouse number":1002},"type":"Feature","geometry":{"type":"Point","coordinates":[-121.837681,38.009848]}},{"properties":{"city":"Foster City","geo_score":1.0,"opening date":"11/1/1993","zip code":"94404-2177","id":"a62j88r3ikj7","geo_precision":"range","phone number":"(650) 286-0739","address":"1001 Metro Center Boulevard","state":"California","warehouse number":147},"type":"Feature","geometry":{"type":"Point","coordinates":[-122.274711,37.560815]}},{"properties":{"city":"San Francisco","geo_score":0.902,"opening date":"11/18/1993","zip code":"94103-4304","id":"a62j8928uqiw","geo_precision":"range","phone number":"(415) 626-4388","address":"450 10th Street","state":"California","warehouse number":144},"type":"Feature","geometry":{"type":"Point","coordinates":[-122.410656,37.77095]}},{"properties":{"city":"Sunnyvale","geo_score":1.0,"opening date":"7/12/1986","zip code":"94086-5328","id":"a62j88xybmt5","geo_precision":"range","phone number":"(408) 470-8000","address":"150 Lawrence Station Road","state":"California","warehouse number":423},"type":"Feature","geometry":{"type":"Point","coordinates":[-121.996262,37.370953]}},{"properties":{"city":"South San Francisco","geo_score":0.0,"opening date":"5/18/1987","zip code":"94080-6909","id":"a62j88y6vqyc","geo_precision":"unmatched","phone number":"(650) 872-2021","address":"451 South Airport Boulevard","state":"California","warehouse number":422},"type":"Feature","geometry":null},{"properties":{"city":"South San Francisco","geo_score":0.0,"opening date":"10/25/2000","zip code":"94080-1206","id":"a62j88z30jpr","geo_precision":"unmatched","phone number":"(650) 757-3003","address":"1600 El Camino Real","state":"California","warehouse number":475},"type":"Feature","geometry":null},{"properties":{"city":"Mountain View","geo_score":1.0,"opening date":"12/9/1992","zip code":"94043-1716","id":"a62j88z7ie30","geo_precision":"range","phone number":"(650) 988-1841","address":"1000 North Rengstorff Avenue","state":"California","warehouse number":143},"type":"Feature","geometry":{"type":"Point","coordinates":[-122.09331,37.418919]}},{"properties":{"city":"Sand City","geo_score":1.0,"opening date":"11/16/1989","zip code":"93955-3051","id":"a62j89200wgq","geo_precision":"range","phone number":"(831) 899-1256","address":"801 Tioga Avenue","state":"California","warehouse number":131},"type":"Feature","geometry":{"type":"Point","coordinates":[-121.847492,36.617059]}},{"properties":{"city":"Salinas","geo_score":0.913,"opening date":"8/29/1997","zip code":"93907-1988","id":"a62j8940y1pf","geo_precision":"range","phone number":"(831) 424-4242","address":"1339 North Davis Road","state":"California","warehouse number":472},"type":"Feature","geometry":{"type":"Point","coordinates":[-121.666855,36.701524]}},{"properties":{"city":"Fresno","geo_score":0.89,"opening date":"9/12/1985","zip code":"93722-6200","id":"a62j894r7cn2","geo_precision":"range","phone number":"(559) 271-6511","address":"4500 W Shaw","state":"California","warehouse number":31},"type":"Feature","geometry":{"type":"Point","coordinates":[-119.874572,36.808223]}},{"properties":{"city":"Clovis","geo_score":0.0,"opening date":"11/19/1990","zip code":"93612-5611","id":"a62j895bov2h","geo_precision":"unmatched","phone number":"(559) 291-3377","address":"380 West Ashlan Avenue","state":"California","warehouse number":135},"type":"Feature","geometry":null},{"properties":{"city":"Lancaster","geo_score":0.93,"opening date":"2/20/2003","zip code":"93534-7077","id":"a62j894y6qri","geo_precision":"range","phone number":"(661) 802-4470","address":"1141 West Avenue L","state":"California","warehouse number":762},"type":"Feature","geometry":{"type":"Point","coordinates":[-118.150635,34.660279]}},{"properties":{"city":"Santa Maria","geo_score":0.854,"opening date":"11/22/1988","zip code":"93454-8006","id":"a62j891rxp7s","geo_precision":"range","phone number":"(805) 922-9887","address":"1335 South Bradley","state":"California","warehouse number":24},"type":"Feature","geometry":{"type":"Point","coordinates":[-120.419466,34.937228]}},{"properties":{"city":"San Luis Obispo","geo_score":1.0,"opening date":"9/15/2005","zip code":"93405-7211","id":"a62j88vyuqez","geo_precision":"range","phone number":"(805) 541-7000","address":"1540 Froom Ranch Way","state":"California","warehouse number":741},"type":"Feature","geometry":{"type":"Point","coordinates":[-120.68909,35.251722]}},{"properties":{"city":"Visalia","geo_score":0.583,"opening date":"11/1/2007","zip code":"93277-9527","id":"a62j8907q7sb","geo_precision":"street","phone number":"(559) 735-2400","address":"1405 W Cameron Ave","state":"California","warehouse number":1017},"type":"Feature","geometry":{"type":"Point","coordinates":[-119.356031,36.213246]}},{"properties":{"city":"Goleta","geo_score":0.0,"opening date":"11/24/1998","zip code":"93117-5905","id":"a62j88w6rxrj","geo_precision":"unmatched","phone number":"(805) 685-3199","address":"7095 Market Place Drive","state":"California","warehouse number":474},"type":"Feature","geometry":null},{"properties":{"city":"Oxnard","geo_score":0.805,"opening date":"11/18/1985","zip code":"93030-1813","id":"a62j8967vr59","geo_precision":"range","phone number":"(805) 983-4200","address":"2001 East Ventura Boulevard","state":"California","warehouse number":420},"type":"Feature","geometry":{"type":"Point","coordinates":[-119.161826,34.226323]}},{"properties":{"city":"Yorba Linda","geo_score":1.0,"opening date":"11/23/1991","zip code":"92887-4664","id":"a62j88rg4a64","geo_precision":"range","phone number":"(714) 282-6650","address":"22633 Savi Ranch Parkway","state":"California","warehouse number":445},"type":"Feature","geometry":{"type":"Point","coordinates":[-117.743519,33.874721]}},{"properties":{"city":"Corona","geo_score":1.0,"opening date":"11/7/1988","zip code":"92879-1291","id":"a62j88x2n78t","geo_precision":"range","phone number":"(951) 279-1190","address":"480 McKinley Street","state":"California","warehouse number":432},"type":"Feature","geometry":{"type":"Point","coordinates":[-117.520664,33.889837]}},{"properties":{"city":"Garden Grove","geo_score":1.0,"opening date":"9/1/1994","zip code":"92843-1206","id":"a62j890nop70","geo_precision":"range","phone number":"(714) 638-6308","address":"11000 Garden Grove Boulevard","state":"California","warehouse number":126},"type":"Feature","geometry":{"type":"Point","coordinates":[-117.94094,33.774162]}},{"properties":{"city":"Fullerton","geo_score":1.0,"opening date":"11/26/1984","zip code":"92832-3098","id":"a62j891phc44","geo_precision":"range","phone number":"(714) 738-7521","address":"900 South Harbor Boulevard","state":"California","warehouse number":418},"type":"Feature","geometry":{"type":"Point","coordinates":[-117.92422,33.862629]}},{"properties":{"city":"Tustin","geo_score":0.0,"opening date":"10/1/1992","zip code":"92782-8918","id":"a62j88qmrps6","geo_precision":"unmatched","phone number":"(714) 838-7895","address":"2655 El Camino Real","state":"California","warehouse number":122},"type":"Feature","geometry":null},{"properties":{"city":"Tustin","geo_score":0.487,"opening date":"6/7/2007","zip code":"92782-2708","id":"a62j88r2n1cr","geo_precision":"street","phone number":"(714) 338-1933","address":"2700 Park Ave","state":"California","warehouse number":1001},"type":"Feature","geometry":{"type":"Point","coordinates":[-117.88078,33.70972]}},{"properties":{"city":"Fountain Valley","geo_score":1.0,"opening date":"8/15/1983","zip code":"92708-5404","id":"a62j88rqwuqs","geo_precision":"range","phone number":"(714) 338-2183","address":"17900 Newhope Street","state":"California","warehouse number":411},"type":"Feature","geometry":{"type":"Point","coordinates":[-117.93453,33.703739]}},{"properties":{"city":"Laguna Niguel","geo_score":0.911,"opening date":"3/1/1990","zip code":"92677-1211","id":"a62j88u4tnt4","geo_precision":"range","phone number":"(949) 364-0217","address":"27972 Cabot Road","state":"California","warehouse number":28},"type":"Feature","geometry":{"type":"Point","coordinates":[-117.678964,33.556945]}},{"properties":{"city":"San Juan Capistrano","geo_score":0.585,"opening date":"12/4/1987","zip code":"92675-4836","id":"a62j891nxbiq","geo_precision":"street","phone number":"(949) 240-3558","address":"33961 Doheny Park Road","state":"California","warehouse number":429},"type":"Feature","geometry":{"type":"Point","coordinates":[-117.6824,33.48641]}},{"properties":{"city":"Irvine","geo_score":0.977,"opening date":"11/14/1992","zip code":"92618-2408","id":"a62j88xzwbc4","geo_precision":"range","phone number":"(949) 453-0435","address":"115 Technology West Drive","state":"California","warehouse number":454},"type":"Feature","geometry":{"type":"Point","coordinates":[-117.743595,33.661225]}},{"properties":{"city":"Moreno Valley","geo_score":0.962,"opening date":"9/26/1992","zip code":"92553-7531","id":"a62j8900s7dj","geo_precision":"range","phone number":"(951) 697-8900","address":"12700 Day Street","state":"California","warehouse number":455},"type":"Feature","geometry":{"type":"Point","coordinates":[-117.278842,33.93482]}},{"properties":{"city":"Lake Elsinore","geo_score":1.0,"opening date":"5/5/2006","zip code":"92532-2212","id":"a62j88zurzdy","geo_precision":"range","phone number":"(951) 253-6030","address":"29315 Central Ave","state":"California","warehouse number":746},"type":"Feature","geometry":{"type":"Point","coordinates":[-117.335027,33.694166]}},{"properties":{"city":"San Bernardino","geo_score":1.0,"opening date":"11/22/1998","zip code":"92408-2836","id":"a62j891iq8by","geo_precision":"range","phone number":"(909) 478-3445","address":"1099 East Hospitality Lane","state":"California","warehouse number":478},"type":"Feature","geometry":{"type":"Point","coordinates":[-117.263236,34.068979]}},{"properties":{"city":"Victorville","geo_score":0.826,"opening date":"10/2/2007","zip code":"92392-4216","id":"a62j88xstvp6","geo_precision":"range","phone number":"(760) 524-9904","address":"14555 Valley Center Drive","state":"California","warehouse number":1010},"type":"Feature","geometry":{"type":"Point","coordinates":[-117.319907,34.51516]}},{"properties":{"city":"El Centro","geo_score":0.817,"opening date":"5/14/1992","zip code":"92243-1323","id":"a62j895zy090","geo_precision":"range","phone number":"(760) 353-2380","address":"2030 North Imperial Avenue","state":"California","warehouse number":121},"type":"Feature","geometry":{"type":"Point","coordinates":[-115.569907,32.815204]}},{"properties":{"city":"Palm Desert","geo_score":0.805,"opening date":"3/9/1991","zip code":"92211-0817","id":"a62j8958155s","geo_precision":"street","phone number":"(760) 770-2810","address":"72-800 Dinah Shore Drive","state":"California","warehouse number":441},"type":"Feature","geometry":{"type":"Point","coordinates":[-116.392567,33.801854]}},{"properties":{"city":"San Diego","geo_score":0.805,"opening date":"10/23/1992","zip code":"92128-4697","id":"a62j896sw054","geo_precision":"range","phone number":"(858) 675-0248","address":"12350 Carmel Mountain Road","state":"California","warehouse number":452},"type":"Feature","geometry":{"type":"Point","coordinates":[-117.075406,32.987928]}},{"properties":{"city":"San Diego","geo_score":0.913,"opening date":"11/22/1999","zip code":"92102-4594","id":"a62j892zu6nm","geo_precision":"range","phone number":"(619) 358-2303","address":"650 Gateway Center Drive","state":"California","warehouse number":483},"type":"Feature","geometry":{"type":"Point","coordinates":[-117.11417,32.713194]}},{"properties":{"city":"Vista","geo_score":1.0,"opening date":"11/24/1993","zip code":"92081-4546","id":"a62j88rsbzk1","geo_precision":"range","phone number":"(760) 631-7255","address":"1755 Hacienda Drive","state":"California","warehouse number":124},"type":"Feature","geometry":{"type":"Point","coordinates":[-117.277311,33.187102]}},{"properties":{"city":"Santee","geo_score":1.0,"opening date":"9/9/1979","zip code":"92071-5899","id":"a62j88uvkgdh","geo_precision":"range","phone number":"(619) 562-3227","address":"101 Town Center Parkway","state":"California","warehouse number":403},"type":"Feature","geometry":{"type":"Point","coordinates":[-116.988708,32.840968]}},{"properties":{"city":"Poway","geo_score":1.0,"opening date":"6/26/2004","zip code":"92064-7156","id":"a62j88zmyri7","geo_precision":"range","phone number":"(858) 848-2450","address":"12155 Tech Center Drive","state":"California","warehouse number":775},"type":"Feature","geometry":{"type":"Point","coordinates":[-117.036539,32.936765]}},{"properties":{"city":"Carlsbad","geo_score":0.0,"opening date":"10/4/1992","zip code":"92011-1110","id":"a62j89445fdw","geo_precision":"unmatched","phone number":"(760) 929-0963","address":"951 Palomar Airport Road","state":"California","warehouse number":462},"type":"Feature","geometry":null},{"properties":{"city":"La Mesa","geo_score":0.913,"opening date":"11/19/1992","zip code":"91942-2934","id":"a62j894ss9ie","geo_precision":"range","phone number":"(619) 667-8504","address":"8125 Fletcher Parkway","state":"California","warehouse number":469},"type":"Feature","geometry":{"type":"Point","coordinates":[-117.022304,32.775507]}},{"properties":{"city":"Chula Vista","geo_score":1.0,"opening date":"9/1/2004","zip code":"91911-2707","id":"a62j88yt6igh","geo_precision":"range","phone number":"(619) 205-1501","address":"1130 Broadway","state":"California","warehouse number":781},"type":"Feature","geometry":{"type":"Point","coordinates":[-117.08098,32.609202]}},{"properties":{"city":"Chula Vista","geo_score":1.0,"opening date":"1/14/1994","zip code":"91910-7807","id":"a62j895q74ry","geo_precision":"range","phone number":"(619) 656-0826","address":"895 East H Street","state":"California","warehouse number":460},"type":"Feature","geometry":{"type":"Point","coordinates":[-117.021743,32.635806]}},{"properties":{"city":"Alhambra","geo_score":1.0,"opening date":"8/24/1987","zip code":"91803-1302","id":"a62j890z8ssi","geo_precision":"range","phone number":"(626) 289-7164","address":"2207 West Commonwealth Avenue","state":"California","warehouse number":428},"type":"Feature","geometry":{"type":"Point","coordinates":[-118.146838,34.087874]}},{"properties":{"city":"San Dimas","geo_score":1.0,"opening date":"5/16/2008","zip code":"91773-1725","id":"a62j88x6ia5t","geo_precision":"range","phone number":"(909) 962-5507","address":"520 N Lone Hill Ave","state":"California","warehouse number":1015},"type":"Feature","geometry":{"type":"Point","coordinates":[-117.828767,34.111879]}},{"properties":{"city":"Montclair","geo_score":1.0,"opening date":"12/11/2001","zip code":"91763-2421","id":"a62j88xyhlz8","geo_precision":"range","phone number":"(909) 575-5004","address":"9404 Central Avenue","state":"California","warehouse number":686},"type":"Feature","geometry":{"type":"Point","coordinates":[-117.689565,34.083399]}},{"properties":{"city":"City of Industry","geo_score":0.916,"opening date":"11/21/2001","zip code":"91748-1701","id":"a62j8902s8an","geo_precision":"range","phone number":"(626) 839-3053","address":"17550 Castleton St.","state":"California","warehouse number":679},"type":"Feature","geometry":{"type":"Point","coordinates":[-117.922917,33.994425]}},{"properties":{"city":"Rancho Cucamonga","geo_score":0.688,"opening date":"5/29/2002","zip code":"91739-9318","id":"a62j89695pzx","geo_precision":"range","phone number":"(909) 581-1703","address":"11800 4th Street","state":"California","warehouse number":678},"type":"Feature","geometry":{"type":"Point","coordinates":[-117.548085,34.077255]}},{"properties":{"city":"Chino Hills","geo_score":0.911,"opening date":"11/13/1997","zip code":"91709-6002","id":"a62j8906fjs5","geo_precision":"range","phone number":"(909) 464-2900","address":"13111 Peyton Drive","state":"California","warehouse number":473},"type":"Feature","geometry":{"type":"Point","coordinates":[-117.745556,34.015435]}},{"properties":{"city":"Azusa","geo_score":1.0,"opening date":"10/24/1983","zip code":"91702-2819","id":"a62j88x365hj","geo_precision":"range","phone number":"(626) 812-7911","address":"1220 West Foothill Boulevard","state":"California","warehouse number":412},"type":"Feature","geometry":{"type":"Point","coordinates":[-117.927633,34.133563]}},{"properties":{"city":"Burbank","geo_score":0.976,"opening date":"10/1/2001","zip code":"91506-1421","id":"a62j88rof4wh","geo_precision":"range","phone number":"(818) 557-3783","address":"1051 Burbank Blvd.","state":"California","warehouse number":677},"type":"Feature","geometry":{"type":"Point","coordinates":[-118.323449,34.183626]}},{"properties":{"city":"Van Nuys","geo_score":1.0,"opening date":"11/9/1989","zip code":"91411-2503","id":"a62j88up4icv","geo_precision":"range","phone number":"(818) 464-1480","address":"6100 Sepulveda Boulevard","state":"California","warehouse number":48},"type":"Feature","geometry":{"type":"Point","coordinates":[-118.466175,34.181047]}},{"properties":{"city":"Santa Clarita","geo_score":0.0,"opening date":"5/30/1992","zip code":"91387-4935","id":"a62j892m153j","geo_precision":"unmatched","phone number":"(661) 250-2818","address":"18649 Via Princessa","state":"California","warehouse number":447},"type":"Feature","geometry":null},{"properties":{"city":"Westlake Village","geo_score":0.915,"opening date":"8/8/1996","zip code":"91362-4063","id":"a62j88vltlh0","geo_precision":"range","phone number":"(818) 597-3901","address":"5700 Lindero Canyon Road","state":"California","warehouse number":117},"type":"Feature","geometry":{"type":"Point","coordinates":[-118.798311,34.153392]}},{"properties":{"city":"Northridge","geo_score":1.0,"opening date":"9/23/1989","zip code":"91324-3519","id":"a62j88zlh10t","geo_precision":"range","phone number":"(818) 775-1860","address":"8810 Tampa Avenue","state":"California","warehouse number":437},"type":"Feature","geometry":{"type":"Point","coordinates":[-118.553563,34.230133]}},{"properties":{"city":"Canoga Park","geo_score":0.912,"opening date":"12/18/1986","zip code":"91304-4200","id":"a62j893g95pj","geo_precision":"range","phone number":"(818) 884-9099","address":"21300 Roscoe Boulevard","state":"California","warehouse number":44},"type":"Feature","geometry":{"type":"Point","coordinates":[-118.595061,34.219829]}},{"properties":{"city":"Signal Hill","geo_score":0.708,"opening date":"11/24/1986","zip code":"90806-2132","id":"a62j895i0loa","geo_precision":"street","phone number":"(562) 427-2537","address":"2200 East Willow Street","state":"California","warehouse number":424},"type":"Feature","geometry":{"type":"Point","coordinates":[-118.16977,33.804302]}},{"properties":{"city":"Lakewood","geo_score":0.81,"opening date":"2/26/2009","zip code":"90712-2409","id":"a62j8907pric","geo_precision":"street","phone number":"(562) 295-1506","address":"340 Lakewood Center Mall","state":"California","warehouse number":1050},"type":"Feature","geometry":{"type":"Point","coordinates":[-118.140478,33.852933]}},{"properties":{"city":"Norwalk","geo_score":0.912,"opening date":"4/18/1983","zip code":"90650-2266","id":"a62j893ltcfk","geo_precision":"range","phone number":"(562) 929-0826","address":"12324 Hoxie Avenue","state":"California","warehouse number":410},"type":"Feature","geometry":{"type":"Point","coordinates":[-118.103632,33.919556]}},{"properties":{"city":"Montebello","geo_score":1.0,"opening date":"11/6/1993","zip code":"90640-2585","id":"a62j893gmge5","geo_precision":"range","phone number":"(323) 890-1904","address":"1345 North Montebello Boulevard","state":"California","warehouse number":459},"type":"Feature","geometry":{"type":"Point","coordinates":[-118.10028,34.030319]}},{"properties":{"city":"La Habra","geo_score":0.951,"opening date":"10/26/2005","zip code":"90631-4468","id":"a62j893ac4t7","geo_precision":"range","phone number":"(562) 524-0001","address":"101 N Beach Blvd","state":"California","warehouse number":777},"type":"Feature","geometry":{"type":"Point","coordinates":[-117.967986,33.931839]}},{"properties":{"city":"Torrance","geo_score":1.0,"opening date":"9/24/1998","zip code":"90505-5351","id":"a62j88vjblbu","geo_precision":"range","phone number":"(310) 891-1020","address":"2751 Sky Park Drive","state":"California","warehouse number":476},"type":"Feature","geometry":{"type":"Point","coordinates":[-118.333185,33.803493]}},{"properties":{"city":"Inglewood","geo_score":1.0,"opening date":"10/30/2003","zip code":"90303-1201","id":"a62j895hznjw","geo_precision":"range","phone number":"(310) 242-2777","address":"3560 West Century Blvd","state":"California","warehouse number":769},"type":"Feature","geometry":{"type":"Point","coordinates":[-118.334354,33.945466]}},{"properties":{"city":"Marina del Rey","geo_score":1.0,"opening date":"6/24/1999","zip code":"90292-5658","id":"a62j88vve66q","geo_precision":"range","phone number":"(310) 754-2003","address":"13463 Washington Boulevard","state":"California","warehouse number":479},"type":"Feature","geometry":{"type":"Point","coordinates":[-118.445262,33.991456]}},{"properties":{"city":"Hawthorne","geo_score":0.913,"opening date":"12/5/2000","zip code":"90250-6748","id":"a62j892wt253","geo_precision":"range","phone number":"(310) 727-0403","address":"14501 Hindry Avenue","state":"California","warehouse number":671},"type":"Feature","geometry":{"type":"Point","coordinates":[-118.372114,33.900075]}},{"properties":{"city":"Los Angeles","geo_score":0.902,"opening date":"11/15/1996","zip code":"90039-1502","id":"a62j88xibjru","geo_precision":"street","phone number":"(323) 644-5201","address":"2901 Los Feliz Boulevard","state":"California","warehouse number":130},"type":"Feature","geometry":{"type":"Point","coordinates":[-118.262866,34.126475]}},{"properties":{"city":"Vacaville","geo_score":1.0,"opening date":"12/6/2002","zip code":"95687","id":"a62j88rxtiga","geo_precision":"range","phone number":"(707) 453-7343","address":"1051 Hume Way","state":"California","warehouse number":694},"type":"Feature","geometry":{"type":"Point","coordinates":[-121.981832,38.350673]}},{"properties":{"city":"Turlock","geo_score":0.806,"opening date":"8/26/2004","zip code":"95380","id":"a62j88zmwmzv","geo_precision":"street","phone number":"(209) 656-5301","address":"2955 North Tegner Road","state":"California","warehouse number":782},"type":"Feature","geometry":{"type":"Point","coordinates":[-120.885531,37.517365]}},{"properties":{"city":"Tracy","geo_score":0.482,"opening date":"9/17/2002","zip code":"95377","id":"a62j892rxvbr","geo_precision":"street","phone number":"(209) 830-5340","address":"3250 W. Grant Line Road","state":"California","warehouse number":658},"type":"Feature","geometry":{"type":"Point","coordinates":[-121.306049,37.696478]}},{"properties":{"city":"Gilroy","geo_score":0.0,"opening date":"3/1/2003","zip code":"95020","id":"a62j894zl8kk","geo_precision":"unmatched","phone number":"(408) 848-0700","address":"7251 Camino Arroyo","state":"California","warehouse number":760},"type":"Feature","geometry":null},{"properties":{"city":"Rohnert Park","geo_score":0.807,"opening date":"9/18/2002","zip code":"94928","id":"a62j88zilxw3","geo_precision":"street","phone number":"(707) 540-9113","address":"5901 Redwood Drive","state":"California","warehouse number":659},"type":"Feature","geometry":{"type":"Point","coordinates":[-122.716211,38.35122]}},{"properties":{"city":"Hayward","geo_score":1.0,"opening date":"11/24/2009","zip code":"94545","id":"a62j88yoid5u","geo_precision":"range","phone number":"(510) 921-3126","address":"28505 Hesperian Blvd","state":"California","warehouse number":1061},"type":"Feature","geometry":{"type":"Point","coordinates":[-122.089614,37.619178]}},{"properties":{"city":"Redwood City","geo_score":0.0,"opening date":"10/21/2009","zip code":"94063","id":"a62j88tocna0","geo_precision":"unmatched","phone number":"(650) 568-4040","address":"2300 Middlefield Rd","state":"California","warehouse number":1042},"type":"Feature","geometry":null},{"properties":{"city":"Fresno","geo_score":0.633,"opening date":"11/26/2002","zip code":"93720","id":"a62j88y54tr3","geo_precision":"street","phone number":"(559) 437-3643","address":"7100 N. Abby Street","state":"California","warehouse number":657},"type":"Feature","geometry":{"type":"Point","coordinates":[-119.790256,36.838671]}},{"properties":{"city":"Bakersfield","geo_score":0.805,"opening date":"4/26/2006","zip code":"93308","id":"a62j892nu8vb","geo_precision":"range","phone number":"(661) 398-4750","address":"4900 Panama Lane","state":"California","warehouse number":643},"type":"Feature","geometry":{"type":"Point","coordinates":[-119.056677,35.295957]}},{"properties":{"city":"Bakersfield","geo_score":0.911,"opening date":"8/8/2002","zip code":"93308","id":"a62j8919e5ty","geo_precision":"range","phone number":"(661) 852-2643","address":"3800 Rosedale Highway","state":"California","warehouse number":688},"type":"Feature","geometry":{"type":"Point","coordinates":[-119.049486,35.383248]}},{"properties":{"city":"Laguna Niguel","geo_score":0.869,"opening date":"6/6/2002","zip code":"92677","id":"a62j88r0bwz9","geo_precision":"range","phone number":"(949) 389-8703","address":"27220 Heather Ridge Road","state":"California","warehouse number":690},"type":"Feature","geometry":{"type":"Point","coordinates":[-117.711953,33.568797]}},{"properties":{"city":"Temecula","geo_score":1.0,"opening date":"8/31/2000","zip code":"92591","id":"a62j88sosvr9","geo_precision":"range","phone number":"(951) 719-2000","address":"26610 Ynez Road","state":"California","warehouse number":491},"type":"Feature","geometry":{"type":"Point","coordinates":[-117.15645,33.519998]}},{"properties":{"city":"Fontana","geo_score":0.668,"opening date":"11/17/2006","zip code":"92336","id":"a62j88r6mirc","geo_precision":"street","phone number":"(909) 770-5639","address":"16505 Sierra Lakes Parkway","state":"California","warehouse number":627},"type":"Feature","geometry":{"type":"Point","coordinates":[-117.435837,34.106619]}},{"properties":{"city":"La Quinta","geo_score":0.927,"opening date":"11/22/2006","zip code":"92253","id":"a62j893l21kz","geo_precision":"range","phone number":"(760) 775-0370","address":"79795 Hwy 111","state":"California","warehouse number":638},"type":"Feature","geometry":{"type":"Point","coordinates":[-116.269879,33.707375]}},{"properties":{"city":"San Diego","geo_score":1.0,"opening date":"7/12/1976","zip code":"92117","id":"a62j891a6qth","geo_precision":"range","phone number":"(858) 270-6920","address":"4605 Morena Boulevard","state":"California","warehouse number":401},"type":"Feature","geometry":{"type":"Point","coordinates":[-117.226983,32.822364]}},{"properties":{"city":"San Diego","geo_score":0.932,"opening date":"9/15/2010","zip code":"92111","id":"a62j88stg5fv","geo_precision":"range","phone number":"(858) 810-5833","address":"7803 Othello Ave","state":"California","warehouse number":578},"type":"Feature","geometry":{"type":"Point","coordinates":[-117.155834,32.817123]}},{"properties":{"city":"Pacoima","geo_score":0.683,"opening date":"3/4/2010","zip code":"91331","id":"a62j88wv3axj","geo_precision":"street","phone number":"(818) 272-2700","address":"13550 W Paxton St","state":"California","warehouse number":1071},"type":"Feature","geometry":{"type":"Point","coordinates":[-118.408143,34.28682]}},{"properties":{"city":"Cypress","geo_score":0.902,"opening date":"7/14/2005","zip code":"90720","id":"a62j893xr4zy","geo_precision":"range","phone number":"(562) 668-5150","address":"5401 Katella Ave","state":"California","warehouse number":748},"type":"Feature","geometry":{"type":"Point","coordinates":[-118.037267,33.803051]}},{"properties":{"city":"Hawthorne","geo_score":0.0,"opening date":"3/20/2009","zip code":"90250","id":"a62j894d6peo","geo_precision":"unmatched","phone number":"(310) 220-8826","address":"12530 Prairie Ave","state":"California","warehouse number":564},"type":"Feature","geometry":null},{"properties":{"city":"Commerce","geo_score":1.0,"opening date":"7/23/2009","zip code":"90040","id":"a62j896f7f90","geo_precision":"range","phone number":"(323) 767-2640","address":"6333 Telegraph Rd","state":"California","warehouse number":569},"type":"Feature","geometry":{"type":"Point","coordinates":[-118.143155,33.99474]}},{"properties":{"city":"Gypsum","geo_score":0.794,"opening date":"10/20/2006","zip code":"81637-9707","id":"a62j89529vwp","geo_precision":"range","phone number":"(970) 328-7601","address":"170 Cooley Mesa Rd","state":"Colorado","warehouse number":637},"type":"Feature","geometry":{"type":"Point","coordinates":[-106.947687,39.638233]}},{"properties":{"city":"Colorado Springs","geo_score":0.488,"opening date":"2/20/2008","zip code":"80922-3512","id":"a62j895j70uq","geo_precision":"street","phone number":"(719) 591-3000","address":"5885 Barnes Road","state":"Colorado","warehouse number":1014},"type":"Feature","geometry":{"type":"Point","coordinates":[-104.725352,38.894843]}},{"properties":{"city":"Parker","geo_score":0.719,"opening date":"8/22/2008","zip code":"80138-8876","id":"a62j88x7n8b1","geo_precision":"street","phone number":"(303) 583-1937","address":"18414 Cottonwood Dr","state":"Colorado","warehouse number":1022},"type":"Feature","geometry":{"type":"Point","coordinates":[-104.632975,39.535844]}},{"properties":{"city":"Littleton","geo_score":0.909,"opening date":"11/20/1997","zip code":"80124-5129","id":"a62j88s0dv1c","geo_precision":"range","phone number":"(303) 708-0012","address":"8686 Park Meadows Center Drive","state":"Colorado","warehouse number":468},"type":"Feature","geometry":{"type":"Point","coordinates":[-104.874256,39.565259]}},{"properties":{"city":"Littleton","geo_score":0.0,"opening date":"8/3/1991","zip code":"80123-2472","id":"a62j890ah2wd","geo_precision":"unmatched","phone number":"(303) 933-4931","address":"7900 West Quincy Avenue","state":"Colorado","warehouse number":443},"type":"Feature","geometry":null},{"properties":{"city":"Sheridan","geo_score":0.645,"opening date":"8/21/2008","zip code":"80110-3316","id":"a62j88t58njo","geo_precision":"street","phone number":"(303) 200-1830","address":"4000 River Point Parkway","state":"Colorado","warehouse number":1027},"type":"Feature","geometry":{"type":"Point","coordinates":[-104.731814,39.597756]}},{"properties":{"city":"Westminster","geo_score":0.927,"opening date":"11/3/1990","zip code":"80031-2952","id":"a62j8942qazi","geo_precision":"range","phone number":"(303) 650-1476","address":"6400 West 92nd Avenue","state":"Colorado","warehouse number":440},"type":"Feature","geometry":{"type":"Point","coordinates":[-105.067497,39.863732]}},{"properties":{"city":"Superior","geo_score":0.806,"opening date":"4/15/1999","zip code":"80027-9730","id":"a62j88rbdnm5","geo_precision":"street","phone number":"(720) 587-1000","address":"600 Marshall Road","state":"Colorado","warehouse number":480},"type":"Feature","geometry":{"type":"Point","coordinates":[-105.236562,39.968412]}},{"properties":{"city":"Thornton","geo_score":0.892,"opening date":"2/21/2007","zip code":"80023-8907","id":"a62j890z4xw2","geo_precision":"range","phone number":"(303) 474-3245","address":"16375 N Washington St","state":"Colorado","warehouse number":629},"type":"Feature","geometry":{"type":"Point","coordinates":[-104.978258,39.992115]}},{"properties":{"city":"Aurora","geo_score":0.935,"opening date":"11/3/1990","zip code":"80012-4013","id":"a62j88rr5nap","geo_precision":"range","phone number":"(303) 750-2116","address":"1471 South Havana","state":"Colorado","warehouse number":439},"type":"Feature","geometry":{"type":"Point","coordinates":[-104.865963,39.689691]}},{"properties":{"city":"Arvada","geo_score":1.0,"opening date":"9/19/2001","zip code":"80002-4617","id":"a62j88zgpify","geo_precision":"range","phone number":"(303) 463-3603","address":"5195 Wadsworth Blvd.","state":"Colorado","warehouse number":676},"type":"Feature","geometry":{"type":"Point","coordinates":[-105.081305,39.79114]}},{"properties":{"city":"Colorado Springs","geo_score":1.0,"opening date":"10/29/2009","zip code":"80918","id":"a62j88ub6o1i","geo_precision":"range","phone number":"(719) 264-5010","address":"5050 N Nevada Ave","state":"Colorado","warehouse number":1030},"type":"Feature","geometry":{"type":"Point","coordinates":[-104.817244,38.903518]}},{"properties":{"city":"Norwalk","geo_score":0.959,"opening date":"5/9/2001","zip code":"06854-1615","id":"a62j894mrtqd","geo_precision":"range","phone number":"(203) 822-2000","address":"779 Connecticut Ave","state":"Connecticut","warehouse number":324},"type":"Feature","geometry":{"type":"Point","coordinates":[-73.453067,41.092281]}},{"properties":{"city":"Brookfield","geo_score":0.915,"opening date":"11/21/1991","zip code":"06804-2527","id":"a62j891jmhpe","geo_precision":"range","phone number":"(203) 740-7623","address":"200 Federal Road","state":"Connecticut","warehouse number":304},"type":"Feature","geometry":{"type":"Point","coordinates":[-73.405053,41.442395]}},{"properties":{"city":"Waterbury","geo_score":1.0,"opening date":"10/13/1993","zip code":"06705-3851","id":"a62j8902c1lu","geo_precision":"range","phone number":"(203) 596-9967","address":"3600 East Main Street","state":"Connecticut","warehouse number":313},"type":"Feature","geometry":{"type":"Point","coordinates":[-72.969129,41.5426]}},{"properties":{"city":"Milford","geo_score":0.922,"opening date":"4/22/1993","zip code":"06460-2718","id":"a62j88y220m8","geo_precision":"range","phone number":"(203) 882-8881","address":"1718 Boston Post Road","state":"Connecticut","warehouse number":312},"type":"Feature","geometry":{"type":"Point","coordinates":[-73.023173,41.249326]}},{"properties":{"city":"Enfield","geo_score":0.909,"opening date":"7/29/2004","zip code":"06082-3854","id":"a62j893r7swe","geo_precision":"range","phone number":"(860) 394-2001","address":"75 Freshwater Blvd","state":"Connecticut","warehouse number":780},"type":"Feature","geometry":{"type":"Point","coordinates":[-72.576875,41.990705]}},{"properties":{"city":"Newark","geo_score":0.752,"opening date":"10/1/1998","zip code":"19702-3221","id":"a62j8921b394","geo_precision":"range","phone number":"(302) 894-0511","address":"900 Center Boulevard","state":"Delaware","warehouse number":246},"type":"Feature","geometry":{"type":"Point","coordinates":[-75.616105,39.67179]}},{"properties":{"city":"Boca Raton","geo_score":0.715,"opening date":"11/8/2002","zip code":"33487","id":"a62j88twnu2k","geo_precision":"street","phone number":"(561) 981-5004","address":"17800 Congress Avenue","state":"Florida","warehouse number":345},"type":"Feature","geometry":{"type":"Point","coordinates":[-80.092282,26.423994]}},{"properties":{"city":"Naples","geo_score":1.0,"opening date":"12/7/1999","zip code":"34109-2030","id":"a62j896evcsc","geo_precision":"range","phone number":"(239) 596-6404","address":"6275 Naples Boulevard","state":"Florida","warehouse number":354},"type":"Feature","geometry":{"type":"Point","coordinates":[-81.768608,26.218991]}},{"properties":{"city":"Fort Myers","geo_score":0.561,"opening date":"4/12/2007","zip code":"33913-8961","id":"a62j88xglgro","geo_precision":"street","phone number":"(239) 433-7242","address":"10088 Gulf Center Drive","state":"Florida","warehouse number":621},"type":"Feature","geometry":{"type":"Point","coordinates":[-81.659386,26.554481]}},{"properties":{"city":"Fort Myers","geo_score":1.0,"opening date":"9/30/1999","zip code":"33907-6521","id":"a62j893ar52t","geo_precision":"range","phone number":"(239) 415-3806","address":"7171 Cypress Lake Drive","state":"Florida","warehouse number":351},"type":"Feature","geometry":{"type":"Point","coordinates":[-81.875369,26.546132]}},{"properties":{"city":"Brandon","geo_score":0.626,"opening date":"11/28/2000","zip code":"33511-2903","id":"a62j895gliu0","geo_precision":"street","phone number":"(813) 952-0103","address":"10921 Causeway Blvd.","state":"Florida","warehouse number":358},"type":"Feature","geometry":{"type":"Point","coordinates":[-82.332864,27.923069]}},{"properties":{"city":"Lantana","geo_score":0.902,"opening date":"8/20/1991","zip code":"33462-2698","id":"a62j892jsuav","geo_precision":"range","phone number":"(561) 533-0958","address":"1873 West Lantana Road","state":"Florida","warehouse number":180},"type":"Feature","geometry":{"type":"Point","coordinates":[-80.072851,26.587383]}},{"properties":{"city":"Royal Palm Beach","geo_score":0.0,"opening date":"4/13/2007","zip code":"33411-4240","id":"a62j88v5pee7","geo_precision":"unmatched","phone number":"(561) 803-8820","address":"11001 Southern Blvd - Ste 160","state":"Florida","warehouse number":623},"type":"Feature","geometry":null},{"properties":{"city":"Lake Park","geo_score":0.0,"opening date":"5/18/1989","zip code":"33403-1702","id":"a62j893izinz","geo_precision":"unmatched","phone number":"(561) 624-1693","address":"3250 Northlake Boulevard","state":"Florida","warehouse number":93},"type":"Feature","geometry":null},{"properties":{"city":"Davie","geo_score":0.916,"opening date":"8/17/1989","zip code":"33324-5847","id":"a62j88sdnwra","geo_precision":"range","phone number":"(954) 370-8990","address":"1890 South University Drive","state":"Florida","warehouse number":91},"type":"Feature","geometry":{"type":"Point","coordinates":[-80.251077,26.097457]}},{"properties":{"city":"Kendall","geo_score":0.725,"opening date":"5/30/2008","zip code":"33186-7393","id":"a62j893l1ywm","geo_precision":"street","phone number":"(305) 964-4227","address":"13450 SW 120th St","state":"Florida","warehouse number":1023},"type":"Feature","geometry":{"type":"Point","coordinates":[-80.410214,25.656499]}},{"properties":{"city":"North Miami Beach","geo_score":0.0,"opening date":"12/12/1992","zip code":"33181-1209","id":"a62j88yd9l3m","geo_precision":"unmatched","phone number":"(305) 944-8711","address":"14585 Biscayne Boulevard","state":"Florida","warehouse number":182},"type":"Feature","geometry":null},{"properties":{"city":"Miami","geo_score":0.552,"opening date":"10/26/1989","zip code":"33126-3832","id":"a62j88zt2efr","geo_precision":"street","phone number":"(305) 267-0641","address":"8300 Park Boulevard","state":"Florida","warehouse number":92},"type":"Feature","geometry":{"type":"Point","coordinates":[-80.336537,25.773207]}},{"properties":{"city":"Pompano Beach","geo_score":0.0,"opening date":"11/29/1988","zip code":"33064-1324","id":"a62j88wg6ndy","geo_precision":"unmatched","phone number":"(954) 968-7114","address":"1800 West Sample Road","state":"Florida","warehouse number":88},"type":"Feature","geometry":null},{"properties":{"city":"Pembroke Pines","geo_score":0.91,"opening date":"10/14/2005","zip code":"33027-1201","id":"a62j88vcfku2","geo_precision":"range","phone number":"(954) 266-3460","address":"15915 Pines Blvd","state":"Florida","warehouse number":742},"type":"Feature","geometry":{"type":"Point","coordinates":[-80.3582,26.007758]}},{"properties":{"city":"Miami","geo_score":0.634,"opening date":"12/12/1992","zip code":"33014-5611","id":"a62j88zywnt4","geo_precision":"zip","phone number":"(305) 825-9818","address":"16580 NW 59th Avenue","state":"Florida","warehouse number":181},"type":"Feature","geometry":{"type":"Point","coordinates":[-80.308662,25.908706]}},{"properties":{"city":"Orlando","geo_score":0.941,"opening date":"8/25/1999","zip code":"32837-9283","id":"a62j88qmnc8d","geo_precision":"range","phone number":"(407) 393-1003","address":"2101 Water Bridge Blvd","state":"Florida","warehouse number":184},"type":"Feature","geometry":{"type":"Point","coordinates":[-81.406441,28.403657]}},{"properties":{"city":"Winter Park","geo_score":0.0,"opening date":"12/8/1999","zip code":"32792-7428","id":"a62j8950an9o","geo_precision":"unmatched","phone number":"(407) 681-2119","address":"3333 University Boulevard","state":"Florida","warehouse number":185},"type":"Feature","geometry":null},{"properties":{"city":"Altamonte Springs","geo_score":0.0,"opening date":"9/20/1996","zip code":"32714-3031","id":"a62j88y2yft5","geo_precision":"unmatched","phone number":"(407) 786-7802","address":"741 Orange Avenue","state":"Florida","warehouse number":183},"type":"Feature","geometry":null},{"properties":{"city":"Tallahassee","geo_score":0.683,"opening date":"4/9/2008","zip code":"32317-1201","id":"a62j88s85wqy","geo_precision":"zip","phone number":"(850) 219-2500","address":"4067 Lagniappe Way","state":"Florida","warehouse number":1026},"type":"Feature","geometry":{"type":"Point","coordinates":[-84.346204,30.479347]}},{"properties":{"city":"Jacksonville","geo_score":0.651,"opening date":"11/29/2000","zip code":"32246-4405","id":"a62j88yoau15","geo_precision":"street","phone number":"(904) 997-7003","address":"4901 Gate Parkway","state":"Florida","warehouse number":357},"type":"Feature","geometry":{"type":"Point","coordinates":[-81.536071,30.252619]}},{"properties":{"city":"Clearwater","geo_score":0.0,"opening date":"5/15/2003","zip code":"33759","id":"a62j88yd5dun","geo_precision":"unmatched","phone number":"(727) 373-1951","address":"2655 Gulf to Bay Blvd.","state":"Florida","warehouse number":336},"type":"Feature","geometry":null},{"properties":{"city":"Ringgold","geo_score":0.0,"opening date":"10/27/2010","zip code":"30742","id":"a62j88zyqss8","geo_precision":"unmatched","phone number":"(706) 891-2577","address":"100 Cobb Parkway","state":"Georgia","warehouse number":1083},"type":"Feature","geometry":null},{"properties":{"city":"Buford","geo_score":0.455,"opening date":"5/3/2006","zip code":"30519-6551","id":"a62j88rsy8dg","geo_precision":"street","phone number":"(678) 288-3009","address":"1550 Mall of Georgia Blvd","state":"Georgia","warehouse number":366},"type":"Feature","geometry":{"type":"Point","coordinates":[-83.82242,34.282783]}},{"properties":{"city":"Atlanta","geo_score":0.805,"opening date":"11/15/2006","zip code":"30339-8107","id":"a62j88tbmfek","geo_precision":"street","phone number":"(770) 431-1700","address":"2900 Cumberland Mall","state":"Georgia","warehouse number":631},"type":"Feature","geometry":{"type":"Point","coordinates":[-84.471066,33.879756]}},{"properties":{"city":"Atlanta","geo_score":0.475,"opening date":"11/13/1996","zip code":"30328-4527","id":"a62j88ybdvjb","geo_precision":"street","phone number":"(770) 352-8660","address":"6350 Peachtree Dunwoody Rd N.E.","state":"Georgia","warehouse number":188},"type":"Feature","geometry":{"type":"Point","coordinates":[-84.351284,33.915717]}},{"properties":{"city":"Morrow","geo_score":0.902,"opening date":"9/29/1999","zip code":"30260-3014","id":"a62j88t3uofr","geo_precision":"range","phone number":"(678) 201-0003","address":"1700 Mount Zion Road","state":"Georgia","warehouse number":186},"type":"Feature","geometry":{"type":"Point","coordinates":[-84.335505,33.571267]}},{"properties":{"city":"Kennesaw","geo_score":0.683,"opening date":"9/13/1997","zip code":"30144-4922","id":"a62j88rtpsmj","geo_precision":"zip","phone number":"(770) 794-1767","address":"645 Barrett Parkway","state":"Georgia","warehouse number":189},"type":"Feature","geometry":{"type":"Point","coordinates":[-84.597433,34.03384]}},{"properties":{"city":"Duluth","geo_score":0.947,"opening date":"11/13/1996","zip code":"30096-5077","id":"a62j88w23mdl","geo_precision":"range","phone number":"(770) 622-1330","address":"3980 Venture Drive","state":"Georgia","warehouse number":187},"type":"Feature","geometry":{"type":"Point","coordinates":[-84.135459,33.952214]}},{"properties":{"city":"Alpharetta","geo_score":0.809,"opening date":"6/4/2005","zip code":"30004-3869","id":"a62j88r5ypd8","geo_precision":"street","phone number":"(678) 823-4950","address":"2855 Jordan Ct","state":"Georgia","warehouse number":743},"type":"Feature","geometry":{"type":"Point","coordinates":[-84.273913,34.088375]}},{"properties":{"city":"Atlanta","geo_score":0.702,"opening date":"10/28/2010","zip code":"30319","id":"a62j890wgjdv","geo_precision":"street","phone number":"(404) 460-1915","address":"500 Brookhaven Ave","state":"Georgia","warehouse number":1084},"type":"Feature","geometry":{"type":"Point","coordinates":[-84.339676,33.860689]}},{"properties":{"city":"Kailua-Kona (Hawaii)","geo_score":0.646,"opening date":"11/22/1993","zip code":"96740-2630","id":"a62j892llej5","geo_precision":"street","phone number":"(808) 331-4800","address":"73-5600 Maiau Street","state":"Hawaii","warehouse number":140},"type":"Feature","geometry":{"type":"Point","coordinates":[-156.01999,19.68665]}},{"properties":{"city":"Honolulu (Oahu)","geo_score":0.919,"opening date":"9/3/1992","zip code":"96825-3428","id":"a62j88vsl555","geo_precision":"range","phone number":"(808) 396-5538","address":"333A Keahole Street","state":"Hawaii","warehouse number":120},"type":"Feature","geometry":{"type":"Point","coordinates":[-157.710157,21.284786]}},{"properties":{"city":"Waipahu (Oahu)","geo_score":0.61,"opening date":"7/20/2000","zip code":"96797-4495","id":"a62j88qv9zph","geo_precision":"street","phone number":"(808) 678-6103","address":"94-1231 Ka Uka Blvd","state":"Hawaii","warehouse number":485},"type":"Feature","geometry":{"type":"Point","coordinates":[-158.005755,21.41942]}},{"properties":{"city":"Lihue","geo_score":0.723,"opening date":"10/17/2006","zip code":"96766-8002","id":"a62j88xu3asm","geo_precision":"street","phone number":"(808) 241-4000","address":"4300 Nuhou St","state":"Hawaii","warehouse number":640},"type":"Feature","geometry":{"type":"Point","coordinates":[-159.37555,21.96324]}},{"properties":{"city":"Kahului (Maui)","geo_score":0.965,"opening date":"5/26/1995","zip code":"96732-2302","id":"a62j895xdwzr","geo_precision":"range","phone number":"(808) 877-5248","address":"540 Haleakala Highway","state":"Hawaii","warehouse number":119},"type":"Feature","geometry":{"type":"Point","coordinates":[-156.449529,20.887892]}},{"properties":{"city":"Kapolei (Oahu)","geo_score":0.672,"opening date":"2/27/2009","zip code":"96707-1879","id":"a62j895xittz","geo_precision":"street","phone number":"(808) 674-3900","address":"4589 Kapolei Parkway","state":"Hawaii","warehouse number":1038},"type":"Feature","geometry":{"type":"Point","coordinates":[-158.032262,21.33728]}},{"properties":{"city":"Iwilei (Oahu)","geo_score":0.912,"opening date":"6/12/2002","zip code":"96817","id":"a62j895d947v","geo_precision":"range","phone number":"(808) 526-6103","address":"525 Alakawa Street","state":"Hawaii","warehouse number":687},"type":"Feature","geometry":{"type":"Point","coordinates":[-157.872723,21.31868]}},{"properties":{"city":"Coeur D\\'Alene","geo_score":1.0,"opening date":"4/1/2004","zip code":"83815-3723","id":"a62j88y17q1f","geo_precision":"range","phone number":"(208) 676-7350","address":"355 East Neider Avenue","state":"Idaho","warehouse number":773},"type":"Feature","geometry":{"type":"Point","coordinates":[-116.781942,47.707981]}},{"properties":{"city":"Boise","geo_score":0.633,"opening date":"2/28/2003","zip code":"83709-2815","id":"a62j88vcva4m","geo_precision":"street","phone number":"(208) 321-8703","address":"2051 S. Cole Road","state":"Idaho","warehouse number":761},"type":"Feature","geometry":{"type":"Point","coordinates":[-116.274163,43.566583]}},{"properties":{"city":"Nampa","geo_score":0.683,"opening date":"8/23/2006","zip code":"83687-7909","id":"a62j895tte1b","geo_precision":"zip","phone number":"(208) 465-3810","address":"16700 N Marketplace Blvd","state":"Idaho","warehouse number":734},"type":"Feature","geometry":{"type":"Point","coordinates":[-116.552636,43.602302]}},{"properties":{"city":"Twin Falls","geo_score":0.585,"opening date":"7/20/1993","zip code":"83301-3036","id":"a62j88ya3dz6","geo_precision":"zip","phone number":"(208) 736-1550","address":"731 Pole Line Road","state":"Idaho","warehouse number":145},"type":"Feature","geometry":{"type":"Point","coordinates":[-114.575039,42.353244]}},{"properties":{"city":"Pocatello","geo_score":0.913,"opening date":"10/23/2008","zip code":"83201-4988","id":"a62j891gfci7","geo_precision":"range","phone number":"(208) 238-4040","address":"305 West Quinn Rd","state":"Idaho","warehouse number":1033},"type":"Feature","geometry":{"type":"Point","coordinates":[-112.455113,42.905805]}},{"properties":{"city":"Niles","geo_score":1.0,"opening date":"6/1/2000","zip code":"60714-3905","id":"a62j88r7qbai","geo_precision":"range","phone number":"(847) 972-3003","address":"7311 North Melvina Ave","state":"Illinois","warehouse number":383},"type":"Feature","geometry":{"type":"Point","coordinates":[-87.781764,42.013675]}},{"properties":{"city":"Bedford Park","geo_score":0.484,"opening date":"9/8/2000","zip code":"60629-5817","id":"a62j896vptu5","geo_precision":"street","phone number":"(708) 552-9010","address":"7300 S. Cicero Ave","state":"Illinois","warehouse number":381},"type":"Feature","geometry":{"type":"Point","coordinates":[-87.741943,41.767032]}},{"properties":{"city":"Chicago","geo_score":0.607,"opening date":"5/2/2001","zip code":"60614-1006","id":"a62j88ru8kgk","geo_precision":"street","phone number":"(773) 360-2053","address":"2746 N. Clybourn Avenue","state":"Illinois","warehouse number":380},"type":"Feature","geometry":{"type":"Point","coordinates":[-87.650736,41.911787]}},{"properties":{"city":"Oak Brook","geo_score":0.722,"opening date":"11/17/1998","zip code":"60523-1785","id":"a62j88trtqpc","geo_precision":"street","phone number":"(630) 928-0235","address":"1901 West 22nd Street","state":"Illinois","warehouse number":388},"type":"Feature","geometry":{"type":"Point","coordinates":[-87.971992,41.846235]}},{"properties":{"city":"Orland Park","geo_score":0.0,"opening date":"11/30/2006","zip code":"60467-4572","id":"a62j88zgss1c","geo_precision":"unmatched","phone number":"(708) 645-5336","address":"9915 W 159th St","state":"Illinois","warehouse number":647},"type":"Feature","geometry":null},{"properties":{"city":"Schaumburg","geo_score":1.0,"opening date":"11/17/1998","zip code":"60173-4805","id":"a62j895q3oiz","geo_precision":"range","phone number":"(847) 969-0790","address":"1375 North Meacham Rd","state":"Illinois","warehouse number":387},"type":"Feature","geometry":{"type":"Point","coordinates":[-88.045109,42.056599]}},{"properties":{"city":"Lake in the Hills","geo_score":0.512,"opening date":"7/8/2004","zip code":"60156-5943","id":"a62j896nfad3","geo_precision":"street","phone number":"(847) 960-9909","address":"250 N. Randall Rd.","state":"Illinois","warehouse number":774},"type":"Feature","geometry":{"type":"Point","coordinates":[-88.335472,42.181716]}},{"properties":{"city":"Bloomingdale","geo_score":0.464,"opening date":"12/7/2001","zip code":"60108-1391","id":"a62j88ri9f0t","geo_precision":"range","phone number":"(630) 351-3059","address":"505 W. Army Trail Road","state":"Illinois","warehouse number":371},"type":"Feature","geometry":{"type":"Point","coordinates":[-88.110736,41.939254]}},{"properties":{"city":"Lake Zurich","geo_score":0.443,"opening date":"2/21/2001","zip code":"60047-3409","id":"a62j894by8gk","geo_precision":"street","phone number":"(847) 540-3050","address":"680 S. Rand Road","state":"Illinois","warehouse number":378},"type":"Feature","geometry":{"type":"Point","coordinates":[-88.11139,42.198474]}},{"properties":{"city":"Naperville","geo_score":0.643,"opening date":"7/1/2003","zip code":"60564","id":"a62j890vleq2","geo_precision":"street","phone number":"(630) 328-2900","address":"1320 S. Route 59","state":"Illinois","warehouse number":342},"type":"Feature","geometry":{"type":"Point","coordinates":[-88.204406,41.673968]}},{"properties":{"city":"Bolingbrook","geo_score":0.811,"opening date":"11/18/2010","zip code":"60440","id":"a62j88tnkm78","geo_precision":"street","phone number":"(630) 410-0700","address":"830 E Boughton Rd","state":"Illinois","warehouse number":1088},"type":"Feature","geometry":{"type":"Point","coordinates":[-88.035728,41.724809]}},{"properties":{"city":"St. Charles","geo_score":0.486,"opening date":"11/14/2008","zip code":"60174","id":"a62j88xap3bo","geo_precision":"street","phone number":"(630) 549-2022","address":"221 S. Randall Rd","state":"Illinois","warehouse number":1040},"type":"Feature","geometry":{"type":"Point","coordinates":[-88.339914,41.907517]}},{"properties":{"city":"Melrose Park","geo_score":0.87,"opening date":"11/17/2010","zip code":"60160","id":"a62j896uldw8","geo_precision":"range","phone number":"(708) 397-2905","address":"8400 W North Ave","state":"Illinois","warehouse number":1085},"type":"Feature","geometry":{"type":"Point","coordinates":[-87.837574,41.908391]}},{"properties":{"city":"Mount Prospect","geo_score":0.5,"opening date":"10/13/2004","zip code":"60056","id":"a62j896s282j","geo_precision":"street","phone number":"(847) 660-2000","address":"999 N. Elmhurst Road","state":"Illinois","warehouse number":779},"type":"Feature","geometry":{"type":"Point","coordinates":[-87.936792,42.082893]}},{"properties":{"city":"Mettawa","geo_score":0.631,"opening date":"11/20/2010","zip code":"60045","id":"a62j88u7xl4m","geo_precision":"street","phone number":"(847) 235-1300","address":"25901 Riverwoods Rd","state":"Illinois","warehouse number":1074},"type":"Feature","geometry":{"type":"Point","coordinates":[-87.90603,42.207788]}},{"properties":{"city":"Glenview","geo_score":0.743,"opening date":"10/17/2002","zip code":"60026","id":"a62j88zntru6","geo_precision":"street","phone number":"(847) 730-1003","address":"2900 Patriot Blvd","state":"Illinois","warehouse number":348},"type":"Feature","geometry":{"type":"Point","coordinates":[-87.824224,42.097947]}},{"properties":{"city":"Merrillville","geo_score":0.498,"opening date":"10/24/2001","zip code":"46410-5768","id":"a62j88zru9wo","geo_precision":"street","phone number":"(219) 641-6403","address":"1310 E. 79th Ave","state":"Indiana","warehouse number":370},"type":"Feature","geometry":{"type":"Point","coordinates":[-87.346047,41.475366]}},{"properties":{"city":"Indianapolis","geo_score":0.911,"opening date":"10/3/2002","zip code":"46268","id":"a62j88wwe9hz","geo_precision":"range","phone number":"(317) 532-1608","address":"9010 Michigan Road","state":"Indiana","warehouse number":347},"type":"Feature","geometry":{"type":"Point","coordinates":[-86.22517,39.917411]}},{"properties":{"city":"Castleton","geo_score":0.0,"opening date":"10/3/2002","zip code":"46250","id":"a62j88yqvuus","geo_precision":"unmatched","phone number":"(317) 558-1453","address":"6110 East 86th Street","state":"Indiana","warehouse number":346},"type":"Feature","geometry":null},{"properties":{"city":"West Des Moines","geo_score":0.805,"opening date":"11/1/2004","zip code":"50266-8140","id":"a62j8967j6wd","geo_precision":"street","phone number":"(515) 222-2920","address":"7205 Mills Civic Parkway","state":"Iowa","warehouse number":788},"type":"Feature","geometry":{"type":"Point","coordinates":[-93.790527,41.559065]}},{"properties":{"city":"Lenexa","geo_score":0.902,"opening date":"11/27/2001","zip code":"66215-3845","id":"a62j8946ws22","geo_precision":"range","phone number":"(913) 227-3703","address":"9350 Marshall Drive","state":"Kansas","warehouse number":349},"type":"Feature","geometry":{"type":"Point","coordinates":[-94.73048,38.959474]}},{"properties":{"city":"Overland Park","geo_score":0.902,"opening date":"2/21/2002","zip code":"66213","id":"a62j88rvrlz3","geo_precision":"range","phone number":"(913) 217-2053","address":"12221 Blue Valley Parkway","state":"Kansas","warehouse number":369},"type":"Feature","geometry":{"type":"Point","coordinates":[-94.672665,38.907999]}},{"properties":{"city":"Louisville","geo_score":0.313,"opening date":"10/26/2006","zip code":"40241-2835","id":"a62j891fg2cq","geo_precision":"street","phone number":"(502) 420-0170","address":"5020 Norton Healthcare Blvd","state":"Kentucky","warehouse number":634},"type":"Feature","geometry":{"type":"Point","coordinates":[-85.712509,38.166655]}},{"properties":{"city":"Lanham","geo_score":0.594,"opening date":"10/26/2010","zip code":"20706","id":"a62j895xwhbj","geo_precision":"street","phone number":"(301) 341-6740","address":"2400 Five Lees Lane","state":"Maryland","warehouse number":1078},"type":"Feature","geometry":{"type":"Point","coordinates":[-76.890362,38.966324]}},{"properties":{"city":"Frederick","geo_score":0.795,"opening date":"12/1/2001","zip code":"21701-6554","id":"a62j88wo9nk4","geo_precision":"range","phone number":"(301) 644-1483","address":"10 Monocacy Blvd.","state":"Maryland","warehouse number":330},"type":"Feature","geometry":{"type":"Point","coordinates":[-77.388111,39.407641]}},{"properties":{"city":"Baltimore","geo_score":0.92,"opening date":"3/12/1988","zip code":"21220-1423","id":"a62j89744ady","geo_precision":"range","phone number":"(410) 574-7563","address":"9919 Pulaski Highway","state":"Maryland","warehouse number":208},"type":"Feature","geometry":{"type":"Point","coordinates":[-76.447419,39.359244]}},{"properties":{"city":"Hanover","geo_score":0.473,"opening date":"12/1/2001","zip code":"21076-1387","id":"a62j88up5d98","geo_precision":"street","phone number":"(410) 379-3103","address":"7077 Arundel Mills Circle","state":"Maryland","warehouse number":325},"type":"Feature","geometry":{"type":"Point","coordinates":[-76.456115,39.056311]}},{"properties":{"city":"Elkridge","geo_score":0.488,"opening date":"10/5/2007","zip code":"21075-6457","id":"a62j88t0aseb","geo_precision":"street","phone number":"(410) 423-4052","address":"6675 Marie Curie Drive","state":"Maryland","warehouse number":1000},"type":"Feature","geometry":{"type":"Point","coordinates":[-76.936647,39.52952]}},{"properties":{"city":"Glen Burnie","geo_score":0.805,"opening date":"11/15/1985","zip code":"21060-6575","id":"a62j88vfg880","geo_precision":"range","phone number":"(410) 590-8603","address":"575 East Ordnance Road","state":"Maryland","warehouse number":203},"type":"Feature","geometry":{"type":"Point","coordinates":[-76.59444,39.202343]}},{"properties":{"city":"Gaithersburg","geo_score":0.902,"opening date":"7/28/1990","zip code":"20879-3506","id":"a62j895j9ovs","geo_precision":"range","phone number":"(301) 417-1503","address":"880 Russell Avenue","state":"Maryland","warehouse number":213},"type":"Feature","geometry":{"type":"Point","coordinates":[-77.212592,39.157117]}},{"properties":{"city":"Beltsville","geo_score":0.586,"opening date":"6/2/1990","zip code":"20705-2117","id":"a62j894vkfqp","geo_precision":"street","phone number":"(301) 902-2643","address":"10925 Baltimore Avenue (Route 1)","state":"Maryland","warehouse number":214},"type":"Feature","geometry":{"type":"Point","coordinates":[-76.925465,39.02119]}},{"properties":{"city":"Brandywine","geo_score":0.863,"opening date":"11/12/2008","zip code":"20613-8081","id":"a62j88z6qbip","geo_precision":"range","phone number":"(301) 372-3200","address":"16006 Crain Highway SE","state":"Maryland","warehouse number":1039},"type":"Feature","geometry":{"type":"Point","coordinates":[-76.874607,38.6642]}},{"properties":{"city":"Waltham","geo_score":0.902,"opening date":"11/10/1993","zip code":"02451-1107","id":"a62j8939siu3","geo_precision":"range","phone number":"(781) 622-3883","address":"71 Second Avenue","state":"Massachusetts","warehouse number":308},"type":"Feature","geometry":{"type":"Point","coordinates":[-71.26449,42.394828]}},{"properties":{"city":"Avon","geo_score":1.0,"opening date":"9/12/1991","zip code":"02322-1149","id":"a62j88ss6f2w","geo_precision":"range","phone number":"(508) 232-4000","address":"120 Stockwell Drive","state":"Massachusetts","warehouse number":303},"type":"Feature","geometry":{"type":"Point","coordinates":[-71.067089,42.131614]}},{"properties":{"city":"Dedham","geo_score":0.731,"opening date":"3/19/1998","zip code":"02026-2635","id":"a62j88qvzxje","geo_precision":"street","phone number":"(781) 251-9975","address":"400 Commercial Circle","state":"Massachusetts","warehouse number":319},"type":"Feature","geometry":{"type":"Point","coordinates":[-71.173817,42.227498]}},{"properties":{"city":"Danvers","geo_score":0.562,"opening date":"11/29/1990","zip code":"01923-1014","id":"a62j8948x4uw","geo_precision":"street","phone number":"(978) 750-1000","address":"11 Newbury Street (Route 1)","state":"Massachusetts","warehouse number":301},"type":"Feature","geometry":{"type":"Point","coordinates":[-70.958472,42.577113]}},{"properties":{"city":"West Springfield","geo_score":0.922,"opening date":"11/8/1990","zip code":"01089-4672","id":"a62j88w7c7rw","geo_precision":"range","phone number":"(413) 747-5518","address":"119 Daggett Drive","state":"Massachusetts","warehouse number":302},"type":"Feature","geometry":{"type":"Point","coordinates":[-72.622878,42.131662]}},{"properties":{"city":"Everett","geo_score":0.916,"opening date":"11/21/2002","zip code":"2149","id":"a62j8917541m","geo_precision":"range","phone number":"(617) 544-4806","address":"2 Mystic View Road","state":"Massachusetts","warehouse number":333},"type":"Feature","geometry":{"type":"Point","coordinates":[-71.06985,42.402272]}},{"properties":{"city":"Grand Rapids","geo_score":0.927,"opening date":"12/9/2004","zip code":"49512-2049","id":"a62j88r3g0nq","geo_precision":"range","phone number":"(616) 233-4401","address":"5100 28th Street SE","state":"Michigan","warehouse number":784},"type":"Feature","geometry":{"type":"Point","coordinates":[-85.541983,42.912716]}},{"properties":{"city":"Wyoming","geo_score":0.859,"opening date":"6/16/2005","zip code":"49418-8788","id":"a62j891fsnyu","geo_precision":"range","phone number":"(616) 406-2651","address":"4901 Wilson Avenue","state":"Michigan","warehouse number":744},"type":"Feature","geometry":{"type":"Point","coordinates":[-85.762543,42.875744]}},{"properties":{"city":"Auburn Hills","geo_score":0.929,"opening date":"11/22/2000","zip code":"48326-1305","id":"a62j88tilcbx","geo_precision":"range","phone number":"(248) 648-0003","address":"400 Brown Road","state":"Michigan","warehouse number":376},"type":"Feature","geometry":{"type":"Point","coordinates":[-83.255165,42.708464]}},{"properties":{"city":"Shelby Township","geo_score":0.619,"opening date":"10/17/2001","zip code":"48315-6204","id":"a62j88xyvgn1","geo_precision":"street","phone number":"(586) 580-2003","address":"45460 Market Street","state":"Michigan","warehouse number":374},"type":"Feature","geometry":{"type":"Point","coordinates":[-82.986808,42.65845]}},{"properties":{"city":"Bloomfield","geo_score":0.967,"opening date":"11/13/2008","zip code":"48302-0254","id":"a62j88zbvvyb","geo_precision":"range","phone number":"(248) 836-1601","address":"2343 South Telegraph Rd","state":"Michigan","warehouse number":1037},"type":"Feature","geometry":{"type":"Point","coordinates":[-83.291215,42.603631]}},{"properties":{"city":"Livonia","geo_score":1.0,"opening date":"5/1/1998","zip code":"48152-1011","id":"a62j895njjgu","geo_precision":"range","phone number":"(734) 464-6399","address":"20000 Haggerty Rd","state":"Michigan","warehouse number":391},"type":"Feature","geometry":{"type":"Point","coordinates":[-83.433317,42.431013]}},{"properties":{"city":"Livonia","geo_score":0.683,"opening date":"5/1/1998","zip code":"48150-2215","id":"a62j88vopvzd","geo_precision":"zip","phone number":"(734) 427-0563","address":"13700 Middlebelt Road","state":"Michigan","warehouse number":390},"type":"Feature","geometry":{"type":"Point","coordinates":[-83.371753,42.369351]}},{"properties":{"city":"Brighton","geo_score":1.0,"opening date":"12/8/2004","zip code":"48116-2160","id":"a62j895531gr","geo_precision":"range","phone number":"(810) 220-8950","address":"6700 Whitmore Lake Rd","state":"Michigan","warehouse number":786},"type":"Feature","geometry":{"type":"Point","coordinates":[-83.759838,42.504922]}},{"properties":{"city":"Madison Heights","geo_score":1.0,"opening date":"5/1/1998","zip code":"48071-1611","id":"a62j8913zcgl","geo_precision":"range","phone number":"(248) 616-0048","address":"30550 Stephenson Highway","state":"Michigan","warehouse number":393},"type":"Feature","geometry":{"type":"Point","coordinates":[-83.119203,42.516492]}},{"properties":{"city":"Roseville","geo_score":1.0,"opening date":"5/1/1998","zip code":"48066-2915","id":"a62j892zajjw","geo_precision":"range","phone number":"(586) 447-0191","address":"27118 Gratiot Avenue","state":"Michigan","warehouse number":394},"type":"Feature","geometry":{"type":"Point","coordinates":[-82.937362,42.495885]}},{"properties":{"city":"Commerce Tnshp","geo_score":0.633,"opening date":"9/25/2003","zip code":"48390","id":"a62j88rofh43","geo_precision":"street","phone number":"(248) 529-2300","address":"3000 Commerce Crossing","state":"Michigan","warehouse number":341},"type":"Feature","geometry":{"type":"Point","coordinates":[-83.471199,42.591553]}},{"properties":{"city":"Coon Rapids","geo_score":0.938,"opening date":"10/23/2001","zip code":"55448-6708","id":"a62j88yuueqf","geo_precision":"range","phone number":"(763) 712-7763","address":"12547 Riverdale Blvd.","state":"Minnesota","warehouse number":372},"type":"Feature","geometry":{"type":"Point","coordinates":[-93.350313,45.198415]}},{"properties":{"city":"St. Louis Park","geo_score":0.735,"opening date":"11/16/2000","zip code":"55416-1446","id":"a62j88wvuuyx","geo_precision":"range","phone number":"(763) 582-9603","address":"5801 16th Street West","state":"Minnesota","warehouse number":377},"type":"Feature","geometry":{"type":"Point","coordinates":[-93.3522,44.967631]}},{"properties":{"city":"Maple Grove","geo_score":0.683,"opening date":"10/27/2006","zip code":"55369-7200","id":"a62j88uo5uq4","geo_precision":"zip","phone number":"(763) 494-8050","address":"11330 Fountains Dr N","state":"Minnesota","warehouse number":648},"type":"Feature","geometry":{"type":"Point","coordinates":[-93.455788,45.072464]}},{"properties":{"city":"Eden Prairie","geo_score":0.902,"opening date":"11/18/2004","zip code":"55344-3620","id":"a62j88qsfcmp","geo_precision":"range","phone number":"(952) 943-4800","address":"12011 Technology Drive","state":"Minnesota","warehouse number":783},"type":"Feature","geometry":{"type":"Point","coordinates":[-93.428691,44.862207]}},{"properties":{"city":"Maplewood","geo_score":0.683,"opening date":"8/28/2008","zip code":"55109-1064","id":"a62j88usif66","geo_precision":"zip","phone number":"(612) 486-1738","address":"1431 Beam Ave","state":"Minnesota","warehouse number":1021},"type":"Feature","geometry":{"type":"Point","coordinates":[-92.995215,44.953022]}},{"properties":{"city":"Burnsville","geo_score":1.0,"opening date":"11/23/2010","zip code":"55337","id":"a62j88vrwmf2","geo_precision":"range","phone number":"(952) 229-6449","address":"14050 Burnhaven Dr","state":"Minnesota","warehouse number":1087},"type":"Feature","geometry":{"type":"Point","coordinates":[-93.293466,44.74739]}},{"properties":{"city":"Kansas City","geo_score":0.922,"opening date":"1/12/2001","zip code":"64111-1119","id":"a62j890mbjoq","geo_precision":"range","phone number":"(816) 216-0003","address":"241 East Linwood Blvd","state":"Missouri","warehouse number":375},"type":"Feature","geometry":{"type":"Point","coordinates":[-94.582418,39.068343]}},{"properties":{"city":"Independence","geo_score":0.619,"opening date":"10/18/2001","zip code":"64055-7004","id":"a62j891uijgc","geo_precision":"street","phone number":"(816) 200-2003","address":"19040 E. Valley View Pkwy","state":"Missouri","warehouse number":373},"type":"Feature","geometry":{"type":"Point","coordinates":[-94.415684,39.035047]}},{"properties":{"city":"St. Peters","geo_score":0.598,"opening date":"5/8/2001","zip code":"63376-4385","id":"a62j88u5k92b","geo_precision":"zip","phone number":"(636) 970-4004","address":"200 Costco Way","state":"Missouri","warehouse number":382},"type":"Feature","geometry":{"type":"Point","coordinates":[-90.661514,38.760608]}},{"properties":{"city":"St. Louis","geo_score":0.465,"opening date":"9/20/2002","zip code":"63128-1973","id":"a62j895wdqcf","geo_precision":"street","phone number":"(314) 894-7953","address":"4200 Rusty Road","state":"Missouri","warehouse number":368},"type":"Feature","geometry":{"type":"Point","coordinates":[-90.323289,38.720998]}},{"properties":{"city":"Manchester","geo_score":0.694,"opening date":"11/17/2009","zip code":"63011","id":"a62j88zbmumt","geo_precision":"street","phone number":"(636) 686-7400","address":"301 Highlands Blvd Drive","state":"Missouri","warehouse number":1060},"type":"Feature","geometry":{"type":"Point","coordinates":[-90.618445,38.620215]}},{"properties":{"city":"Kalispell","geo_score":0.914,"opening date":"10/21/2005","zip code":"59901-2547","id":"a62j88ykbupa","geo_precision":"range","phone number":"(406) 758-2500","address":"2330 US Highway 93 N","state":"Montana","warehouse number":745},"type":"Feature","geometry":{"type":"Point","coordinates":[-114.330495,48.232444]}},{"properties":{"city":"Missoula","geo_score":0.951,"opening date":"11/27/1991","zip code":"59808-1338","id":"a62j892ckhel","geo_precision":"range","phone number":"(406) 543-6445","address":"3220 Northern Pacific Avenue","state":"Montana","warehouse number":67},"type":"Feature","geometry":{"type":"Point","coordinates":[-114.037282,46.893969]}},{"properties":{"city":"Bozeman","geo_score":1.0,"opening date":"8/28/1997","zip code":"59718-7993","id":"a62j88ra5hng","geo_precision":"range","phone number":"(406) 585-0383","address":"2505 Catron Street","state":"Montana","warehouse number":96},"type":"Feature","geometry":{"type":"Point","coordinates":[-111.069089,45.712146]}},{"properties":{"city":"Helena","geo_score":0.805,"opening date":"11/28/2006","zip code":"59602-1217","id":"a62j891qgzpk","geo_precision":"street","phone number":"(406) 495-7040","address":"2195 E Custer Ave","state":"Montana","warehouse number":633},"type":"Feature","geometry":{"type":"Point","coordinates":[-112.005153,46.616659]}},{"properties":{"city":"Billings","geo_score":0.708,"opening date":"12/5/1991","zip code":"59102-7415","id":"a62j88x59t14","geo_precision":"street","phone number":"(406) 652-8765","address":"2290 King Avenue West","state":"Montana","warehouse number":69},"type":"Feature","geometry":{"type":"Point","coordinates":[-108.566597,45.755157]}},{"properties":{"city":"Omaha","geo_score":0.0,"opening date":"10/18/2007","zip code":"68154-2382","id":"a62j88u425fk","geo_precision":"unmatched","phone number":"(402) 952-3240","address":"12300 West Dodge Rd","state":"Nebraska","warehouse number":1012},"type":"Feature","geometry":null},{"properties":{"city":"Carson City","geo_score":0.0,"opening date":"11/10/2000","zip code":"89705-6853","id":"a62j88ym0fmj","geo_precision":"unmatched","phone number":"(775) 881-2503","address":"700 Old Clear Creek Road","state":"Nevada","warehouse number":127},"type":"Feature","geometry":null},{"properties":{"city":"Reno","geo_score":0.919,"opening date":"11/9/1988","zip code":"89502-4000","id":"a62j89518gty","geo_precision":"range","phone number":"(775) 689-2200","address":"2200 Harvard Way","state":"Nevada","warehouse number":25},"type":"Feature","geometry":{"type":"Point","coordinates":[-119.785797,39.502846]}},{"properties":{"city":"Sparks","geo_score":0.683,"opening date":"8/25/2006","zip code":"89436-9605","id":"a62j894fu71p","geo_precision":"zip","phone number":"(775) 356-4400","address":"4810 Galleria Parkway","state":"Nevada","warehouse number":646},"type":"Feature","geometry":{"type":"Point","coordinates":[-119.659053,39.651879]}},{"properties":{"city":"Las Vegas","geo_score":0.597,"opening date":"10/4/2001","zip code":"89144-4566","id":"a62j88st3gy7","geo_precision":"street","phone number":"(702) 352-2053","address":"801 S. Pavilion Center Drive","state":"Nevada","warehouse number":685},"type":"Feature","geometry":{"type":"Point","coordinates":[-115.332199,36.173069]}},{"properties":{"city":"Las Vegas","geo_score":0.805,"opening date":"10/27/2005","zip code":"89131-2796","id":"a62j88yj8t2m","geo_precision":"street","phone number":"(702) 415-2300","address":"6555 N Decatur Blvd","state":"Nevada","warehouse number":737},"type":"Feature","geometry":{"type":"Point","coordinates":[-115.206608,36.287504]}},{"properties":{"city":"Las Vegas","geo_score":0.93,"opening date":"2/19/2009","zip code":"89106-4305","id":"a62j894172hq","geo_precision":"range","phone number":"(702) 384-6247","address":"222 S Martin Luther King Blvd","state":"Nevada","warehouse number":563},"type":"Feature","geometry":{"type":"Point","coordinates":[-115.160796,36.171933]}},{"properties":{"city":"Henderson","geo_score":1.0,"opening date":"8/31/2001","zip code":"89014-8601","id":"a62j89352y39","geo_precision":"range","phone number":"(702) 352-2000","address":"791 Marks Street","state":"Nevada","warehouse number":673},"type":"Feature","geometry":{"type":"Point","coordinates":[-115.036868,36.070739]}},{"properties":{"city":"Nashua","geo_score":0.0,"opening date":"3/18/1992","zip code":"03060-5702","id":"a62j88xiizqz","geo_precision":"unmatched","phone number":"(603) 888-3640","address":"311 Daniel Webster Highway","state":"New Hampshire","warehouse number":307},"type":"Feature","geometry":null},{"properties":{"city":"Edison","geo_score":0.824,"opening date":"11/16/2001","zip code":"08817-3314","id":"a62j88rsys3l","geo_precision":"range","phone number":"(732) 491-2023","address":"2210 Route 27 North","state":"New Jersey","warehouse number":323},"type":"Feature","geometry":{"type":"Point","coordinates":[-74.379662,40.531649]}},{"properties":{"city":"Bridgewater","geo_score":1.0,"opening date":"8/24/1999","zip code":"08807-3457","id":"a62j88rk3si9","geo_precision":"range","phone number":"(732) 584-1003","address":"325 Promenade Blvd.","state":"New Jersey","warehouse number":322},"type":"Feature","geometry":{"type":"Point","coordinates":[-74.555357,40.564488]}},{"properties":{"city":"Brick","geo_score":0.573,"opening date":"8/1/2008","zip code":"08723-4049","id":"a62j88sx9ukc","geo_precision":"street","phone number":"(732) 262-6300","address":"465 Route 70","state":"New Jersey","warehouse number":739},"type":"Feature","geometry":{"type":"Point","coordinates":[-74.158834,40.055887]}},{"properties":{"city":"Mount Laurel","geo_score":0.916,"opening date":"3/3/2005","zip code":"08054-6103","id":"a62j88x9ua7c","geo_precision":"range","phone number":"(856) 359-3650","address":"100 Centerton Road","state":"New Jersey","warehouse number":749},"type":"Feature","geometry":{"type":"Point","coordinates":[-74.876136,39.950586]}},{"properties":{"city":"Stafford Township","geo_score":0.604,"opening date":"5/29/2008","zip code":"08050-2734","id":"a62j88swmz0e","geo_precision":"zip","phone number":"(609) 242-2011","address":"245 Stafford Park Blvd","state":"New Jersey","warehouse number":1025},"type":"Feature","geometry":{"type":"Point","coordinates":[-74.231807,39.669841]}},{"properties":{"city":"East Hanover","geo_score":0.517,"opening date":"10/25/1997","zip code":"07936-2107","id":"a62j89165zu4","geo_precision":"street","phone number":"(973) 602-2000","address":"156 SR-10 West","state":"New Jersey","warehouse number":244},"type":"Feature","geometry":{"type":"Point","coordinates":[-74.357087,40.808249]}},{"properties":{"city":"Wharton","geo_score":0.78,"opening date":"11/9/1993","zip code":"07885-1224","id":"a62j88yujp0j","geo_precision":"range","phone number":"(973) 659-2000","address":"315 Route 15","state":"New Jersey","warehouse number":315},"type":"Feature","geometry":{"type":"Point","coordinates":[-74.568925,40.905153]}},{"properties":{"city":"Hazlet","geo_score":0.0,"opening date":"12/7/1991","zip code":"07730-1516","id":"a62j88saskhu","geo_precision":"unmatched","phone number":"(732) 335-3800","address":"2835 Route 35 South","state":"New Jersey","warehouse number":222},"type":"Feature","geometry":null},{"properties":{"city":"Hackensack","geo_score":0.0,"opening date":"7/1/1994","zip code":"07601-7110","id":"a62j88sopl17","geo_precision":"unmatched","phone number":"(201) 487-5471","address":"80 South River Street","state":"New Jersey","warehouse number":231},"type":"Feature","geometry":null},{"properties":{"city":"Wayne","geo_score":0.913,"opening date":"9/28/1991","zip code":"07470-7055","id":"a62j891ead7q","geo_precision":"range","phone number":"(973) 812-8661","address":"77 Willowbrook Boulevard","state":"New Jersey","warehouse number":221},"type":"Feature","geometry":{"type":"Point","coordinates":[-74.254312,40.887277]}},{"properties":{"city":"Union","geo_score":1.0,"opening date":"11/19/1998","zip code":"07083-6809","id":"a62j894fbtrz","geo_precision":"range","phone number":"(908) 810-1458","address":"1055 Hudson St","state":"New Jersey","warehouse number":320},"type":"Feature","geometry":{"type":"Point","coordinates":[-74.290011,40.693069]}},{"properties":{"city":"Clifton","geo_score":0.924,"opening date":"7/1/1992","zip code":"07014-1724","id":"a62j88u45avx","geo_precision":"range","phone number":"(973) 779-8715","address":"20 Bridewell Place","state":"New Jersey","warehouse number":306},"type":"Feature","geometry":{"type":"Point","coordinates":[-74.137067,40.830629]}},{"properties":{"city":"Albuquerque","geo_score":1.0,"opening date":"10/24/2000","zip code":"87123-3338","id":"a62j88wece18","geo_precision":"range","phone number":"(505) 332-6603","address":"500 Eubank Blvd SE","state":"New Mexico","warehouse number":667},"type":"Feature","geometry":{"type":"Point","coordinates":[-106.532518,35.068174]}},{"properties":{"city":"Albuquerque","geo_score":0.917,"opening date":"12/7/2007","zip code":"87114-5963","id":"a62j8954oz5q","geo_precision":"range","phone number":"(505) 922-7400","address":"9955 Coors Bypass NW","state":"New Mexico","warehouse number":1016},"type":"Feature","geometry":{"type":"Point","coordinates":[-106.658432,35.195643]}},{"properties":{"city":"Albuquerque","geo_score":0.886,"opening date":"11/8/1996","zip code":"87107-6811","id":"a62j892ir0ca","geo_precision":"range","phone number":"(505) 345-9411","address":"1420 Renaissance Boulevard NE","state":"New Mexico","warehouse number":116},"type":"Feature","geometry":{"type":"Point","coordinates":[-106.613448,35.137468]}},{"properties":{"city":"Nesconset","geo_score":0.0,"opening date":"7/13/1987","zip code":"11767-1072","id":"a62j88xp9mep","geo_precision":"unmatched","phone number":"(631) 366-1504","address":"3000 Middle Country Road","state":"New York","warehouse number":206},"type":"Feature","geometry":null},{"properties":{"city":"Melville","geo_score":1.0,"opening date":"11/11/1994","zip code":"11747-5007","id":"a62j8952zw1s","geo_precision":"range","phone number":"(631) 293-8707","address":"625 Broadhollow Road","state":"New York","warehouse number":237},"type":"Feature","geometry":{"type":"Point","coordinates":[-73.42358,40.765636]}},{"properties":{"city":"Holbrook","geo_score":1.0,"opening date":"8/14/1993","zip code":"11741-4309","id":"a62j8909h9zs","geo_precision":"range","phone number":"(631) 244-0292","address":"125 Beacon Drive","state":"New York","warehouse number":230},"type":"Feature","geometry":{"type":"Point","coordinates":[-73.051543,40.770669]}},{"properties":{"city":"Commack","geo_score":0.963,"opening date":"8/25/1995","zip code":"11725-5421","id":"a62j890fqaqk","geo_precision":"range","phone number":"(631) 462-3900","address":"10 Garret Place","state":"New York","warehouse number":240},"type":"Feature","geometry":{"type":"Point","coordinates":[-73.289651,40.807288]}},{"properties":{"city":"Westbury","geo_score":0.0,"opening date":"10/24/1992","zip code":"11590-5641","id":"a62j88wvq9sp","geo_precision":"unmatched","phone number":"(516) 683-8300","address":"1250 Old Country Road","state":"New York","warehouse number":226},"type":"Feature","geometry":null},{"properties":{"city":"Lawrence","geo_score":0.93,"opening date":"8/12/1993","zip code":"11559-1029","id":"a62j891pyuj9","geo_precision":"range","phone number":"(516) 371-2017","address":"605 Rockaway Turnpike","state":"New York","warehouse number":310},"type":"Feature","geometry":{"type":"Point","coordinates":[-73.736076,40.625582]}},{"properties":{"city":"Brooklyn","geo_score":0.902,"opening date":"11/21/1996","zip code":"11232-2400","id":"a62j88wfmoe1","geo_precision":"range","phone number":"(718) 965-7603","address":"976 3rd Avenue","state":"New York","warehouse number":318},"type":"Feature","geometry":{"type":"Point","coordinates":[-74.00676,40.654632]}},{"properties":{"city":"Long Island City","geo_score":0.819,"opening date":"11/20/1996","zip code":"11106-4927","id":"a62j896ejslh","geo_precision":"range","phone number":"(718) 267-3680","address":"32-50 Vernon Boulevard","state":"New York","warehouse number":243},"type":"Feature","geometry":{"type":"Point","coordinates":[-73.935822,40.768606]}},{"properties":{"city":"Nanuet","geo_score":0.915,"opening date":"6/30/1992","zip code":"10954-5292","id":"a62j88sv4yjg","geo_precision":"range","phone number":"(845) 425-1469","address":"50 Overlook Boulevard","state":"New York","warehouse number":305},"type":"Feature","geometry":{"type":"Point","coordinates":[-74.024951,41.108328]}},{"properties":{"city":"New Rochelle","geo_score":0.902,"opening date":"7/22/1997","zip code":"10805-1203","id":"a62j88sqsgpr","geo_precision":"street","phone number":"(914) 235-2233","address":"1 Industrial Lane","state":"New York","warehouse number":241},"type":"Feature","geometry":{"type":"Point","coordinates":[-73.793508,40.898019]}},{"properties":{"city":"Yonkers","geo_score":1.0,"opening date":"10/29/1999","zip code":"10710-7202","id":"a62j893xupay","geo_precision":"range","phone number":"(914) 595-1003","address":"20 Stew Leonard Drive","state":"New York","warehouse number":321},"type":"Feature","geometry":{"type":"Point","coordinates":[-73.862172,40.97836]}},{"properties":{"city":"Staten Island","geo_score":0.919,"opening date":"12/15/1995","zip code":"10314-5851","id":"a62j88wuubjm","geo_precision":"range","phone number":"(718) 982-9525","address":"2975 Richmond Avenue","state":"New York","warehouse number":316},"type":"Feature","geometry":{"type":"Point","coordinates":[-74.169891,40.572633]}},{"properties":{"city":"Rego Park","geo_score":0.707,"opening date":"7/8/2010","zip code":"11374","id":"a62j891m38yw","geo_precision":"range","phone number":"(718) 760-6470","address":"61-35 Junction Boulevard","state":"New York","warehouse number":1070},"type":"Feature","geometry":{"type":"Point","coordinates":[-73.862982,40.730866]}},{"properties":{"city":"Port Chester","geo_score":0.911,"opening date":"8/29/2002","zip code":"10573","id":"a62j890r4n6s","geo_precision":"range","phone number":"(914) 935-3103","address":"1 Westchester Ave.","state":"New York","warehouse number":326},"type":"Feature","geometry":{"type":"Point","coordinates":[-73.660752,40.999649]}},{"properties":{"city":"New York","geo_score":1.0,"opening date":"11/12/2009","zip code":"10035","id":"a62j890b5aha","geo_precision":"range","phone number":"(212) 896-5873","address":"517 E 117th St","state":"New York","warehouse number":1062},"type":"Feature","geometry":{"type":"Point","coordinates":[-73.932333,40.795544]}},{"properties":{"city":"Wilmington","geo_score":0.605,"opening date":null,"zip code":"28405-3091","id":"a62j895ojfil","geo_precision":"zip","phone number":"(910) 798-3252","address":"5351 Gingerwood Dr","state":"North Carolina","warehouse number":635},"type":"Feature","geometry":{"type":"Point","coordinates":[-77.818594,34.272392]}},{"properties":{"city":"Charlotte","geo_score":1.0,"opening date":"6/21/2001","zip code":"28217-3504","id":"a62j88wydiw9","geo_precision":"range","phone number":"(704) 501-2403","address":"500 Tyvola Road","state":"North Carolina","warehouse number":359},"type":"Feature","geometry":{"type":"Point","coordinates":[-80.886164,35.163487]}},{"properties":{"city":"Matthews","geo_score":0.902,"opening date":"11/29/2001","zip code":"28105-5766","id":"a62j88r8rx05","geo_precision":"range","phone number":"(704) 321-7440","address":"2125 Matthews Township Pkwy","state":"North Carolina","warehouse number":367},"type":"Feature","geometry":{"type":"Point","coordinates":[-80.703046,35.127275]}},{"properties":{"city":"Durham","geo_score":1.0,"opening date":"11/16/2000","zip code":"27705-3405","id":"a62j88wab2oz","geo_precision":"range","phone number":"(919) 220-2770","address":"1510 North Pointe Drive","state":"North Carolina","warehouse number":249},"type":"Feature","geometry":{"type":"Point","coordinates":[-78.914181,36.02748]}},{"properties":{"city":"Raleigh","geo_score":0.822,"opening date":"10/25/2006","zip code":"27609-7840","id":"a62j88v5mvg2","geo_precision":"range","phone number":"(919) 755-2801","address":"2838 Wake Forest Rd","state":"North Carolina","warehouse number":645},"type":"Feature","geometry":{"type":"Point","coordinates":[-78.624413,35.819074]}},{"properties":{"city":"Greensboro","geo_score":0.902,"opening date":"11/21/2003","zip code":"27407-1908","id":"a62j894sahxv","geo_precision":"range","phone number":"(336) 291-4013","address":"4201 West Wendover Ave","state":"North Carolina","warehouse number":339},"type":"Feature","geometry":{"type":"Point","coordinates":[-79.886274,36.058635]}},{"properties":{"city":"Winston Salem","geo_score":0.0,"opening date":"9/28/2001","zip code":"27103-1310","id":"a62j892d2cs6","geo_precision":"unmatched","phone number":"(336) 970-2300","address":"1085 Hanes Mall Blvd.","state":"North Carolina","warehouse number":361},"type":"Feature","geometry":null},{"properties":{"city":"Cincinnati","geo_score":0.0,"opening date":"2/16/2000","zip code":"45249-8220","id":"a62j88z3dykh","geo_precision":"unmatched","phone number":"(513) 774-0024","address":"9691 Waterstone Blvd","state":"Ohio","warehouse number":384},"type":"Feature","geometry":null},{"properties":{"city":"Springdale","geo_score":1.0,"opening date":"12/6/2000","zip code":"45246-3321","id":"a62j89614thm","geo_precision":"range","phone number":"(513) 346-7943","address":"1100 East Kemper Road","state":"Ohio","warehouse number":379},"type":"Feature","geometry":{"type":"Point","coordinates":[-84.452251,39.286416]}},{"properties":{"city":"Cleveland","geo_score":0.912,"opening date":"10/22/2002","zip code":"44124-1808","id":"a62j88wgb9y0","geo_precision":"range","phone number":"(440) 544-1350","address":"1409 Golden Gate Blvd.","state":"Ohio","warehouse number":344},"type":"Feature","geometry":{"type":"Point","coordinates":[-81.449718,41.522377]}},{"properties":{"city":"Toledo","geo_score":0.0,"opening date":"8/29/2007","zip code":"43606-1402","id":"a62j8937zrcc","geo_precision":"unmatched","phone number":"(419) 381-5000","address":"3405 West Central Ave","state":"Ohio","warehouse number":1007},"type":"Feature","geometry":null},{"properties":{"city":"Columbus","geo_score":0.717,"opening date":"11/29/2006","zip code":"43240-7002","id":"a62j8927pt3i","geo_precision":"street","phone number":"(614) 987-1900","address":"1500 Gemini Place","state":"Ohio","warehouse number":632},"type":"Feature","geometry":{"type":"Point","coordinates":[-82.995995,40.144507]}},{"properties":{"city":"Strongsville","geo_score":1.0,"opening date":"11/18/2009","zip code":"44136","id":"a62j88zcfsyw","geo_precision":"range","phone number":"(440) 783-3415","address":"16690 Royalton Rd","state":"Ohio","warehouse number":625},"type":"Feature","geometry":{"type":"Point","coordinates":[-81.815927,41.313092]}},{"properties":{"city":"Avon","geo_score":1.0,"opening date":"12/10/2002","zip code":"44011","id":"a62j894icixq","geo_precision":"range","phone number":"(440) 930-0103","address":"35804 Detroit Road","state":"Ohio","warehouse number":343},"type":"Feature","geometry":{"type":"Point","coordinates":[-82.014938,41.458229]}},{"properties":{"city":"Bend","geo_score":0.902,"opening date":"8/17/1993","zip code":"97701-6277","id":"a62j896v2fkh","geo_precision":"range","phone number":"(541) 383-2299","address":"2500 Northeast Highway 20","state":"Oregon","warehouse number":101},"type":"Feature","geometry":{"type":"Point","coordinates":[-121.302913,44.075085]}},{"properties":{"city":"Medford","geo_score":1.0,"opening date":"10/29/1991","zip code":"97504-9259","id":"a62j88zxh83z","geo_precision":"range","phone number":"(541) 734-4227","address":"3639 Crater Lake Highway","state":"Oregon","warehouse number":65},"type":"Feature","geometry":{"type":"Point","coordinates":[-122.855942,42.369957]}},{"properties":{"city":"Eugene","geo_score":1.0,"opening date":"11/9/1989","zip code":"97408-7337","id":"a62j88zt2tg9","geo_precision":"range","phone number":"(541) 285-2000","address":"2828 Chad Drive","state":"Oregon","warehouse number":17},"type":"Feature","geometry":{"type":"Point","coordinates":[-123.065965,44.090168]}},{"properties":{"city":"Albany","geo_score":0.494,"opening date":"10/12/2001","zip code":"97321-5325","id":"a62j88yenqpz","geo_precision":"street","phone number":"(541) 918-7040","address":"3130 Killdeer Ave","state":"Oregon","warehouse number":682},"type":"Feature","geometry":{"type":"Point","coordinates":[-123.008689,44.555023]}},{"properties":{"city":"Salem","geo_score":0.944,"opening date":"3/26/1992","zip code":"97301-5090","id":"a62j8967rbrr","geo_precision":"range","phone number":"(503) 371-1729","address":"1010 Hawthorne Avenue SE","state":"Oregon","warehouse number":68},"type":"Feature","geometry":{"type":"Point","coordinates":[-122.996732,44.919632]}},{"properties":{"city":"Portland","geo_score":0.924,"opening date":"10/27/1983","zip code":"97230-3401","id":"a62j88v340ki","geo_precision":"range","phone number":"(503) 258-3700","address":"4849 NE 138th Ave","state":"Oregon","warehouse number":2},"type":"Feature","geometry":{"type":"Point","coordinates":[-122.521134,45.557224]}},{"properties":{"city":"Tigard","geo_score":0.727,"opening date":"10/25/1994","zip code":"97223-8401","id":"a62j88we1r5s","geo_precision":"street","phone number":"(503) 639-0811","address":"7855 SW Dartmouth Ave","state":"Oregon","warehouse number":111},"type":"Feature","geometry":{"type":"Point","coordinates":[-122.756687,45.436937]}},{"properties":{"city":"Hillsboro","geo_score":0.935,"opening date":"11/17/2005","zip code":"97124-5008","id":"a62j88ros89h","geo_precision":"range","phone number":"(503) 681-2800","address":"1255 NE 48th Ave","state":"Oregon","warehouse number":692},"type":"Feature","geometry":{"type":"Point","coordinates":[-122.933862,45.533944]}},{"properties":{"city":"Wilsonville","geo_score":0.557,"opening date":"7/24/2003","zip code":"97070-5785","id":"a62j88ymtkw5","geo_precision":"street","phone number":"(503) 825-4003","address":"25900 SW Heather Place","state":"Oregon","warehouse number":766},"type":"Feature","geometry":{"type":"Point","coordinates":[-122.812479,45.46738]}},{"properties":{"city":"Clackamas","geo_score":0.837,"opening date":"2/28/1997","zip code":"97015-9733","id":"a62j8906huw7","geo_precision":"range","phone number":"(503) 794-5500","address":"13130 SE 84th Avenue","state":"Oregon","warehouse number":97},"type":"Feature","geometry":{"type":"Point","coordinates":[-122.575848,45.427878]}},{"properties":{"city":"Aloha","geo_score":0.558,"opening date":"10/29/1985","zip code":"97006-5098","id":"a62j88sszt02","geo_precision":"street","phone number":"(503) 644-7615","address":"15901 SW Jenkins","state":"Oregon","warehouse number":9},"type":"Feature","geometry":{"type":"Point","coordinates":[-122.840286,45.507452]}},{"properties":{"city":"Roseburg","geo_score":0.866,"opening date":"8/12/2010","zip code":"97470","id":"a62j88w0n2we","geo_precision":"range","phone number":"(541) 378-0020","address":"4141 NE Stephens","state":"Oregon","warehouse number":1073},"type":"Feature","geometry":{"type":"Point","coordinates":[-123.351448,43.259849]}},{"properties":{"city":"Warrenton","geo_score":0.618,"opening date":"11/25/2009","zip code":"97146","id":"a62j891o7uhs","geo_precision":"zip","phone number":"(503) 338-4101","address":"1804 SE Ensign Lane","state":"Oregon","warehouse number":1059},"type":"Feature","geometry":{"type":"Point","coordinates":[-123.913752,46.076496]}},{"properties":{"city":"North Wales","geo_score":0.922,"opening date":"7/10/1999","zip code":"19454-1403","id":"a62j88sd77rt","geo_precision":"range","phone number":"(215) 353-4153","address":"740 Upper State Road","state":"Pennsylvania","warehouse number":248},"type":"Feature","geometry":{"type":"Point","coordinates":[-75.235235,40.239245]}},{"properties":{"city":"King of Prussia","geo_score":0.915,"opening date":"10/11/1997","zip code":"19406-1634","id":"a62j8943ylew","geo_precision":"range","phone number":"(610) 337-6601","address":"201 Allendale Road","state":"Pennsylvania","warehouse number":245},"type":"Feature","geometry":{"type":"Point","coordinates":[-75.38586,40.092147]}},{"properties":{"city":"Lancaster","geo_score":0.924,"opening date":"5/24/1996","zip code":"17601-5671","id":"a62j892ec4x5","geo_precision":"range","phone number":"(717) 396-8460","address":"1875 Hempstead Road","state":"Pennsylvania","warehouse number":317},"type":"Feature","geometry":{"type":"Point","coordinates":[-76.257546,40.051186]}},{"properties":{"city":"Harrisburg","geo_score":0.788,"opening date":"8/28/2001","zip code":"17112-2983","id":"a62j88wuutk2","geo_precision":"range","phone number":"(717) 412-2050","address":"5125 Jonestown Road Suite 221","state":"Pennsylvania","warehouse number":327},"type":"Feature","geometry":{"type":"Point","coordinates":[-76.799947,40.313114]}},{"properties":{"city":"Cranberry Township","geo_score":0.885,"opening date":"11/28/2001","zip code":"16066-6142","id":"a62j8940ohm7","geo_precision":"range","phone number":"(724) 778-6303","address":"1050 Cranberry Square Drive","state":"Pennsylvania","warehouse number":328},"type":"Feature","geometry":{"type":"Point","coordinates":[-80.103803,40.690002]}},{"properties":{"city":"West Homestead","geo_score":0.76,"opening date":"3/8/2007","zip code":"15120-5009","id":"a62j896ufpjr","geo_precision":"street","phone number":"(412) 205-1002","address":"501 W Waterfront Dr","state":"Pennsylvania","warehouse number":649},"type":"Feature","geometry":{"type":"Point","coordinates":[-79.898264,40.413748]}},{"properties":{"city":"Pittsburgh","geo_score":0.624,"opening date":"7/9/2002","zip code":"15205","id":"a62j8902ostl","geo_precision":"zip","phone number":"(412) 490-2204","address":"202 Costco Drive","state":"Pennsylvania","warehouse number":332},"type":"Feature","geometry":{"type":"Point","coordinates":[-80.082278,40.434513]}},{"properties":{"city":"Greenville","geo_score":0.0,"opening date":"8/16/2007","zip code":"29607-4108","id":"a62j88vhhyl1","geo_precision":"unmatched","phone number":"(864) 297-2560","address":"1021 Woodruff Rd","state":"South Carolina","warehouse number":1005},"type":"Feature","geometry":null},{"properties":{"city":"Myrtle Beach","geo_score":0.747,"opening date":"3/18/2004","zip code":"29577-9795","id":"a62j894jfnoi","geo_precision":"street","phone number":"(843) 839-6604","address":"1021 Oak Forest Lane","state":"South Carolina","warehouse number":338},"type":"Feature","geometry":{"type":"Point","coordinates":[-78.9086,33.701664]}},{"properties":{"city":"Charleston","geo_score":0.445,"opening date":"4/18/2001","zip code":"29414-5664","id":"a62j88vouqj5","geo_precision":"street","phone number":"(843) 460-2000","address":"3050 Ashley Town Center","state":"South Carolina","warehouse number":360},"type":"Feature","geometry":{"type":"Point","coordinates":[-79.955467,32.814023]}},{"properties":{"city":"Spartanburg","geo_score":0.0,"opening date":"8/15/2007","zip code":"29301-1382","id":"a62j88ybj8nz","geo_precision":"unmatched","phone number":"(864) 515-4940","address":"211 W Blackstock Rd","state":"South Carolina","warehouse number":1008},"type":"Feature","geometry":null},{"properties":{"city":"Memphis","geo_score":0.0,"opening date":"11/18/1999","zip code":"38125-2302","id":"a62j88veqq20","geo_precision":"unmatched","phone number":"(901) 214-0054","address":"3775 Hacks Cross Road","state":"Tennessee","warehouse number":353},"type":"Feature","geometry":null},{"properties":{"city":"Cordova","geo_score":0.0,"opening date":"11/18/1999","zip code":"38016-4494","id":"a62j88teuy7r","geo_precision":"unmatched","phone number":"(901) 214-0003","address":"2431 North Germantown Parkway","state":"Tennessee","warehouse number":352},"type":"Feature","geometry":null},{"properties":{"city":"Nashville","geo_score":0.97,"opening date":"11/14/2006","zip code":"37209-4202","id":"a62j88s9gduo","geo_precision":"range","phone number":"(615) 354-5100","address":"6670 Charlotte Pike","state":"Tennessee","warehouse number":630},"type":"Feature","geometry":{"type":"Point","coordinates":[-86.882641,36.137425]}},{"properties":{"city":"Brentwood","geo_score":1.0,"opening date":"8/27/1999","zip code":"37027-2930","id":"a62j892zc3xd","geo_precision":"range","phone number":"(615) 493-1003","address":"98 Seaboard Lane","state":"Tennessee","warehouse number":386},"type":"Feature","geometry":{"type":"Point","coordinates":[-86.819055,35.963111]}},{"properties":{"city":"Austin","geo_score":0.912,"opening date":"8/30/2001","zip code":"78759-5712","id":"a62j88tslo7e","geo_precision":"range","phone number":"(512) 634-2250","address":"10401 Research Blvd","state":"Texas","warehouse number":681},"type":"Feature","geometry":{"type":"Point","coordinates":[-97.745785,30.396331]}},{"properties":{"city":"San Antonio","geo_score":0.0,"opening date":"11/3/2001","zip code":"78249-1619","id":"a62j893846xv","geo_precision":"unmatched","phone number":"(210) 200-2023","address":"5611 Utsa Blvd","state":"Texas","warehouse number":689},"type":"Feature","geometry":null},{"properties":{"city":"Selma","geo_score":0.683,"opening date":"10/17/2007","zip code":"78154-3814","id":"a62j88xum42r","geo_precision":"zip","phone number":"(210) 332-1072","address":"15330 IH-35 North","state":"Texas","warehouse number":1006},"type":"Feature","geometry":{"type":"Point","coordinates":[-98.305846,29.584395]}},{"properties":{"city":"Houston","geo_score":0.619,"opening date":"6/7/2001","zip code":"77064-1170","id":"a62j88s84yzm","geo_precision":"street","phone number":"(832) 912-2353","address":"12405 N. Gessner Rd.","state":"Texas","warehouse number":675},"type":"Feature","geometry":{"type":"Point","coordinates":[-95.546692,29.953505]}},{"properties":{"city":"Houston","geo_score":0.696,"opening date":"6/7/2001","zip code":"77055-6208","id":"a62j88sx78vd","geo_precision":"range","phone number":"(713) 576-2050","address":"1150 Bunker Hill Road","state":"Texas","warehouse number":680},"type":"Feature","geometry":{"type":"Point","coordinates":[-95.531327,29.788692]}},{"properties":{"city":"Houston","geo_score":1.0,"opening date":"10/22/2008","zip code":"77027-5802","id":"a62j88s2hlnq","geo_precision":"range","phone number":"(832) 325-5850","address":"3836 Richmond Ave","state":"Texas","warehouse number":1018},"type":"Feature","geometry":{"type":"Point","coordinates":[-95.43896,29.732683]}},{"properties":{"city":"Fort Worth","geo_score":1.0,"opening date":"9/21/2000","zip code":"76132-3301","id":"a62j88zquero","geo_precision":"range","phone number":"(817) 210-0003","address":"5300 Overton Ridge Blvd","state":"Texas","warehouse number":489},"type":"Feature","geometry":{"type":"Point","coordinates":[-97.409168,32.675756]}},{"properties":{"city":"Southlake","geo_score":0.506,"opening date":"4/27/2001","zip code":"76092-6668","id":"a62j88xq70h5","geo_precision":"street","phone number":"(817) 749-2803","address":"2601 E. State Hwy 114","state":"Texas","warehouse number":669},"type":"Feature","geometry":{"type":"Point","coordinates":[-97.131652,32.941724]}},{"properties":{"city":"Arlington","geo_score":1.0,"opening date":"4/27/2001","zip code":"76014-3702","id":"a62j88r8liyz","geo_precision":"range","phone number":"(817) 417-1603","address":"600 West Arbrook Blvd","state":"Texas","warehouse number":668},"type":"Feature","geometry":{"type":"Point","coordinates":[-97.114058,32.684683]}},{"properties":{"city":"Plano","geo_score":0.878,"opening date":"9/27/2001","zip code":"75093-4520","id":"a62j8925joil","geo_precision":"range","phone number":"(972) 246-2203","address":"1701 Dallas Pkwy","state":"Texas","warehouse number":684},"type":"Feature","geometry":{"type":"Point","coordinates":[-96.829383,33.02411]}},{"properties":{"city":"Plano","geo_score":0.488,"opening date":"9/21/2000","zip code":"75074-2221","id":"a62j88tnbaco","geo_precision":"street","phone number":"(972) 244-0000","address":"3800 N. Central Expressway","state":"Texas","warehouse number":664},"type":"Feature","geometry":{"type":"Point","coordinates":[-96.70724,33.006534]}},{"properties":{"city":"Lewisville","geo_score":0.505,"opening date":"8/25/2004","zip code":"75067-4158","id":"a62j88rm754w","geo_precision":"street","phone number":"(469) 948-1026","address":"851 S. State Hwy 121","state":"Texas","warehouse number":683},"type":"Feature","geometry":{"type":"Point","coordinates":[-96.992809,33.02751]}},{"properties":{"city":"El Paso","geo_score":0.785,"opening date":"11/13/2003","zip code":"79925","id":"a62j891coxzp","geo_precision":"range","phone number":"(915) 774-5203","address":"6101 Gateway West Blvd","state":"Texas","warehouse number":768},"type":"Feature","geometry":{"type":"Point","coordinates":[-106.410185,31.781744]}},{"properties":{"city":"San Antonio","geo_score":0.0,"opening date":"7/11/2002","zip code":"78232","id":"a62j88s8syn1","geo_precision":"unmatched","phone number":"(210) 403-4700","address":"1201 N. Loop 1604 East","state":"Texas","warehouse number":693},"type":"Feature","geometry":null},{"properties":{"city":"Duncanville","geo_score":0.951,"opening date":null,"zip code":"75137","id":"a62j88tnmw7c","geo_precision":"range","phone number":"(469) 221-8113","address":"250 West Highway 67","state":"Texas","warehouse number":636},"type":"Feature","geometry":{"type":"Point","coordinates":[-96.906067,32.626834]}},{"properties":{"city":"Rockwall","geo_score":1.0,"opening date":"4/8/2009","zip code":"75032","id":"a62j88v9s3fh","geo_precision":"range","phone number":"(972) 772-1600","address":"1225 State Hwy 276","state":"Texas","warehouse number":1049},"type":"Feature","geometry":{"type":"Point","coordinates":[-96.4462,32.906989]}},{"properties":{"city":"St. George","geo_score":0.973,"opening date":"11/15/2000","zip code":"84790-9041","id":"a62j88ug1mzw","geo_precision":"range","phone number":"(435) 256-0003","address":"835 North 3050 East","state":"Utah","warehouse number":672},"type":"Feature","geometry":{"type":"Point","coordinates":[-113.520811,37.123851]}},{"properties":{"city":"Ogden","geo_score":0.623,"opening date":"11/18/2003","zip code":"84405-7101","id":"a62j892gwwgt","geo_precision":"street","phone number":"(801) 317-3950","address":"3656 Wall Avenue","state":"Utah","warehouse number":770},"type":"Feature","geometry":{"type":"Point","coordinates":[-111.979481,41.195097]}},{"properties":{"city":"West Valley","geo_score":0.912,"opening date":null,"zip code":"84119-4903","id":"a62j896p3hid","geo_precision":"range","phone number":"(801) 996-9008","address":"3747 South 2700 West","state":"Utah","warehouse number":622},"type":"Feature","geometry":{"type":"Point","coordinates":[-111.957989,40.690634]}},{"properties":{"city":"Salt Lake City","geo_score":0.911,"opening date":"12/2/1995","zip code":"84115-1805","id":"a62j89050gda","geo_precision":"range","phone number":"(801) 485-9715","address":"1818 South 300 West","state":"Utah","warehouse number":113},"type":"Feature","geometry":{"type":"Point","coordinates":[-111.899654,40.730841]}},{"properties":{"city":"Orem","geo_score":1.0,"opening date":"11/23/1999","zip code":"84097-6528","id":"a62j88sq5fpi","geo_precision":"range","phone number":"(801) 851-5003","address":"648 East 800 South","state":"Utah","warehouse number":484},"type":"Feature","geometry":{"type":"Point","coordinates":[-111.68008,40.282343]}},{"properties":{"city":"Sandy","geo_score":0.444,"opening date":"6/2/2000","zip code":"84070-4171","id":"a62j88rvn7m7","geo_precision":"street","phone number":"(801) 790-0003","address":"11100 S. Auto Mall Drive","state":"Utah","warehouse number":487},"type":"Feature","geometry":{"type":"Point","coordinates":[-111.893906,40.558923]}},{"properties":{"city":"Lehi","geo_score":0.925,"opening date":"8/24/2006","zip code":"84043-2294","id":"a62j88s9qaf1","geo_precision":"range","phone number":"(801) 653-2710","address":"198 North 1200 East","state":"Utah","warehouse number":733},"type":"Feature","geometry":{"type":"Point","coordinates":[-111.830144,40.390087]}},{"properties":{"city":"West Bountiful","geo_score":0.709,"opening date":null,"zip code":"84010-7018","id":"a62j8925bt1j","geo_precision":"street","phone number":"(801) 299-3940","address":"573 West 100 North","state":"Utah","warehouse number":735},"type":"Feature","geometry":{"type":"Point","coordinates":[-111.888214,40.890674]}},{"properties":{"city":"Murray","geo_score":0.9,"opening date":"2/14/2003","zip code":"84107","id":"a62j88ytul1w","geo_precision":"range","phone number":"(801) 290-4200","address":"5201 South Intermountain Drive","state":"Utah","warehouse number":764},"type":"Feature","geometry":{"type":"Point","coordinates":[-111.890893,40.657869]}},{"properties":{"city":"Colchester","geo_score":0.969,"opening date":"8/25/1993","zip code":"05446-5830","id":"a62j88whf6fs","geo_precision":"range","phone number":"(802) 655-4356","address":"218 Lower Mountain View Drive","state":"Vermont","warehouse number":314},"type":"Feature","geometry":{"type":"Point","coordinates":[-73.175742,44.504995]}},{"properties":{"city":"Newport News","geo_score":0.0,"opening date":"5/13/1999","zip code":"23602-6916","id":"a62j88vdxyw5","geo_precision":"unmatched","phone number":"(757) 746-2003","address":"12121 Jefferson Avenue","state":"Virginia","warehouse number":247},"type":"Feature","geometry":null},{"properties":{"city":"Norfolk","geo_score":0.919,"opening date":"11/19/1984","zip code":"23502-3702","id":"a62j891philm","geo_precision":"range","phone number":"(757) 459-4471","address":"850 Glenrock Road","state":"Virginia","warehouse number":202},"type":"Feature","geometry":{"type":"Point","coordinates":[-76.201196,36.85243]}},{"properties":{"city":"Midlothian","geo_score":1.0,"opening date":"11/3/1990","zip code":"23112-3371","id":"a62j88vmkf4v","geo_precision":"range","phone number":"(804) 674-4337","address":"3700 Price Club Boulevard","state":"Virginia","warehouse number":217},"type":"Feature","geometry":{"type":"Point","coordinates":[-77.586612,37.439714]}},{"properties":{"city":"Glen Allen","geo_score":0.61,"opening date":"11/23/1991","zip code":"23060-4115","id":"a62j88x0rt2l","geo_precision":"zip","phone number":"(804) 727-3050","address":"9650 West Broad Street","state":"Virginia","warehouse number":205},"type":"Feature","geometry":{"type":"Point","coordinates":[-77.458872,37.634867]}},{"properties":{"city":"Harrisonburg","geo_score":0.911,"opening date":"5/4/1995","zip code":"22801-8742","id":"a62j88tppyvx","geo_precision":"range","phone number":"(540) 432-8989","address":"1830 Reservoir Street","state":"Virginia","warehouse number":238},"type":"Feature","geometry":{"type":"Point","coordinates":[-78.855463,38.429233]}},{"properties":{"city":"Winchester","geo_score":1.0,"opening date":"5/23/1995","zip code":"22602-7319","id":"a62j88qtvifq","geo_precision":"range","phone number":"(540) 722-7420","address":"251 Front Royal Pike","state":"Virginia","warehouse number":239},"type":"Feature","geometry":{"type":"Point","coordinates":[-78.157683,39.158435]}},{"properties":{"city":"Arlington","geo_score":1.0,"opening date":"3/1/1994","zip code":"22202-2862","id":"a62j896uhmtz","geo_precision":"range","phone number":"(703) 413-2324","address":"1200 South Fern Street","state":"Virginia","warehouse number":233},"type":"Feature","geometry":{"type":"Point","coordinates":[-77.056782,38.862721]}},{"properties":{"city":"Woodbridge","geo_score":0.531,"opening date":null,"zip code":"22192-4653","id":"a62j895m5dx5","geo_precision":"street","phone number":"(703) 490-7410","address":"2700 Potomac Mills Circle - Ste 200","state":"Virginia","warehouse number":626},"type":"Feature","geometry":{"type":"Point","coordinates":[-77.294514,38.640488]}},{"properties":{"city":"Springfield","geo_score":0.0,"opening date":"11/7/1992","zip code":"22153-2805","id":"a62j892o144o","geo_precision":"unmatched","phone number":"(703) 912-1203","address":"7373 Boston Boulevard","state":"Virginia","warehouse number":227},"type":"Feature","geometry":null},{"properties":{"city":"Fairfax","geo_score":0.0,"opening date":"11/28/1986","zip code":"22030-6101","id":"a62j88vkkq9g","geo_precision":"unmatched","phone number":"(703) 332-3200","address":"4725 West Ox Road","state":"Virginia","warehouse number":204},"type":"Feature","geometry":null},{"properties":{"city":"Leesburg","geo_score":0.77,"opening date":"7/28/2004","zip code":"20176-3355","id":"a62j8964n7sv","geo_precision":"street","phone number":"(703) 669-5060","address":"1300 Edwards Ferry Road","state":"Virginia","warehouse number":337},"type":"Feature","geometry":{"type":"Point","coordinates":[-77.539776,39.113673]}},{"properties":{"city":"Sterling","geo_score":0.0,"opening date":"11/17/1990","zip code":"20164-6607","id":"a62j891h7pp4","geo_precision":"unmatched","phone number":"(703) 406-6500","address":"21398 Price/Cascades Plaza","state":"Virginia","warehouse number":218},"type":"Feature","geometry":null},{"properties":{"city":"Chantilly","geo_score":0.707,"opening date":"10/9/2003","zip code":"20151-2117","id":"a62j88vuoplp","geo_precision":"street","phone number":"(703) 885-5544","address":"14390 Chantilly Crossing Lane","state":"Virginia","warehouse number":334},"type":"Feature","geometry":{"type":"Point","coordinates":[-77.444415,38.887574]}},{"properties":{"city":"Manassas","geo_score":1.0,"opening date":"6/27/1992","zip code":"20109-2845","id":"a62j88zgy817","geo_precision":"range","phone number":"(703) 368-7579","address":"10701 Sudley Manor Drive","state":"Virginia","warehouse number":225},"type":"Feature","geometry":{"type":"Point","coordinates":[-77.514316,38.787427]}},{"properties":{"city":"Fredericksburg","geo_score":0.805,"opening date":"7/10/2002","zip code":"22407","id":"a62j891w31pn","geo_precision":"street","phone number":"(540) 785-1163","address":"3102 Plank Road #600","state":"Virginia","warehouse number":340},"type":"Feature","geometry":{"type":"Point","coordinates":[-77.517834,38.294336]}},{"properties":{"city":"Kirkland","geo_score":0.902,"opening date":"8/30/1985","zip code":"98033-5865","id":"a62j895j4sw3","geo_precision":"range","phone number":"(425) 827-1693","address":"8629 120th Avenue NE","state":"Washington","warehouse number":8},"type":"Feature","geometry":{"type":"Point","coordinates":[-122.180569,47.68009]}},{"properties":{"city":"Clarkston","geo_score":0.827,"opening date":"7/29/1993","zip code":"99403-1860","id":"a62j88w4jvfy","geo_precision":"range","phone number":"(509) 758-1800","address":"301 Fifth Street","state":"Washington","warehouse number":103},"type":"Feature","geometry":{"type":"Point","coordinates":[-117.04431,46.42293]}},{"properties":{"city":"Kennewick","geo_score":0.505,"opening date":"11/24/1999","zip code":"99336-8120","id":"a62j88x8wtpf","geo_precision":"street","phone number":"(509) 737-8861","address":"8505A W. Gage Blvd","state":"Washington","warehouse number":486},"type":"Feature","geometry":{"type":"Point","coordinates":[-119.233454,46.227104]}},{"properties":{"city":"Spokane","geo_score":0.902,"opening date":"2/1/2001","zip code":"99212-0826","id":"a62j88w2bbmz","geo_precision":"range","phone number":"(509) 842-0003","address":"5601 East Sprague Avenue","state":"Washington","warehouse number":670},"type":"Feature","geometry":{"type":"Point","coordinates":[-117.329507,47.657111]}},{"properties":{"city":"Spokane","geo_score":1.0,"opening date":"10/16/1992","zip code":"99208-5613","id":"a62j88z1qn1x","geo_precision":"range","phone number":"(509) 466-9668","address":"7619 North Division Street","state":"Washington","warehouse number":66},"type":"Feature","geometry":{"type":"Point","coordinates":[-117.411325,47.726814]}},{"properties":{"city":"Union Gap","geo_score":0.827,"opening date":"10/31/2007","zip code":"98903-1513","id":"a62j88sjdvlx","geo_precision":"range","phone number":"(509) 454-5240","address":"2310 Longfibre Rd","state":"Washington","warehouse number":1013},"type":"Feature","geometry":{"type":"Point","coordinates":[-120.49596,46.565034]}},{"properties":{"city":"East Wenatchee","geo_score":0.973,"opening date":"6/23/1995","zip code":"98802-5344","id":"a62j88wyz3mp","geo_precision":"range","phone number":"(509) 886-0593","address":"375 Highline Drive South","state":"Washington","warehouse number":112},"type":"Feature","geometry":{"type":"Point","coordinates":[-120.281723,47.40038]}},{"properties":{"city":"Vancouver","geo_score":0.0,"opening date":"8/27/2004","zip code":"98665-2016","id":"a62j88vsr5xf","geo_precision":"unmatched","phone number":"(360) 828-2262","address":"6720 NE 84th Street","state":"Washington","warehouse number":772},"type":"Feature","geometry":null},{"properties":{"city":"Lacey","geo_score":0.916,"opening date":"7/18/2006","zip code":"98516-3870","id":"a62j896u9k4k","geo_precision":"range","phone number":"(360) 412-3500","address":"1470 Marvin Rd NE","state":"Washington","warehouse number":740},"type":"Feature","geometry":{"type":"Point","coordinates":[-122.764649,47.060111]}},{"properties":{"city":"Tumwater","geo_score":0.861,"opening date":"11/14/1991","zip code":"98512-7363","id":"a62j88yc1s8w","geo_precision":"range","phone number":"(360) 357-9743","address":"5500 Littlerock Road","state":"Washington","warehouse number":64},"type":"Feature","geometry":{"type":"Point","coordinates":[-122.916975,46.998001]}},{"properties":{"city":"Fife","geo_score":0.5,"opening date":"11/12/2003","zip code":"98424-1818","id":"a62j8961fwq4","geo_precision":"street","phone number":"(253) 719-1953","address":"3900 20th St. East","state":"Washington","warehouse number":767},"type":"Feature","geometry":{"type":"Point","coordinates":[-122.390627,47.239343]}},{"properties":{"city":"Tacoma","geo_score":0.872,"opening date":"10/12/2000","zip code":"98409-7473","id":"a62j88twpxxx","geo_precision":"range","phone number":"(253) 671-6000","address":"2219 South 37th Street","state":"Washington","warehouse number":95},"type":"Feature","geometry":{"type":"Point","coordinates":[-122.466478,47.223276]}},{"properties":{"city":"Silverdale","geo_score":0.499,"opening date":"11/25/1986","zip code":"98383-8302","id":"a62j88yz3dcu","geo_precision":"street","phone number":"(360) 692-1140","address":"10000 Mickelberry Rd. NW","state":"Washington","warehouse number":13},"type":"Feature","geometry":{"type":"Point","coordinates":[-122.682234,47.649857]}},{"properties":{"city":"Sequim","geo_score":0.913,"opening date":"8/17/2006","zip code":"98382-3266","id":"a62j895bexkr","geo_precision":"range","phone number":"(360) 406-2023","address":"955 West Washington St","state":"Washington","warehouse number":639},"type":"Feature","geometry":{"type":"Point","coordinates":[-123.124981,48.07886]}},{"properties":{"city":"Sequim","geo_score":0.913,"opening date":"8/17/2006","zip code":"98382-3266","id":"a62j88tp06r0","geo_precision":"range","phone number":"(360) 406-2023","address":"955 West Washington St","state":"Washington","warehouse number":639},"type":"Feature","geometry":{"type":"Point","coordinates":[-123.124981,48.07886]}},{"properties":{"city":"Puyallup","geo_score":0.558,"opening date":"11/14/2000","zip code":"98373-3803","id":"a62j894b5t4t","geo_precision":"street","phone number":"(253) 445-7543","address":"1201 39th SW","state":"Washington","warehouse number":660},"type":"Feature","geometry":{"type":"Point","coordinates":[-122.301294,47.154837]}},{"properties":{"city":"Marysville","geo_score":0.0,"opening date":"9/21/2006","zip code":"98271-4701","id":"a62j892l44fp","geo_precision":"unmatched","phone number":"(360) 652-4530","address":"16616 Twin Lakes Ave","state":"Washington","warehouse number":642},"type":"Feature","geometry":null},{"properties":{"city":"Burlington","geo_score":0.486,"opening date":"7/27/2000","zip code":"98233-3223","id":"a62j896jdpsi","geo_precision":"street","phone number":"(360) 757-5703","address":"1725 S. Burlington Blvd","state":"Washington","warehouse number":662},"type":"Feature","geometry":{"type":"Point","coordinates":[-122.335634,48.474]}},{"properties":{"city":"Bellingham","geo_score":0.881,"opening date":"11/13/1991","zip code":"98226-6475","id":"a62j89586biv","geo_precision":"range","phone number":"(360) 671-6947","address":"4299 Guide Meridian Street","state":"Washington","warehouse number":19},"type":"Feature","geometry":{"type":"Point","coordinates":[-122.48599,48.798159]}},{"properties":{"city":"Everett","geo_score":0.0,"opening date":"8/22/1996","zip code":"98208-4256","id":"a62j88tynuq1","geo_precision":"unmatched","phone number":"(425) 379-7451","address":"10200 19th Avenue SE","state":"Washington","warehouse number":114},"type":"Feature","geometry":null},{"properties":{"city":"Tukwila","geo_score":0.47,"opening date":"8/30/1984","zip code":"98188-4808","id":"a62j89025kda","geo_precision":"street","phone number":"(206) 575-9191","address":"400 Costco Drive Suite 150","state":"Washington","warehouse number":6},"type":"Feature","geometry":{"type":"Point","coordinates":[-122.304238,47.468755]}},{"properties":{"city":"Seattle","geo_score":0.916,"opening date":"9/15/1983","zip code":"98134-2389","id":"a62j88tk1chz","geo_precision":"range","phone number":"(206) 674-1220","address":"4401 4th Avenue South","state":"Washington","warehouse number":1},"type":"Feature","geometry":{"type":"Point","coordinates":[-122.329416,47.563636]}},{"properties":{"city":"Seattle","geo_score":0.935,"opening date":"6/30/1994","zip code":"98133-3206","id":"a62j88ynxqkk","geo_precision":"range","phone number":"(206) 546-0480","address":"1175 North 205th Street","state":"Washington","warehouse number":106},"type":"Feature","geometry":{"type":"Point","coordinates":[-122.345476,47.777792]}},{"properties":{"city":"Woodinville","geo_score":0.887,"opening date":"8/26/2005","zip code":"98072-9743","id":"a62j895bd25z","geo_precision":"range","phone number":"(425) 806-7700","address":"24008 Snohomish-Woodinville Rd SE","state":"Washington","warehouse number":747},"type":"Feature","geometry":{"type":"Point","coordinates":[-122.146443,47.779455]}},{"properties":{"city":"Lynnwood","geo_score":0.909,"opening date":"9/30/1996","zip code":"98036-5228","id":"a62j891ltf5w","geo_precision":"range","phone number":"(425) 640-7700","address":"19105 Highway 99","state":"Washington","warehouse number":115},"type":"Feature","geometry":{"type":"Point","coordinates":[-122.311025,47.825895]}},{"properties":{"city":"Issaquah","geo_score":0.837,"opening date":"9/9/1994","zip code":"98027-5384","id":"a62j894mpxul","geo_precision":"range","phone number":"(425) 313-0965","address":"1801 10th Avenue NW","state":"Washington","warehouse number":110},"type":"Feature","geometry":{"type":"Point","coordinates":[-122.050339,47.549738]}},{"properties":{"city":"Federal Way","geo_score":0.922,"opening date":"3/9/1989","zip code":"98003-8314","id":"a62j88z59vtf","geo_precision":"range","phone number":"(253) 874-3652","address":"35100 Enchanted Parkway South","state":"Washington","warehouse number":61},"type":"Feature","geometry":{"type":"Point","coordinates":[-122.313541,47.286946]}},{"properties":{"city":"Vancouver","geo_score":0.708,"opening date":"11/24/2010","zip code":"98607","id":"a62j88zr9nk7","geo_precision":"range","phone number":"(360) 258-6221","address":"19610 SE 1st St","state":"Washington","warehouse number":1086},"type":"Feature","geometry":{"type":"Point","coordinates":[-122.470115,45.621313]}},{"properties":{"city":"Gig Harbor","geo_score":0.585,"opening date":"11/2/2007","zip code":"98335","id":"a62j8966etzr","geo_precision":"street","phone number":"(253) 853-8600","address":"10990 Harbor Hill Dr","state":"Washington","warehouse number":624},"type":"Feature","geometry":{"type":"Point","coordinates":[-122.562761,47.300149]}},{"properties":{"city":"Covington","geo_score":0.0,"opening date":"10/25/2008","zip code":"98042","id":"a62j896uwejv","geo_precision":"unmatched","phone number":"(253) 796-1002","address":"27520 Covington Way SE","state":"Washington","warehouse number":1029},"type":"Feature","geometry":null},{"properties":{"city":"Middleton","geo_score":0.599,"opening date":"8/20/2008","zip code":"53562-5507","id":"a62j896adt2r","geo_precision":"zip","phone number":"(608) 824-3950","address":"2150 Deming Way","state":"Wisconsin","warehouse number":1020},"type":"Feature","geometry":{"type":"Point","coordinates":[-89.484009,43.104162]}},{"properties":{"city":"Grafton","geo_score":0.913,"opening date":"8/30/2007","zip code":"53024-9201","id":"a62j88x983hb","geo_precision":"range","phone number":"(262) 204-1050","address":"950 Port Washington Rd","state":"Wisconsin","warehouse number":628},"type":"Feature","geometry":{"type":"Point","coordinates":[-87.924982,43.310895]}}],"is_temporal":false,"author":{"url":"","metadata":"","contact_name":"","contact_address":"","source":"","contact_phone":""},"source":"","pagination":{"sort":null,"start":0,"total":417,"limit":1000000},"state":"complete","tags":"","published":"2014-08-12T23:43:14-04:00","id":111728}