{"type":"FeatureCollection","data_type":"Dataset","url_type":null,"permissions":[{"permissions":{"download":true,"view":true},"group_id":"everyone"}],"classification":null,"title":"PhiladelphiaLibraries201001","count":55,"stream_id":111934,"contributor":{"url":"http://geocommons.com/users/26228","name":"tub84052"},"data_attributes":null,"calculation_params":null,"icon_link":null,"link":"http://geocommons.com/overlays/111934.json","extent":[2665130.0,218595.0,2745260.0,293873.0],"geometry_types":["point"],"unique_name":null,"name":"PhiladelphiaLibraries201001","feature_count":55,"description":"","next_feature":null,"is_raster":false,"short_classification":"Y","stats":{},"features":[{"properties":{"CPO_CODE":"52004","TYPE":"Branch","BRANCH_NAM":"BUSTLETON AVE","id":"a65l2zzwcpqz","ADDRESS":"10199 BUSTLETON AVE"},"type":"Feature","geometry":{"type":"Point","coordinates":[2730277.35564304,293873.093832021]}},{"properties":{"CPO_CODE":"52017","TYPE":"Branch","BRANCH_NAM":"KATHERINE DREXEL","id":"a65l2zy9184a","ADDRESS":"11099 KNIGHTS ROAD"},"type":"Feature","geometry":{"type":"Point","coordinates":[2745255.22965879,285666.758530184]}},{"properties":{"CPO_CODE":"52041","TYPE":"Branch","BRANCH_NAM":"WADSWORTH AVENUE","id":"a65l3003fdli","ADDRESS":"1500 WADSWORTH AVE"},"type":"Feature","geometry":{"type":"Point","coordinates":[2689333.72375328,282131.354986877]}},{"properties":{"CPO_CODE":"52010","TYPE":"Branch","BRANCH_NAM":"FOX CHASE","id":"a65l2zwbtaqy","ADDRESS":"501 RHAWN ST"},"type":"Feature","geometry":{"type":"Point","coordinates":[2715026.04658793,282077.703412073]}},{"properties":{"CPO_CODE":"52043","TYPE":"Branch","BRANCH_NAM":"WELSH ROAD","id":"a65l303sxe66","ADDRESS":"9233 ROOSEVELT BOULEVARD"},"type":"Feature","geometry":{"type":"Point","coordinates":[2728996.11220472,281552.765748031]}},{"properties":{"CPO_CODE":"52006","TYPE":"Branch","BRANCH_NAM":"CHESTNUT HILL","id":"a65l30cev3h1","ADDRESS":"8711 GERMANTOWN AVE"},"type":"Feature","geometry":{"type":"Point","coordinates":[2679382.88057743,281398.310367454]}},{"properties":{"CPO_CODE":"52044","TYPE":"Branch","BRANCH_NAM":"WEST OAK LANE","id":"a65l300xjd1x","ADDRESS":"2000 WASHINGTON LANE"},"type":"Feature","geometry":{"type":"Point","coordinates":[2693917.31627297,277987.129265092]}},{"properties":{"CPO_CODE":"52001","TYPE":"Branch","BRANCH_NAM":"ANDORRA","id":"a65l2zzicbzs","ADDRESS":"705 E CATHEDRAL ROAD"},"type":"Feature","geometry":{"type":"Point","coordinates":[2671377.75590551,276287.588582677]}},{"properties":{"CPO_CODE":"52040","TYPE":"Branch","BRANCH_NAM":"TORRESDALE","id":"a65l2zycsbgi","ADDRESS":"3079 HOLMES AVE"},"type":"Feature","geometry":{"type":"Point","coordinates":[2733700.79396325,275402.841207349]}},{"properties":{"CPO_CODE":"52023","TYPE":"Branch","BRANCH_NAM":"LOVETT MEMORIAL","id":"a65l2zw0yuyz","ADDRESS":"6945 GERMANTOWN AVE"},"type":"Feature","geometry":{"type":"Point","coordinates":[2685657.39829396,273951.666666667]}},{"properties":{"CPO_CODE":"52027","TYPE":"Branch","BRANCH_NAM":"OAK LANE","id":"a65l3043rmge","ADDRESS":"6614 N 12TH ST"},"type":"Feature","geometry":{"type":"Point","coordinates":[2699649.53083989,273557.51312336]}},{"properties":{"CPO_CODE":"52110","TYPE":"Branch","BRANCH_NAM":"REGIONAL - NORTHEAST","id":"a65l2zz8wme8","ADDRESS":"2228 COTTMAN AVE"},"type":"Feature","geometry":{"type":"Point","coordinates":[2721063.80249344,271857.539370079]}},{"properties":{"CPO_CODE":"52020","TYPE":"Branch","BRANCH_NAM":"LAWNCREST","id":"a65l306kw33h","ADDRESS":"6098 RISING SUN AVE"},"type":"Feature","geometry":{"type":"Point","coordinates":[2710282.97572178,270809.625984252]}},{"properties":{"CPO_CODE":"52028","TYPE":"Branch","BRANCH_NAM":"OGONTZ","id":"a65l3072ynhr","ADDRESS":"6017-35 OGONTZ AVE"},"type":"Feature","geometry":{"type":"Point","coordinates":[2696102.66404199,270720.436351706]}},{"properties":{"CPO_CODE":"52016","TYPE":"Branch","BRANCH_NAM":"HOLMESBURG","id":"a65l308n8znm","ADDRESS":"7810 FRANKFORD AVE"},"type":"Feature","geometry":{"type":"Point","coordinates":[2729472.81824147,269297.650918635]}},{"properties":{"CPO_CODE":"52003","TYPE":"Branch","BRANCH_NAM":"BUSHROD","id":"a65l2zzd8h5y","ADDRESS":"6304 CASTOR AVE"},"type":"Feature","geometry":{"type":"Point","coordinates":[2716379.82611549,268261.696194226]}},{"properties":{"CPO_CODE":"52013","TYPE":"Branch","BRANCH_NAM":"GREATER OLNEY","id":"a65l3025il73","ADDRESS":"5501 N 05TH ST"},"type":"Feature","geometry":{"type":"Point","coordinates":[2701859.04527559,266433.064304462]}},{"properties":{"CPO_CODE":"52035","TYPE":"Branch","BRANCH_NAM":"ROXBOROUGH","id":"a65l309020qz","ADDRESS":"6245 RIDGE AVE"},"type":"Feature","geometry":{"type":"Point","coordinates":[2677307.24081365,266380.377296588]}},{"properties":{"CPO_CODE":"52111","TYPE":"Branch","BRANCH_NAM":"REGIONAL - NORTHWEST","id":"a65l2zxjidsa","ADDRESS":"68 W CHELTEN AVE"},"type":"Feature","geometry":{"type":"Point","coordinates":[2689161.60761155,265861.279527559]}},{"properties":{"CPO_CODE":"52022","TYPE":"Branch","BRANCH_NAM":"LOGAN","id":"a65l2zw2o4wg","ADDRESS":"1333 WAGNER AVE"},"type":"Feature","geometry":{"type":"Point","coordinates":[2697779.81627297,265186.971784777]}},{"properties":{"CPO_CODE":"52039","TYPE":"Branch","BRANCH_NAM":"TACONY","id":"a65l30bok9ad","ADDRESS":"6742 TORRESDALE AVE"},"type":"Feature","geometry":{"type":"Point","coordinates":[2725874.17650919,263676.414041995]}},{"properties":{"CPO_CODE":"52048","TYPE":"Branch","BRANCH_NAM":"WYOMING","id":"a65l2zw5k4pg","ADDRESS":"231 E WYOMING AVE"},"type":"Feature","geometry":{"type":"Point","coordinates":[2704789.21587927,261589.773622047]}},{"properties":{"CPO_CODE":"52011","TYPE":"Branch","BRANCH_NAM":"FRANKFORD","id":"a65l2zwvse3b","ADDRESS":"4634 FRANKFORD AVE"},"type":"Feature","geometry":{"type":"Point","coordinates":[2714853.50393701,259836.013779528]}},{"properties":{"CPO_CODE":"52008","TYPE":"Branch","BRANCH_NAM":"FALLS OF SCHUYLKILL","id":"a65l300uriff","ADDRESS":"3501 MIDVALE AVE"},"type":"Feature","geometry":{"type":"Point","coordinates":[2684796.17454068,258437.847769029]}},{"properties":{"CPO_CODE":"52026","TYPE":"Branch","BRANCH_NAM":"NICETOWN-TIOGA","id":"a65l3063j3ml","ADDRESS":"3720 N BROAD ST"},"type":"Feature","geometry":{"type":"Point","coordinates":[2696335.85958005,257202.148950131]}},{"properties":{"CPO_CODE":"52018","TYPE":"Branch","BRANCH_NAM":"KENSINGTON","id":"a65l301prxfk","ADDRESS":"104 W DAUPHIN ST"},"type":"Feature","geometry":{"type":"Point","coordinates":[2701834.45209974,248148.907480315]}},{"properties":{"CPO_CODE":"52050","TYPE":"Branch","BRANCH_NAM":"WIDENER","id":"a65l30av77yj","ADDRESS":"2808 W  LEHIGH AVE"},"type":"Feature","geometry":{"type":"Point","coordinates":[2689111.58792651,252155.698818898]}},{"properties":{"CPO_CODE":"52025","TYPE":"Branch","BRANCH_NAM":"MCPHERSON SQUARE","id":"a65l30bun7po","ADDRESS":"601 E INDIANA AVE"},"type":"Feature","geometry":{"type":"Point","coordinates":[2705584.14698163,251954.603018373]}},{"properties":{"CPO_CODE":"52047","TYPE":"Branch","BRANCH_NAM":"WYNNEFIELD","id":"a65l309rachj","ADDRESS":"5325 OVERBROOK AVE"},"type":"Feature","geometry":{"type":"Point","coordinates":[2673439.50459318,251093.497375328]}},{"properties":{"CPO_CODE":"52021","TYPE":"Branch","BRANCH_NAM":"LEHIGH AVENUE","id":"a65l3056zcvc","ADDRESS":"601 W LEHIGH AVE"},"type":"Feature","geometry":{"type":"Point","coordinates":[2698985.44291339,250978.635170604]}},{"properties":{"CPO_CODE":"52033","TYPE":"Branch","BRANCH_NAM":"RICHMOND","id":"a65l2zxhtbnd","ADDRESS":"2987 ALMOND ST"},"type":"Feature","geometry":{"type":"Point","coordinates":[2708660.05905512,247666.400918635]}},{"properties":{"CPO_CODE":"52005","TYPE":"Branch","BRANCH_NAM":"CECIL B. MOORE","id":"a65l2zw8hmh2","ADDRESS":"2320 W CECIL B. MOORE AVE"},"type":"Feature","geometry":{"type":"Point","coordinates":[2690420.20669291,246299.593175853]}},{"properties":{"CPO_CODE":"52012","TYPE":"Branch","BRANCH_NAM":"GEORGE INSTIT (closed)","id":"a65l2zyqom10","ADDRESS":"1461 N 52ND ST"},"type":"Feature","geometry":{"type":"Point","coordinates":[2675618.00524934,244414.809711286]}},{"properties":{"CPO_CODE":"52029","TYPE":"Branch","BRANCH_NAM":"OVERBROOK PARK","id":"a65l30bn2hg2","ADDRESS":"7422 HAVERFORD AVE"},"type":"Feature","geometry":{"type":"Point","coordinates":[2665126.32874016,243928.599081365]}},{"properties":{"CPO_CODE":"52009","TYPE":"Branch","BRANCH_NAM":"FISHTOWN COMMUNITY","id":"a65l30279kta","ADDRESS":"1217 E MONTGOMERY AVE"},"type":"Feature","geometry":{"type":"Point","coordinates":[2703481.36154856,243530.291994751]}},{"properties":{"CPO_CODE":"52036","TYPE":"Branch","BRANCH_NAM":"R.G. DERODRIGUEZ","id":"a65l306bw9p8","ADDRESS":"600 W GIRARD AVE"},"type":"Feature","geometry":{"type":"Point","coordinates":[2698016.35498688,242729.970472441]}},{"properties":{"CPO_CODE":"52014","TYPE":"Branch","BRANCH_NAM":"HADDINGTON","id":"a65l305psog5","ADDRESS":"446 N 65TH ST"},"type":"Feature","geometry":{"type":"Point","coordinates":[2669230.13451444,242048.622047244]}},{"properties":{"CPO_CODE":"52015","TYPE":"Branch","BRANCH_NAM":"HAVERFORD AVENUE","id":"a65l30bdeniy","ADDRESS":"5543 HAVERFORD AVE"},"type":"Feature","geometry":{"type":"Point","coordinates":[2674289.28149606,241145.94816273]}},{"properties":{"CPO_CODE":"52024","TYPE":"Branch","BRANCH_NAM":"DURHAM, CHARLES /MANTUA","id":"a65l309r68i2","ADDRESS":"3320 HAVERFORD AVE"},"type":"Feature","geometry":{"type":"Point","coordinates":[2685620.17388451,240078.776246719]}},{"properties":{"CPO_CODE":"52100","TYPE":"Central","BRANCH_NAM":"CENTRAL LIBRARY","id":"a65l2zxhpft7","ADDRESS":"1901 VINE ST"},"type":"Feature","geometry":{"type":"Point","coordinates":[2691344.29790026,238608.402230971]}},{"properties":{"CPO_CODE":"52112","TYPE":"Branch","BRANCH_NAM":"REGIONAL - WEST PHILADELPHIA","id":"a65l2zxxxm2a","ADDRESS":"125 S 52ND ST"},"type":"Feature","geometry":{"type":"Point","coordinates":[2676210.13779528,237505.780839895]}},{"properties":{"CPO_CODE":"52042","TYPE":"Branch","BRANCH_NAM":"WALNUT STREET WEST","id":"a65l3021fx2b","ADDRESS":"3948 WALNUT ST"},"type":"Feature","geometry":{"type":"Point","coordinates":[2682610.77755906,236322.214566929]}},{"properties":{"CPO_CODE":"52002","TYPE":"Branch","BRANCH_NAM":"BLANCHE A. NIXON","id":"a65l3044s4ir","ADDRESS":"5800 COBBS CREEK PARKWAY"},"type":"Feature","geometry":{"type":"Point","coordinates":[2671745.74146982,233083.215223097]}},{"properties":{"CPO_CODE":"52019","TYPE":"Branch","BRANCH_NAM":"KINGSESSING","id":"a65l304zy21h","ADDRESS":"1201 S 51ST ST"},"type":"Feature","geometry":{"type":"Point","coordinates":[2678315.51181102,231908.75]}},{"properties":{"CPO_CODE":"52032","TYPE":"Branch","BRANCH_NAM":"QUEEN MEMORIAL","id":"a65l308la56x","ADDRESS":"23RD &amp; FEDERAL STS"},"type":"Feature","geometry":{"type":"Point","coordinates":[2688602.84448819,230706.017060367]}},{"properties":{"CPO_CODE":"52038","TYPE":"Branch","BRANCH_NAM":"SANTORE, CHAS/SOUTHWARK","id":"a65l2zzo6o15","ADDRESS":"932 S 07TH ST"},"type":"Feature","geometry":{"type":"Point","coordinates":[2696022.85761155,230598.638451444]}},{"properties":{"CPO_CODE":"52037","TYPE":"Branch","BRANCH_NAM":"SOUTH PHILADELPHIA","id":"a65l2zz8xgvl","ADDRESS":"1700 S BROAD ST"},"type":"Feature","geometry":{"type":"Point","coordinates":[2692166.37139108,227629.37664042]}},{"properties":{"CPO_CODE":"52045","TYPE":"Branch","BRANCH_NAM":"WHITMAN","id":"a65l308yiqgp","ADDRESS":"200 SNYDER AVE"},"type":"Feature","geometry":{"type":"Point","coordinates":[2697572.67388451,225038.12664042]}},{"properties":{"CPO_CODE":"52034","TYPE":"Branch","BRANCH_NAM":"FUMO FAMILY","id":"a65l30bxlp0a","ADDRESS":"2437 S  BROAD ST"},"type":"Feature","geometry":{"type":"Point","coordinates":[2691965.85301837,224202.988845144]}},{"properties":{"CPO_CODE":"52031","TYPE":"Branch","BRANCH_NAM":"PASSYUNK","id":"a65l2zwotkla","ADDRESS":"1935 SHUNK ST"},"type":"Feature","geometry":{"type":"Point","coordinates":[2689232.47047244,224048.257874016]}},{"properties":{"CPO_CODE":"52030","TYPE":"Branch","BRANCH_NAM":"PASCHALLVILLE","id":"a65l300qvl9i","ADDRESS":"6942 WOODLAND AVE"},"type":"Feature","geometry":{"type":"Point","coordinates":[2672185.61351706,223853.44488189]}},{"properties":{"CPO_CODE":"52007","TYPE":"Branch","BRANCH_NAM":"EASTWICK","id":"a65l304bmgmt","ADDRESS":"2851 ISLAND AVE"},"type":"Feature","geometry":{"type":"Point","coordinates":[2672493.75,218595.108267717]}},{"properties":{"CPO_CODE":"52163","TYPE":"Branch","BRANCH_NAM":"PHILA CITY INSTITUTE","id":"a65l30602b6f","ADDRESS":"1905 LOCUST ST"},"type":"Feature","geometry":{"type":"Point","coordinates":[2690869.75393701,234974.432414698]}},{"properties":{"CPO_CODE":"52049","TYPE":"Branch","BRANCH_NAM":"INDEPENDENCE BRANCH","id":"a65l2zw7weqh","ADDRESS":"18 S 07TH ST"},"type":"Feature","geometry":{"type":"Point","coordinates":[2696671.82414698,235458.917322835]}},{"properties":{"CPO_CODE":"52198","TYPE":"Special Agencies","BRANCH_NAM":"BLIND AND PHYSICALLY HANDICAPPED","id":"a65l2zwfb6y5","ADDRESS":"919 WALNUT ST"},"type":"Feature","geometry":{"type":"Point","coordinates":[2695460.36745407,234790.954724409]}}],"is_temporal":false,"author":{"url":"","metadata":"","contact_name":"","contact_address":"","source":"","contact_phone":""},"source":"","pagination":{"sort":null,"start":0,"total":55,"limit":1000000},"state":"complete","tags":"","published":"2014-08-13T00:03:53-04:00","id":111934}