{"type":"FeatureCollection","data_type":"Dataset","url_type":null,"permissions":[{"permissions":{"download":true,"view":true},"group_id":"everyone"}],"classification":null,"title":"DaveBusters","count":47,"stream_id":112113,"contributor":{"url":"http://geocommons.com/users/26251","name":"mapdex"},"data_attributes":null,"calculation_params":null,"icon_link":null,"link":"http://geocommons.com/overlays/112113.json","extent":[-121.818,25.7828,-71.4253,45.0929],"geometry_types":["point"],"unique_name":null,"name":"DaveBusters","feature_count":47,"description":"asdf","next_feature":null,"is_raster":false,"short_classification":"Y","stats":{"latitude":{"max":45.09286344,"mean":36.6987163719149,"variance":22.8124875970018,"stdev":4.77624199523033,"min":25.7827827,"median":38.75707679},"longitude":{"max":-71.42533115,"mean":-90.5132758968085,"variance":208.252046506194,"stdev":14.4309405967246,"min":-121.8180766,"median":-86.69427237},"revenue":{"max":701568,"mean":475001.617021277,"variance":17751912016.6762,"stdev":133236.301422233,"min":233333,"median":471568}},"features":[{"properties":{"city":"Dallas","latitude":32.87459341,"zip":"75220","store name":"Corporate Location","street":"2481 Manana Drive","longitude":-96.89461665,"id":"a687t7wd0jkq","state":"TX","revenue":399999},"type":"Feature","geometry":{"type":"Point","coordinates":[-96.89461665,32.87459341]}},{"properties":{"city":"Dallas","latitude":32.87623017,"zip":"75220","store name":"Dave &amp; Buster's Dallas; Stemmons","street":"10727 Composite Dr.","longitude":-96.894158,"id":"a687t83e7k1y","state":"TX","revenue":288888},"type":"Feature","geometry":{"type":"Point","coordinates":[-96.894158,32.87623017]}},{"properties":{"city":"Dallas","latitude":32.88026813,"zip":"75221","store name":"Dave &amp; Buster's Dallas; Central","street":"8021 Walnut Hill Ln.","longitude":-96.76851372,"id":"a687t85s8kc4","state":"TX","revenue":233333},"type":"Feature","geometry":{"type":"Point","coordinates":[-96.76851372,32.88026813]}},{"properties":{"city":"Houston","latitude":29.73178667,"zip":"77057","store name":"Dave &amp; Buster's Houston","street":"6010 Richmond Ave.","longitude":-95.48547796,"id":"a687t7vc3tru","state":"TX","revenue":265432},"type":"Feature","geometry":{"type":"Point","coordinates":[-95.48547796,29.73178667]}},{"properties":{"city":"Marietta","latitude":33.9300917,"zip":"30067","store name":"Dave &amp; Buster's Atlanta","street":"2215 D&amp;B Dr.","longitude":-84.46285657,"id":"a687t82gw6e4","state":"GA","revenue":281568},"type":"Feature","geometry":{"type":"Point","coordinates":[-84.46285657,33.9300917]}},{"properties":{"city":"Philadelphia","latitude":39.9556752,"zip":"19106","store name":"Dave &amp; Buster's Philadelphia3","street":"325 North Columbus","longitude":-75.13897355,"id":"a687t87035cn","state":"PA","revenue":291568},"type":"Feature","geometry":{"type":"Point","coordinates":[-75.13897355,39.9556752]}},{"properties":{"city":"Addison","latitude":41.94794329,"zip":"60101","store name":"Dave &amp; Buster's Addison","street":"1155 North Swift Rd","longitude":-88.0418165,"id":"a687t83it0qs","state":"IL","revenue":301568},"type":"Feature","geometry":{"type":"Point","coordinates":[-88.0418165,41.94794329]}},{"properties":{"city":"Chicago","latitude":41.9009807,"zip":"60610","store name":"Dave &amp; Buster's Goldcoast","street":"1030 North Clark St.","longitude":-87.63139291,"id":"a687t7zlykav","state":"IL","revenue":311568},"type":"Feature","geometry":{"type":"Point","coordinates":[-87.63139291,41.9009807]}},{"properties":{"city":"Hollywood","latitude":26.04341522,"zip":"33020","store name":"Dave &amp; Buster's Hollywood","street":"3000 Oakwood Blvd.","longitude":-80.16078776,"id":"a687t7u8sqop","state":"FL","revenue":321568},"type":"Feature","geometry":{"type":"Point","coordinates":[-80.16078776,26.04341522]}},{"properties":{"city":"Kensington","latitude":39.04137946,"zip":"20895","store name":"Dave &amp; Buster's Bethesda","street":"11301 Rockville Pike Suite 300","longitude":-77.10999066,"id":"a687t85gwdiy","state":"MD","revenue":331568},"type":"Feature","geometry":{"type":"Point","coordinates":[-77.10999066,39.04137946]}},{"properties":{"city":"Ontario","latitude":34.0744149,"zip":"91764","store name":"Dave &amp; Buster's Ontario","street":"4821 Mills Circle","longitude":-117.5475471,"id":"a687t7vur8n1","state":"CA","revenue":341568},"type":"Feature","geometry":{"type":"Point","coordinates":[-117.5475471,34.0744149]}},{"properties":{"city":"Springdale","latitude":39.29265903,"zip":"45246","store name":"Dave &amp; Buster's Cincinnati","street":"11775 Commons Dr.","longitude":-84.45387234,"id":"a687t7totaei","state":"OH","revenue":351568},"type":"Feature","geometry":{"type":"Point","coordinates":[-84.45387234,39.29265903]}},{"properties":{"city":"Denver","latitude":39.68033877,"zip":"80222","store name":"Dave &amp; Buster's Denver","street":"2000 South Colorado Blvd.","longitude":-104.9364981,"id":"a687t7zg4fbg","state":"CO","revenue":361568},"type":"Feature","geometry":{"type":"Point","coordinates":[-104.9364981,39.68033877]}},{"properties":{"city":"Utica","latitude":42.63050173,"zip":"48317","store name":"Dave &amp; Buster's Utica","street":"45511 Park Ave.","longitude":-83.01144974,"id":"a687t83yp2zi","state":"MI","revenue":371568},"type":"Feature","geometry":{"type":"Point","coordinates":[-83.01144974,42.63050173]}},{"properties":{"city":"Irvine","latitude":33.65208428,"zip":"92618","store name":"Dave &amp; Buster's Irvine","street":"71 Fortune Drive, Suite 960","longitude":-117.7468998,"id":"a687t7xaz0bk","state":"CA","revenue":381568},"type":"Feature","geometry":{"type":"Point","coordinates":[-117.7468998,33.65208428]}},{"properties":{"city":"West Nyack","latitude":41.0996398,"zip":"10994","store name":"Dave &amp; Buster's Palisades","street":"4661 Palisades Center Dr.","longitude":-73.95849647,"id":"a687t87mo00j","state":"NY","revenue":391568},"type":"Feature","geometry":{"type":"Point","coordinates":[-73.95849647,41.0996398]}},{"properties":{"city":"Orange","latitude":33.78130786,"zip":"92868","store name":"Dave &amp; Buster's Orange","street":"20 City Blvd. West","longitude":-117.8952429,"id":"a687t7snje7k","state":"CA","revenue":401568},"type":"Feature","geometry":{"type":"Point","coordinates":[-117.8952429,33.78130786]}},{"properties":{"city":"Hilliard","latitude":40.0278368,"zip":"43026","store name":"Dave &amp; Buster's Columbus","street":"3665 Park Mill Run Drive","longitude":-83.12160769,"id":"a687t7vsthq5","state":"OH","revenue":411568},"type":"Feature","geometry":{"type":"Point","coordinates":[-83.12160769,40.0278368]}},{"properties":{"city":"Balcones Heights","latitude":29.49603839,"zip":"78201","store name":"Dave &amp; Buster's San Antonio","street":"440 Crossroads Blvd.","longitude":-98.54996274,"id":"a687t8405aqk","state":"TX","revenue":421568},"type":"Feature","geometry":{"type":"Point","coordinates":[-98.54996274,29.49603839]}},{"properties":{"city":"Duluth","latitude":33.94926525,"zip":"30096","store name":"Dave &amp; Buster's Gwinnett","street":"4000 Venture Dr.","longitude":-84.14301269,"id":"a687t7sr0f54","state":"GA","revenue":431568},"type":"Feature","geometry":{"type":"Point","coordinates":[-84.14301269,33.94926525]}},{"properties":{"city":"St. Louis","latitude":38.75707679,"zip":"63043","store name":"Dave &amp; Buster's St. Louis","street":"13857 Riverport Dr.","longitude":-90.46837619,"id":"a687t7wuejss","state":"MO","revenue":441568},"type":"Feature","geometry":{"type":"Point","coordinates":[-90.46837619,38.75707679]}},{"properties":{"city":"Austin","latitude":30.38272495,"zip":"78759","store name":"Dave &amp; Buster's Austin","street":"9333 Research Blvd., Suite A600","longitude":-97.73964661,"id":"a687t7uaqqd7","state":"TX","revenue":451568},"type":"Feature","geometry":{"type":"Point","coordinates":[-97.73964661,30.38272495]}},{"properties":{"city":"Jacksonville","latitude":30.24493083,"zip":"32256","store name":"Dave &amp; Buster's Jacksonville","street":"7025 Salisbury Rd.","longitude":-81.58693263,"id":"a687t88pyl3g","state":"FL","revenue":461568},"type":"Feature","geometry":{"type":"Point","coordinates":[-81.58693263,30.24493083]}},{"properties":{"city":"Providence","latitude":41.82901695,"zip":"2903","store name":"Dave &amp; Buster's Providence","street":"40 Providence Pl.","longitude":-71.42533115,"id":"a687t88c07om","state":"RI","revenue":471568},"type":"Feature","geometry":{"type":"Point","coordinates":[-71.42533115,41.82901695]}},{"properties":{"city":"Milpitas","latitude":37.45940906,"zip":"95035","store name":"Dave &amp; Buster's San Jose","street":"940 Great Wall Dr.","longitude":-121.8180766,"id":"a687t83854y9","state":"CA","revenue":481568},"type":"Feature","geometry":{"type":"Point","coordinates":[-121.8180766,37.45940906]}},{"properties":{"city":"Westminster","latitude":39.89083408,"zip":"80020","store name":"Dave &amp; Buster's Westminster","street":"10667 Westminster Blvd.","longitude":-105.0696967,"id":"a687t7ski9oz","state":"CO","revenue":491568},"type":"Feature","geometry":{"type":"Point","coordinates":[-105.0696967,39.89083408]}},{"properties":{"city":"Homestead","latitude":40.41056128,"zip":"15120","store name":"Dave &amp; Buster's Pittsburgh","street":"180 East Waterfront Dr.","longitude":-79.91478721,"id":"a687t83ie975","state":"PA","revenue":501568},"type":"Feature","geometry":{"type":"Point","coordinates":[-79.91478721,40.41056128]}},{"properties":{"city":"San Diego","latitude":32.77377941,"zip":"92108","store name":"Dave &amp; Buster's San Diego","street":"2931 Camino Del Rio North","longitude":-117.1312959,"id":"a687t7yrrcu3","state":"CA","revenue":511568},"type":"Feature","geometry":{"type":"Point","coordinates":[-117.1312959,32.77377941]}},{"properties":{"city":"Miami","latitude":25.7827827,"zip":"33172","store name":"Dave &amp; Buster's Miami","street":"11481 NW 12th St.","longitude":-80.38065401,"id":"a687t7vbyuzp","state":"FL","revenue":521568},"type":"Feature","geometry":{"type":"Point","coordinates":[-80.38065401,25.7827827]}},{"properties":{"city":"Frisco","latitude":33.09915412,"zip":"75034","store name":"Dave &amp; Buster's Frisco","street":"2601 Preston Rd., Suite 1200","longitude":-96.81157326,"id":"a687t7zrpexh","state":"TX","revenue":531568},"type":"Feature","geometry":{"type":"Point","coordinates":[-96.81157326,33.09915412]}},{"properties":{"city":"Westlake","latitude":41.47561936,"zip":"44145","store name":"Dave &amp; Buster's Cleveland","street":"25735 First St.","longitude":-81.90395264,"id":"a687t7ub4l9y","state":"OH","revenue":541568},"type":"Feature","geometry":{"type":"Point","coordinates":[-81.90395264,41.47561936]}},{"properties":{"city":"Islandia","latitude":40.8017124,"zip":"11749","store name":"Dave &amp; Buster's Long Island","street":"1856 Vetrans Parkway","longitude":-73.17579853,"id":"a687t7tvu1sw","state":"NY","revenue":551568},"type":"Feature","geometry":{"type":"Point","coordinates":[-73.17579853,40.8017124]}},{"properties":{"city":"Arcadia","latitude":34.1329158,"zip":"91007","store name":"Dave &amp; Buster's Santa Anita","street":"400 S. Baldwin Avenue, Suite 930-U","longitude":-118.0519498,"id":"a687t7u1ewsa","state":"CA","revenue":561568},"type":"Feature","geometry":{"type":"Point","coordinates":[-118.0519498,34.1329158]}},{"properties":{"city":"Hanover","latitude":39.15193312,"zip":"21076","store name":"Dave &amp; Buster's GSC Arundel","street":"700 Arundel Mills Circle","longitude":-76.73048576,"id":"a687t7v5qew0","state":"MD","revenue":571568},"type":"Feature","geometry":{"type":"Point","coordinates":[-76.73048576,39.15193312]}},{"properties":{"city":"Concord","latitude":35.37084156,"zip":"28027","store name":"Dave &amp; Buster's GSC Concord","street":"8361 Concord Mills Blvd.","longitude":-80.71695548,"id":"a687t88qo6x7","state":"NC","revenue":581568},"type":"Feature","geometry":{"type":"Point","coordinates":[-80.71695548,35.37084156]}},{"properties":{"city":"Farmingdale","latitude":40.73726698,"zip":"11735","store name":"Dave &amp; Buster's GSC Farmingdale","street":"261 Airport Plaza Blvd.","longitude":-73.41969466,"id":"a687t87c91ve","state":"NY","revenue":591568},"type":"Feature","geometry":{"type":"Point","coordinates":[-73.41969466,40.73726698]}},{"properties":{"city":"Philadelphia","latitude":40.09451254,"zip":"19154","store name":"Dave &amp; Buster's GSC Franklin","street":"1995 Franklin Mills Circle","longitude":-74.95878539,"id":"a687t7wycjun","state":"PA","revenue":601568},"type":"Feature","geometry":{"type":"Point","coordinates":[-74.95878539,40.09451254]}},{"properties":{"city":"Houston","latitude":29.78479271,"zip":"77024","store name":"Jillian's Houston3","street":"7620 Katy Freeway, Suite 200","longitude":-95.46617851,"id":"a687t84o8kxy","state":"TX","revenue":611568},"type":"Feature","geometry":{"type":"Point","coordinates":[-95.46617851,29.78479271]}},{"properties":{"city":"Nashville","latitude":36.20647361,"zip":"37214","store name":"Dave &amp; Buster's GSC Nashville","street":"540 Opry Mills Drive","longitude":-86.69427237,"id":"a687t7ss6n15","state":"TN","revenue":621568},"type":"Feature","geometry":{"type":"Point","coordinates":[-86.69427237,36.20647361]}},{"properties":{"city":"Phoenix","latitude":33.67495404,"zip":"85050","store name":"Jillian's Scottsdale","street":"21001 N. Tatum Blvd., Suite 44-1400","longitude":-111.9687377,"id":"a687t7x2co4a","state":"AZ","revenue":631568},"type":"Feature","geometry":{"type":"Point","coordinates":[-111.9687377,33.67495404]}},{"properties":{"city":"Westbury","latitude":40.74523498,"zip":"11590","store name":"Dave &amp; Buster's GSC Westbury","street":"1504 Old Country Rd.","longitude":-73.59461279,"id":"a687t80w2h33","state":"NY","revenue":641568},"type":"Feature","geometry":{"type":"Point","coordinates":[-73.59461279,40.74523498]}},{"properties":{"city":"Lawrenceville","latitude":33.98289989,"zip":"30043","store name":"Jillian's Atlanta","street":"5900 Sugarloaf Parkway, Suite 441","longitude":-84.07677762,"id":"a687t7ss0t3l","state":"GA","revenue":651568},"type":"Feature","geometry":{"type":"Point","coordinates":[-84.07677762,33.98289989]}},{"properties":{"city":"Omaha","latitude":41.23555434,"zip":"68144","store name":"Dave &amp; Buster's Omaha","street":"2502 South 133rd Plaza, Suite 11","longitude":-96.12261164,"id":"a687t7z3pgi9","state":"NE","revenue":661568},"type":"Feature","geometry":{"type":"Point","coordinates":[-96.12261164,41.23555434]}},{"properties":{"city":"Williamsville","latitude":42.97315242,"zip":"14221","store name":"Dave &amp; Buster's Buffalo","street":"4545 Transit Road, Suite 220","longitude":-78.69659257,"id":"a687t7tulvdw","state":"NY","revenue":671568},"type":"Feature","geometry":{"type":"Point","coordinates":[-78.69659257,42.97315242]}},{"properties":{"city":"Kansas City","latitude":39.12577184,"zip":"66111","store name":"Dave &amp; Buster's Kansas City","street":"1843 Village West Parkway, Suite 201","longitude":-94.82938656,"id":"a687t7uj8k07","state":"KS","revenue":681568},"type":"Feature","geometry":{"type":"Point","coordinates":[-94.82938656,39.12577184]}},{"properties":{"city":"New York","latitude":40.75644952,"zip":"10036","store name":"Dave &amp; Buster's Times Square","street":"234 West 42nd Street, 3rd Floor","longitude":-73.98798524,"id":"a687t7z3z62u","state":"NY","revenue":691568},"type":"Feature","geometry":{"type":"Point","coordinates":[-73.98798524,40.75644952]}},{"properties":{"city":"Maple Grove","latitude":45.09286344,"zip":"55369","store name":"Dave &amp; Buster's Maple Grove","street":"11780 Fountain Way","longitude":-93.42964578,"id":"a687t7u28rxh","state":"MN","revenue":701568},"type":"Feature","geometry":{"type":"Point","coordinates":[-93.42964578,45.09286344]}}],"is_temporal":false,"author":{"url":"","metadata":"","contact_name":"","contact_address":"","source":"","contact_phone":""},"source":"","pagination":{"sort":null,"start":0,"total":47,"limit":1000000},"state":"complete","tags":"asdf","published":"2014-08-13T00:19:44-04:00","id":112113}