{"type":"FeatureCollection","data_type":"Dataset","url_type":null,"permissions":[{"permissions":{"download":true,"view":true},"group_id":"everyone"}],"classification":null,"title":"NCAA Men's Lacrosse Matchup Locations, USA, 4.4.2009 ","count":106,"stream_id":11292,"contributor":{"url":"http://geocommons.com/users/139","name":"Burkey"},"data_attributes":null,"calculation_params":null,"icon_link":null,"link":"http://geocommons.com/overlays/11292.json","extent":[-121.866,28.3373,-68.793,44.826],"geometry_types":["point"],"unique_name":null,"name":"NCAA Men's Lacrosse Matchup Locations, USA, 4.4.2009 ","feature_count":106,"description":"This dataset displays the locations of sites were NCAA Men's Lacrosse matchups will be taking on Saturday, April 4th, 2009.\n\nThe data comes from LaxPower and includes: Matchup, time, location, city, state, lat/lon location \n","next_feature":null,"is_raster":false,"short_classification":"Y","stats":{"lon":{"max":-68.792966,"mean":-76.2997572924528,"variance":41.6430811058769,"stdev":6.45314505538787,"min":-121.866086,"median":-75.354284},"lat":{"max":44.826041,"mean":40.8073725,"variance":6.78276078647427,"stdev":2.60437339613088,"min":28.337331,"median":41.292984}},"features":[{"properties":{"city":"Cincinnati","lon":-84.634829,"time":"1:00 PM","matchup":"Adrian at Mount St. Joseph","id":"a623m8ne7hrp","lat":39.634829,"location":"Mount St. Joseph","state":"OH"},"type":"Feature","geometry":{"type":"Point","coordinates":[-84.634829,39.634829]}},{"properties":{"city":"Notre Dame","lon":-86.228211,"time":"1:00 PM","matchup":"Air Force at Notre Dame","id":"a623m8lto2kt","lat":41.698857,"location":"Notre Dame","state":"IN"},"type":"Feature","geometry":{"type":"Point","coordinates":[-86.228211,41.698857]}},{"properties":{"city":"Baltimore","lon":-76.620865,"time":"12:00 PM","matchup":"Albany at Johns Hopkins","id":"a623m8pxqczp","lat":39.333476,"location":"Johns Hopkins","state":"MD"},"type":"Feature","geometry":{"type":"Point","coordinates":[-76.620865,39.333476]}},{"properties":{"city":"Williamstown","lon":-73.204909,"time":"3:00 PM","matchup":"Amherst at Williams","id":"a623m8y2hnk1","lat":42.706929,"location":"Williams","state":"MA"},"type":"Feature","geometry":{"type":"Point","coordinates":[-73.204909,42.706929]}},{"properties":{"city":"New London","lon":-72.099342,"time":"2:00 PM","matchup":"Anna Maria at Mitchell","id":"a623m8ymb2q0","lat":41.328973,"location":"Mitchell","state":"CT"},"type":"Feature","geometry":{"type":"Point","coordinates":[-72.099342,41.328973]}},{"properties":{"city":"Springfield","lon":-72.553136,"time":"1:00 PM","matchup":"Assumption at American International","id":"a623m8lcog4n","lat":42.11732,"location":"American International","state":"MA"},"type":"Feature","geometry":{"type":"Point","coordinates":[-72.553136,42.11732]}},{"properties":{"city":"Bangor","lon":-68.792966,"time":"12:00 PM","matchup":"Becker at Husson","id":"a623m8vjwf1h","lat":44.826041,"location":"Husson","state":"ME"},"type":"Feature","geometry":{"type":"Point","coordinates":[-68.792966,44.826041]}},{"properties":{"city":"Banner Elk","lon":-81.871771,"time":"2:00 PM","matchup":"Belmont Abbey at Lees-McRae","id":"a623m8rl8xxb","lat":36.153916,"location":"Lees-McRae","state":"NC"},"type":"Feature","geometry":{"type":"Point","coordinates":[-81.871771,36.153916]}},{"properties":{"city":"Syracuse","lon":-76.08409,"time":"1:00 PM","matchup":"Bentley at Le Moyne","id":"a623m8nk2cqk","lat":43.049084,"location":"Le Moyne","state":"NY"},"type":"Feature","geometry":{"type":"Point","coordinates":[-76.08409,43.049084]}},{"properties":{"city":"Baltimore","lon":-76.707548,"time":"7:30 PM","matchup":"Binghamton at UMBC","id":"a623m8vao9d1","lat":39.25052,"location":"UMBC","state":"MD"},"type":"Feature","geometry":{"type":"Point","coordinates":[-76.707548,39.25052]}},{"properties":{"city":"West Point","lon":-73.964135,"time":"12:00 PM","matchup":"Bucknell at Army","id":"a623m8pz0hjg","lat":41.387548,"location":"Army","state":"NY"},"type":"Feature","geometry":{"type":"Point","coordinates":[-73.964135,41.387548]}},{"properties":{"city":"Madison","lon":-74.427715,"time":"2:30 PM","matchup":"Cabrini at Drew","id":"a623m8x0ow5f","lat":40.763255,"location":"Drew","state":"NJ"},"type":"Feature","geometry":{"type":"Point","coordinates":[-74.427715,40.763255]}},{"properties":{"city":"Colorado Springs","lon":-104.827752,"time":"1:00 PM","matchup":"Carthage at Colorado College","id":"a623m8zm5amu","lat":38.84807,"location":"Colorado College","state":"CO"},"type":"Feature","geometry":{"type":"Point","coordinates":[-104.827752,38.84807]}},{"properties":{"city":"Castine","lon":-68.801136,"time":"1:00 PM","matchup":"Castleton at Maine Maritime","id":"a623m8tju02f","lat":44.387713,"location":"Maine Maritime","state":"ME"},"type":"Feature","geometry":{"type":"Point","coordinates":[-68.801136,44.387713]}},{"properties":{"city":"Charlotte","lon":-80.854839,"time":"2:00 PM","matchup":"Catawba at Queens U. of Charlotte","id":"a623m8odvyqy","lat":35.158751,"location":"Queens U. of Charlotte","state":"NC"},"type":"Feature","geometry":{"type":"Point","coordinates":[-80.854839,35.158751]}},{"properties":{"city":"Selinsgrove","lon":-76.875946,"time":"2:30 PM","matchup":"Catholic at Susquehanna","id":"a623m8uh21ar","lat":40.793895,"location":"Susquehanna","state":"PA"},"type":"Feature","geometry":{"type":"Point","coordinates":[-76.875946,40.793895]}},{"properties":{"city":"Aston","lon":-75.444761,"time":"1:00 PM","matchup":"Centenary at Neumann","id":"a623m8swiagn","lat":39.874639,"location":"Neumann","state":"PA"},"type":"Feature","geometry":{"type":"Point","coordinates":[-75.444761,39.874639]}},{"properties":{"city":"Springfield","lon":-72.55383,"time":"3:00 PM","matchup":"Clark at Springfield","id":"a623m8tt70wx","lat":42.105475,"location":"Springfield","state":"MA"},"type":"Feature","geometry":{"type":"Point","coordinates":[-72.55383,42.105475]}},{"properties":{"city":"Middletown","lon":-72.656484,"time":"1:00 PM","matchup":"Colby at Wesleyan","id":"a623m8qxmgcw","lat":41.554005,"location":"Wesleyan","state":"CT"},"type":"Feature","geometry":{"type":"Point","coordinates":[-72.656484,41.554005]}},{"properties":{"city":"Bethlehem","lon":-75.359732,"time":"1:00 PM","matchup":"Colgate at Lehigh","id":"a623m8wfw6w7","lat":40.586483,"location":"Lehigh","state":"PA"},"type":"Feature","geometry":{"type":"Point","coordinates":[-75.359732,40.586483]}},{"properties":{"city":"Lewiston","lon":-70.200819,"time":"1:00 PM","matchup":"Connecticut College at Bates","id":"a623m8oh5eau","lat":44.103458,"location":"Bates","state":"ME"},"type":"Feature","geometry":{"type":"Point","coordinates":[-70.200819,44.103458]}},{"properties":{"city":"Dudley","lon":-71.931714,"time":"2:00 PM","matchup":"Curry at Nichols","id":"a623m8xui056","lat":42.042884,"location":"Nichols","state":"MA"},"type":"Feature","geometry":{"type":"Point","coordinates":[-71.931714,42.042884]}},{"properties":{"city":"Hamden","lon":-72.888144,"time":"1:00 PM","matchup":"Denver at Quinnipiac","id":"a623m90w8000","lat":41.422765,"location":"Quinnipiac","state":"CT"},"type":"Feature","geometry":{"type":"Point","coordinates":[-72.888144,41.422765]}},{"properties":{"city":"Clinton","lon":-81.86146,"time":"1:00 PM","matchup":"Detroit at Presbyterian","id":"a623m8wggxti","lat":34.461601,"location":"Presbyterian","state":"SC"},"type":"Feature","geometry":{"type":"Point","coordinates":[-81.86146,34.461601]}},{"properties":{"city":"Haverford","lon":-75.309011,"time":"1:00 PM","matchup":"Dickinson at Haverford","id":"a623m8vzxxde","lat":40.00762,"location":"Haverford","state":"PA"},"type":"Feature","geometry":{"type":"Point","coordinates":[-75.309011,40.00762]}},{"properties":{"city":"Erie","lon":-80.053411,"time":"1:00 PM","matchup":"Dominican College at Mercyhurst","id":"a623m8mho7ea","lat":42.102456,"location":"Mercyhurst","state":"PA"},"type":"Feature","geometry":{"type":"Point","coordinates":[-80.053411,42.102456]}},{"properties":{"city":"San Jose","lon":-121.866086,"time":"1:00 PM","matchup":"Dominican U. at San Jose State","id":"a623m8mm9qmw","lat":37.333411,"location":"San Jose State","state":"CA"},"type":"Feature","geometry":{"type":"Point","coordinates":[-121.866086,37.333411]}},{"properties":{"city":"Coraopolis","lon":-80.216242,"time":"1:00 PM","matchup":"Drexel at Robert Morris","id":"a623m8xipp38","lat":40.521189,"location":"Robert Morris","state":"PA"},"type":"Feature","geometry":{"type":"Point","coordinates":[-80.216242,40.521189]}},{"properties":{"city":"Dallas","lon":-75.97253,"time":"3:30 PM","matchup":"Eastern at Misericordia","id":"a623m8m3vdip","lat":41.349459,"location":"Misericordia","state":"PA"},"type":"Feature","geometry":{"type":"Point","coordinates":[-75.97253,41.349459]}},{"properties":{"city":"Wilkes-Barre","lon":-75.860992,"time":"3:00 PM","matchup":"Elizabethtown at King's","id":"a623m8zi5kdt","lat":41.233239,"location":"King's","state":"PA"},"type":"Feature","geometry":{"type":"Point","coordinates":[-75.860992,41.233239]}},{"properties":{"city":"Alfred","lon":-77.789019,"time":"4:00 PM","matchup":"Elmira at Alfred","id":"a623m8nf7bvl","lat":42.25748,"location":"Alfred","state":"NY"},"type":"Feature","geometry":{"type":"Point","coordinates":[-77.789019,42.25748]}},{"properties":{"city":"Poultney","lon":-73.244413,"time":"12:00 PM","matchup":"Emerson at Green Mountain","id":"a623m8pzbnjs","lat":43.514583,"location":"Green Mountain","state":"VT"},"type":"Feature","geometry":{"type":"Point","coordinates":[-73.244413,43.514583]}},{"properties":{"city":"Springfield","lon":-72.51954,"time":"4:00 PM","matchup":"Endicott at Western New England","id":"a623m8ulo1xc","lat":42.114007,"location":"Western New England","state":"MA"},"type":"Feature","geometry":{"type":"Point","coordinates":[-72.51954,42.114007]}},{"properties":{"city":"Washington","lon":-77.075423,"time":"1:00 PM","matchup":"Fairfield at Georgetown","id":"a623m8u9hr4m","lat":38.908514,"location":"Georgetown","state":"DC"},"type":"Feature","geometry":{"type":"Point","coordinates":[-77.075423,38.908514]}},{"properties":{"city":"Grantham","lon":-76.989686,"time":"1:00 PM","matchup":"Fairleigh Dickinson at Messiah","id":"a623m9048qjw","lat":40.153686,"location":"Messiah","state":"PA"},"type":"Feature","geometry":{"type":"Point","coordinates":[-76.989686,40.153686]}},{"properties":{"city":"Pomona","lon":-74.606274,"time":"7:00 PM","matchup":"Farmingdale State at Stockton","id":"a623m8t2v4qv","lat":39.482618,"location":"Stockton","state":"NJ"},"type":"Feature","geometry":{"type":"Point","coordinates":[-74.606274,39.482618]}},{"properties":{"city":"Saint Leo","lon":-82.254095,"time":"1:00 PM","matchup":"Florida Southern at Saint Leo","id":"a623m8lp82m1","lat":28.337331,"location":"Saint Leo","state":"FL"},"type":"Feature","geometry":{"type":"Point","coordinates":[-82.254095,28.337331]}},{"properties":{"city":"Sewanee","lon":-85.92228,"time":"1:00 PM","matchup":"Fontbonne at Sewanee","id":"a623m8mup7al","lat":35.209314,"location":"Sewanee","state":"TN"},"type":"Feature","geometry":{"type":"Point","coordinates":[-85.92228,35.209314]}},{"properties":{"city":"Allentown","lon":-75.511162,"time":"7:30 PM","matchup":"Franklin &amp; Marshall at Muhlenberg","id":"a623m8les1eg","lat":40.59868,"location":"Muhlenberg","state":"PA"},"type":"Feature","geometry":{"type":"Point","coordinates":[-75.511162,40.59868]}},{"properties":{"city":"Plattsburgh","lon":-73.475563,"time":"1:00 PM","matchup":"Geneseo at Plattsburgh","id":"a623m8u4cwoe","lat":44.683744,"location":"Plattsburgh","state":"NY"},"type":"Feature","geometry":{"type":"Point","coordinates":[-73.475563,44.683744]}},{"properties":{"city":"Utica","lon":-75.268961,"time":"1:00 PM","matchup":"Gordon at Utica College","id":"a623m8w0ohmj","lat":43.098824,"location":"Utica College","state":"NY"},"type":"Feature","geometry":{"type":"Point","coordinates":[-75.268961,43.098824]}},{"properties":{"city":"Scranton","lon":-75.661012,"time":"1:00 PM","matchup":"Goucher at Scranton","id":"a623m8m31l52","lat":41.404816,"location":"Scranton","state":"PA"},"type":"Feature","geometry":{"type":"Point","coordinates":[-75.661012,41.404816]}},{"properties":{"city":"Salem","lon":-80.055562,"time":"2:00 PM","matchup":"Hampden-Sydney at Roanoke","id":"a623m8yr1qjj","lat":37.296947,"location":"Roanoke","state":"VA"},"type":"Feature","geometry":{"type":"Point","coordinates":[-80.055562,37.296947]}},{"properties":{"city":"Ithaca","lon":-76.4763,"time":"1:00 PM","matchup":"Harvard at Cornell","id":"a623m8natpju","lat":42.44322,"location":"Cornell","state":"NY"},"type":"Feature","geometry":{"type":"Point","coordinates":[-76.4763,42.44322]}},{"properties":{"city":"University Park","lon":-77.854243,"time":"1:00 PM","matchup":"Hobart at Penn State","id":"a623m8z8szwa","lat":40.805195,"location":"Penn State","state":"PA"},"type":"Feature","geometry":{"type":"Point","coordinates":[-77.854243,40.805195]}},{"properties":{"city":"East Rutherford","lon":-74.077988,"time":"5:00 PM","matchup":"Hofstra vs. Delaware","id":"a623m8nndfi4","lat":40.812728,"location":"Giants Stadium","state":"NJ"},"type":"Feature","geometry":{"type":"Point","coordinates":[-74.077988,40.812728]}},{"properties":{"city":"Easton","lon":-75.241779,"time":"1:00 PM","matchup":"Holy Cross at Lafayette","id":"a623m8w97qu5","lat":40.735686,"location":"Lafayette","state":"PA"},"type":"Feature","geometry":{"type":"Point","coordinates":[-75.241779,40.735686]}},{"properties":{"city":"Gwynedd Valley","lon":-75.24043,"time":"4:00 PM","matchup":"Immaculata at Gwynedd-Mercy","id":"a623m8l4t2o7","lat":40.198662,"location":"Gwynedd-Mercy","state":"PA"},"type":"Feature","geometry":{"type":"Point","coordinates":[-75.24043,40.198662]}},{"properties":{"city":"Rochester","lon":-77.671981,"time":"1:00 PM","matchup":"Ithaca at RIT","id":"a623m8vojxlf","lat":43.086728,"location":"RIT","state":"NY"},"type":"Feature","geometry":{"type":"Point","coordinates":[-77.671981,43.086728]}},{"properties":{"city":"Waterville","lon":-69.663766,"time":"1:00 PM","matchup":"Johnson State at Thomas","id":"a623m8roeim7","lat":44.528352,"location":"Thomas","state":"ME"},"type":"Feature","geometry":{"type":"Point","coordinates":[-69.663766,44.528352]}},{"properties":{"city":"Throgs Neck","lon":-73.797751,"time":"1:00 PM","matchup":"Kean at Maritime","id":"a623m8zvkf86","lat":40.807477,"location":"Maritime","state":"NY"},"type":"Feature","geometry":{"type":"Point","coordinates":[-73.797751,40.807477]}},{"properties":{"city":"Salem","lon":-70.894107,"time":"6:00 PM","matchup":"Keene State at Salem State","id":"a623m8nd3op6","lat":42.504622,"location":"Salem State","state":"MA"},"type":"Feature","geometry":{"type":"Point","coordinates":[-70.894107,42.504622]}},{"properties":{"city":"Springfield","lon":-83.809497,"time":"1:00 PM","matchup":"Kenyon at Wittenberg","id":"a623m8tnl9ob","lat":39.932633,"location":"Wittenberg","state":"OH"},"type":"Feature","geometry":{"type":"Point","coordinates":[-83.809497,39.932633]}},{"properties":{"city":"Piscataway","lon":-74.465297,"time":"1:00 PM","matchup":"Loyola at Rutgers","id":"a623m8no1vm5","lat":40.513543,"location":"Rutgers","state":"NJ"},"type":"Feature","geometry":{"type":"Point","coordinates":[-74.465297,40.513543]}},{"properties":{"city":"Center Valley","lon":-75.384951,"time":"1:00 PM","matchup":"Lycoming at DeSales","id":"a623m8osgqfr","lat":40.535438,"location":"DeSales","state":"PA"},"type":"Feature","geometry":{"type":"Point","coordinates":[-75.384951,40.535438]}},{"properties":{"city":"Ashland","lon":-77.482055,"time":"1:00 PM","matchup":"Lynchburg at Randolph-Macon","id":"a623m8x7zf02","lat":37.762249,"location":"Randolph-Macon","state":"VA"},"type":"Feature","geometry":{"type":"Point","coordinates":[-77.482055,37.762249]}},{"properties":{"city":"Buzzards Bay","lon":-70.622698,"time":"1:00 PM","matchup":"MIT at Mass. Maritime","id":"a623m8uxechk","lat":41.740457,"location":"Mass. Maritime","state":"MA"},"type":"Feature","geometry":{"type":"Point","coordinates":[-70.622698,41.740457]}},{"properties":{"city":"Villanova","lon":-75.336677,"time":"1:00 PM","matchup":"Manhattan at Villanova","id":"a623m8n7b7ad","lat":40.032967,"location":"Villanova","state":"PA"},"type":"Feature","geometry":{"type":"Point","coordinates":[-75.336677,40.032967]}},{"properties":{"city":"Chester","lon":-75.356019,"time":"1:00 PM","matchup":"Manhattanville at Widener","id":"a623m8muaq87","lat":39.862366,"location":"Widener","state":"PA"},"type":"Feature","geometry":{"type":"Point","coordinates":[-75.356019,39.862366]}},{"properties":{"city":"Wingate","lon":-80.439493,"time":"2:00 PM","matchup":"Mars Hill at Wingate","id":"a623m8vbjh8p","lat":34.985237,"location":"Wingate","state":"NC"},"type":"Feature","geometry":{"type":"Point","coordinates":[-80.439493,34.985237]}},{"properties":{"city":"Winchester","lon":-78.157974,"time":"4:00 PM","matchup":"Marywood at Shenandoah","id":"a623m8yngv4d","lat":39.166314,"location":"Shenandoah","state":"VA"},"type":"Feature","geometry":{"type":"Point","coordinates":[-78.157974,39.166314]}},{"properties":{"city":"Dartmouth","lon":-71.005672,"time":"1:00 PM","matchup":"Mass-Boston at Mass-Dartmouth","id":"a623m8qs1cxa","lat":41.622386,"location":"Mass-Dartmouth","state":"MA"},"type":"Feature","geometry":{"type":"Point","coordinates":[-71.005672,41.622386]}},{"properties":{"city":"Swarthmore","lon":-75.354284,"time":"1:00 PM","matchup":"McDaniel at Swarthmore","id":"a623m8nfa0tu","lat":39.900079,"location":"Swarthmore","state":"PA"},"type":"Feature","geometry":{"type":"Point","coordinates":[-75.354284,39.900079]}},{"properties":{"city":"Oberlin","lon":-82.227808,"time":"1:00 PM","matchup":"Medaille at Oberlin","id":"a623m8z3xwkf","lat":41.292984,"location":"Oberlin","state":"OH"},"type":"Feature","geometry":{"type":"Point","coordinates":[-82.227808,41.292984]}},{"properties":{"city":"Bethlehem","lon":-75.376525,"time":"1:00 PM","matchup":"Merchant Marine at Moravian","id":"a623m8yhpvgn","lat":40.630234,"location":"Moravian","state":"PA"},"type":"Feature","geometry":{"type":"Point","coordinates":[-75.376525,40.630234]}},{"properties":{"city":"Brunswick","lon":-69.957614,"time":"1:00 PM","matchup":"Middlebury at Bowdoin","id":"a623m8xhgn2l","lat":43.90281,"location":"Bowdoin","state":"ME"},"type":"Feature","geometry":{"type":"Point","coordinates":[-69.957614,43.90281]}},{"properties":{"city":"Garden City","lon":-73.649958,"time":"4:00 PM","matchup":"Molloy at Adelphi","id":"a623m8z9blbg","lat":40.719486,"location":"Adelphi","state":"NY"},"type":"Feature","geometry":{"type":"Point","coordinates":[-73.649958,40.719486]}},{"properties":{"city":"Lyndonville","lon":-72.025509,"time":"1:00 PM","matchup":"Mount Ida at Lyndon State","id":"a623m8udd5xz","lat":44.533013,"location":"Lyndon State","state":"VT"},"type":"Feature","geometry":{"type":"Point","coordinates":[-72.025509,44.533013]}},{"properties":{"city":"Buffalo","lon":-78.855791,"time":"12:00 PM","matchup":"Mount St. Mary's at Canisius","id":"a623m8z6bhhy","lat":42.921276,"location":"Canisius","state":"NY"},"type":"Feature","geometry":{"type":"Point","coordinates":[-78.855791,42.921276]}},{"properties":{"city":"Standish","lon":-70.485993,"time":"1:00 PM","matchup":"Mt. St. Vincent at St. Joseph's","id":"a623m8m0lpur","lat":43.82701,"location":"St. Joseph's","state":"ME"},"type":"Feature","geometry":{"type":"Point","coordinates":[-70.485993,43.82701]}},{"properties":{"city":"Brookville","lon":-73.60107,"time":"12:00 PM","matchup":"NYIT at C. W. Post","id":"a623m8nf8uav","lat":40.810211,"location":"C. W. Post","state":"NY"},"type":"Feature","geometry":{"type":"Point","coordinates":[-73.60107,40.810211]}},{"properties":{"city":"Oneonta","lon":-75.073474,"time":"1:00 PM","matchup":"Nazareth at Hartwick","id":"a623m8qq5cm1","lat":42.458319,"location":"Hartwick","state":"NY"},"type":"Feature","geometry":{"type":"Point","coordinates":[-75.073474,42.458319]}},{"properties":{"city":"Babson Park","lon":-71.267154,"time":"1:00 PM","matchup":"Norwich at Babson","id":"a623m8vcloaj","lat":42.297033,"location":"Babson","state":"MA"},"type":"Feature","geometry":{"type":"Point","coordinates":[-71.267154,42.297033]}},{"properties":{"city":"Louisville","lon":-85.703207,"time":"1:00 PM","matchup":"Ohio State at Bellarmine","id":"a623m8loxo9i","lat":38.215561,"location":"Bellarmine","state":"KY"},"type":"Feature","geometry":{"type":"Point","coordinates":[-85.703207,38.215561]}},{"properties":{"city":"Brockport","lon":-77.95396,"time":"1:00 PM","matchup":"Oneonta at Brockport","id":"a623m8yhkdxb","lat":43.206608,"location":"Brockport","state":"NY"},"type":"Feature","geometry":{"type":"Point","coordinates":[-77.95396,43.206608]}},{"properties":{"city":"Morrisville","lon":-75.645095,"time":"1:00 PM","matchup":"Oswego at Morrisville","id":"a623m8vr2305","lat":42.89371,"location":"Morrisville","state":"NY"},"type":"Feature","geometry":{"type":"Point","coordinates":[-75.645095,42.89371]}},{"properties":{"city":"Cazenovia","lon":-75.855026,"time":"3:00 PM","matchup":"PSU - Abington at Cazenovia","id":"a623m8ru5ysf","lat":42.932299,"location":"Cazenovia","state":"NY"},"type":"Feature","geometry":{"type":"Point","coordinates":[-75.855026,42.932299]}},{"properties":{"city":"Willamantic","lon":-72.221745,"time":"1:00 PM","matchup":"Plymouth State at Eastern Connecticut","id":"a623m8pw9l5i","lat":41.722136,"location":"Eastern Connecticut","state":"CT"},"type":"Feature","geometry":{"type":"Point","coordinates":[-72.221745,41.722136]}},{"properties":{"city":"Cortland","lon":-76.201808,"time":"12:30 PM","matchup":"Potsdam at Cortland","id":"a623m8q9uh7v","lat":42.588992,"location":"Cortland","state":"NY"},"type":"Feature","geometry":{"type":"Point","coordinates":[-76.201808,42.588992]}},{"properties":{"city":"East Rutherford","lon":-74.077008,"time":"2:30 PM","matchup":"Princeton vs. Syracuse","id":"a623m8u0eeqk","lat":40.812214,"location":"Giants Stadium","state":"NJ"},"type":"Feature","geometry":{"type":"Point","coordinates":[-74.077008,40.812214]}},{"properties":{"city":"Greensboro","lon":-79.800562,"time":"1:00 PM","matchup":"Randolph at Greensboro","id":"a623m8x8lbav","lat":36.069828,"location":"Greensboro","state":"NC"},"type":"Feature","geometry":{"type":"Point","coordinates":[-79.800562,36.069828]}},{"properties":{"city":"Potsdam","lon":-74.967957,"time":"12:00 PM","matchup":"Rensselaer vs. Clarkson","id":"a623m8smivvc","lat":44.661832,"location":"Potsdam","state":"NY"},"type":"Feature","geometry":{"type":"Point","coordinates":[-74.967957,44.661832]}},{"properties":{"city":"Towson","lon":-76.615937,"time":"2:00 PM","matchup":"Sacred Heart at Towson","id":"a623m8uso8hs","lat":39.388498,"location":"Towson","state":"MD"},"type":"Feature","geometry":{"type":"Point","coordinates":[-76.615937,39.388498]}},{"properties":{"city":"Providence","lon":-71.432843,"time":"2:00 PM","matchup":"Saint Joseph's at Providence","id":"a623m8qk3005","lat":41.842105,"location":"Providence","state":"RI"},"type":"Feature","geometry":{"type":"Point","coordinates":[-71.432843,41.842105]}},{"properties":{"city":"Pleasantville","lon":-73.810677,"time":"1:00 PM","matchup":"Saint Michael's at Pace","id":"a623m8ryj2hl","lat":41.128556,"location":"Pace","state":"NY"},"type":"Feature","geometry":{"type":"Point","coordinates":[-73.810677,41.128556]}},{"properties":{"city":"Gaffney","lon":-81.643348,"time":"3:00 PM","matchup":"St. Andrews at Limestone","id":"a623m90mn7vx","lat":35.055415,"location":"Limestone","state":"SC"},"type":"Feature","geometry":{"type":"Point","coordinates":[-81.643348,35.055415]}},{"properties":{"city":"Hoboken","lon":-74.026511,"time":"3:00 PM","matchup":"St. John Fisher at Stevens","id":"a623m8v1f4cp","lat":40.744354,"location":"Stevens","state":"NJ"},"type":"Feature","geometry":{"type":"Point","coordinates":[-74.026511,40.744354]}},{"properties":{"city":"Amherst","lon":-72.529294,"time":"1:00 PM","matchup":"St. John's at Massachusetts","id":"a623m8t2hgs5","lat":42.386547,"location":"Massachusetts","state":"MA"},"type":"Feature","geometry":{"type":"Point","coordinates":[-72.529294,42.386547]}},{"properties":{"city":"Schenectady","lon":-73.92562,"time":"1:00 PM","matchup":"St. Lawrence at Union","id":"a623m8n0k3a1","lat":42.816874,"location":"Union","state":"NY"},"type":"Feature","geometry":{"type":"Point","coordinates":[-73.92562,42.816874]}},{"properties":{"city":"Dover","lon":-75.542751,"time":"1:30 PM","matchup":"St. Mary's at Wesley","id":"a623m8v7uh1a","lat":39.163009,"location":"Wesley","state":"DE"},"type":"Feature","geometry":{"type":"Point","coordinates":[-75.542751,39.163009]}},{"properties":{"city":"Salisbury","lon":-75.605106,"time":"7:00 PM","matchup":"Stevenson at Salisbury","id":"a623m8zv11t6","lat":38.343589,"location":"Salisbury","state":"MD"},"type":"Feature","geometry":{"type":"Point","coordinates":[-75.605106,38.343589]}},{"properties":{"city":"Burlington","lon":-73.188558,"time":"1:00 PM","matchup":"Stony Brook at Vermont","id":"a623m8r1pqcb","lat":44.482938,"location":"Vermont","state":"VT"},"type":"Feature","geometry":{"type":"Point","coordinates":[-73.188558,44.482938]}},{"properties":{"city":"Hartford","lon":-72.689396,"time":"1:00 PM","matchup":"Tufts at Trinity","id":"a623m8yw7iwg","lat":41.749767,"location":"Trinity","state":"CT"},"type":"Feature","geometry":{"type":"Point","coordinates":[-72.689396,41.749767]}},{"properties":{"city":"Newport","lon":-71.302632,"time":"1:00 PM","matchup":"U. of New England at Salve Regina","id":"a623m8n3r375","lat":41.471307,"location":"Salve Regina","state":"RI"},"type":"Feature","geometry":{"type":"Point","coordinates":[-71.302632,41.471307]}},{"properties":{"city":"Poughkeepsie","lon":-73.932798,"time":"1:00 PM","matchup":"VMI at Marist","id":"a623m8ywl72q","lat":41.719208,"location":"Marist","state":"NY"},"type":"Feature","geometry":{"type":"Point","coordinates":[-73.932798,41.719208]}},{"properties":{"city":"Clinton","lon":-75.404382,"time":"1:00 PM","matchup":"Vassar at Hamilton","id":"a623m8z78dta","lat":43.055568,"location":"Hamilton","state":"NY"},"type":"Feature","geometry":{"type":"Point","coordinates":[-75.404382,43.055568]}},{"properties":{"city":"Greensboro","lon":-79.885991,"time":"12:00 PM","matchup":"Virginia Wesleyan at Guilford","id":"a623m8l0fge0","lat":36.091502,"location":"Guilford","state":"NC"},"type":"Feature","geometry":{"type":"Point","coordinates":[-79.885991,36.091502]}},{"properties":{"city":"East Rutherford","lon":-74.075878,"time":"12:00 PM","matchup":"Virginia vs. North Carolina","id":"a623m8mh9ksj","lat":40.811587,"location":"Giants Stadium","state":"NJ"},"type":"Feature","geometry":{"type":"Point","coordinates":[-74.075878,40.811587]}},{"properties":{"city":"Loundonville","lon":-73.745989,"time":"2:00 PM","matchup":"Wagner at Siena","id":"a623m8uz38pj","lat":42.716549,"location":"Siena","state":"NY"},"type":"Feature","geometry":{"type":"Point","coordinates":[-73.745989,42.716549]}},{"properties":{"city":"Gettysburg","lon":-77.240583,"time":"1:00 PM","matchup":"Washington College at Gettysburg","id":"a623m8yk1co0","lat":39.834708,"location":"Gettysburg","state":"PA"},"type":"Feature","geometry":{"type":"Point","coordinates":[-77.240583,39.834708]}},{"properties":{"city":"Cobleskill","lon":-74.492728,"time":"12:00 PM","matchup":"Wells at Cobleskill","id":"a623m8myfa2p","lat":42.67162,"location":"Cobleskill","state":"NY"},"type":"Feature","geometry":{"type":"Point","coordinates":[-74.492728,42.67162]}},{"properties":{"city":"Bristol","lon":-75.645095,"time":"2:30 PM","matchup":"Wentworth Tech. at Roger Williams","id":"a623m8yumsl4","lat":42.89371,"location":"Roger Williams","state":"RI"},"type":"Feature","geometry":{"type":"Point","coordinates":[-75.645095,42.89371]}},{"properties":{"city":"Newton","lon":-71.242641,"time":"12:00 PM","matchup":"Wheaton at Lasell","id":"a623m8uizgr8","lat":42.338704,"location":"Lasell","state":"MA"},"type":"Feature","geometry":{"type":"Point","coordinates":[-71.242641,42.338704]}},{"properties":{"city":"Severna Park","lon":-76.547816,"time":"11:00 AM","matchup":"Whittier vs. Christopher Newport","id":"a623m8mjlf0v","lat":39.070463,"location":"Severn School","state":"MD"},"type":"Feature","geometry":{"type":"Point","coordinates":[-76.547816,39.070463]}},{"properties":{"city":"Providence","lon":-71.395793,"time":"1:00 PM","matchup":"Yale at Brown","id":"a623m8uzjq9h","lat":41.831814,"location":"Brown","state":"RI"},"type":"Feature","geometry":{"type":"Point","coordinates":[-71.395793,41.831814]}},{"properties":{"city":"Fredericksburg","lon":-77.474284,"time":"1:00 PM","matchup":"York at Mary Washington","id":"a623m8p6ak4t","lat":38.302793,"location":"Mary Washington","state":"VA"},"type":"Feature","geometry":{"type":"Point","coordinates":[-77.474284,38.302793]}}],"is_temporal":true,"author":{"url":"http://www.laxpower.com/calendar/gcalendar.php# ","metadata":"","contact_name":"","contact_address":"","source":"LaxPower","contact_phone":""},"source":"http://www.laxpower.com/calendar/gcalendar.php# ","pagination":{"sort":null,"start":0,"total":106,"limit":1000000},"state":"complete","tags":"athletics,college,lacrosse,ncaa","published":"2009-04-04T12:00:00Z","id":11292}