{"type":"FeatureCollection","data_type":"Dataset","url_type":null,"permissions":[{"permissions":{"download":true,"view":true},"group_id":"everyone"}],"classification":null,"title":"nuc2","count":65,"stream_id":113364,"contributor":{"url":"http://geocommons.com/users/21696","name":"SaidieG"},"data_attributes":null,"calculation_params":null,"icon_link":null,"link":"http://geocommons.com/overlays/113364.json","extent":[-120.854,25.435,-70.5794,46.2355],"geometry_types":["point"],"unique_name":null,"name":"nuc2","feature_count":65,"description":"","next_feature":null,"is_raster":false,"short_classification":"Y","stats":{"LONGITUDE1":{"max":-70.57944,"mean":-85.5631358461539,"variance":118.364435037087,"stdev":10.8795420416986,"min":-120.85444,"median":-83.0864},"ID":{"max":65,"mean":33.0,"variance":357.5,"stdev":18.907670401189,"min":1,"median":33},"LATITUDE1":{"max":46.2355,"mean":38.0966741538462,"variance":23.7754273341622,"stdev":4.87600526395964,"min":25.435,"median":39.75889},"REACTORS":{"max":3.0,"mean":1.6,"variance":0.3375,"stdev":0.580947501931113,"min":1.0,"median":2.0}},"features":[{"properties":{"CITY":"San Clemente","NAME":"San Onofre 2/3","LONGITUDE1":-117.55694,"TYPE":"Power Plant","ID":50,"STATE":"CA","id":"a62cfgfb3tjk","LATITUDE1":33.37028,"REACTORS":2.0},"type":"Feature","geometry":{"type":"Point","coordinates":[-117.55694,33.37028]}},{"properties":{"CITY":"Wintersburg","NAME":"Palo Verde 1/2/3","LONGITUDE1":-112.86194,"TYPE":"Power Plant","ID":41,"STATE":"AZ","id":"a62cfg8238fl","LATITUDE1":33.38972,"REACTORS":2.0},"type":"Feature","geometry":{"type":"Point","coordinates":[-112.86194,33.38972]}},{"properties":{"CITY":"Avila Beach","NAME":"Diablo Canyon 1/2","LONGITUDE1":-120.85444,"TYPE":"Power Plant","ID":16,"STATE":"CA","id":"a62cfg7v0dy2","LATITUDE1":35.21167,"REACTORS":2.0},"type":"Feature","geometry":{"type":"Point","coordinates":[-120.85444,35.21167]}},{"properties":{"CITY":"Pasco","NAME":"Columbia 2","LONGITUDE1":-119.5105,"TYPE":"Power Plant","ID":11,"STATE":"WA","id":"a62cfgb8bcpu","LATITUDE1":46.2355,"REACTORS":1.0},"type":"Feature","geometry":{"type":"Point","coordinates":[-119.5105,46.2355]}},{"properties":{"CITY":"Glen Rose","NAME":"Comanche Peak 1/2","LONGITUDE1":-97.785,"TYPE":"Power Plant","ID":12,"STATE":"TX","id":"a62cfgb34oq5","LATITUDE1":32.29778,"REACTORS":2.0},"type":"Feature","geometry":{"type":"Point","coordinates":[-97.785,32.29778]}},{"properties":{"CITY":"Wadsworth","NAME":"South Texas Project 1/2","LONGITUDE1":-96.04806,"TYPE":"Power Plant","ID":54,"STATE":"TX","id":"a62cfgl5ntd4","LATITUDE1":28.795,"REACTORS":2.0},"type":"Feature","geometry":{"type":"Point","coordinates":[-96.04806,28.795]}},{"properties":{"CITY":"St. Francisville","NAME":"River Bend 1","LONGITUDE1":-91.33167,"TYPE":"Power Plant","ID":48,"STATE":"LA","id":"a62cfgmj636k","LATITUDE1":30.75722,"REACTORS":1.0},"type":"Feature","geometry":{"type":"Point","coordinates":[-91.33167,30.75722]}},{"properties":{"CITY":"Killona","NAME":"Waterford 3","LONGITUDE1":-90.47111,"TYPE":"Power Plant","ID":63,"STATE":"LA","id":"a62cfgiryzwl","LATITUDE1":29.995,"REACTORS":1.0},"type":"Feature","geometry":{"type":"Point","coordinates":[-90.47111,29.995]}},{"properties":{"CITY":"Port Gibson","NAME":"Grand Gulf 1","LONGITUDE1":-91.04806,"TYPE":"Power Plant","ID":24,"STATE":"MS","id":"a62cfgm2wg2h","LATITUDE1":32.0075,"REACTORS":1.0},"type":"Feature","geometry":{"type":"Point","coordinates":[-91.04806,32.0075]}},{"properties":{"CITY":"Ashford","NAME":"Joseph M. Farley 1/2","LONGITUDE1":-85.1125,"TYPE":"Power Plant","ID":29,"STATE":"AL","id":"a62cfgf7qh7d","LATITUDE1":31.22278,"REACTORS":2.0},"type":"Feature","geometry":{"type":"Point","coordinates":[-85.1125,31.22278]}},{"properties":{"CITY":"Crystal River","NAME":"Crystal River","LONGITUDE1":-82.69889,"TYPE":"Power Plant","ID":14,"STATE":"FL","id":"a62cfgkx400k","LATITUDE1":28.95722,"REACTORS":1.0},"type":"Feature","geometry":{"type":"Point","coordinates":[-82.69889,28.95722]}},{"properties":{"CITY":"Miami","NAME":"Turkey Point 3/4","LONGITUDE1":-80.33139,"TYPE":"Power Plant","ID":59,"STATE":"FL","id":"a62cfgmyki3o","LATITUDE1":25.435,"REACTORS":2.0},"type":"Feature","geometry":{"type":"Point","coordinates":[-80.33139,25.435]}},{"properties":{"CITY":"Jensen Beach","NAME":"St. Lucie 1/2","LONGITUDE1":-80.24639,"TYPE":"Power Plant","ID":55,"STATE":"FL","id":"a62cfg7hq5ty","LATITUDE1":27.34861,"REACTORS":2.0},"type":"Feature","geometry":{"type":"Point","coordinates":[-80.24639,27.34861]}},{"properties":{"CITY":"Baxley","NAME":"Edwin I. Hatch 1/2","LONGITUDE1":-82.34444,"TYPE":"Power Plant","ID":20,"STATE":"GA","id":"a62cfgfs7phs","LATITUDE1":31.93417,"REACTORS":2.0},"type":"Feature","geometry":{"type":"Point","coordinates":[-82.34444,31.93417]}},{"properties":{"CITY":"Waynesboro","NAME":"Vogtle 1/2","LONGITUDE1":-81.76472,"TYPE":"Power Plant","ID":62,"STATE":"GA","id":"a62cfg83g9iz","LATITUDE1":33.14194,"REACTORS":2.0},"type":"Feature","geometry":{"type":"Point","coordinates":[-81.76472,33.14194]}},{"properties":{"CITY":"Russellville","NAME":"Arkansas 1/2","LONGITUDE1":-93.23083,"TYPE":"Power Plant","ID":1,"STATE":"AR","id":"a62cfg7t6a5e","LATITUDE1":35.22667,"REACTORS":2.0},"type":"Feature","geometry":{"type":"Point","coordinates":[-93.23083,35.22667]}},{"properties":{"CITY":"Burlington","NAME":"Wolf Creek 1","LONGITUDE1":-95.68889,"TYPE":"Power Plant","ID":65,"STATE":"KS","id":"a62cfg75ft85","LATITUDE1":38.23889,"REACTORS":1.0},"type":"Feature","geometry":{"type":"Point","coordinates":[-95.68889,38.23889]}},{"properties":{"CITY":"Brownville","NAME":"Cooper Station","LONGITUDE1":-95.64111,"TYPE":"Power Plant","ID":13,"STATE":"NE","id":"a62cfgbr14gc","LATITUDE1":40.36194,"REACTORS":1.0},"type":"Feature","geometry":{"type":"Point","coordinates":[-95.64111,40.36194]}},{"properties":{"CITY":"Fort Calhoun","NAME":"Fort Calhoun","LONGITUDE1":-96.07667,"TYPE":"Power Plant","ID":22,"STATE":"NE","id":"a62cfghu59hz","LATITUDE1":41.52083,"REACTORS":1.0},"type":"Feature","geometry":{"type":"Point","coordinates":[-96.07667,41.52083]}},{"properties":{"CITY":"Monticello","NAME":"Monticello","LONGITUDE1":-93.84833,"TYPE":"Power Plant","ID":35,"STATE":"MN","id":"a62cfgiaw8ng","LATITUDE1":45.33333,"REACTORS":1.0},"type":"Feature","geometry":{"type":"Point","coordinates":[-93.84833,45.33333]}},{"properties":{"CITY":"Welch","NAME":"Prairie Island Station 1/2","LONGITUDE1":-92.63306,"TYPE":"Power Plant","ID":46,"STATE":"MN","id":"a62cfgbswy8l","LATITUDE1":44.61944,"REACTORS":2.0},"type":"Feature","geometry":{"type":"Point","coordinates":[-92.63306,44.61944]}},{"properties":{"CITY":"Fulton","NAME":"Callaway","LONGITUDE1":-91.78167,"TYPE":"Power Plant","ID":7,"STATE":"MO","id":"a62cfgft9al1","LATITUDE1":38.75833,"REACTORS":1.0},"type":"Feature","geometry":{"type":"Point","coordinates":[-91.78167,38.75833]}},{"properties":{"CITY":"Cordova","NAME":"Quad Cities 1/2","LONGITUDE1":-90.31,"TYPE":"Power Plant","ID":47,"STATE":"IL","id":"a62cfg9yllov","LATITUDE1":41.72611,"REACTORS":2.0},"type":"Feature","geometry":{"type":"Point","coordinates":[-90.31,41.72611]}},{"properties":{"CITY":"Clinton","NAME":"Clinton","LONGITUDE1":-88.83417,"TYPE":"Power Plant","ID":10,"STATE":"IL","id":"a62cfgc0197i","LATITUDE1":40.17194,"REACTORS":1.0},"type":"Feature","geometry":{"type":"Point","coordinates":[-88.83417,40.17194]}},{"properties":{"CITY":"Marseilles","NAME":"LaSalle 1/2","LONGITUDE1":-88.67083,"TYPE":"Power Plant","ID":31,"STATE":"IL","id":"a62cfggps8ej","LATITUDE1":41.24389,"REACTORS":2.0},"type":"Feature","geometry":{"type":"Point","coordinates":[-88.67083,41.24389]}},{"properties":{"CITY":"Braceville","NAME":"Braidwood 1/2","LONGITUDE1":-88.22889,"TYPE":"Power Plant","ID":3,"STATE":"IL","id":"a62cfg82rl9m","LATITUDE1":41.24361,"REACTORS":2.0},"type":"Feature","geometry":{"type":"Point","coordinates":[-88.22889,41.24361]}},{"properties":{"CITY":"Morris","NAME":"Dresden 2/3","LONGITUDE1":-88.27111,"TYPE":"Power Plant","ID":18,"STATE":"IL","id":"a62cfgarajzk","LATITUDE1":41.38972,"REACTORS":2.0},"type":"Feature","geometry":{"type":"Point","coordinates":[-88.27111,41.38972]}},{"properties":{"CITY":"Decatur","NAME":"Browns Ferry 1/2/3","LONGITUDE1":-87.11861,"TYPE":"Power Plant","ID":4,"STATE":"AL","id":"a62cfgeqmzn6","LATITUDE1":34.70417,"REACTORS":3.0},"type":"Feature","geometry":{"type":"Point","coordinates":[-87.11861,34.70417]}},{"properties":{"CITY":"Soddy-Daisy","NAME":"Sequoyah 1/2","LONGITUDE1":-85.08778,"TYPE":"Power Plant","ID":52,"STATE":"TN","id":"a62cfgb5wc15","LATITUDE1":35.22333,"REACTORS":2.0},"type":"Feature","geometry":{"type":"Point","coordinates":[-85.08778,35.22333]}},{"properties":{"CITY":"Spring City","NAME":"Watts Bar 1","LONGITUDE1":-84.79028,"TYPE":"Power Plant","ID":64,"STATE":"TN","id":"a62cfgmb3nn8","LATITUDE1":35.60278,"REACTORS":1.0},"type":"Feature","geometry":{"type":"Point","coordinates":[-84.79028,35.60278]}},{"properties":{"CITY":"Palo","NAME":"Duane Arnold","LONGITUDE1":-91.77722,"TYPE":"Power Plant","ID":19,"STATE":"IA","id":"a62cfgeuc1zt","LATITUDE1":42.10056,"REACTORS":1.0},"type":"Feature","geometry":{"type":"Point","coordinates":[-91.77722,42.10056]}},{"properties":{"CITY":"Byron","NAME":"Byron 1/2","LONGITUDE1":-89.28194,"TYPE":"Power Plant","ID":6,"STATE":"IL","id":"a62cfgct6znc","LATITUDE1":42.075,"REACTORS":2.0},"type":"Feature","geometry":{"type":"Point","coordinates":[-89.28194,42.075]}},{"properties":{"CITY":"Bridgman","NAME":"Donald C. Cook 1/2","LONGITUDE1":-86.56639,"TYPE":"Power Plant","ID":17,"STATE":"MI","id":"a62cfgigo8ex","LATITUDE1":41.97611,"REACTORS":2.0},"type":"Feature","geometry":{"type":"Point","coordinates":[-86.56639,41.97611]}},{"properties":{"CITY":"Covert","NAME":"Palisades","LONGITUDE1":-86.31528,"TYPE":"Power Plant","ID":40,"STATE":"MI","id":"a62cfgdo3ehx","LATITUDE1":42.32222,"REACTORS":1.0},"type":"Feature","geometry":{"type":"Point","coordinates":[-86.31528,42.32222]}},{"properties":{"CITY":"Two Rivers","NAME":"Point Beach 1/2","LONGITUDE1":-87.53611,"TYPE":"Power Plant","ID":45,"STATE":"WI","id":"a62cfgl7nxtc","LATITUDE1":44.28083,"REACTORS":2.0},"type":"Feature","geometry":{"type":"Point","coordinates":[-87.53611,44.28083]}},{"properties":{"CITY":"Kewaunee","NAME":"Kewaunee","LONGITUDE1":-87.53611,"TYPE":"Power Plant","ID":30,"STATE":"WI","id":"a62cfgcuq5e7","LATITUDE1":44.34306,"REACTORS":1.0},"type":"Feature","geometry":{"type":"Point","coordinates":[-87.53611,44.34306]}},{"properties":{"CITY":"Seneca","NAME":"Oconee 1/3","LONGITUDE1":-82.89861,"TYPE":"Power Plant","ID":38,"STATE":"SC","id":"a62cfgj5sx7g","LATITUDE1":34.79167,"REACTORS":2.0},"type":"Feature","geometry":{"type":"Point","coordinates":[-82.89861,34.79167]}},{"properties":{"CITY":"Jenkinsville","NAME":"V. C. Summer","LONGITUDE1":-81.32028,"TYPE":"Power Plant","ID":60,"STATE":"SC","id":"a62cfgm8p9eu","LATITUDE1":34.29583,"REACTORS":1.0},"type":"Feature","geometry":{"type":"Point","coordinates":[-81.32028,34.29583]}},{"properties":{"CITY":"York","NAME":"Catawba 1/2","LONGITUDE1":-81.06944,"TYPE":"Power Plant","ID":9,"STATE":"SC","id":"a62cfg9uur3m","LATITUDE1":35.05139,"REACTORS":2.0},"type":"Feature","geometry":{"type":"Point","coordinates":[-81.06944,35.05139]}},{"properties":{"CITY":"Cornelius","NAME":"McGuire 1/2","LONGITUDE1":-80.94833,"TYPE":"Power Plant","ID":33,"STATE":"NC","id":"a62cfg8g2cjl","LATITUDE1":35.43222,"REACTORS":2.0},"type":"Feature","geometry":{"type":"Point","coordinates":[-80.94833,35.43222]}},{"properties":{"CITY":"Hartsville","NAME":"H. B. Robinson","LONGITUDE1":-80.15861,"TYPE":"Power Plant","ID":25,"STATE":"SC","id":"a62cfgjd9wix","LATITUDE1":34.40528,"REACTORS":1.0},"type":"Feature","geometry":{"type":"Point","coordinates":[-80.15861,34.40528]}},{"properties":{"CITY":"Oak Harbor","NAME":"Davis-Besse","LONGITUDE1":-83.0864,"TYPE":"Power Plant","ID":15,"STATE":"OH","id":"a62cfgfm28k7","LATITUDE1":41.59722,"REACTORS":1.0},"type":"Feature","geometry":{"type":"Point","coordinates":[-83.0864,41.59722]}},{"properties":{"CITY":"Perry","NAME":"Perry 1","LONGITUDE1":-81.14333,"TYPE":"Power Plant","ID":43,"STATE":"OH","id":"a62cfgiltti9","LATITUDE1":41.80111,"REACTORS":1.0},"type":"Feature","geometry":{"type":"Point","coordinates":[-81.14333,41.80111]}},{"properties":{"CITY":"Shippingport","NAME":"Beaver Valley 1/2","LONGITUDE1":-80.43389,"TYPE":"Power Plant","ID":2,"STATE":"PA","id":"a62cfgjub2kp","LATITUDE1":40.62194,"REACTORS":2.0},"type":"Feature","geometry":{"type":"Point","coordinates":[-80.43389,40.62194]}},{"properties":{"CITY":"Raleigh","NAME":"Shearon Harris","LONGITUDE1":-78.95611,"TYPE":"Power Plant","ID":53,"STATE":"NC","id":"a62cfggqb7lj","LATITUDE1":35.63333,"REACTORS":1.0},"type":"Feature","geometry":{"type":"Point","coordinates":[-78.95611,35.63333]}},{"properties":{"CITY":"Southport","NAME":"Brunswick 1/2","LONGITUDE1":-78.01056,"TYPE":"Power Plant","ID":5,"STATE":"NC","id":"a62cfggijirt","LATITUDE1":33.95833,"REACTORS":2.0},"type":"Feature","geometry":{"type":"Point","coordinates":[-78.01056,33.95833]}},{"properties":{"CITY":"Surry","NAME":"Surry 1/2","LONGITUDE1":-76.69833,"TYPE":"Power Plant","ID":56,"STATE":"VA","id":"a62cfgm9n9hz","LATITUDE1":37.16556,"REACTORS":2.0},"type":"Feature","geometry":{"type":"Point","coordinates":[-76.69833,37.16556]}},{"properties":{"CITY":"Mineral","NAME":"North Anna 1/2","LONGITUDE1":-77.79056,"TYPE":"Power Plant","ID":37,"STATE":"VA","id":"a62cfgmnv53w","LATITUDE1":38.06083,"REACTORS":2.0},"type":"Feature","geometry":{"type":"Point","coordinates":[-77.79056,38.06083]}},{"properties":{"CITY":"Lusby","NAME":"Calvert Cliffs l/2","LONGITUDE1":-76.44194,"TYPE":"Power Plant","ID":8,"STATE":"MD","id":"a62cfgcs0nmz","LATITUDE1":38.43472,"REACTORS":2.0},"type":"Feature","geometry":{"type":"Point","coordinates":[-76.44194,38.43472]}},{"properties":{"CITY":"Philadelphia","NAME":"Peach Bottom 2/3","LONGITUDE1":-76.26917,"TYPE":"Power Plant","ID":42,"STATE":"PA","id":"a62cfg8ipc0j","LATITUDE1":39.75889,"REACTORS":2.0},"type":"Feature","geometry":{"type":"Point","coordinates":[-76.26917,39.75889]}},{"properties":{"CITY":"Hancocks Bridge","NAME":"Salem 1/2","LONGITUDE1":-75.53583,"TYPE":"Power Plant","ID":49,"STATE":"NJ","id":"a62cfgn4lm07","LATITUDE1":39.46278,"REACTORS":2.0},"type":"Feature","geometry":{"type":"Point","coordinates":[-75.53583,39.46278]}},{"properties":{"CITY":"Hancocks Bridge","NAME":"Hope Creek","LONGITUDE1":-75.53806,"TYPE":"Power Plant","ID":26,"STATE":"NJ","id":"a62cfg8uqbi2","LATITUDE1":39.46778,"REACTORS":1.0},"type":"Feature","geometry":{"type":"Point","coordinates":[-75.53806,39.46778]}},{"properties":{"CITY":"Middletown","NAME":"Three Mile Island 1","LONGITUDE1":-76.725,"TYPE":"Power Plant","ID":58,"STATE":"PA","id":"a62cfgc0oqcm","LATITUDE1":40.15306,"REACTORS":1.0},"type":"Feature","geometry":{"type":"Point","coordinates":[-76.725,40.15306]}},{"properties":{"CITY":"Philadelphia","NAME":"Limerick 1/2","LONGITUDE1":-75.59,"TYPE":"Power Plant","ID":32,"STATE":"PA","id":"a62cfgh3x85q","LATITUDE1":40.22,"REACTORS":2.0},"type":"Feature","geometry":{"type":"Point","coordinates":[-75.59,40.22]}},{"properties":{"CITY":"Allentown","NAME":"Susquehanna 1/2","LONGITUDE1":-76.14861,"TYPE":"Power Plant","ID":57,"STATE":"PA","id":"a62cfgckrb6s","LATITUDE1":41.09167,"REACTORS":2.0},"type":"Feature","geometry":{"type":"Point","coordinates":[-76.14861,41.09167]}},{"properties":{"CITY":"Newport","NAME":"Fermi 2","LONGITUDE1":-83.25861,"TYPE":"Power Plant","ID":21,"STATE":"MI","id":"a62cfglaudk2","LATITUDE1":41.96333,"REACTORS":1.0},"type":"Feature","geometry":{"type":"Point","coordinates":[-83.25861,41.96333]}},{"properties":{"CITY":"Ontario","NAME":"Ginna","LONGITUDE1":-77.30889,"TYPE":"Power Plant","ID":23,"STATE":"NY","id":"a62cfgkb3fma","LATITUDE1":43.29167,"REACTORS":1.0},"type":"Feature","geometry":{"type":"Point","coordinates":[-77.30889,43.29167]}},{"properties":{"CITY":"Lycoming","NAME":"Nine Mile Point 1/2","LONGITUDE1":-76.41,"TYPE":"Power Plant","ID":36,"STATE":"NY","id":"a62cfg86yt3q","LATITUDE1":43.52222,"REACTORS":2.0},"type":"Feature","geometry":{"type":"Point","coordinates":[-76.41,43.52222]}},{"properties":{"CITY":"Lycoming","NAME":"James A. Fitzpatrick","LONGITUDE1":-76.39833,"TYPE":"Power Plant","ID":28,"STATE":"NY","id":"a62cfg7tc19y","LATITUDE1":43.52389,"REACTORS":1.0},"type":"Feature","geometry":{"type":"Point","coordinates":[-76.39833,43.52389]}},{"properties":{"CITY":"Forked River","NAME":"Oyster Creek","LONGITUDE1":-74.20639,"TYPE":"Power Plant","ID":39,"STATE":"NJ","id":"a62cfglzwaid","LATITUDE1":39.81417,"REACTORS":1.0},"type":"Feature","geometry":{"type":"Point","coordinates":[-74.20639,39.81417]}},{"properties":{"CITY":"Buchanan","NAME":"Indian Point 1/2/3","LONGITUDE1":-73.9525,"TYPE":"Power Plant","ID":27,"STATE":"NY","id":"a62cfgc1ohc5","LATITUDE1":41.27139,"REACTORS":3.0},"type":"Feature","geometry":{"type":"Point","coordinates":[-73.9525,41.27139]}},{"properties":{"CITY":"Waterford","NAME":"Millstone 1/2/3","LONGITUDE1":-72.16806,"TYPE":"Power Plant","ID":34,"STATE":"CT","id":"a62cfgm3l1l8","LATITUDE1":41.30861,"REACTORS":3.0},"type":"Feature","geometry":{"type":"Point","coordinates":[-72.16806,41.30861]}},{"properties":{"CITY":"Vernon","NAME":"Vermont Yankee 1","LONGITUDE1":-72.51583,"TYPE":"Power Plant","ID":61,"STATE":"VT","id":"a62cfgiunwo8","LATITUDE1":42.78028,"REACTORS":1.0},"type":"Feature","geometry":{"type":"Point","coordinates":[-72.51583,42.78028]}},{"properties":{"CITY":"Seabrook","NAME":"Seabrook","LONGITUDE1":-70.85139,"TYPE":"Power Plant","ID":51,"STATE":"NH","id":"a62cfghb81nz","LATITUDE1":42.89806,"REACTORS":1.0},"type":"Feature","geometry":{"type":"Point","coordinates":[-70.85139,42.89806]}},{"properties":{"CITY":"Plymouth","NAME":"Pilgrim 1","LONGITUDE1":-70.57944,"TYPE":"Power Plant","ID":44,"STATE":"MA","id":"a62cfgkk9by4","LATITUDE1":41.94444,"REACTORS":1.0},"type":"Feature","geometry":{"type":"Point","coordinates":[-70.57944,41.94444]}}],"is_temporal":false,"author":{"url":"","metadata":"","contact_name":"","contact_address":"","source":"","contact_phone":""},"source":"","pagination":{"sort":null,"start":0,"total":65,"limit":1000000},"state":"complete","tags":"","published":"2014-08-13T02:06:07-04:00","id":113364}