{"type":"FeatureCollection","data_type":"Dataset","url_type":null,"permissions":[{"permissions":{"download":true,"view":true},"group_id":"everyone"}],"classification":null,"title":"Kentucky county search","count":120,"stream_id":114277,"contributor":{"url":"http://geocommons.com/users/13687","name":"glenmcaninch"},"data_attributes":null,"calculation_params":null,"icon_link":null,"link":"http://geocommons.com/overlays/114277.json","extent":[-89.1966,36.5046,-82.3488,39.0734],"geometry_types":["point"],"unique_name":null,"name":"Kentucky county search","feature_count":120,"description":"Kentucky county search","next_feature":null,"is_raster":false,"short_classification":"Y","stats":{"2010":{"max":710120.0,"mean":36054.0833333333,"variance":5041069269.16947,"stdev":71000.4878093769,"min":2524.0,"median":19384.0},"lat":{"max":39.073366,"mean":37.656467125,"variance":0.467026532357404,"stdev":0.683393395020324,"min":36.504624,"median":37.558101},"long":{"max":-82.348824,"mean":-85.0970909583333,"variance":3.19001180178883,"stdev":1.78606041381271,"min":-89.196576,"median":-84.663328}},"features":[{"properties":{"county":"Adair","2010":17925.0,"id":"a68wt7cyie7c","lat":37.972692,"long":-86.84226,"state":"KY"},"type":"Feature","geometry":{"type":"Point","coordinates":[-86.84226,37.972692]}},{"properties":{"county":"Allen","2010":19993.0,"id":"a68wt7bib0gm","lat":37.615204,"long":-82.72394,"state":"KY"},"type":"Feature","geometry":{"type":"Point","coordinates":[-82.72394,37.615204]}},{"properties":{"county":"Anderson","2010":21707.0,"id":"a68wt75h9dl8","lat":36.698362,"long":-87.179332,"state":"KY"},"type":"Feature","geometry":{"type":"Point","coordinates":[-87.179332,36.698362]}},{"properties":{"county":"Ballard","2010":8243.0,"id":"a68wt7dp946w","lat":37.913391,"long":-85.042846,"state":"KY"},"type":"Feature","geometry":{"type":"Point","coordinates":[-85.042846,37.913391]}},{"properties":{"county":"Barren","2010":41600.0,"id":"a68wt70kdxt8","lat":36.94635,"long":-85.957787,"state":"KY"},"type":"Feature","geometry":{"type":"Point","coordinates":[-85.957787,36.94635]}},{"properties":{"county":"Bath","2010":12258.0,"id":"a68wt75rspbc","lat":37.245832,"long":-82.905371,"state":"KY"},"type":"Feature","geometry":{"type":"Point","coordinates":[-82.905371,37.245832]}},{"properties":{"county":"Bell","2010":29656.0,"id":"a68wt7e6ylco","lat":36.769089,"long":-83.709183,"state":"KY"},"type":"Feature","geometry":{"type":"Point","coordinates":[-83.709183,36.769089]}},{"properties":{"county":"Boone","2010":121919.0,"id":"a68wt7chkaf1","lat":37.512169,"long":-84.320345,"state":"KY"},"type":"Feature","geometry":{"type":"Point","coordinates":[-84.320345,37.512169]}},{"properties":{"county":"Bourbon","2010":20215.0,"id":"a68wt7cot541","lat":37.05151,"long":-84.622866,"state":"KY"},"type":"Feature","geometry":{"type":"Point","coordinates":[-84.622866,37.05151]}},{"properties":{"county":"Boyd","2010":49198.0,"id":"a68wt7eazsxz","lat":38.549705,"long":-84.393914,"state":"KY"},"type":"Feature","geometry":{"type":"Point","coordinates":[-84.393914,38.549705]}},{"properties":{"county":"Boyle","2010":28872.0,"id":"a68wt7e6yc1d","lat":37.624649,"long":-84.845749,"state":"KY"},"type":"Feature","geometry":{"type":"Point","coordinates":[-84.845749,37.624649]}},{"properties":{"county":"Bracken","2010":8899.0,"id":"a68wt764x38i","lat":38.688549,"long":-84.070061,"state":"KY"},"type":"Feature","geometry":{"type":"Point","coordinates":[-84.070061,38.688549]}},{"properties":{"county":"Breathitt","2010":16099.0,"id":"a68wt75zfhfz","lat":37.515011,"long":-83.264297,"state":"KY"},"type":"Feature","geometry":{"type":"Point","coordinates":[-83.264297,37.515011]}},{"properties":{"county":"Breckinridge","2010":20459.0,"id":"a68wt7etdk6u","lat":38.440583,"long":-84.373118,"state":"KY"},"type":"Feature","geometry":{"type":"Point","coordinates":[-84.373118,38.440583]}},{"properties":{"county":"Bullitt","2010":72816.0,"id":"a68wt72gtpm9","lat":39.073366,"long":-84.737867,"state":"KY"},"type":"Feature","geometry":{"type":"Point","coordinates":[-84.737867,39.073366]}},{"properties":{"county":"Butler","2010":13857.0,"id":"a68wt7bj43pr","lat":38.789406,"long":-84.367863,"state":"KY"},"type":"Feature","geometry":{"type":"Point","coordinates":[-84.367863,38.789406]}},{"properties":{"county":"Caldwell","2010":12609.0,"id":"a68wt760hjzr","lat":38.80252,"long":-84.424394,"state":"KY"},"type":"Feature","geometry":{"type":"Point","coordinates":[-84.424394,38.80252]}},{"properties":{"county":"Calloway","2010":35990.0,"id":"a68wt7a8kilf","lat":36.623959,"long":-88.26078,"state":"KY"},"type":"Feature","geometry":{"type":"Point","coordinates":[-88.26078,36.623959]}},{"properties":{"county":"Campbell","2010":91130.0,"id":"a68wt75tey4h","lat":36.64412,"long":-87.439229,"state":"KY"},"type":"Feature","geometry":{"type":"Point","coordinates":[-87.439229,36.64412]}},{"properties":{"county":"Carlisle","2010":5466.0,"id":"a68wt76cqggn","lat":38.31205,"long":-84.027084,"state":"KY"},"type":"Feature","geometry":{"type":"Point","coordinates":[-84.027084,38.31205]}},{"properties":{"county":"Carroll","2010":10631.0,"id":"a68wt78y9mje","lat":38.681146,"long":-85.179017,"state":"KY"},"type":"Feature","geometry":{"type":"Point","coordinates":[-85.179017,38.681146]}},{"properties":{"county":"Carter","2010":28294.0,"id":"a68wt73zy21b","lat":38.429758,"long":-83.122368,"state":"KY"},"type":"Feature","geometry":{"type":"Point","coordinates":[-83.122368,38.429758]}},{"properties":{"county":"Casey","2010":17138.0,"id":"a68wt732hf9q","lat":37.327615,"long":-86.609237,"state":"KY"},"type":"Feature","geometry":{"type":"Point","coordinates":[-86.609237,37.327615]}},{"properties":{"county":"Christian","2010":79545.0,"id":"a68wt6zp3yts","lat":38.266459,"long":-85.096985,"state":"KY"},"type":"Feature","geometry":{"type":"Point","coordinates":[-85.096985,38.266459]}},{"properties":{"county":"Clark","2010":36007.0,"id":"a68wt71utlus","lat":37.495525,"long":-86.222089,"state":"KY"},"type":"Feature","geometry":{"type":"Point","coordinates":[-86.222089,37.495525]}},{"properties":{"county":"Clay","2010":24423.0,"id":"a68wt7538yg0","lat":37.4766,"long":-87.820174,"state":"KY"},"type":"Feature","geometry":{"type":"Point","coordinates":[-87.820174,37.4766]}},{"properties":{"county":"Clinton","2010":9683.0,"id":"a68wt795nqo1","lat":36.667045,"long":-88.994114,"state":"KY"},"type":"Feature","geometry":{"type":"Point","coordinates":[-88.994114,36.667045]}},{"properties":{"county":"Crittenden","2010":9069.0,"id":"a68wt77w587x","lat":38.78111,"long":-84.606051,"state":"KY"},"type":"Feature","geometry":{"type":"Point","coordinates":[-84.606051,38.78111]}},{"properties":{"county":"Cumberland","2010":7345.0,"id":"a68wt7a870q8","lat":36.97646,"long":-82.991504,"state":"KY"},"type":"Feature","geometry":{"type":"Point","coordinates":[-82.991504,36.97646]}},{"properties":{"county":"Daviess","2010":94567.0,"id":"a68wt7ei5w3b","lat":37.745022,"long":-87.112831,"state":"KY"},"type":"Feature","geometry":{"type":"Point","coordinates":[-87.112831,37.745022]}},{"properties":{"county":"Edmonson","2010":12398.0,"id":"a68wt7ak1g7s","lat":37.197021,"long":-86.258987,"state":"KY"},"type":"Feature","geometry":{"type":"Point","coordinates":[-86.258987,37.197021]}},{"properties":{"county":"Elliott","2010":7156.0,"id":"a68wt796tcw3","lat":38.183531,"long":-83.27831,"state":"KY"},"type":"Feature","geometry":{"type":"Point","coordinates":[-83.27831,38.183531]}},{"properties":{"county":"Estill","2010":15185.0,"id":"a68wt72gvbpt","lat":37.459543,"long":-82.819366,"state":"KY"},"type":"Feature","geometry":{"type":"Point","coordinates":[-82.819366,37.459543]}},{"properties":{"county":"Fayette","2010":281613.0,"id":"a68wt77wvht0","lat":38.028412,"long":-84.471497,"state":"KY"},"type":"Feature","geometry":{"type":"Point","coordinates":[-84.471497,38.028412]}},{"properties":{"county":"Fleming","2010":15546.0,"id":"a68wt7byq0i8","lat":37.195396,"long":-82.699454,"state":"KY"},"type":"Feature","geometry":{"type":"Point","coordinates":[-82.699454,37.195396]}},{"properties":{"county":"Floyd","2010":42198.0,"id":"a68wt7005qpz","lat":37.268445,"long":-84.663328,"state":"KY"},"type":"Feature","geometry":{"type":"Point","coordinates":[-84.663328,37.268445]}},{"properties":{"county":"Franklin","2010":49040.0,"id":"a68wt7cs33gl","lat":36.722605,"long":-86.577934,"state":"KY"},"type":"Feature","geometry":{"type":"Point","coordinates":[-86.577934,36.722605]}},{"properties":{"county":"Fulton","2010":7090.0,"id":"a68wt7bztez9","lat":36.504624,"long":-88.874365,"state":"KY"},"type":"Feature","geometry":{"type":"Point","coordinates":[-88.874365,36.504624]}},{"properties":{"county":"Gallatin","2010":9155.0,"id":"a68wt7fc6jse","lat":38.760799,"long":-84.842117,"state":"KY"},"type":"Feature","geometry":{"type":"Point","coordinates":[-84.842117,38.760799]}},{"properties":{"county":"Garrard","2010":18251.0,"id":"a68wt74jlqm2","lat":37.125406,"long":-83.747261,"state":"KY"},"type":"Feature","geometry":{"type":"Point","coordinates":[-83.747261,37.125406]}},{"properties":{"county":"Grant","2010":28164.0,"id":"a68wt7fxe6n9","lat":38.963524,"long":-84.464865,"state":"KY"},"type":"Feature","geometry":{"type":"Point","coordinates":[-84.464865,38.963524]}},{"properties":{"county":"Graves","2010":38595.0,"id":"a68wt7e2oay9","lat":36.723869,"long":-88.652008,"state":"KY"},"type":"Feature","geometry":{"type":"Point","coordinates":[-88.652008,36.723869]}},{"properties":{"county":"Grayson","2010":26440.0,"id":"a68wt7a5vnl4","lat":38.332195,"long":-82.946344,"state":"KY"},"type":"Feature","geometry":{"type":"Point","coordinates":[-82.946344,38.332195]}},{"properties":{"county":"Green","2010":12293.0,"id":"a68wt71yg8gk","lat":38.145563,"long":-83.075221,"state":"KY"},"type":"Feature","geometry":{"type":"Point","coordinates":[-83.075221,38.145563]}},{"properties":{"county":"Greenup","2010":37026.0,"id":"a68wt71xod8t","lat":38.574742,"long":-82.840985,"state":"KY"},"type":"Feature","geometry":{"type":"Point","coordinates":[-82.840985,38.574742]}},{"properties":{"county":"Hancock","2010":8505.0,"id":"a68wt76llib6","lat":37.827309,"long":-86.804832,"state":"KY"},"type":"Feature","geometry":{"type":"Point","coordinates":[-86.804832,37.827309]}},{"properties":{"county":"Hardin","2010":102848.0,"id":"a68wt75u52z6","lat":36.761635,"long":-88.296384,"state":"KY"},"type":"Feature","geometry":{"type":"Point","coordinates":[-88.296384,36.761635]}},{"properties":{"county":"Harlan","2010":30910.0,"id":"a68wt6zncf1n","lat":36.84573,"long":-83.322329,"state":"KY"},"type":"Feature","geometry":{"type":"Point","coordinates":[-83.322329,36.84573]}},{"properties":{"county":"Harrison","2010":19026.0,"id":"a68wt72jf45f","lat":38.089011,"long":-85.073696,"state":"KY"},"type":"Feature","geometry":{"type":"Point","coordinates":[-85.073696,38.089011]}},{"properties":{"county":"Hart","2010":19050.0,"id":"a68wt74qdlmp","lat":37.312784,"long":-82.632369,"state":"KY"},"type":"Feature","geometry":{"type":"Point","coordinates":[-82.632369,37.312784]}},{"properties":{"county":"Henderson","2010":45792.0,"id":"a68wt78tcu92","lat":37.8299,"long":-87.597034,"state":"KY"},"type":"Feature","geometry":{"type":"Point","coordinates":[-87.597034,37.8299]}},{"properties":{"county":"Henry","2010":16605.0,"id":"a68wt779vm5p","lat":38.46619,"long":-85.10643,"state":"KY"},"type":"Feature","geometry":{"type":"Point","coordinates":[-85.10643,38.46619]}},{"properties":{"county":"Hickman","2010":4940.0,"id":"a68wt70np4dx","lat":36.57241,"long":-89.196576,"state":"KY"},"type":"Feature","geometry":{"type":"Point","coordinates":[-89.196576,36.57241]}},{"properties":{"county":"Hopkins","2010":47312.0,"id":"a68wt74hdma1","lat":36.867275,"long":-87.487699,"state":"KY"},"type":"Feature","geometry":{"type":"Point","coordinates":[-87.487699,36.867275]}},{"properties":{"county":"Jackson","2010":14176.0,"id":"a68wt767nhe6","lat":37.558101,"long":-83.378014,"state":"KY"},"type":"Feature","geometry":{"type":"Point","coordinates":[-83.378014,37.558101]}},{"properties":{"county":"Jefferson","2010":710120.0,"id":"a68wt711ou69","lat":38.193954,"long":-85.565978,"state":"KY"},"type":"Feature","geometry":{"type":"Point","coordinates":[-85.565978,38.193954]}},{"properties":{"county":"Jessamine","2010":47328.0,"id":"a68wt713518k","lat":37.885675,"long":-84.614124,"state":"KY"},"type":"Feature","geometry":{"type":"Point","coordinates":[-84.614124,37.885675]}},{"properties":{"county":"Johnson","2010":24232.0,"id":"a68wt78ufycl","lat":38.120201,"long":-85.856551,"state":"KY"},"type":"Feature","geometry":{"type":"Point","coordinates":[-85.856551,38.120201]}},{"properties":{"county":"Kenton","2010":154572.0,"id":"a68wt790w4m6","lat":38.868774,"long":-84.455472,"state":"KY"},"type":"Feature","geometry":{"type":"Point","coordinates":[-84.455472,38.868774]}},{"properties":{"county":"Knott","2010":17770.0,"id":"a68wt7f2p0g5","lat":37.349312,"long":-82.922668,"state":"KY"},"type":"Feature","geometry":{"type":"Point","coordinates":[-82.922668,37.349312]}},{"properties":{"county":"Knox","2010":32168.0,"id":"a68wt7d7riav","lat":37.882105,"long":-85.962284,"state":"KY"},"type":"Feature","geometry":{"type":"Point","coordinates":[-85.962284,37.882105]}},{"properties":{"county":"Larue","2010":13681.0,"id":"a68wt7dng83a","lat":37.20059,"long":-83.919697,"state":"KY"},"type":"Feature","geometry":{"type":"Point","coordinates":[-83.919697,37.20059]}},{"properties":{"county":"Laurel","2010":61391.0,"id":"a68wt772ymbn","lat":36.819081,"long":-83.550078,"state":"KY"},"type":"Feature","geometry":{"type":"Point","coordinates":[-83.550078,36.819081]}},{"properties":{"county":"Lawrence","2010":16634.0,"id":"a68wt79dmhmo","lat":38.037185,"long":-84.895834,"state":"KY"},"type":"Feature","geometry":{"type":"Point","coordinates":[-84.895834,38.037185]}},{"properties":{"county":"Lee","2010":8081.0,"id":"a68wt713gs07","lat":37.29666,"long":-86.500106,"state":"KY"},"type":"Feature","geometry":{"type":"Point","coordinates":[-86.500106,37.29666]}},{"properties":{"county":"Leslie","2010":11736.0,"id":"a68wt7cvew28","lat":36.784652,"long":-85.447243,"state":"KY"},"type":"Feature","geometry":{"type":"Point","coordinates":[-85.447243,36.784652]}},{"properties":{"county":"Letcher","2010":24089.0,"id":"a68wt72psijs","lat":37.139885,"long":-82.988874,"state":"KY"},"type":"Feature","geometry":{"type":"Point","coordinates":[-82.988874,37.139885]}},{"properties":{"county":"Lewis","2010":13578.0,"id":"a68wt76rmapg","lat":36.985595,"long":-86.955734,"state":"KY"},"type":"Feature","geometry":{"type":"Point","coordinates":[-86.955734,36.985595]}},{"properties":{"county":"Lincoln","2010":26565.0,"id":"a68wt789o1ej","lat":37.10005,"long":-83.756044,"state":"KY"},"type":"Feature","geometry":{"type":"Point","coordinates":[-83.756044,37.10005]}},{"properties":{"county":"Livingston","2010":9771.0,"id":"a68wt79bv8v1","lat":37.299345,"long":-84.217314,"state":"KY"},"type":"Feature","geometry":{"type":"Point","coordinates":[-84.217314,37.299345]}},{"properties":{"county":"Logan","2010":27533.0,"id":"a68wt7e40hwt","lat":37.885985,"long":-84.470514,"state":"KY"},"type":"Feature","geometry":{"type":"Point","coordinates":[-84.470514,37.885985]}},{"properties":{"county":"Lyon","2010":8393.0,"id":"a68wt73f5px8","lat":37.677625,"long":-85.612114,"state":"KY"},"type":"Feature","geometry":{"type":"Point","coordinates":[-85.612114,37.677625]}},{"properties":{"county":"Madison","2010":83859.0,"id":"a68wt7fws5nd","lat":37.3279,"long":-87.498929,"state":"KY"},"type":"Feature","geometry":{"type":"Point","coordinates":[-87.498929,37.3279]}},{"properties":{"county":"Magoffin","2010":13472.0,"id":"a68wt78itetp","lat":37.69051,"long":-83.074608,"state":"KY"},"type":"Feature","geometry":{"type":"Point","coordinates":[-83.074608,37.69051]}},{"properties":{"county":"Marion","2010":19654.0,"id":"a68wt747efu4","lat":37.331675,"long":-88.081504,"state":"KY"},"type":"Feature","geometry":{"type":"Point","coordinates":[-88.081504,37.331675]}},{"properties":{"county":"Marshall","2010":31696.0,"id":"a68wt75kyfn5","lat":36.929467,"long":-88.248678,"state":"KY"},"type":"Feature","geometry":{"type":"Point","coordinates":[-88.248678,36.929467]}},{"properties":{"county":"Martin","2010":13716.0,"id":"a68wt7calni6","lat":37.567398,"long":-82.758683,"state":"KY"},"type":"Feature","geometry":{"type":"Point","coordinates":[-82.758683,37.567398]}},{"properties":{"county":"Mason","2010":17116.0,"id":"a68wt75dul2y","lat":37.723568,"long":-83.053213,"state":"KY"},"type":"Feature","geometry":{"type":"Point","coordinates":[-83.053213,37.723568]}},{"properties":{"county":"McCracken","2010":63229.0,"id":"a68wt7f2vzr7","lat":37.085491,"long":-88.712463,"state":"KY"},"type":"Feature","geometry":{"type":"Point","coordinates":[-88.712463,37.085491]}},{"properties":{"county":"McCreary","2010":17624.0,"id":"a68wt78tu69w","lat":37.704029,"long":-84.501204,"state":"KY"},"type":"Feature","geometry":{"type":"Point","coordinates":[-84.501204,37.704029]}},{"properties":{"county":"McLean","2010":9892.0,"id":"a68wt7efa311","lat":37.531921,"long":-87.269241,"state":"KY"},"type":"Feature","geometry":{"type":"Point","coordinates":[-87.269241,37.531921]}},{"properties":{"county":"Meade","2010":29533.0,"id":"a68wt73qxi1k","lat":38.41291,"long":-82.710324,"state":"KY"},"type":"Feature","geometry":{"type":"Point","coordinates":[-82.710324,38.41291]}},{"properties":{"county":"Menifee","2010":7267.0,"id":"a68wt7e31hjs","lat":37.938641,"long":-83.605453,"state":"KY"},"type":"Feature","geometry":{"type":"Point","coordinates":[-83.605453,37.938641]}},{"properties":{"county":"Mercer","2010":22551.0,"id":"a68wt73hv1t0","lat":37.250705,"long":-87.149344,"state":"KY"},"type":"Feature","geometry":{"type":"Point","coordinates":[-87.149344,37.250705]}},{"properties":{"county":"Metcalfe","2010":10475.0,"id":"a68wt7dqqk9s","lat":37.000191,"long":-85.609283,"state":"KY"},"type":"Feature","geometry":{"type":"Point","coordinates":[-85.609283,37.000191]}},{"properties":{"county":"Monroe","2010":11897.0,"id":"a68wt72bm73d","lat":37.233332,"long":-85.701441,"state":"KY"},"type":"Feature","geometry":{"type":"Point","coordinates":[-85.701441,37.233332]}},{"properties":{"county":"Montgomery","2010":25676.0,"id":"a68wt76h7nhn","lat":36.878708,"long":-87.740369,"state":"KY"},"type":"Feature","geometry":{"type":"Point","coordinates":[-87.740369,36.878708]}},{"properties":{"county":"Morgan","2010":14804.0,"id":"a68wt7e7ojta","lat":38.603355,"long":-84.398993,"state":"KY"},"type":"Feature","geometry":{"type":"Point","coordinates":[-84.398993,38.603355]}},{"properties":{"county":"Muhlenberg","2010":31956.0,"id":"a68wt7bjz7az","lat":37.22818,"long":-87.135048,"state":"KY"},"type":"Feature","geometry":{"type":"Point","coordinates":[-87.135048,37.22818]}},{"properties":{"county":"Nelson","2010":45000.0,"id":"a68wt6zp59kn","lat":37.314665,"long":-87.055899,"state":"KY"},"type":"Feature","geometry":{"type":"Point","coordinates":[-87.055899,37.314665]}},{"properties":{"county":"Nicholas","2010":7169.0,"id":"a68wt75fuo1g","lat":37.88678,"long":-84.570344,"state":"KY"},"type":"Feature","geometry":{"type":"Point","coordinates":[-84.570344,37.88678]}},{"properties":{"county":"Ohio","2010":24253.0,"id":"a68wt76u5oyl","lat":37.47496,"long":-86.857063,"state":"KY"},"type":"Feature","geometry":{"type":"Point","coordinates":[-86.857063,37.47496]}},{"properties":{"county":"Oldham","2010":58123.0,"id":"a68wt78643v5","lat":38.50098,"long":-85.399369,"state":"KY"},"type":"Feature","geometry":{"type":"Point","coordinates":[-85.399369,38.50098]}},{"properties":{"county":"Owen","2010":12166.0,"id":"a68wt7443vko","lat":38.536615,"long":-84.836034,"state":"KY"},"type":"Feature","geometry":{"type":"Point","coordinates":[-84.836034,38.536615]}},{"properties":{"county":"Owsley","2010":4810.0,"id":"a68wt70n1xlf","lat":37.5312,"long":-82.618354,"state":"KY"},"type":"Feature","geometry":{"type":"Point","coordinates":[-82.618354,37.5312]}},{"properties":{"county":"Pendleton","2010":16365.0,"id":"a68wt758n0xw","lat":38.462945,"long":-85.304599,"state":"KY"},"type":"Feature","geometry":{"type":"Point","coordinates":[-85.304599,38.462945]}},{"properties":{"county":"Perry","2010":29820.0,"id":"a68wt7161z9n","lat":38.520895,"long":-84.384039,"state":"KY"},"type":"Feature","geometry":{"type":"Point","coordinates":[-84.384039,38.520895]}},{"properties":{"county":"Pike","2010":65532.0,"id":"a68wt7csts1j","lat":37.470482,"long":-82.348824,"state":"KY"},"type":"Feature","geometry":{"type":"Point","coordinates":[-82.348824,37.470482]}},{"properties":{"county":"Powell","2010":14280.0,"id":"a68wt7b06lxj","lat":37.620317,"long":-83.956472,"state":"KY"},"type":"Feature","geometry":{"type":"Point","coordinates":[-83.956472,37.620317]}},{"properties":{"county":"Pulaski","2010":60914.0,"id":"a68wt7fw9bix","lat":37.209425,"long":-84.63893,"state":"KY"},"type":"Feature","geometry":{"type":"Point","coordinates":[-84.63893,37.209425]}},{"properties":{"county":"Robertson","2010":2524.0,"id":"a68wt70inffp","lat":38.515442,"long":-84.05706,"state":"KY"},"type":"Feature","geometry":{"type":"Point","coordinates":[-84.05706,38.515442]}},{"properties":{"county":"Rockcastle","2010":17106.0,"id":"a68wt71k2248","lat":36.908053,"long":-87.965946,"state":"KY"},"type":"Feature","geometry":{"type":"Point","coordinates":[-87.965946,36.908053]}},{"properties":{"county":"Rowan","2010":22716.0,"id":"a68wt7erwb08","lat":38.206589,"long":-83.417236,"state":"KY"},"type":"Feature","geometry":{"type":"Point","coordinates":[-83.417236,38.206589]}},{"properties":{"county":"Russell","2010":17043.0,"id":"a68wt710qja9","lat":38.533005,"long":-82.694154,"state":"KY"},"type":"Feature","geometry":{"type":"Point","coordinates":[-82.694154,38.533005]}},{"properties":{"county":"Scott","2010":44322.0,"id":"a68wt718j3tk","lat":37.36655,"long":-86.841394,"state":"KY"},"type":"Feature","geometry":{"type":"Point","coordinates":[-86.841394,37.36655]}},{"properties":{"county":"Shelby","2010":41445.0,"id":"a68wt77f0ihh","lat":37.212995,"long":-82.556009,"state":"KY"},"type":"Feature","geometry":{"type":"Point","coordinates":[-82.556009,37.212995]}},{"properties":{"county":"Simpson","2010":17271.0,"id":"a68wt73dndcj","lat":37.67228,"long":-83.36563,"state":"KY"},"type":"Feature","geometry":{"type":"Point","coordinates":[-83.36563,37.67228]}},{"properties":{"county":"Spencer","2010":19384.0,"id":"a68wt7a3crdk","lat":38.043629,"long":-85.309288,"state":"KY"},"type":"Feature","geometry":{"type":"Point","coordinates":[-85.309288,38.043629]}},{"properties":{"county":"Taylor","2010":24262.0,"id":"a68wt73iv5ir","lat":39.008213,"long":-84.502343,"state":"KY"},"type":"Feature","geometry":{"type":"Point","coordinates":[-84.502343,39.008213]}},{"properties":{"county":"Todd","2010":12220.0,"id":"a68wt71xqx6q","lat":36.858639,"long":-87.193024,"state":"KY"},"type":"Feature","geometry":{"type":"Point","coordinates":[-87.193024,36.858639]}},{"properties":{"county":"Trigg","2010":14016.0,"id":"a68wt76nwqr9","lat":36.817638,"long":-87.908409,"state":"KY"},"type":"Feature","geometry":{"type":"Point","coordinates":[-87.908409,36.817638]}},{"properties":{"county":"Trimble","2010":10316.0,"id":"a68wt72zlomx","lat":37.013645,"long":-84.735144,"state":"KY"},"type":"Feature","geometry":{"type":"Point","coordinates":[-84.735144,37.013645]}},{"properties":{"county":"Union","2010":15854.0,"id":"a68wt72lvgcx","lat":38.948284,"long":-84.665593,"state":"KY"},"type":"Feature","geometry":{"type":"Point","coordinates":[-84.665593,38.948284]}},{"properties":{"county":"Warren","2010":103655.0,"id":"a68wt7bzd55z","lat":36.752537,"long":-83.839192,"state":"KY"},"type":"Feature","geometry":{"type":"Point","coordinates":[-83.839192,36.752537]}},{"properties":{"county":"Washington","2010":11819.0,"id":"a68wt70b1n5c","lat":38.615048,"long":-83.809882,"state":"KY"},"type":"Feature","geometry":{"type":"Point","coordinates":[-83.809882,38.615048]}},{"properties":{"county":"Wayne","2010":21563.0,"id":"a68wt72yz3mq","lat":36.800331,"long":-84.818291,"state":"KY"},"type":"Feature","geometry":{"type":"Point","coordinates":[-84.818291,36.800331]}},{"properties":{"county":"Webster","2010":14001.0,"id":"a68wt71fzba8","lat":37.929429,"long":-86.368635,"state":"KY"},"type":"Feature","geometry":{"type":"Point","coordinates":[-86.368635,37.929429]}},{"properties":{"county":"Whitley","2010":40009.0,"id":"a68wt7bdq7hw","lat":36.72694,"long":-84.468374,"state":"KY"},"type":"Feature","geometry":{"type":"Point","coordinates":[-84.468374,36.72694]}},{"properties":{"county":"Wolfe","2010":6939.0,"id":"a68wt71ldwgr","lat":38.380322,"long":-83.110433,"state":"KY"},"type":"Feature","geometry":{"type":"Point","coordinates":[-83.110433,38.380322]}},{"properties":{"county":"Woodford","2010":24607.0,"id":"a68wt7bw3gsy","lat":38.02129,"long":-84.745483,"state":"KY"},"type":"Feature","geometry":{"type":"Point","coordinates":[-84.745483,38.02129]}}],"is_temporal":false,"author":{"url":"","metadata":"","contact_name":"Glen McAninch","contact_address":"","source":"","contact_phone":""},"source":"","pagination":{"sort":null,"start":0,"total":120,"limit":1000000},"state":"complete","tags":"","published":"2009-03-04T17:00:00Z","id":114277}