{"type":"FeatureCollection","data_type":"Dataset","url_type":null,"permissions":[{"permissions":{"download":true,"view":true},"group_id":"everyone"}],"classification":null,"title":"DVRPC Bike Traffic","count":139,"stream_id":114328,"contributor":{"url":"http://geocommons.com/users/22029","name":"johnboyle"},"data_attributes":null,"calculation_params":null,"icon_link":null,"link":"http://geocommons.com/overlays/114328.json","extent":[-75.239,39.9216,-75.1389,40.0301],"geometry_types":["point"],"unique_name":null,"name":"DVRPC Bike Traffic","feature_count":139,"description":"","next_feature":null,"is_raster":false,"short_classification":"Y","stats":{"avg daily bikes":{"max":644,"mean":176.014388489209,"variance":19259.6084871233,"stdev":138.778991519334,"min":1,"median":153},"record #":{"max":73582,"mean":71758.5395683453,"variance":676811.409654885,"stdev":822.685486473953,"min":70605,"median":71597}},"features":[{"properties":{"city":"Philadelphia","cross":"market st","name":"22nd st","date":"10/27/2010","from":"market st","geo_score":0.531,"road":"22nd st","to":"chestnut st","avg daily bikes":361,"id":"a64mazb2xxmv","geo_precision":"street","address":"22nd st","record #":71349,"traffic direction":"north","state":"PA"},"type":"Feature","geometry":{"type":"Point","coordinates":[-75.176234,39.956032]}},{"properties":{"city":"Philadelphia","cross":"10th st","name":"arch st","date":"10/21/2010","from":"10th st","geo_score":0.714,"road":"arch st","to":"11th st","avg daily bikes":72,"id":"a64maz8crwgq","geo_precision":"street","address":"arch st","record #":71351,"traffic direction":"north","state":"PA"},"type":"Feature","geometry":{"type":"Point","coordinates":[-75.146333,39.952311]}},{"properties":{"city":"Philadelphia","cross":"22nd st","name":"ben franklin pkwy inner la northbound","date":"11/3/2010","from":"22nd st","geo_score":0.543,"road":"ben franklin pkwy inner la northbound","to":"eakins oval","avg daily bikes":59,"id":"a64maz70xdnj","geo_precision":"street","address":"ben franklin pkwy","record #":71353,"traffic direction":"both","state":"PA"},"type":"Feature","geometry":{"type":"Point","coordinates":[-75.150318,39.964267]}},{"properties":{"city":"Philadelphia","cross":"22nd st","name":"ben franklin pkwy outer la northbound","date":"11/3/2010","from":"22nd st","geo_score":0.543,"road":"ben franklin pkwy outer la northbound","to":"eakins oval","avg daily bikes":47,"id":"a64maz85nr1u","geo_precision":"street","address":"ben franklin pkwy","record #":71354,"traffic direction":"both","state":"PA"},"type":"Feature","geometry":{"type":"Point","coordinates":[-75.150318,39.964267]}},{"properties":{"city":"Philadelphia","cross":"sansom st","name":"broad st southbound lanes","date":"10/21/2010","from":"sansom st","geo_score":0.714,"road":"broad st southbound lanes","to":"chestnut st","avg daily bikes":88,"id":"a64maz3jiqbx","geo_precision":"street","address":"broad st","record #":71358,"traffic direction":"both","state":"PA"},"type":"Feature","geometry":{"type":"Point","coordinates":[-75.16426,39.949737]}},{"properties":{"city":"Philadelphia","cross":"race st","name":"broad st northbound lanes","date":"10/7/2010","from":"race st","geo_score":0.714,"road":"broad st northbound lanes","to":"vine st","avg daily bikes":213,"id":"a64maz606y7z","geo_precision":"street","address":"broad st","record #":71359,"traffic direction":"both","state":"PA"},"type":"Feature","geometry":{"type":"Point","coordinates":[-75.16426,39.949737]}},{"properties":{"city":"Philadelphia","cross":"schuylkill ave","name":"chestnut st bridge","date":"10/27/2010","from":"schuylkill ave","geo_score":0.714,"road":"chestnut st bridge","to":"23rd st","avg daily bikes":340,"id":"a64maz4540o2","geo_precision":"street","address":"chestnut st","record #":71362,"traffic direction":"east","state":"PA"},"type":"Feature","geometry":{"type":"Point","coordinates":[-75.143279,39.948273]}},{"properties":{"city":"Philadelphia","cross":"11th st","name":"market st eastbound lanes","date":"9/30/2010","from":"11th st","geo_score":0.714,"road":"market st eastbound lanes","to":"10th st","avg daily bikes":129,"id":"a64maz6z09f3","geo_precision":"street","address":"market st","record #":71365,"traffic direction":"both","state":"PA"},"type":"Feature","geometry":{"type":"Point","coordinates":[-75.153583,39.951127]}},{"properties":{"city":"Philadelphia","cross":"11th st","name":"market st westbound lanes","date":"9/30/2010","from":"11th st","geo_score":0.714,"road":"market st westbound lanes","to":"10th st","avg daily bikes":44,"id":"a64maz50r99k","geo_precision":"street","address":"market st","record #":71366,"traffic direction":"both","state":"PA"},"type":"Feature","geometry":{"type":"Point","coordinates":[-75.153583,39.951127]}},{"properties":{"city":"Philadelphia","cross":"race st","name":"broad st southbound lanes","date":"10/7/2010","from":"race st","geo_score":0.714,"road":"broad st southbound lanes","to":"vine st","avg daily bikes":218,"id":"a64maz5f3a8b","geo_precision":"street","address":"broad st","record #":71360,"traffic direction":"both","state":"PA"},"type":"Feature","geometry":{"type":"Point","coordinates":[-75.16426,39.949737]}},{"properties":{"city":"Philadelphia","cross":"spring garden st","name":"2nd st","date":"10/14/2010","from":"spring garden st","geo_score":0.5,"road":"2nd st","to":"noble st","avg daily bikes":38,"id":"a64mayyhh6ui","geo_precision":"street","address":"2nd st","record #":71281,"traffic direction":"south","state":"PA"},"type":"Feature","geometry":{"type":"Point","coordinates":[-75.143737,39.949933]}},{"properties":{"city":"Philadelphia","cross":"market st","name":"8th st","date":"10/21/2010","from":"market st","geo_score":0.5,"road":"8th st","to":"chestnut st","avg daily bikes":98,"id":"a64maz0ywgau","geo_precision":"street","address":"8th st","record #":71285,"traffic direction":"south","state":"PA"},"type":"Feature","geometry":{"type":"Point","coordinates":[-75.153031,39.953651]}},{"properties":{"city":"Philadelphia","cross":"arch st","name":"11th st","date":"10/7/2010","from":"arch st","geo_score":0.531,"road":"11th st","to":"market st","avg daily bikes":188,"id":"a64maz1v29s4","geo_precision":"street","address":"11th st","record #":71289,"traffic direction":"north","state":"PA"},"type":"Feature","geometry":{"type":"Point","coordinates":[-75.158306,39.951713]}},{"properties":{"city":"Philadelphia","cross":"pine st","name":"18th st","date":"10/21/2010","from":"pine st","geo_score":0.531,"road":"18th st","to":"spruce st","avg daily bikes":225,"id":"a64maz1ju4ig","geo_precision":"street","address":"18th st","record #":71345,"traffic direction":"north","state":"PA"},"type":"Feature","geometry":{"type":"Point","coordinates":[-75.170007,39.953171]}},{"properties":{"city":"Philadelphia","cross":"strawberry mansion bridge","name":"martin luther king jr dr westbound lanes","date":"12/8/2010","from":"strawberry mansion bridge","geo_score":0.436,"road":"martin luther king jr dr westbound lanes","to":"falls bridge","avg daily bikes":15,"id":"a64maz0edog3","geo_precision":"street","address":"martin luther king jr dr","record #":72294,"traffic direction":"both","state":"PA"},"type":"Feature","geometry":{"type":"Point","coordinates":[-75.216892,40.030066]}},{"properties":{"city":"Philadelphia","cross":"strawberry mansion bridge","name":"schuylkill river trail","date":"12/16/2010","from":"strawberry mansion bridge","geo_score":0.58,"road":"schuylkill river trail","to":"falls bridge","avg daily bikes":32,"id":"a64maz2rb8wy","geo_precision":"street","address":"schuylkill river trail","record #":72295,"traffic direction":"both","state":"PA"},"type":"Feature","geometry":{"type":"Point","coordinates":[-75.184279,39.94582]}},{"properties":{"city":"Philadelphia","cross":"montgomery dr","name":"martin luther king jr dr eastbound lanes","date":"3/29/2011","from":"montgomery dr","geo_score":0.436,"road":"martin luther king jr dr eastbound lanes","to":"strawberry mansion bridge","avg daily bikes":9,"id":"a64mazb98mnd","geo_precision":"street","address":"martin luther king jr dr","record #":72296,"traffic direction":"both","state":"PA"},"type":"Feature","geometry":{"type":"Point","coordinates":[-75.216892,40.030066]}},{"properties":{"city":"Philadelphia","cross":"black rd","name":"martin luther king jr dr eastbound lanes","date":"12/8/2010","from":"black rd","geo_score":0.436,"road":"martin luther king jr dr eastbound lanes","to":"montgomery dr","avg daily bikes":9,"id":"a64maz08u2pb","geo_precision":"street","address":"martin luther king jr dr","record #":72299,"traffic direction":"both","state":"PA"},"type":"Feature","geometry":{"type":"Point","coordinates":[-75.216892,40.030066]}},{"properties":{"city":"Philadelphia","cross":"us 30 girard ave","name":"schuylkill river trail","date":"12/16/2010","from":"us 30 girard ave","geo_score":0.58,"road":"schuylkill river trail","to":"sweetbriar dr","avg daily bikes":38,"id":"a64maz3cyy5v","geo_precision":"street","address":"schuylkill river trail","record #":72307,"traffic direction":"both","state":"PA"},"type":"Feature","geometry":{"type":"Point","coordinates":[-75.184279,39.94582]}},{"properties":{"city":"Philadelphia","cross":"Calumet St","name":"schuylkill river trail (kelly dr side)","date":"12/15/2010","from":"falls bridge","geo_score":0.714,"road":"schuylkill river trail (kelly dr side)","to":"us 30 girard ave","avg daily bikes":140,"id":"a64maz7romvb","geo_precision":"street","address":"Kelly Drive","record #":72308,"traffic direction":"both","state":"PA"},"type":"Feature","geometry":{"type":"Point","coordinates":[-75.184825,39.969308]}},{"properties":{"city":"Philadelphia","cross":"Montgomery dr","name":"schuylkill river trail","date":"12/15/2010","from":"phila water works dam","geo_score":0.452,"road":"schuylkill river trail","to":"schuylkill river crossing","avg daily bikes":31,"id":"a64maz4uq7ec","geo_precision":"street","address":"Martin Luther King Dr","record #":72309,"traffic direction":"both","state":"PA"},"type":"Feature","geometry":{"type":"Point","coordinates":[-75.216892,40.030066]}},{"properties":{"city":"Philadelphia","cross":"Montgomery dr","name":"schuylkill river trail","date":"12/16/2010","from":"montgomery dr","geo_score":0.452,"road":"schuylkill river trail","to":"strawberry mansion bridge","avg daily bikes":31,"id":"a64maz0ow089","geo_precision":"street","address":"Martin Luther King Dr","record #":72298,"traffic direction":"both","state":"PA"},"type":"Feature","geometry":{"type":"Point","coordinates":[-75.216892,40.030066]}},{"properties":{"city":"Philadelphia","cross":"strawberry mansion bridge","name":"martin luther king jr dr eastbound lanes","date":"12/8/2010","from":"strawberry mansion bridge","geo_score":0.396,"road":"martin luther king jr dr eastbound lanes","to":"falls bridge","avg daily bikes":8,"id":"a64maz9u524n","geo_precision":"street","address":"martin luther king jr dr eastbound lanes","record #":72293,"traffic direction":"both","state":"PA"},"type":"Feature","geometry":{"type":"Point","coordinates":[-75.216892,40.030066]}},{"properties":{"city":"Philadelphia","cross":"black rd","name":"schuylkill river trail","date":"12/16/2010","from":"black rd","geo_score":0.58,"road":"schuylkill river trail","to":"montgomery dr","avg daily bikes":41,"id":"a64mazbnwjdu","geo_precision":"street","address":"schuylkill river trail","record #":72301,"traffic direction":"both","state":"PA"},"type":"Feature","geometry":{"type":"Point","coordinates":[-75.184279,39.94582]}},{"properties":{"city":"Philadelphia","cross":"black rd","name":"martin luther king jr dr westbound lanes","date":"12/8/2010","from":"black rd","geo_score":0.436,"road":"martin luther king jr dr westbound lanes","to":"montgomery dr","avg daily bikes":13,"id":"a64maz9bxh81","geo_precision":"street","address":"martin luther king jr dr","record #":72300,"traffic direction":"both","state":"PA"},"type":"Feature","geometry":{"type":"Point","coordinates":[-75.216892,40.030066]}},{"properties":{"city":"Philadelphia","cross":"31st st","name":"spring garden st bridge eastbound lanes","date":"10/7/2010","from":"31st st","geo_score":0.714,"road":"spring garden st bridge eastbound lanes","to":"aquarium dr","avg daily bikes":292,"id":"a64maz9850xp","geo_precision":"street","address":"spring garden st","record #":71544,"traffic direction":"both","state":"PA"},"type":"Feature","geometry":{"type":"Point","coordinates":[-75.138903,39.960301]}},{"properties":{"city":"Philadelphia","cross":"31st st","name":"spring garden st bridge westbound lanes","date":"10/7/2010","from":"31st st","geo_score":0.714,"road":"spring garden st bridge westbound lanes","to":"aquarium dr","avg daily bikes":265,"id":"a64mazcocp7y","geo_precision":"street","address":"spring garden st","record #":71545,"traffic direction":"both","state":"PA"},"type":"Feature","geometry":{"type":"Point","coordinates":[-75.138903,39.960301]}},{"properties":{"city":"Philadelphia","cross":"15th st","name":"spruce st","date":"9/30/2010","from":"15th st","geo_score":0.714,"road":"spruce st","to":"pa 291 broad st","avg daily bikes":360,"id":"a64mayytqvir","geo_precision":"street","address":"Spruce st","record #":71546,"traffic direction":"west","state":"PA"},"type":"Feature","geometry":{"type":"Point","coordinates":[-75.145198,39.944528]}},{"properties":{"city":"Philadelphia","cross":"5th st","name":"snyder ave","date":"9/30/2010","from":"5th st","geo_score":0.714,"road":"snyder ave","to":"4th st","avg daily bikes":94,"id":"a64mayzxp29i","geo_precision":"street","address":"Snyder ave","record #":71547,"traffic direction":"both","state":"PA"},"type":"Feature","geometry":{"type":"Point","coordinates":[-75.148035,39.92158]}},{"properties":{"city":"Philadelphia","cross":"15th st","name":"vine st eastbound","date":"10/14/2010","from":"15th st","geo_score":0.714,"road":"vine st eastbound","to":"pa 611 broad st","avg daily bikes":113,"id":"a64maz7ox6ek","geo_precision":"street","address":"Vine St","record #":71548,"traffic direction":"both","state":"PA"},"type":"Feature","geometry":{"type":"Point","coordinates":[-75.144447,39.955855]}},{"properties":{"city":"Philadelphia","cross":"15th st","name":"vine st westbound","date":"10/14/2010","from":"15th st","geo_score":0.714,"road":"vine st westbound","to":"pa 611 broad st","avg daily bikes":25,"id":"a64mazd3sbrm","geo_precision":"street","address":"Vine St","record #":71549,"traffic direction":"both","state":"PA"},"type":"Feature","geometry":{"type":"Point","coordinates":[-75.144447,39.955855]}},{"properties":{"city":"Philadelphia","cross":"Schuylkill ave","name":"market st bridge eastbound lanes","date":"10/27/2010","from":"schuylkill ave","geo_score":0.714,"road":"market st bridge eastbound lanes","to":"23rd st","avg daily bikes":95,"id":"a64mazdkvp6t","geo_precision":"street","address":"Market St","record #":71367,"traffic direction":"both","state":"PA"},"type":"Feature","geometry":{"type":"Point","coordinates":[-75.153583,39.951127]}},{"properties":{"city":"Philadelphia","cross":"Schuylkill ave","name":"market st bridge westbound lanes","date":"10/27/2010","from":"schuylkill ave","geo_score":0.597,"road":"market st bridge westbound lanes","to":"23rd st","avg daily bikes":72,"id":"a64maz8l3qtn","geo_precision":"street","address":"Market St Bridge","record #":71368,"traffic direction":"both","state":"PA"},"type":"Feature","geometry":{"type":"Point","coordinates":[-75.153583,39.951127]}},{"properties":{"city":"Philadelphia","cross":"13th st","name":"pine st","date":"9/30/2010","from":"13th st","geo_score":0.714,"road":"pine st","to":"12th st","avg daily bikes":404,"id":"a64maz5bp7hm","geo_precision":"street","address":"pine st","record #":71369,"traffic direction":"east","state":"PA"},"type":"Feature","geometry":{"type":"Point","coordinates":[-75.143641,39.942885]}},{"properties":{"city":"Philadelphia","cross":"18th st","name":"walnut st","date":"1/14/2011","from":"18th st","geo_score":0.714,"road":"walnut st","to":"17th st","avg daily bikes":134,"id":"a64maz7h6lxw","geo_precision":"street","address":"Walnut St","record #":73544,"traffic direction":"west","state":"PA"},"type":"Feature","geometry":{"type":"Point","coordinates":[-75.153174,39.947962]}},{"properties":{"city":"Philadelphia","cross":"market st","name":"3rd st","date":"1/14/2011","from":"market st","geo_score":0.5,"road":"3rd st","to":"arch st","avg daily bikes":137,"id":"a64mazdao1rw","geo_precision":"street","address":"3rd st","record #":73545,"traffic direction":"north","state":"PA"},"type":"Feature","geometry":{"type":"Point","coordinates":[-75.145864,39.949328]}},{"properties":{"city":"Philadelphia","cross":"john f kennedy blvd","name":"16th st","date":"1/15/2011","from":"john f kennedy blvd","geo_score":0.531,"road":"16th st","to":"arch st","avg daily bikes":98,"id":"a64maz575kga","geo_precision":"street","address":"16th st","record #":73548,"traffic direction":"north","state":"PA"},"type":"Feature","geometry":{"type":"Point","coordinates":[-75.167769,39.948605]}},{"properties":{"city":"Philadelphia","cross":"pine st","name":"17th st","date":"1/14/2011","from":"pine st","geo_score":0.531,"road":"17th st","to":"spruce st","avg daily bikes":184,"id":"a64mazd95al2","geo_precision":"street","address":"17th st","record #":73550,"traffic direction":"south","state":"PA"},"type":"Feature","geometry":{"type":"Point","coordinates":[-75.168767,39.951468]}},{"properties":{"city":"Philadelphia","cross":"pa 291 broad st","name":"walnut st","date":"9/30/2010","from":"pa 291 broad st","geo_score":0.714,"road":"walnut st","to":"juniper st","avg daily bikes":183,"id":"a64maz5qw8c8","geo_precision":"street","address":"Walnut St","record #":71561,"traffic direction":"west","state":"PA"},"type":"Feature","geometry":{"type":"Point","coordinates":[-75.153174,39.947962]}},{"properties":{"city":"Philadelphia","cross":"19th st","name":"spring garden st eastbound lanes","date":"1/15/2011","from":"19th st","geo_score":0.714,"road":"spring garden st eastbound lanes","to":"18th st","avg daily bikes":100,"id":"a64mazb3kdzq","geo_precision":"street","address":"Spring Garden St","record #":71542,"traffic direction":"both","state":"PA"},"type":"Feature","geometry":{"type":"Point","coordinates":[-75.138903,39.960301]}},{"properties":{"city":"Philadelphia","cross":"19th st","name":"spring garden st westbound lanes","date":"10/14/2010","from":"19th st","geo_score":0.714,"road":"spring garden st westbound lanes","to":"18th st","avg daily bikes":215,"id":"a64maz4ph725","geo_precision":"street","address":"spring garden st","record #":71543,"traffic direction":"both","state":"PA"},"type":"Feature","geometry":{"type":"Point","coordinates":[-75.138903,39.960301]}},{"properties":{"city":"Philadelphia","cross":"south st","name":"13th st","date":"1/14/2011","from":"south st","geo_score":0.531,"road":"13th st","to":"lombard st","avg daily bikes":40,"id":"a64maz90x9pv","geo_precision":"street","address":"13th st","record #":73555,"traffic direction":"north","state":"PA"},"type":"Feature","geometry":{"type":"Point","coordinates":[-75.162236,39.948504]}},{"properties":{"city":"Philadelphia","cross":"13th st","name":"spruce st","date":"1/14/2011","from":"13th st","geo_score":0.714,"road":"spruce st","to":"12th st","avg daily bikes":284,"id":"a64mayzq1c2e","geo_precision":"street","address":"Spruce st","record #":73561,"traffic direction":"west","state":"PA"},"type":"Feature","geometry":{"type":"Point","coordinates":[-75.145198,39.944528]}},{"properties":{"city":"Philadelphia","cross":"kenilworth st","name":"christopher columbus blvd northbound lanes","date":"Null","from":"kenilworth st","geo_score":0.681,"road":"christopher columbus blvd northbound lanes","to":"I 95 delaware expwy nb on ramp","avg daily bikes":100,"id":"a64maz4k77ig","geo_precision":"street","address":"Columbus Blvd","record #":71776,"traffic direction":"both","state":"PA"},"type":"Feature","geometry":{"type":"Point","coordinates":[-75.140013,39.953508]}},{"properties":{"city":"Philadelphia","cross":"kenilworth st","name":"christopher columbus blvd southbound lanes","date":"Null","from":"kenilworth st","geo_score":0.681,"road":"christopher columbus blvd southbound lanes","to":"I 95 delaware expwy nb on ramp","avg daily bikes":44,"id":"a64maz27o8f2","geo_precision":"street","address":"Columbus Blvd","record #":71777,"traffic direction":"both","state":"PA"},"type":"Feature","geometry":{"type":"Point","coordinates":[-75.140013,39.953508]}},{"properties":{"city":"Philadelphia","cross":"callowhill st","name":"13th st","date":"Null","from":"callowhill st","geo_score":0.531,"road":"13th st","to":"noble st","avg daily bikes":74,"id":"a64maz88atdq","geo_precision":"street","address":"13th st","record #":71829,"traffic direction":"north","state":"PA"},"type":"Feature","geometry":{"type":"Point","coordinates":[-75.162236,39.948504]}},{"properties":{"city":"Philadelphia","cross":"hamilton st","name":"15th st","date":"Null","from":"hamilton st","geo_score":0.531,"road":"15th st","to":"callowhill st","avg daily bikes":104,"id":"a64mayy29h7x","geo_precision":"street","address":"15th st","record #":71836,"traffic direction":"south","state":"PA"},"type":"Feature","geometry":{"type":"Point","coordinates":[-75.165716,39.950595]}},{"properties":{"city":"Philadelphia","cross":"callowhill st","name":"16th st","date":"Null","from":"callowhill st","geo_score":0.531,"road":"16th st","to":"hamilton st","avg daily bikes":76,"id":"a64mazdwk5b6","geo_precision":"street","address":"16th st","record #":71839,"traffic direction":"north","state":"PA"},"type":"Feature","geometry":{"type":"Point","coordinates":[-75.167769,39.948605]}},{"properties":{"city":"Philadelphia","cross":"callowhill st","name":"3rd st","date":"Null","from":"callowhill st","geo_score":0.5,"road":"3rd st","to":"willow st","avg daily bikes":124,"id":"a64mazaih2p4","geo_precision":"street","address":"3rd st","record #":71780,"traffic direction":"north","state":"PA"},"type":"Feature","geometry":{"type":"Point","coordinates":[-75.145864,39.949328]}},{"properties":{"city":"Philadelphia","cross":"callowhill st","name":"4th st","date":"Null","from":"callowhill st","geo_score":0.5,"road":"4th st","to":"willow st","avg daily bikes":86,"id":"a64maz2i96xz","geo_precision":"street","address":"4th st","record #":71783,"traffic direction":"south","state":"PA"},"type":"Feature","geometry":{"type":"Point","coordinates":[-75.147257,39.95037]}},{"properties":{"city":"Philadelphia","cross":"callowhill st","name":"5th st","date":"Null","from":"callowhill st","geo_score":0.543,"road":"5th st","to":"willow st","avg daily bikes":127,"id":"a64maz9fhgjh","geo_precision":"street","address":"5th st","record #":71786,"traffic direction":"north","state":"PA"},"type":"Feature","geometry":{"type":"Point","coordinates":[-75.148767,39.951236]}},{"properties":{"city":"Philadelphia","cross":"callowhill st","name":"6th st","date":"Null","from":"callowhill st","geo_score":0.5,"road":"6th st","to":"willow st","avg daily bikes":103,"id":"a64maz6o7umo","geo_precision":"street","address":"6th st","record #":71789,"traffic direction":"south","state":"PA"},"type":"Feature","geometry":{"type":"Point","coordinates":[-75.149926,39.952757]}},{"properties":{"city":"Philadelphia","cross":"callowhill st","name":"7th st","date":"Null","from":"callowhill st","geo_score":0.5,"road":"7th st","to":"willow st","avg daily bikes":106,"id":"a64maz8ypphw","geo_precision":"street","address":"7th st","record #":71792,"traffic direction":"north","state":"PA"},"type":"Feature","geometry":{"type":"Point","coordinates":[-75.151735,39.952073]}},{"properties":{"city":"Philadelphia","cross":"willow st","name":"8th st","date":"Null","from":"willow st","geo_score":0.5,"road":"8th st","to":"callowhill st","avg daily bikes":52,"id":"a64mazawz5xf","geo_precision":"street","address":"8th st","record #":71795,"traffic direction":"south","state":"PA"},"type":"Feature","geometry":{"type":"Point","coordinates":[-75.153031,39.953651]}},{"properties":{"city":"Philadelphia","cross":"callowhill st","name":"9th st","date":"Null","from":"callowhill st","geo_score":0.5,"road":"9th st","to":"willow st","avg daily bikes":18,"id":"a64mazb7qpvg","geo_precision":"street","address":"9th st","record #":71798,"traffic direction":"north","state":"PA"},"type":"Feature","geometry":{"type":"Point","coordinates":[-75.155158,39.951325]}},{"properties":{"city":"Philadelphia","cross":"noble st","name":"ridge ave","date":"Null","from":"noble st","geo_score":0.714,"road":"ridge ave","to":"callowhill st","avg daily bikes":20,"id":"a64mayzuvkdr","geo_precision":"street","address":"ridge ave","record #":71801,"traffic direction":"both","state":"PA"},"type":"Feature","geometry":{"type":"Point","coordinates":[-75.154485,39.95777]}},{"properties":{"city":"Philadelphia","cross":"noble st","name":"ridge ave","date":"Null","from":"noble st","geo_score":0.714,"road":"ridge ave","to":"callowhill st","avg daily bikes":56,"id":"a64maz1n7m3n","geo_precision":"street","address":"ridge ave","record #":71802,"traffic direction":"both","state":"PA"},"type":"Feature","geometry":{"type":"Point","coordinates":[-75.154485,39.95777]}},{"properties":{"city":"Philadelphia","cross":"44th st","name":"walnut st","date":"Null","from":"44th st","geo_score":0.714,"road":"walnut st","to":"43rd st","avg daily bikes":182,"id":"a64maz63kwq8","geo_precision":"street","address":"walnut st","record #":73582,"traffic direction":"west","state":"PA"},"type":"Feature","geometry":{"type":"Point","coordinates":[-75.153174,39.947962]}},{"properties":{"city":"Philadelphia","cross":"15th st","name":"chestnut st","date":"Null","from":"15th st","geo_score":0.714,"road":"chestnut st","to":"pa 291 broad st","avg daily bikes":271,"id":"a64maz6dueo9","geo_precision":"street","address":"chestnut st","record #":73541,"traffic direction":"east","state":"PA"},"type":"Feature","geometry":{"type":"Point","coordinates":[-75.143279,39.948273]}},{"properties":{"city":"Philadelphia","cross":"vine st","name":"broad st northbound lanes","date":"Null","from":"vine st","geo_score":0.714,"road":"broad st northbound lanes","to":"callowhill st","avg daily bikes":137,"id":"a64maz4xsn0m","geo_precision":"street","address":"broad st","record #":73542,"traffic direction":"both","state":"PA"},"type":"Feature","geometry":{"type":"Point","coordinates":[-75.16426,39.949737]}},{"properties":{"city":"Philadelphia","cross":"race st","name":"10th st","date":"Null","from":"race st","geo_score":0.531,"road":"10th st","to":"arch st","avg daily bikes":170,"id":"a64mayyo1edr","geo_precision":"street","address":"10th st","record #":73551,"traffic direction":"south","state":"PA"},"type":"Feature","geometry":{"type":"Point","coordinates":[-75.156735,39.95153]}},{"properties":{"city":"Philadelphia","cross":"John F Kennedy Blvd","name":"18th st","date":"Null","from":"john f kennedy blvd","geo_score":0.531,"road":"18th st","to":"arch st","avg daily bikes":163,"id":"a64maz6g8ntt","geo_precision":"street","address":"18th st","record #":73552,"traffic direction":"north","state":"PA"},"type":"Feature","geometry":{"type":"Point","coordinates":[-75.170007,39.953171]}},{"properties":{"city":"Philadelphia","cross":"chestnut st","name":"19th st","date":"Null","from":"chestnut st","geo_score":0.531,"road":"19th st","to":"sansom st","avg daily bikes":198,"id":"a64mazdabo9b","geo_precision":"street","address":"19th st","record #":73553,"traffic direction":"south","state":"PA"},"type":"Feature","geometry":{"type":"Point","coordinates":[-75.171134,39.955394]}},{"properties":{"city":"Philadelphia","cross":"schuylkill ave","name":"chestnut st bridge","date":"Null","from":"schuylkill ave","geo_score":0.714,"road":"chestnut st bridge","to":"23rd st","avg daily bikes":379,"id":"a64mayz3l4wy","geo_precision":"street","address":"Chestnut St","record #":73557,"traffic direction":"east","state":"PA"},"type":"Feature","geometry":{"type":"Point","coordinates":[-75.143279,39.948273]}},{"properties":{"city":"Philadelphia","cross":"I-76","name":"south st bridge westbound lanes","date":"Null","from":"I 76 schuylkill expwy ramps","geo_score":0.469,"road":"south st bridge westbound lanes","to":"27th st","avg daily bikes":1,"id":"a64maz8gbs8v","geo_precision":"street","address":"South St","record #":73559,"traffic direction":"both","state":"PA"},"type":"Feature","geometry":{"type":"Point","coordinates":[-75.14406,39.940971]}},{"properties":{"city":"Philadelphia","cross":"20th st","name":"wharton st","date":"Null","from":"20th st","geo_score":0.714,"road":"wharton st","to":"19th st","avg daily bikes":12,"id":"a64maz3yl97b","geo_precision":"street","address":"Wharton St","record #":73560,"traffic direction":"east","state":"PA"},"type":"Feature","geometry":{"type":"Point","coordinates":[-75.147313,39.931476]}},{"properties":{"city":"Philadelphia","cross":"schuylkill ave","name":"walnut st bridge","date":"Null","from":"schuylkill ave","geo_score":0.714,"road":"walnut st bridge","to":"23rd st","avg daily bikes":459,"id":"a64maz6arcmo","geo_precision":"street","address":"walnut st","record #":73546,"traffic direction":"west","state":"PA"},"type":"Feature","geometry":{"type":"Point","coordinates":[-75.153174,39.947962]}},{"properties":{"city":"Philadelphia","cross":"I-76","name":"south st bridge eastbound lanes","date":"Null","from":"I 76 schuylkill expwy ramps","geo_score":0.357,"road":"south st bridge eastbound lanes","to":"27th st","avg daily bikes":503,"id":"a64maz8cxxlp","geo_precision":"street","address":"south st bridge","record #":73558,"traffic direction":"both","state":"PA"},"type":"Feature","geometry":{"type":"Point","coordinates":[-75.239004,39.995343]}},{"properties":{"city":"Philadelphia","cross":"spruce st","name":"19th st","date":"Null","from":"spruce st","geo_score":0.531,"road":"19th st","to":"delancey pl","avg daily bikes":298,"id":"a64maz0pal4r","geo_precision":"street","address":"19th st","record #":73554,"traffic direction":"south","state":"PA"},"type":"Feature","geometry":{"type":"Point","coordinates":[-75.171134,39.955394]}},{"properties":{"city":"Philadelphia","cross":"callowhill st","name":"3rd st","date":"9/2/2010","from":"callowhill st","geo_score":0.5,"road":"3rd st","to":"willow st","avg daily bikes":235,"id":"a64maz7o0lf5","geo_precision":"street","address":"3rd st","record #":71282,"traffic direction":"north","state":"PA"},"type":"Feature","geometry":{"type":"Point","coordinates":[-75.145864,39.949328]}},{"properties":{"city":"Philadelphia","cross":"market st","name":"3rd st","date":"9/2/2010","from":"market st","geo_score":0.5,"road":"3rd st","to":"arch st","avg daily bikes":314,"id":"a64maz19rx1v","geo_precision":"street","address":"3rd st","record #":71283,"traffic direction":"north","state":"PA"},"type":"Feature","geometry":{"type":"Point","coordinates":[-75.145864,39.949328]}},{"properties":{"city":"Philadelphia","cross":"market st","name":"9th st","date":"9/2/2010","from":"market st","geo_score":0.5,"road":"9th st","to":"chestnut st","avg daily bikes":196,"id":"a64mazdhvo48","geo_precision":"street","address":"9th st","record #":71286,"traffic direction":"north","state":"PA"},"type":"Feature","geometry":{"type":"Point","coordinates":[-75.155158,39.951325]}},{"properties":{"city":"Philadelphia","cross":"market st","name":"10th st","date":"9/9/2010","from":"market st","geo_score":0.531,"road":"10th st","to":"chestnut st","avg daily bikes":274,"id":"a64maz4lxlwn","geo_precision":"street","address":"10th st","record #":71287,"traffic direction":"south","state":"PA"},"type":"Feature","geometry":{"type":"Point","coordinates":[-75.156735,39.95153]}},{"properties":{"city":"Philadelphia","cross":"race st","name":"10th st","date":"9/9/2010","from":"race st","geo_score":0.531,"road":"10th st","to":"arch st","avg daily bikes":243,"id":"a64maz10et9c","geo_precision":"street","address":"10th st","record #":71288,"traffic direction":"south","state":"PA"},"type":"Feature","geometry":{"type":"Point","coordinates":[-75.156735,39.95153]}},{"properties":{"city":"Philadelphia","cross":"callowhill st","name":"15th st","date":"9/9/2010","from":"callowhill st","geo_score":0.531,"road":"15th st","to":"vine st","avg daily bikes":118,"id":"a64maz9tl0xw","geo_precision":"street","address":"15th st","record #":71290,"traffic direction":"south","state":"PA"},"type":"Feature","geometry":{"type":"Point","coordinates":[-75.165716,39.950595]}},{"properties":{"city":"Philadelphia","cross":"cherry st","name":"15th st","date":"9/16/2010","from":"cherry st","geo_score":0.531,"road":"15th st","to":"race st","avg daily bikes":153,"id":"a64maz6tdxbu","geo_precision":"street","address":"15th st","record #":71291,"traffic direction":"south","state":"PA"},"type":"Feature","geometry":{"type":"Point","coordinates":[-75.165716,39.950595]}},{"properties":{"city":"Philadelphia","cross":"walnut st","name":"15th st","date":"9/16/2010","from":"walnut st","geo_score":0.531,"road":"15th st","to":"locust st","avg daily bikes":282,"id":"a64maz2tayv5","geo_precision":"street","address":"15th st","record #":71292,"traffic direction":"south","state":"PA"},"type":"Feature","geometry":{"type":"Point","coordinates":[-75.165716,39.950595]}},{"properties":{"city":"Philadelphia","cross":"walnut st","name":"16th st","date":"9/16/2010","from":"walnut st","geo_score":0.531,"road":"16th st","to":"sansom st","avg daily bikes":348,"id":"a64maz8s6bxt","geo_precision":"street","address":"16th st","record #":71293,"traffic direction":"north","state":"PA"},"type":"Feature","geometry":{"type":"Point","coordinates":[-75.167769,39.948605]}},{"properties":{"city":"Philadelphia","cross":"arch st","name":"16th st","date":"9/16/2010","from":"arch st","geo_score":0.531,"road":"16th st","to":"cherry st","avg daily bikes":61,"id":"a64maz4isi3o","geo_precision":"street","address":"16th st","record #":71294,"traffic direction":"north","state":"PA"},"type":"Feature","geometry":{"type":"Point","coordinates":[-75.167769,39.948605]}},{"properties":{"city":"Philadelphia","cross":"schuylkill ave","name":"walnut st bridge","date":"9/23/2010","from":"schuylkill ave","geo_score":0.714,"road":"walnut st bridge","to":"23rd st","avg daily bikes":551,"id":"a64mayyru7di","geo_precision":"street","address":"walnut st","record #":71562,"traffic direction":"west","state":"PA"},"type":"Feature","geometry":{"type":"Point","coordinates":[-75.153174,39.947962]}},{"properties":{"city":"Philadelphia","cross":"walnut st","name":"22nd st","date":"8/12/2010","from":"walnut st","geo_score":0.531,"road":"22nd st","to":"locust st","avg daily bikes":473,"id":"a64mazc5wkz1","geo_precision":"street","address":"22nd st","record #":70611,"traffic direction":"north","state":"PA"},"type":"Feature","geometry":{"type":"Point","coordinates":[-75.176234,39.956032]}},{"properties":{"city":"Philadelphia","cross":"pine st","name":"22nd st","date":"8/12/2010","from":"pine st","geo_score":0.531,"road":"22nd st","to":"lombard st","avg daily bikes":403,"id":"a64maz69d2ae","geo_precision":"street","address":"22nd st","record #":70612,"traffic direction":"north","state":"PA"},"type":"Feature","geometry":{"type":"Point","coordinates":[-75.176234,39.956032]}},{"properties":{"city":"Philadelphia","cross":"arch st","name":"5th st","date":"9/2/2010","from":"arch st","geo_score":0.543,"road":"5th st","to":"race st","avg daily bikes":236,"id":"a64maz9hqo7i","geo_precision":"street","address":"5th st","record #":70613,"traffic direction":"north","state":"PA"},"type":"Feature","geometry":{"type":"Point","coordinates":[-75.148767,39.951236]}},{"properties":{"city":"Philadelphia","cross":"arch st","name":"6th st","date":"9/2/2010","from":"arch st","geo_score":0.5,"road":"6th st","to":"race st","avg daily bikes":216,"id":"a64maz5dz2of","geo_precision":"street","address":"6th st","record #":70614,"traffic direction":"south","state":"PA"},"type":"Feature","geometry":{"type":"Point","coordinates":[-75.149926,39.952757]}},{"properties":{"city":"Philadelphia","cross":"locust st","name":"broad st northbound lanes","date":"8/26/2010","from":"locust st","geo_score":0.714,"road":"broad st northbound lanes","to":"walnut st","avg daily bikes":313,"id":"a64mazbai3kp","geo_precision":"street","address":"broad st","record #":70615,"traffic direction":"both","state":"PA"},"type":"Feature","geometry":{"type":"Point","coordinates":[-75.16426,39.949737]}},{"properties":{"city":"Philadelphia","cross":"locust st","name":"broad st southbound lanes","date":"11/30/2010","from":"locust st","geo_score":0.714,"road":"broad st southbound lanes","to":"walnut st","avg daily bikes":138,"id":"a64maz79va37","geo_precision":"street","address":"broad st","record #":70616,"traffic direction":"both","state":"PA"},"type":"Feature","geometry":{"type":"Point","coordinates":[-75.16426,39.949737]}},{"properties":{"city":"Philadelphia","cross":"vine st","name":"broad st northbound lanes","date":"12/15/2010","from":"vine st","geo_score":0.714,"road":"broad st northbound lanes","to":"callowhill st","avg daily bikes":78,"id":"a64mayzqwauk","geo_precision":"street","address":"broad st","record #":70617,"traffic direction":"both","state":"PA"},"type":"Feature","geometry":{"type":"Point","coordinates":[-75.16426,39.949737]}},{"properties":{"city":"Philadelphia","cross":"vine st","name":"broad st southbound lanes","date":"8/26/2010","from":"vine st","geo_score":0.714,"road":"broad st southbound lanes","to":"callowhill st","avg daily bikes":155,"id":"a64maz58wbqq","geo_precision":"street","address":"broad st","record #":70618,"traffic direction":"both","state":"PA"},"type":"Feature","geometry":{"type":"Point","coordinates":[-75.16426,39.949737]}},{"properties":{"city":"Philadelphia","cross":"21st st","name":"ben franklin pkwy inner la","date":"8/26/2010","from":"21st st","geo_score":0.543,"road":"ben franklin pkwy inner la","to":"22nd st","avg daily bikes":182,"id":"a64maz52cy4j","geo_precision":"street","address":"ben franklin pkwy","record #":70619,"traffic direction":"both","state":"PA"},"type":"Feature","geometry":{"type":"Point","coordinates":[-75.150318,39.964267]}},{"properties":{"city":"Philadelphia","cross":"21st st","name":"ben franklin pkwy inner la","date":"8/26/2010","from":"21st st","geo_score":0.543,"road":"ben franklin pkwy inner la","to":"22nd st","avg daily bikes":109,"id":"a64maz2nlhur","geo_precision":"street","address":"ben franklin pkwy","record #":70620,"traffic direction":"both","state":"PA"},"type":"Feature","geometry":{"type":"Point","coordinates":[-75.150318,39.964267]}},{"properties":{"city":"Philadelphia","cross":"23rd st","name":"walnut st","date":"9/23/2010","from":"23rd st","geo_score":0.714,"road":"walnut st","to":"22nd st","avg daily bikes":644,"id":"a64mazbnxhgk","geo_precision":"street","address":"walnut st","record #":71550,"traffic direction":"west","state":"PA"},"type":"Feature","geometry":{"type":"Point","coordinates":[-75.153174,39.947962]}},{"properties":{"city":"Philadelphia","cross":"18th st","name":"walnut st","date":"9/23/2010","from":"18th st","geo_score":0.714,"road":"walnut st","to":"17th st","avg daily bikes":270,"id":"a64mazddbgud","geo_precision":"street","address":"walnut st","record #":71551,"traffic direction":"west","state":"PA"},"type":"Feature","geometry":{"type":"Point","coordinates":[-75.153174,39.947962]}},{"properties":{"city":"Philadelphia","cross":"17th st","name":"walnut st","date":"9/23/2010","from":"17th st","geo_score":0.714,"road":"walnut st","to":"16th st","avg daily bikes":233,"id":"a64maz7zrf27","geo_precision":"street","address":"walnut st","record #":71552,"traffic direction":"west","state":"PA"},"type":"Feature","geometry":{"type":"Point","coordinates":[-75.153174,39.947962]}},{"properties":{"city":"Philadelphia","cross":"locust st","name":"23rd st","date":"8/12/2010","from":"locust st","geo_score":0.531,"road":"23rd st","to":"walnut st","avg daily bikes":403,"id":"a64mayzbgh1x","geo_precision":"street","address":"23rd st","record #":70610,"traffic direction":"south","state":"PA"},"type":"Feature","geometry":{"type":"Point","coordinates":[-75.177917,39.953709]}},{"properties":{"city":"Philadelphia","cross":"21st st","name":"ben franklin pkwy outer la","date":"8/26/2010","from":"21st st","geo_score":0.543,"road":"ben franklin pkwy outer la","to":"22nd st","avg daily bikes":34,"id":"a64mayzygzih","geo_precision":"street","address":"ben franklin pkwy","record #":70621,"traffic direction":"both","state":"PA"},"type":"Feature","geometry":{"type":"Point","coordinates":[-75.150318,39.964267]}},{"properties":{"city":"Philadelphia","cross":"21st st","name":"ben franklin pkwy outer la","date":"8/26/2010","from":"21st st","geo_score":0.543,"road":"ben franklin pkwy outer la","to":"22nd st","avg daily bikes":85,"id":"a64maz9c4mne","geo_precision":"street","address":"ben franklin pkwy","record #":70622,"traffic direction":"both","state":"PA"},"type":"Feature","geometry":{"type":"Point","coordinates":[-75.150318,39.964267]}},{"properties":{"city":"Philadelphia","cross":"south st","name":"15th st","date":"11/30/2010","from":"south st","geo_score":0.531,"road":"15th st","to":"bainbridge st","avg daily bikes":156,"id":"a64maz9qxwln","geo_precision":"street","address":"15th st","record #":71619,"traffic direction":"south","state":"PA"},"type":"Feature","geometry":{"type":"Point","coordinates":[-75.165716,39.950595]}},{"properties":{"city":"Philadelphia","cross":"20th st","name":"spruce st","date":"8/12/2010","from":"20th st","geo_score":0.714,"road":"spruce st","to":"19th st","avg daily bikes":616,"id":"a64maz04fgb9","geo_precision":"street","address":"spruce st","record #":70605,"traffic direction":"west","state":"PA"},"type":"Feature","geometry":{"type":"Point","coordinates":[-75.145198,39.944528]}},{"properties":{"city":"Philadelphia","cross":"10th st","name":"spruce st","date":"8/12/2010","from":"10th st","geo_score":0.714,"road":"spruce st","to":"9th st","avg daily bikes":498,"id":"a64maz31mtat","geo_precision":"street","address":"spruce st","record #":70606,"traffic direction":"west","state":"PA"},"type":"Feature","geometry":{"type":"Point","coordinates":[-75.145198,39.944528]}},{"properties":{"city":"Philadelphia","cross":"20th st","name":"pine st","date":"8/12/2010","from":"20th st","geo_score":0.714,"road":"pine st","to":"19th st","avg daily bikes":499,"id":"a64maz3xy0d4","geo_precision":"street","address":"pine st","record #":70607,"traffic direction":"east","state":"PA"},"type":"Feature","geometry":{"type":"Point","coordinates":[-75.143641,39.942885]}},{"properties":{"city":"Philadelphia","cross":"10th st","name":"pine st","date":"8/12/2010","from":"10th st","geo_score":0.714,"road":"pine st","to":"9th st","avg daily bikes":300,"id":"a64mayyhiiv8","geo_precision":"street","address":"pine st","record #":70608,"traffic direction":"east","state":"PA"},"type":"Feature","geometry":{"type":"Point","coordinates":[-75.143641,39.942885]}},{"properties":{"city":"Philadelphia","cross":"lombard st","name":"23rd st","date":"8/12/2010","from":"lombard st","geo_score":0.531,"road":"23rd st","to":"pine st","avg daily bikes":255,"id":"a64maz4l95jd","geo_precision":"street","address":"23rd st","record #":70609,"traffic direction":"south","state":"PA"},"type":"Feature","geometry":{"type":"Point","coordinates":[-75.177917,39.953709]}},{"properties":{"city":"Philadelphia","cross":"spruce st","name":"18th st","date":"9/16/2010","from":"spruce st","geo_score":0.531,"road":"18th st","to":"walnut st","avg daily bikes":288,"id":"a64maz7qh4h4","geo_precision":"street","address":"18th st","record #":71346,"traffic direction":"north","state":"PA"},"type":"Feature","geometry":{"type":"Point","coordinates":[-75.170007,39.953171]}},{"properties":{"city":"Philadelphia","cross":"walnut st","name":"18th st","date":"9/16/2010","from":"walnut st","geo_score":0.531,"road":"18th st","to":"chestnut st","avg daily bikes":201,"id":"a64maz4kjd2u","geo_precision":"street","address":"18th st","record #":71347,"traffic direction":"north","state":"PA"},"type":"Feature","geometry":{"type":"Point","coordinates":[-75.170007,39.953171]}},{"properties":{"city":"Philadelphia","cross":"22nd st","name":"arch st","date":"9/9/2010","from":"22nd st","geo_score":0.714,"road":"arch st","to":"21st st","avg daily bikes":52,"id":"a64maz9v2qz1","geo_precision":"street","address":"arch st","record #":71352,"traffic direction":"west","state":"PA"},"type":"Feature","geometry":{"type":"Point","coordinates":[-75.146333,39.952311]}},{"properties":{"city":"Philadelphia","cross":"sansom st","name":"broad st northbound lanes","date":"9/9/2010","from":"sansom st","geo_score":0.714,"road":"broad st northbound lanes","to":"chestnut st","avg daily bikes":247,"id":"a64maz36k45w","geo_precision":"street","address":"broad st","record #":71357,"traffic direction":"both","state":"PA"},"type":"Feature","geometry":{"type":"Point","coordinates":[-75.16426,39.949737]}},{"properties":{"city":"Philadelphia","cross":"10th st","name":"market st eastbound lanes","date":"9/23/2010","from":"10th st","geo_score":0.714,"road":"market st eastbound lanes","to":"9th st","avg daily bikes":121,"id":"a64mayzfng5s","geo_precision":"street","address":"market st","record #":71363,"traffic direction":"both","state":"PA"},"type":"Feature","geometry":{"type":"Point","coordinates":[-75.153583,39.951127]}},{"properties":{"city":"Philadelphia","cross":"10th st","name":"market st westbound lanes","date":"9/23/2010","from":"10th st","geo_score":0.714,"road":"market st westbound lanes","to":"9th st","avg daily bikes":62,"id":"a64maz9r79qw","geo_precision":"street","address":"market st","record #":71364,"traffic direction":"both","state":"PA"},"type":"Feature","geometry":{"type":"Point","coordinates":[-75.153583,39.951127]}},{"properties":{"city":"Philadelphia","cross":"18th st","name":"sansom st","date":"9/16/2010","from":"18th st","geo_score":0.714,"road":"sansom st","to":"17th st","avg daily bikes":245,"id":"a64mazcbh3at","geo_precision":"street","address":"sansom st","record #":71370,"traffic direction":"west","state":"PA"},"type":"Feature","geometry":{"type":"Point","coordinates":[-75.157226,39.949248]}},{"properties":{"city":"Philadelphia","cross":"sweetbriar dr","name":"martin luther king jr dr eastbound lanes","date":"3/29/2011","from":"sweetbriar dr","geo_score":0.436,"road":"martin luther king jr dr eastbound lanes","to":"black rd","avg daily bikes":12,"id":"a64mayzvobt2","geo_precision":"street","address":"martin luther king jr dr","record #":72302,"traffic direction":"both","state":"PA"},"type":"Feature","geometry":{"type":"Point","coordinates":[-75.216892,40.030066]}},{"properties":{"city":"Philadelphia","cross":"sweetbriar dr","name":"martin luther king jr dr westbound lanes","date":"3/29/2011","from":"sweetbriar dr","geo_score":0.436,"road":"martin luther king jr dr westbound lanes","to":"black rd","avg daily bikes":11,"id":"a64maz5vrcqh","geo_precision":"street","address":"martin luther king jr dr","record #":72303,"traffic direction":"both","state":"PA"},"type":"Feature","geometry":{"type":"Point","coordinates":[-75.216892,40.030066]}},{"properties":{"city":"Philadelphia","cross":"us 30 girard ave","name":"martin luther king jr dr westbound lanes","date":"12/7/2010","from":"us 30 girard ave","geo_score":0.436,"road":"martin luther king jr dr westbound lanes","to":"sweetbriar dr","avg daily bikes":5,"id":"a64mayxzom03","geo_precision":"street","address":"martin luther king jr dr","record #":72306,"traffic direction":"both","state":"PA"},"type":"Feature","geometry":{"type":"Point","coordinates":[-75.216892,40.030066]}},{"properties":{"city":"Philadelphia","cross":"us 30 girard ave","name":"martin luther king jr dr eastbound lanes","date":"12/7/2010","from":"us 30 girard ave","geo_score":0.436,"road":"martin luther king jr dr eastbound lanes","to":"sweetbriar dr","avg daily bikes":9,"id":"a64maz1330m9","geo_precision":"street","address":"martin luther king jr dr","record #":72305,"traffic direction":"both","state":"PA"},"type":"Feature","geometry":{"type":"Point","coordinates":[-75.216892,40.030066]}},{"properties":{"city":"Philadelphia","cross":"bainbridge st","name":"front st","date":"11/11/2010","from":"bainbridge st","geo_score":0.661,"road":"front st","to":"south st","avg daily bikes":87,"id":"a64maz37m2tp","geo_precision":"street","address":"front st","record #":71773,"traffic direction":"north","state":"PA"},"type":"Feature","geometry":{"type":"Point","coordinates":[-75.142298,39.948982]}},{"properties":{"city":"Philadelphia","cross":"bainbridge st","name":"5th st","date":"11/11/2010","from":"bainbridge st","geo_score":0.543,"road":"5th st","to":"south st","avg daily bikes":164,"id":"a64maz43gecp","geo_precision":"street","address":"5th st","record #":71761,"traffic direction":"north","state":"PA"},"type":"Feature","geometry":{"type":"Point","coordinates":[-75.148767,39.951236]}},{"properties":{"city":"Philadelphia","cross":"bainbridge st","name":"4th st","date":"11/11/2010","from":"bainbridge st","geo_score":0.5,"road":"4th st","to":"south st","avg daily bikes":265,"id":"a64maz9qgvu4","geo_precision":"street","address":"4th st","record #":71764,"traffic direction":"south","state":"PA"},"type":"Feature","geometry":{"type":"Point","coordinates":[-75.147257,39.95037]}},{"properties":{"city":"Philadelphia","cross":"south st","name":"21st st","date":"10/20/2010","from":"south st","geo_score":0.531,"road":"21st st","to":"bainbridge st","avg daily bikes":173,"id":"a64maz9zt2iv","geo_precision":"street","address":"21st st","record #":71601,"traffic direction":"south","state":"PA"},"type":"Feature","geometry":{"type":"Point","coordinates":[-75.175569,39.951527]}},{"properties":{"city":"Philadelphia","cross":"bainbridge st","name":"20th st","date":"10/20/2010","from":"bainbridge st","geo_score":0.531,"road":"20th st","to":"south st","avg daily bikes":194,"id":"a64mazce1g3s","geo_precision":"street","address":"20th st","record #":71604,"traffic direction":"north","state":"PA"},"type":"Feature","geometry":{"type":"Point","coordinates":[-75.172578,39.956531]}},{"properties":{"city":"Philadelphia","cross":"bainbridge st","name":"19th st","date":"10/20/2010","from":"bainbridge st","geo_score":0.531,"road":"19th st","to":"south st","avg daily bikes":182,"id":"a64mazaiovkt","geo_precision":"street","address":"19th st","record #":71607,"traffic direction":"south","state":"PA"},"type":"Feature","geometry":{"type":"Point","coordinates":[-75.171134,39.955394]}},{"properties":{"city":"Philadelphia","cross":"bainbridge st","name":"18th st","date":"11/30/2010","from":"bainbridge st","geo_score":0.531,"road":"18th st","to":"south st","avg daily bikes":148,"id":"a64maz828af0","geo_precision":"street","address":"18th st","record #":71610,"traffic direction":"north","state":"PA"},"type":"Feature","geometry":{"type":"Point","coordinates":[-75.170007,39.953171]}},{"properties":{"city":"Philadelphia","cross":"bainbridge st","name":"17th st","date":"10/28/2010","from":"bainbridge st","geo_score":0.531,"road":"17th st","to":"south st","avg daily bikes":179,"id":"a64mazcj2tle","geo_precision":"street","address":"17th st","record #":71613,"traffic direction":"south","state":"PA"},"type":"Feature","geometry":{"type":"Point","coordinates":[-75.168767,39.951468]}},{"properties":{"city":"Philadelphia","cross":"bainbridge st","name":"16th st","date":"10/28/2010","from":"bainbridge st","geo_score":0.531,"road":"16th st","to":"south st","avg daily bikes":267,"id":"a64maz1mv5rz","geo_precision":"street","address":"16th st","record #":71616,"traffic direction":"north","state":"PA"},"type":"Feature","geometry":{"type":"Point","coordinates":[-75.167769,39.948605]}},{"properties":{"city":"Philadelphia","cross":"bainbridge st","name":"broad st northbound lanes","date":"11/10/2010","from":"bainbridge st","geo_score":0.714,"road":"broad st northbound lanes","to":"south st","avg daily bikes":381,"id":"a64maz9gfuon","geo_precision":"street","address":"broad st","record #":71622,"traffic direction":"both","state":"PA"},"type":"Feature","geometry":{"type":"Point","coordinates":[-75.16426,39.949737]}},{"properties":{"city":"Philadelphia","cross":"bainbridge st","name":"broad st southbound lanes","date":"11/30/2010","from":"bainbridge st","geo_score":0.714,"road":"broad st southbound lanes","to":"south st","avg daily bikes":200,"id":"a64maz2dvigb","geo_precision":"street","address":"broad st","record #":71623,"traffic direction":"both","state":"PA"},"type":"Feature","geometry":{"type":"Point","coordinates":[-75.16426,39.949737]}},{"properties":{"city":"Philadelphia","cross":"bainbridge st","name":"7th st","date":"11/10/2010","from":"bainbridge st","geo_score":0.5,"road":"7th st","to":"south st","avg daily bikes":200,"id":"a64maz4tspdv","geo_precision":"street","address":"7th st","record #":71681,"traffic direction":"north","state":"PA"},"type":"Feature","geometry":{"type":"Point","coordinates":[-75.151735,39.952073]}},{"properties":{"city":"Philadelphia","cross":"bainbridge st","name":"6th st","date":"11/10/2010","from":"bainbridge st","geo_score":0.5,"road":"6th st","to":"south st","avg daily bikes":234,"id":"a64mayxz9ii2","geo_precision":"street","address":"6th st","record #":71701,"traffic direction":"south","state":"PA"},"type":"Feature","geometry":{"type":"Point","coordinates":[-75.149926,39.952757]}},{"properties":{"city":"Philadelphia","cross":"south st","name":"22nd st","date":"10/20/2010","from":"south st","geo_score":0.531,"road":"22nd st","to":"bainbridge st","avg daily bikes":406,"id":"a64mayze51yn","geo_precision":"street","address":"22nd st","record #":71721,"traffic direction":"north","state":"PA"},"type":"Feature","geometry":{"type":"Point","coordinates":[-75.176234,39.956032]}},{"properties":{"city":"Philadelphia","cross":"bainbridge st","name":"13th st","date":"11/4/2010","from":"bainbridge st","geo_score":0.531,"road":"13th st","to":"south st","avg daily bikes":206,"id":"a64mazaunahx","geo_precision":"street","address":"13th st","record #":71626,"traffic direction":"north","state":"PA"},"type":"Feature","geometry":{"type":"Point","coordinates":[-75.162236,39.948504]}},{"properties":{"city":"Philadelphia","cross":"bainbridge st","name":"12th st","date":"11/3/2010","from":"bainbridge st","geo_score":0.531,"road":"12th st","to":"south st","avg daily bikes":48,"id":"a64maz2rtzz3","geo_precision":"street","address":"12th st","record #":71629,"traffic direction":"south","state":"PA"},"type":"Feature","geometry":{"type":"Point","coordinates":[-75.159331,39.954429]}},{"properties":{"city":"Philadelphia","cross":"bainbridge st","name":"grays ferry ave","date":"10/20/2010","from":"bainbridge st","geo_score":0.681,"road":"grays ferry ave","to":"south st","avg daily bikes":106,"id":"a64maz2hmuqs","geo_precision":"street","address":"Grays Ferry Av","record #":71597,"traffic direction":"south","state":"PA"},"type":"Feature","geometry":{"type":"Point","coordinates":[-75.211483,39.941218]}},{"properties":{"city":"Philadelphia","cross":"bainbridge st","name":"3rd st","date":"11/11/2010","from":"bainbridge st","geo_score":0.5,"road":"3rd st","to":"south st","avg daily bikes":254,"id":"a64maz26rhs0","geo_precision":"street","address":"3rd st","record #":71767,"traffic direction":"north","state":"PA"},"type":"Feature","geometry":{"type":"Point","coordinates":[-75.145864,39.949328]}},{"properties":{"city":"Philadelphia","cross":"south st","name":"2nd st","date":"11/11/2010","from":"south st","geo_score":0.5,"road":"2nd st","to":"bainbridge st","avg daily bikes":130,"id":"a64maz0fw6t5","geo_precision":"street","address":"2nd st","record #":71770,"traffic direction":"south","state":"PA"},"type":"Feature","geometry":{"type":"Point","coordinates":[-75.143737,39.949933]}},{"properties":{"city":"Philadelphia","cross":"south st","name":"11th st","date":"11/4/2010","from":"south st","geo_score":0.531,"road":"11th st","to":"bainbridge st","avg daily bikes":235,"id":"a64maz6m8rst","geo_precision":"street","address":"11th st","record #":71632,"traffic direction":"north","state":"PA"},"type":"Feature","geometry":{"type":"Point","coordinates":[-75.158306,39.951713]}},{"properties":{"city":"Philadelphia","cross":"bainbridge st","name":"10th st","date":"11/4/2010","from":"bainbridge st","geo_score":0.531,"road":"10th st","to":"south st","avg daily bikes":309,"id":"a64maz7lfyer","geo_precision":"street","address":"10th st","record #":71635,"traffic direction":"south","state":"PA"},"type":"Feature","geometry":{"type":"Point","coordinates":[-75.156735,39.95153]}},{"properties":{"city":"Philadelphia","cross":"bainbridge st","name":"9th st","date":"11/10/2010","from":"bainbridge st","geo_score":0.5,"road":"9th st","to":"south st","avg daily bikes":6,"id":"a64maz0y7ba0","geo_precision":"street","address":"9th st","record #":71638,"traffic direction":"north","state":"PA"},"type":"Feature","geometry":{"type":"Point","coordinates":[-75.155158,39.951325]}},{"properties":{"city":"Philadelphia","cross":"bainbridge st","name":"taney st","date":"10/13/2010","from":"bainbridge st","geo_score":0.661,"road":"taney st","to":"south st","avg daily bikes":5,"id":"a64maz3eoemg","geo_precision":"street","address":"taney st","record #":71588,"traffic direction":"south","state":"PA"},"type":"Feature","geometry":{"type":"Point","coordinates":[-75.183456,39.94692]}},{"properties":{"city":"Philadelphia","cross":"bainbridge st","name":"26th st","date":"10/13/2010","from":"bainbridge st","geo_score":0.531,"road":"26th st","to":"south st","avg daily bikes":7,"id":"a64mazd6hdld","geo_precision":"street","address":"26th st","record #":71591,"traffic direction":"north","state":"PA"},"type":"Feature","geometry":{"type":"Point","coordinates":[-75.182514,39.948104]}},{"properties":{"city":"Philadelphia","cross":"bainbridge st","name":"24th st","date":"10/13/2010","from":"bainbridge st","geo_score":0.531,"road":"24th st","to":"south st","avg daily bikes":79,"id":"a64maz1hdibn","geo_precision":"street","address":"24th st","record #":71594,"traffic direction":"south","state":"PA"},"type":"Feature","geometry":{"type":"Point","coordinates":[-75.178325,39.959935]}},{"properties":{"city":"Philadelphia","cross":"john f kennedy blvd","name":"22nd st","date":"2/12/2011","from":"pa 3 john f kennedy blvd","geo_score":0.531,"road":"22nd st","to":"pa 3 market st","avg daily bikes":232,"id":"a64mazb3n81s","geo_precision":"street","address":"22nd st","record #":71348,"traffic direction":"north","state":"PA"},"type":"Feature","geometry":{"type":"Point","coordinates":[-75.176234,39.956032]}}],"is_temporal":false,"author":{"url":"","metadata":"","contact_name":"","contact_address":"","source":"","contact_phone":""},"source":"","pagination":{"sort":null,"start":0,"total":139,"limit":1000000},"state":"complete","tags":"","published":"2014-08-13T03:26:07-04:00","id":114328}