{"type":"FeatureCollection","data_type":"Dataset","url_type":null,"permissions":[{"permissions":{"download":true,"view":true},"group_id":"everyone"}],"classification":null,"title":"DVRPC Bicycle Counts","count":139,"stream_id":114394,"contributor":{"url":"http://geocommons.com/users/22029","name":"johnboyle"},"data_attributes":null,"calculation_params":null,"icon_link":null,"link":"http://geocommons.com/overlays/114394.json","extent":[-75.2101,39.9187,-75.1441,40.0092],"geometry_types":["point"],"unique_name":null,"name":"DVRPC Bicycle Counts","feature_count":139,"description":"Automatic Bicycle Counts. The counts are averaged over a one week period.","next_feature":null,"is_raster":false,"short_classification":"Y","stats":{"latitude":{"max":40.0092,"mean":39.9556249424461,"variance":0.000132645025141595,"stdev":0.0115171622000211,"min":39.91872,"median":39.954},"desc":{"max":644,"mean":176.014388489209,"variance":19259.6084871233,"stdev":138.778991519334,"min":1,"median":153},"longitude":{"max":-75.144109,"mean":-75.1689893956835,"variance":0.000187070275516193,"stdev":0.0136773636171666,"min":-75.210049,"median":-75.165609},"record #":{"max":73582,"mean":71758.5395683453,"variance":676811.409654885,"stdev":822.685486473953,"min":70605,"median":71597}},"features":[{"properties":{"city":"Philadelphia","name":"22nd st","latitude":39.954,"from":"market st","date":"10/27/2010","road":"22nd st","to":"chestnut st","desc":361,"longitude":-75.176659,"id":"a623abqbl9uq","address":"22nd st and market st","record #":71349,"state":"PA","traffic direction":"north"},"type":"Feature","geometry":{"type":"Point","coordinates":[-75.176659,39.954]}},{"properties":{"city":"Philadelphia","name":"arch st","latitude":39.95355,"from":"10th st","date":"10/21/2010","road":"arch st","to":"11th st","desc":72,"longitude":-75.156279,"id":"a623absfd7db","address":"arch st and 10th st","record #":71351,"state":"PA","traffic direction":"north"},"type":"Feature","geometry":{"type":"Point","coordinates":[-75.156279,39.95355]}},{"properties":{"city":"Philadelphia","name":"ben franklin pkwy inner la northbound","latitude":39.95909,"from":"22nd st","date":"11/3/2010","road":"ben franklin pkwy inner la northbound","to":"eakins oval","desc":59,"longitude":-75.175574,"id":"a623abwuamhy","address":"ben franklin pkwy and 22nd st","record #":71353,"state":"PA","traffic direction":"both"},"type":"Feature","geometry":{"type":"Point","coordinates":[-75.175574,39.95909]}},{"properties":{"city":"Philadelphia","name":"ben franklin pkwy outer la northbound","latitude":39.95909,"from":"22nd st","date":"11/3/2010","road":"ben franklin pkwy outer la northbound","to":"eakins oval","desc":47,"longitude":-75.175574,"id":"a623abtst05n","address":"ben franklin pkwy and 22nd st","record #":71354,"state":"PA","traffic direction":"both"},"type":"Feature","geometry":{"type":"Point","coordinates":[-75.175574,39.95909]}},{"properties":{"city":"Philadelphia","name":"broad st southbound lanes","latitude":39.95011,"from":"sansom st","date":"10/21/2010","road":"broad st southbound lanes","to":"chestnut st","desc":88,"longitude":-75.164079,"id":"a623abr33i4a","address":"broad st and sansom st","record #":71358,"state":"PA","traffic direction":"both"},"type":"Feature","geometry":{"type":"Point","coordinates":[-75.164079,39.95011]}},{"properties":{"city":"Philadelphia","name":"broad st northbound lanes","latitude":39.95623,"from":"race st","date":"10/7/2010","road":"broad st northbound lanes","to":"vine st","desc":213,"longitude":-75.162769,"id":"a623abxxlsme","address":"broad st and race st","record #":71359,"state":"PA","traffic direction":"both"},"type":"Feature","geometry":{"type":"Point","coordinates":[-75.162769,39.95623]}},{"properties":{"city":"Philadelphia","name":"chestnut st bridge","latitude":39.95309,"from":"schuylkill ave","date":"10/27/2010","road":"chestnut st bridge","to":"23rd st","desc":340,"longitude":-75.181839,"id":"a623abteyze7","address":"chestnut st  and schuylkill ave","record #":71362,"state":"PA","traffic direction":"east"},"type":"Feature","geometry":{"type":"Point","coordinates":[-75.181839,39.95309]}},{"properties":{"city":"Philadelphia","name":"market st eastbound lanes","latitude":39.95174,"from":"11th st","date":"9/30/2010","road":"market st eastbound lanes","to":"10th st","desc":129,"longitude":-75.158269,"id":"a623abrz7czf","address":"market st and 11th st","record #":71365,"state":"PA","traffic direction":"both"},"type":"Feature","geometry":{"type":"Point","coordinates":[-75.158269,39.95174]}},{"properties":{"city":"Philadelphia","name":"market st westbound lanes","latitude":39.95174,"from":"11th st","date":"9/30/2010","road":"market st westbound lanes","to":"10th st","desc":44,"longitude":-75.158269,"id":"a623abltlhh3","address":"market st and 11th st","record #":71366,"state":"PA","traffic direction":"both"},"type":"Feature","geometry":{"type":"Point","coordinates":[-75.158269,39.95174]}},{"properties":{"city":"Philadelphia","name":"broad st southbound lanes","latitude":39.95623,"from":"race st","date":"10/7/2010","road":"broad st southbound lanes","to":"vine st","desc":218,"longitude":-75.162769,"id":"a623abmvylot","address":"broad st and race st","record #":71360,"state":"PA","traffic direction":"both"},"type":"Feature","geometry":{"type":"Point","coordinates":[-75.162769,39.95623]}},{"properties":{"city":"Philadelphia","name":"2nd st","latitude":39.952271,"from":"spring garden st","date":"10/14/2010","road":"2nd st","to":"noble st","desc":38,"longitude":-75.162369,"id":"a623ablwgmvz","address":"2nd st and spring garden st","record #":71281,"state":"PA","traffic direction":"south"},"type":"Feature","geometry":{"type":"Point","coordinates":[-75.162369,39.952271]}},{"properties":{"city":"Philadelphia","name":"8th st","latitude":39.95115,"from":"market st","date":"10/21/2010","road":"8th st","to":"chestnut st","desc":98,"longitude":-75.153559,"id":"a623abr9rkrd","address":"8th st and market st","record #":71285,"state":"PA","traffic direction":"south"},"type":"Feature","geometry":{"type":"Point","coordinates":[-75.153559,39.95115]}},{"properties":{"city":"Philadelphia","name":"11th st","latitude":39.95375,"from":"arch st","date":"10/7/2010","road":"11th st","to":"market st","desc":188,"longitude":-75.157839,"id":"a623abufydnl","address":"11th st and arch st","record #":71289,"state":"PA","traffic direction":"north"},"type":"Feature","geometry":{"type":"Point","coordinates":[-75.157839,39.95375]}},{"properties":{"city":"Philadelphia","name":"18th st","latitude":39.96017,"from":"pine st","date":"10/21/2010","road":"18th st","to":"spruce st","desc":225,"longitude":-75.168484,"id":"a623abvfjqhw","address":"18th st and pine st","record #":71345,"state":"PA","traffic direction":"north"},"type":"Feature","geometry":{"type":"Point","coordinates":[-75.168484,39.96017]}},{"properties":{"city":"Philadelphia","name":"martin luther king jr dr westbound lanes","latitude":39.99617,"from":"strawberry mansion bridge","date":"12/8/2010","road":"martin luther king jr dr westbound lanes","to":"falls bridge","desc":15,"longitude":-75.195849,"id":"a623abjn86lk","address":"martin luther king jr dr and strawberry mansion bridge","record #":72294,"state":"PA","traffic direction":"both"},"type":"Feature","geometry":{"type":"Point","coordinates":[-75.195849,39.99617]}},{"properties":{"city":"Philadelphia","name":"schuylkill river trail","latitude":39.952271,"from":"strawberry mansion bridge","date":"12/16/2010","road":"schuylkill river trail","to":"falls bridge","desc":32,"longitude":-75.162369,"id":"a623abpbybw6","address":"schuylkill river trail and strawberry mansion bridge","record #":72295,"state":"PA","traffic direction":"both"},"type":"Feature","geometry":{"type":"Point","coordinates":[-75.162369,39.952271]}},{"properties":{"city":"Philadelphia","name":"martin luther king jr dr eastbound lanes","latitude":39.98653,"from":"montgomery dr","date":"3/29/2011","road":"martin luther king jr dr eastbound lanes","to":"strawberry mansion bridge","desc":9,"longitude":-75.205109,"id":"a623abktd1wn","address":"martin luther king jr dr and montgomery dr","record #":72296,"state":"PA","traffic direction":"both"},"type":"Feature","geometry":{"type":"Point","coordinates":[-75.205109,39.98653]}},{"properties":{"city":"Philadelphia","name":"martin luther king jr dr eastbound lanes","latitude":39.9827,"from":"black rd","date":"12/8/2010","road":"martin luther king jr dr eastbound lanes","to":"montgomery dr","desc":9,"longitude":-75.206209,"id":"a623absujigp","address":"martin luther king jr dr and black rd","record #":72299,"state":"PA","traffic direction":"both"},"type":"Feature","geometry":{"type":"Point","coordinates":[-75.206209,39.9827]}},{"properties":{"city":"Philadelphia","name":"schuylkill river trail","latitude":39.958032,"from":"us 30 girard ave","date":"12/16/2010","road":"schuylkill river trail","to":"sweetbriar dr","desc":38,"longitude":-75.164486,"id":"a623abmwjid5","address":"schuylkill river trail and us 30 girard ave","record #":72307,"state":"PA","traffic direction":"both"},"type":"Feature","geometry":{"type":"Point","coordinates":[-75.164486,39.958032]}},{"properties":{"city":"Philadelphia","name":"schuylkill river trail (kelly dr side)","latitude":40.0092,"from":"falls bridge","date":"12/15/2010","road":"schuylkill river trail (kelly dr side)","to":"us 30 girard ave","desc":140,"longitude":-75.196869,"id":"a623abszeuuz","address":"Kelly Drive and Calumet St","record #":72308,"state":"PA","traffic direction":"both"},"type":"Feature","geometry":{"type":"Point","coordinates":[-75.196869,40.0092]}},{"properties":{"city":"Philadelphia","name":"schuylkill river trail","latitude":39.98653,"from":"phila water works dam","date":"12/15/2010","road":"schuylkill river trail","to":"schuylkill river crossing","desc":31,"longitude":-75.205109,"id":"a623aboqnjyw","address":"Martin Luther King Dr and Montgomery dr","record #":72309,"state":"PA","traffic direction":"both"},"type":"Feature","geometry":{"type":"Point","coordinates":[-75.205109,39.98653]}},{"properties":{"city":"Philadelphia","name":"schuylkill river trail","latitude":39.98653,"from":"montgomery dr","date":"12/16/2010","road":"schuylkill river trail","to":"strawberry mansion bridge","desc":31,"longitude":-75.205109,"id":"a623absjmnt5","address":"Martin Luther King Dr and Montgomery dr","record #":72298,"state":"PA","traffic direction":"both"},"type":"Feature","geometry":{"type":"Point","coordinates":[-75.205109,39.98653]}},{"properties":{"city":"Philadelphia","name":"martin luther king jr dr eastbound lanes","latitude":39.99617,"from":"strawberry mansion bridge","date":"12/8/2010","road":"martin luther king jr dr eastbound lanes","to":"falls bridge","desc":8,"longitude":-75.195849,"id":"a623abya2d6f","address":"martin luther king jr dr eastbound lanes and strawberry mansion bridge","record #":72293,"state":"PA","traffic direction":"both"},"type":"Feature","geometry":{"type":"Point","coordinates":[-75.195849,39.99617]}},{"properties":{"city":"Philadelphia","name":"schuylkill river trail","latitude":39.952271,"from":"black rd","date":"12/16/2010","road":"schuylkill river trail","to":"montgomery dr","desc":41,"longitude":-75.162369,"id":"a623abr1lifz","address":"schuylkill river trail and black rd","record #":72301,"state":"PA","traffic direction":"both"},"type":"Feature","geometry":{"type":"Point","coordinates":[-75.162369,39.952271]}},{"properties":{"city":"Philadelphia","name":"martin luther king jr dr westbound lanes","latitude":39.9827,"from":"black rd","date":"12/8/2010","road":"martin luther king jr dr westbound lanes","to":"montgomery dr","desc":13,"longitude":-75.206209,"id":"a623aboztzkd","address":"martin luther king jr dr and black rd","record #":72300,"state":"PA","traffic direction":"both"},"type":"Feature","geometry":{"type":"Point","coordinates":[-75.206209,39.9827]}},{"properties":{"city":"Philadelphia","name":"spring garden st bridge eastbound lanes","latitude":39.96337,"from":"31st st","date":"10/7/2010","road":"spring garden st bridge eastbound lanes","to":"aquarium dr","desc":292,"longitude":-75.187409,"id":"a623abkd9ky5","address":"spring garden st and 31st st","record #":71544,"state":"PA","traffic direction":"both"},"type":"Feature","geometry":{"type":"Point","coordinates":[-75.187409,39.96337]}},{"properties":{"city":"Philadelphia","name":"spring garden st bridge westbound lanes","latitude":39.96337,"from":"31st st","date":"10/7/2010","road":"spring garden st bridge westbound lanes","to":"aquarium dr","desc":265,"longitude":-75.187409,"id":"a623abp83l3s","address":"spring garden st and 31st st","record #":71545,"state":"PA","traffic direction":"both"},"type":"Feature","geometry":{"type":"Point","coordinates":[-75.187409,39.96337]}},{"properties":{"city":"Philadelphia","name":"spruce st","latitude":39.9472,"from":"15th st","date":"9/30/2010","road":"spruce st","to":"pa 291 broad st","desc":360,"longitude":-75.166489,"id":"a623abt3m599","address":"Spruce st and 15th st","record #":71546,"state":"PA","traffic direction":"west"},"type":"Feature","geometry":{"type":"Point","coordinates":[-75.166489,39.9472]}},{"properties":{"city":"Philadelphia","name":"snyder ave","latitude":39.9225,"from":"5th st","date":"9/30/2010","road":"snyder ave","to":"4th st","desc":94,"longitude":-75.155089,"id":"a623abvqpxu3","address":"Snyder ave and 5th st","record #":71547,"state":"PA","traffic direction":"both"},"type":"Feature","geometry":{"type":"Point","coordinates":[-75.155089,39.9225]}},{"properties":{"city":"Philadelphia","name":"vine st eastbound","latitude":39.95791,"from":"15th st","date":"10/14/2010","road":"vine st eastbound","to":"pa 611 broad st","desc":113,"longitude":-75.164169,"id":"a623abri2lih","address":"Vine St and 15th st","record #":71548,"state":"PA","traffic direction":"both"},"type":"Feature","geometry":{"type":"Point","coordinates":[-75.164169,39.95791]}},{"properties":{"city":"Philadelphia","name":"vine st westbound","latitude":39.95791,"from":"15th st","date":"10/14/2010","road":"vine st westbound","to":"pa 611 broad st","desc":25,"longitude":-75.164169,"id":"a623abuq6ac4","address":"Vine St and 15th st","record #":71549,"state":"PA","traffic direction":"both"},"type":"Feature","geometry":{"type":"Point","coordinates":[-75.164169,39.95791]}},{"properties":{"city":"Philadelphia","name":"market st bridge eastbound lanes","latitude":39.95457,"from":"schuylkill ave","date":"10/27/2010","road":"market st bridge eastbound lanes","to":"23rd st","desc":95,"longitude":-75.181279,"id":"a623abvrtpzb","address":"Market St and Schuylkill ave","record #":71367,"state":"PA","traffic direction":"both"},"type":"Feature","geometry":{"type":"Point","coordinates":[-75.181279,39.95457]}},{"properties":{"city":"Philadelphia","name":"market st bridge westbound lanes","latitude":39.95457,"from":"schuylkill ave","date":"10/27/2010","road":"market st bridge westbound lanes","to":"23rd st","desc":72,"longitude":-75.181279,"id":"a623abpmjfbq","address":"Market St Bridge and Schuylkill ave","record #":71368,"state":"PA","traffic direction":"both"},"type":"Feature","geometry":{"type":"Point","coordinates":[-75.181279,39.95457]}},{"properties":{"city":"Philadelphia","name":"pine st","latitude":39.94533,"from":"13th st","date":"9/30/2010","road":"pine st","to":"12th st","desc":404,"longitude":-75.162919,"id":"a623abs15ai8","address":"pine st and 13th st","record #":71369,"state":"PA","traffic direction":"east"},"type":"Feature","geometry":{"type":"Point","coordinates":[-75.162919,39.94533]}},{"properties":{"city":"Philadelphia","name":"walnut st","latitude":39.95015,"from":"18th st","date":"1/14/2011","road":"walnut st","to":"17th st","desc":134,"longitude":-75.170659,"id":"a623abn1d9f9","address":"Walnut St and 18th st","record #":73544,"state":"PA","traffic direction":"west"},"type":"Feature","geometry":{"type":"Point","coordinates":[-75.170659,39.95015]}},{"properties":{"city":"Philadelphia","name":"3rd st","latitude":39.95019,"from":"market st","date":"1/14/2011","road":"3rd st","to":"arch st","desc":137,"longitude":-75.145689,"id":"a623ablqbwxy","address":"3rd st and market st","record #":73545,"state":"PA","traffic direction":"north"},"type":"Feature","geometry":{"type":"Point","coordinates":[-75.145689,39.95019]}},{"properties":{"city":"Philadelphia","name":"16th st","latitude":39.9538,"from":"john f kennedy blvd","date":"1/15/2011","road":"16th st","to":"arch st","desc":98,"longitude":-75.166569,"id":"a623absp9s2l","address":"16th st and john f kennedy blvd","record #":73548,"state":"PA","traffic direction":"north"},"type":"Feature","geometry":{"type":"Point","coordinates":[-75.166569,39.9538]}},{"properties":{"city":"Philadelphia","name":"17th st","latitude":39.96001,"from":"pine st","date":"1/14/2011","road":"17th st","to":"spruce st","desc":184,"longitude":-75.166919,"id":"a623abizkkoj","address":"17th st and pine st","record #":73550,"state":"PA","traffic direction":"south"},"type":"Feature","geometry":{"type":"Point","coordinates":[-75.166919,39.96001]}},{"properties":{"city":"Philadelphia","name":"walnut st","latitude":39.94934,"from":"pa 291 broad st","date":"9/30/2010","road":"walnut st","to":"juniper st","desc":183,"longitude":-75.164249,"id":"a623abiz9bh3","address":"Walnut St and broad st","record #":71561,"state":"PA","traffic direction":"west"},"type":"Feature","geometry":{"type":"Point","coordinates":[-75.164249,39.94934]}},{"properties":{"city":"Philadelphia","name":"spring garden st eastbound lanes","latitude":39.96343,"from":"19th st","date":"1/15/2011","road":"spring garden st eastbound lanes","to":"18th st","desc":100,"longitude":-75.169389,"id":"a623abw1gc2u","address":"Spring Garden St and 19th st","record #":71542,"state":"PA","traffic direction":"both"},"type":"Feature","geometry":{"type":"Point","coordinates":[-75.169389,39.96343]}},{"properties":{"city":"Philadelphia","name":"spring garden st westbound lanes","latitude":39.96343,"from":"19th st","date":"10/14/2010","road":"spring garden st westbound lanes","to":"18th st","desc":215,"longitude":-75.169389,"id":"a623abyp2g5u","address":"spring garden st and 19th st","record #":71543,"state":"PA","traffic direction":"both"},"type":"Feature","geometry":{"type":"Point","coordinates":[-75.169389,39.96343]}},{"properties":{"city":"Philadelphia","name":"13th st","latitude":39.95906,"from":"south st","date":"1/14/2011","road":"13th st","to":"lombard st","desc":40,"longitude":-75.159934,"id":"a623abxu0po0","address":"13th st and south st","record #":73555,"state":"PA","traffic direction":"north"},"type":"Feature","geometry":{"type":"Point","coordinates":[-75.159934,39.95906]}},{"properties":{"city":"Philadelphia","name":"spruce st","latitude":39.94675,"from":"13th st","date":"1/14/2011","road":"spruce st","to":"12th st","desc":284,"longitude":-75.162609,"id":"a623abj7os5u","address":"Spruce st and 13th st","record #":73561,"state":"PA","traffic direction":"west"},"type":"Feature","geometry":{"type":"Point","coordinates":[-75.162609,39.94675]}},{"properties":{"city":"Philadelphia","name":"christopher columbus blvd northbound lanes","latitude":39.952271,"from":"kenilworth st","date":"Null","road":"christopher columbus blvd northbound lanes","to":"I 95 delaware expwy nb on ramp","desc":100,"longitude":-75.162369,"id":"a623abs8zyd7","address":"Columbus Blvd and kenilworth st","record #":71776,"state":"PA","traffic direction":"both"},"type":"Feature","geometry":{"type":"Point","coordinates":[-75.162369,39.952271]}},{"properties":{"city":"Philadelphia","name":"christopher columbus blvd southbound lanes","latitude":39.952271,"from":"kenilworth st","date":"Null","road":"christopher columbus blvd southbound lanes","to":"I 95 delaware expwy nb on ramp","desc":44,"longitude":-75.162369,"id":"a623abtca0zq","address":"Columbus Blvd and kenilworth st","record #":71777,"state":"PA","traffic direction":"both"},"type":"Feature","geometry":{"type":"Point","coordinates":[-75.162369,39.952271]}},{"properties":{"city":"Philadelphia","name":"13th st","latitude":39.9593,"from":"callowhill st","date":"Null","road":"13th st","to":"noble st","desc":74,"longitude":-75.159889,"id":"a623abppqd0k","address":"13th st and callowhill st","record #":71829,"state":"PA","traffic direction":"north"},"type":"Feature","geometry":{"type":"Point","coordinates":[-75.159889,39.9593]}},{"properties":{"city":"Philadelphia","name":"15th st","latitude":39.9596,"from":"hamilton st","date":"Null","road":"15th st","to":"callowhill st","desc":104,"longitude":-75.163764,"id":"a623abmq8sav","address":"15th st and hamilton st","record #":71836,"state":"PA","traffic direction":"south"},"type":"Feature","geometry":{"type":"Point","coordinates":[-75.163764,39.9596]}},{"properties":{"city":"Philadelphia","name":"16th st","latitude":39.959795,"from":"callowhill st","date":"Null","road":"16th st","to":"hamilton st","desc":76,"longitude":-75.165349,"id":"a623abwfvocc","address":"16th st and callowhill st","record #":71839,"state":"PA","traffic direction":"north"},"type":"Feature","geometry":{"type":"Point","coordinates":[-75.165349,39.959795]}},{"properties":{"city":"Philadelphia","name":"3rd st","latitude":39.95744,"from":"callowhill st","date":"Null","road":"3rd st","to":"willow st","desc":124,"longitude":-75.144109,"id":"a623abm87iqu","address":"3rd st and callowhill st","record #":71780,"state":"PA","traffic direction":"north"},"type":"Feature","geometry":{"type":"Point","coordinates":[-75.144109,39.95744]}},{"properties":{"city":"Philadelphia","name":"4th st","latitude":39.95763,"from":"callowhill st","date":"Null","road":"4th st","to":"willow st","desc":86,"longitude":-75.145679,"id":"a623abmuti35","address":"4th st and callowhill st","record #":71783,"state":"PA","traffic direction":"south"},"type":"Feature","geometry":{"type":"Point","coordinates":[-75.145679,39.95763]}},{"properties":{"city":"Philadelphia","name":"5th st","latitude":39.95779,"from":"callowhill st","date":"Null","road":"5th st","to":"willow st","desc":127,"longitude":-75.147229,"id":"a623abx7xx7p","address":"5th st and callowhill st","record #":71786,"state":"PA","traffic direction":"north"},"type":"Feature","geometry":{"type":"Point","coordinates":[-75.147229,39.95779]}},{"properties":{"city":"Philadelphia","name":"6th st","latitude":39.958,"from":"callowhill st","date":"Null","road":"6th st","to":"willow st","desc":103,"longitude":-75.148819,"id":"a623abo1lpit","address":"6th st and callowhill st","record #":71789,"state":"PA","traffic direction":"south"},"type":"Feature","geometry":{"type":"Point","coordinates":[-75.148819,39.958]}},{"properties":{"city":"Philadelphia","name":"7th st","latitude":39.952271,"from":"callowhill st","date":"Null","road":"7th st","to":"willow st","desc":106,"longitude":-75.162369,"id":"a623abm7duo2","address":"7th st and callowhill st","record #":71792,"state":"PA","traffic direction":"north"},"type":"Feature","geometry":{"type":"Point","coordinates":[-75.162369,39.952271]}},{"properties":{"city":"Philadelphia","name":"8th st","latitude":39.952271,"from":"willow st","date":"Null","road":"8th st","to":"callowhill st","desc":52,"longitude":-75.162369,"id":"a623abohsztw","address":"8th st and willow st","record #":71795,"state":"PA","traffic direction":"south"},"type":"Feature","geometry":{"type":"Point","coordinates":[-75.162369,39.952271]}},{"properties":{"city":"Philadelphia","name":"9th st","latitude":39.95854,"from":"callowhill st","date":"Null","road":"9th st","to":"willow st","desc":18,"longitude":-75.153589,"id":"a623abkb0cp0","address":"9th st and callowhill st","record #":71798,"state":"PA","traffic direction":"north"},"type":"Feature","geometry":{"type":"Point","coordinates":[-75.153589,39.95854]}},{"properties":{"city":"Philadelphia","name":"ridge ave","latitude":39.95967,"from":"noble st","date":"Null","road":"ridge ave","to":"callowhill st","desc":20,"longitude":-75.155789,"id":"a623abkis9fp","address":"ridge ave and noble st","record #":71801,"state":"PA","traffic direction":"both"},"type":"Feature","geometry":{"type":"Point","coordinates":[-75.155789,39.95967]}},{"properties":{"city":"Philadelphia","name":"ridge ave","latitude":39.95967,"from":"noble st","date":"Null","road":"ridge ave","to":"callowhill st","desc":56,"longitude":-75.155789,"id":"a623abrn3f0p","address":"ridge ave and noble st","record #":71802,"state":"PA","traffic direction":"both"},"type":"Feature","geometry":{"type":"Point","coordinates":[-75.155789,39.95967]}},{"properties":{"city":"Philadelphia","name":"walnut st","latitude":39.95503,"from":"44th st","date":"Null","road":"walnut st","to":"43rd st","desc":182,"longitude":-75.210049,"id":"a623abpbeqkt","address":"walnut st and 44th st","record #":73582,"state":"PA","traffic direction":"west"},"type":"Feature","geometry":{"type":"Point","coordinates":[-75.210049,39.95503]}},{"properties":{"city":"Philadelphia","name":"chestnut st","latitude":39.95107,"from":"15th st","date":"Null","road":"chestnut st","to":"pa 291 broad st","desc":271,"longitude":-75.165609,"id":"a623abre13y9","address":"chestnut st and 15th st","record #":73541,"state":"PA","traffic direction":"east"},"type":"Feature","geometry":{"type":"Point","coordinates":[-75.165609,39.95107]}},{"properties":{"city":"Philadelphia","name":"broad st northbound lanes","latitude":39.95808,"from":"vine st","date":"Null","road":"broad st northbound lanes","to":"callowhill st","desc":137,"longitude":-75.162359,"id":"a623abswss7u","address":"broad st  and vine st","record #":73542,"state":"PA","traffic direction":"both"},"type":"Feature","geometry":{"type":"Point","coordinates":[-75.162359,39.95808]}},{"properties":{"city":"Philadelphia","name":"10th st","latitude":39.95539,"from":"race st","date":"Null","road":"10th st","to":"arch st","desc":170,"longitude":-75.155889,"id":"a623abwqc8dt","address":"10th st and race st","record #":73551,"state":"PA","traffic direction":"south"},"type":"Feature","geometry":{"type":"Point","coordinates":[-75.155889,39.95539]}},{"properties":{"city":"Philadelphia","name":"18th st","latitude":39.95418,"from":"john f kennedy blvd","date":"Null","road":"18th st","to":"arch st","desc":163,"longitude":-75.169739,"id":"a623abptantm","address":"18th st and John F Kennedy Blvd","record #":73552,"state":"PA","traffic direction":"north"},"type":"Feature","geometry":{"type":"Point","coordinates":[-75.169739,39.95418]}},{"properties":{"city":"Philadelphia","name":"19th st","latitude":39.96035,"from":"chestnut st","date":"Null","road":"19th st","to":"sansom st","desc":198,"longitude":-75.170054,"id":"a623abw6uc81","address":"19th st and chestnut st","record #":73553,"state":"PA","traffic direction":"south"},"type":"Feature","geometry":{"type":"Point","coordinates":[-75.170054,39.96035]}},{"properties":{"city":"Philadelphia","name":"chestnut st bridge","latitude":39.95309,"from":"schuylkill ave","date":"Null","road":"chestnut st bridge","to":"23rd st","desc":379,"longitude":-75.181839,"id":"a623abjo7yye","address":"Chestnut St and schuylkill ave","record #":73557,"state":"PA","traffic direction":"east"},"type":"Feature","geometry":{"type":"Point","coordinates":[-75.181839,39.95309]}},{"properties":{"city":"Philadelphia","name":"south st bridge westbound lanes","latitude":39.94755,"from":"I 76 schuylkill expwy ramps","date":"Null","road":"south st bridge westbound lanes","to":"27th st","desc":1,"longitude":-75.187789,"id":"a623abwnpug4","address":"South St and I-76","record #":73559,"state":"PA","traffic direction":"both"},"type":"Feature","geometry":{"type":"Point","coordinates":[-75.187789,39.94755]}},{"properties":{"city":"Philadelphia","name":"wharton st","latitude":39.93537,"from":"20th st","date":"Null","road":"wharton st","to":"19th st","desc":12,"longitude":-75.177109,"id":"a623abqt3l6n","address":"Wharton St and 20th st","record #":73560,"state":"PA","traffic direction":"east"},"type":"Feature","geometry":{"type":"Point","coordinates":[-75.177109,39.93537]}},{"properties":{"city":"Philadelphia","name":"walnut st bridge","latitude":39.95165,"from":"schuylkill ave","date":"Null","road":"walnut st bridge","to":"23rd st","desc":459,"longitude":-75.182769,"id":"a623absmyadc","address":"walnut st and schuylkill ave","record #":73546,"state":"PA","traffic direction":"west"},"type":"Feature","geometry":{"type":"Point","coordinates":[-75.182769,39.95165]}},{"properties":{"city":"Philadelphia","name":"south st bridge eastbound lanes","latitude":39.96128,"from":"I 76 schuylkill expwy ramps","date":"Null","road":"south st bridge eastbound lanes","to":"27th st","desc":503,"longitude":-75.182439,"id":"a623ablkkmq5","address":"south st bridge and I-76","record #":73558,"state":"PA","traffic direction":"both"},"type":"Feature","geometry":{"type":"Point","coordinates":[-75.182439,39.96128]}},{"properties":{"city":"Philadelphia","name":"19th st","latitude":39.96035,"from":"spruce st","date":"Null","road":"19th st","to":"delancey pl","desc":298,"longitude":-75.170054,"id":"a623aboppjap","address":"19th st and spruce st","record #":73554,"state":"PA","traffic direction":"south"},"type":"Feature","geometry":{"type":"Point","coordinates":[-75.170054,39.96035]}},{"properties":{"city":"Philadelphia","name":"3rd st","latitude":39.95744,"from":"callowhill st","date":"9/2/2010","road":"3rd st","to":"willow st","desc":235,"longitude":-75.144109,"id":"a623abu4wu8i","address":"3rd st and callowhill st","record #":71282,"state":"PA","traffic direction":"north"},"type":"Feature","geometry":{"type":"Point","coordinates":[-75.144109,39.95744]}},{"properties":{"city":"Philadelphia","name":"3rd st","latitude":39.95019,"from":"market st","date":"9/2/2010","road":"3rd st","to":"arch st","desc":314,"longitude":-75.145689,"id":"a623abrpq2g0","address":"3rd st and market st","record #":71283,"state":"PA","traffic direction":"north"},"type":"Feature","geometry":{"type":"Point","coordinates":[-75.145689,39.95019]}},{"properties":{"city":"Philadelphia","name":"9th st","latitude":39.95135,"from":"market st","date":"9/2/2010","road":"9th st","to":"chestnut st","desc":196,"longitude":-75.155149,"id":"a623abwun7ou","address":"9th st and market st","record #":71286,"state":"PA","traffic direction":"north"},"type":"Feature","geometry":{"type":"Point","coordinates":[-75.155149,39.95135]}},{"properties":{"city":"Philadelphia","name":"10th st","latitude":39.95154,"from":"market st","date":"9/9/2010","road":"10th st","to":"chestnut st","desc":274,"longitude":-75.156709,"id":"a623abs7durm","address":"10th st and market st","record #":71287,"state":"PA","traffic direction":"south"},"type":"Feature","geometry":{"type":"Point","coordinates":[-75.156709,39.95154]}},{"properties":{"city":"Philadelphia","name":"10th st","latitude":39.95539,"from":"race st","date":"9/9/2010","road":"10th st","to":"arch st","desc":243,"longitude":-75.155889,"id":"a623ablo9qdh","address":"10th st and race st","record #":71288,"state":"PA","traffic direction":"south"},"type":"Feature","geometry":{"type":"Point","coordinates":[-75.155889,39.95539]}},{"properties":{"city":"Philadelphia","name":"15th st","latitude":39.9596,"from":"callowhill st","date":"9/9/2010","road":"15th st","to":"vine st","desc":118,"longitude":-75.163764,"id":"a623abxesfm9","address":"15th st and callowhill st","record #":71290,"state":"PA","traffic direction":"south"},"type":"Feature","geometry":{"type":"Point","coordinates":[-75.163764,39.9596]}},{"properties":{"city":"Philadelphia","name":"15th st","latitude":39.95555,"from":"cherry st","date":"9/16/2010","road":"15th st","to":"race st","desc":153,"longitude":-75.164659,"id":"a623abp7nasr","address":"15th st and cherry st","record #":71291,"state":"PA","traffic direction":"south"},"type":"Feature","geometry":{"type":"Point","coordinates":[-75.164659,39.95555]}},{"properties":{"city":"Philadelphia","name":"15th st","latitude":39.94955,"from":"walnut st","date":"9/16/2010","road":"15th st","to":"locust st","desc":282,"longitude":-75.165939,"id":"a623abo5xhyv","address":"15th st and walnut st","record #":71292,"state":"PA","traffic direction":"south"},"type":"Feature","geometry":{"type":"Point","coordinates":[-75.165939,39.94955]}},{"properties":{"city":"Philadelphia","name":"16th st","latitude":39.94975,"from":"walnut st","date":"9/16/2010","road":"16th st","to":"sansom st","desc":348,"longitude":-75.167539,"id":"a623abv95jek","address":"16th st and walnut st","record #":71293,"state":"PA","traffic direction":"north"},"type":"Feature","geometry":{"type":"Point","coordinates":[-75.167539,39.94975]}},{"properties":{"city":"Philadelphia","name":"16th st","latitude":39.95481,"from":"arch st","date":"9/16/2010","road":"16th st","to":"cherry st","desc":61,"longitude":-75.166359,"id":"a623abpbdjjp","address":"16th st and arch st","record #":71294,"state":"PA","traffic direction":"north"},"type":"Feature","geometry":{"type":"Point","coordinates":[-75.166359,39.95481]}},{"properties":{"city":"Philadelphia","name":"walnut st bridge","latitude":39.95165,"from":"schuylkill ave","date":"9/23/2010","road":"walnut st bridge","to":"23rd st","desc":551,"longitude":-75.182769,"id":"a623abu550wa","address":"walnut st and schuylkill ave","record #":71562,"state":"PA","traffic direction":"west"},"type":"Feature","geometry":{"type":"Point","coordinates":[-75.182769,39.95165]}},{"properties":{"city":"Philadelphia","name":"22nd st","latitude":39.95909,"from":"walnut st","date":"8/12/2010","road":"22nd st","to":"locust st","desc":473,"longitude":-75.175574,"id":"a623abm5to5b","address":"22nd st and walnut st","record #":70611,"state":"PA","traffic direction":"north"},"type":"Feature","geometry":{"type":"Point","coordinates":[-75.175574,39.95909]}},{"properties":{"city":"Philadelphia","name":"22nd st","latitude":39.95909,"from":"pine st","date":"8/12/2010","road":"22nd st","to":"lombard st","desc":403,"longitude":-75.175574,"id":"a623abpuhxhw","address":"22nd st and pine st","record #":70612,"state":"PA","traffic direction":"north"},"type":"Feature","geometry":{"type":"Point","coordinates":[-75.175574,39.95909]}},{"properties":{"city":"Philadelphia","name":"5th st","latitude":39.95258,"from":"arch st","date":"9/2/2010","road":"5th st","to":"race st","desc":236,"longitude":-75.148489,"id":"a623abmotodn","address":"5th st and arch st","record #":70613,"state":"PA","traffic direction":"north"},"type":"Feature","geometry":{"type":"Point","coordinates":[-75.148489,39.95258]}},{"properties":{"city":"Philadelphia","name":"6th st","latitude":39.95276,"from":"arch st","date":"9/2/2010","road":"6th st","to":"race st","desc":216,"longitude":-75.149929,"id":"a623abxukppl","address":"6th st and arch st","record #":70614,"state":"PA","traffic direction":"south"},"type":"Feature","geometry":{"type":"Point","coordinates":[-75.149929,39.95276]}},{"properties":{"city":"Philadelphia","name":"broad st northbound lanes","latitude":39.9482,"from":"locust st","date":"8/26/2010","road":"broad st northbound lanes","to":"walnut st","desc":313,"longitude":-75.164489,"id":"a623abkcuchg","address":"broad st and locust st","record #":70615,"state":"PA","traffic direction":"both"},"type":"Feature","geometry":{"type":"Point","coordinates":[-75.164489,39.9482]}},{"properties":{"city":"Philadelphia","name":"broad st southbound lanes","latitude":39.9482,"from":"locust st","date":"11/30/2010","road":"broad st southbound lanes","to":"walnut st","desc":138,"longitude":-75.164489,"id":"a623abta8bu2","address":"broad st and locust st","record #":70616,"state":"PA","traffic direction":"both"},"type":"Feature","geometry":{"type":"Point","coordinates":[-75.164489,39.9482]}},{"properties":{"city":"Philadelphia","name":"broad st northbound lanes","latitude":39.95808,"from":"vine st","date":"12/15/2010","road":"broad st northbound lanes","to":"callowhill st","desc":78,"longitude":-75.162359,"id":"a623aby1f1t8","address":"broad st and vine st","record #":70617,"state":"PA","traffic direction":"both"},"type":"Feature","geometry":{"type":"Point","coordinates":[-75.162359,39.95808]}},{"properties":{"city":"Philadelphia","name":"broad st southbound lanes","latitude":39.95808,"from":"vine st","date":"8/26/2010","road":"broad st southbound lanes","to":"callowhill st","desc":155,"longitude":-75.162359,"id":"a623abm0hfnm","address":"broad st and vine st","record #":70618,"state":"PA","traffic direction":"both"},"type":"Feature","geometry":{"type":"Point","coordinates":[-75.162359,39.95808]}},{"properties":{"city":"Philadelphia","name":"ben franklin pkwy inner la","latitude":39.959695,"from":"21st st","date":"8/26/2010","road":"ben franklin pkwy inner la","to":"22nd st","desc":182,"longitude":-75.173789,"id":"a623abinncj2","address":"ben franklin pkwy and 21st st","record #":70619,"state":"PA","traffic direction":"both"},"type":"Feature","geometry":{"type":"Point","coordinates":[-75.173789,39.959695]}},{"properties":{"city":"Philadelphia","name":"ben franklin pkwy inner la","latitude":39.959695,"from":"21st st","date":"8/26/2010","road":"ben franklin pkwy inner la","to":"22nd st","desc":109,"longitude":-75.173789,"id":"a623abjdaax7","address":"ben franklin pkwy and 21st st","record #":70620,"state":"PA","traffic direction":"both"},"type":"Feature","geometry":{"type":"Point","coordinates":[-75.173789,39.959695]}},{"properties":{"city":"Philadelphia","name":"walnut st","latitude":39.9511,"from":"23rd st","date":"9/23/2010","road":"walnut st","to":"22nd st","desc":644,"longitude":-75.178479,"id":"a623abo93sfb","address":"walnut st and 23rd st","record #":71550,"state":"PA","traffic direction":"west"},"type":"Feature","geometry":{"type":"Point","coordinates":[-75.178479,39.9511]}},{"properties":{"city":"Philadelphia","name":"walnut st","latitude":39.95015,"from":"18th st","date":"9/23/2010","road":"walnut st","to":"17th st","desc":270,"longitude":-75.170659,"id":"a623abjyzo4a","address":"walnut st and 18th st","record #":71551,"state":"PA","traffic direction":"west"},"type":"Feature","geometry":{"type":"Point","coordinates":[-75.170659,39.95015]}},{"properties":{"city":"Philadelphia","name":"walnut st","latitude":39.94995,"from":"17th st","date":"9/23/2010","road":"walnut st","to":"16th st","desc":233,"longitude":-75.169079,"id":"a623abrj8z42","address":"walnut st and 17th st","record #":71552,"state":"PA","traffic direction":"west"},"type":"Feature","geometry":{"type":"Point","coordinates":[-75.169079,39.94995]}},{"properties":{"city":"Philadelphia","name":"23rd st","latitude":39.91872,"from":"locust st","date":"8/12/2010","road":"23rd st","to":"walnut st","desc":403,"longitude":-75.186054,"id":"a623abmbr7tg","address":"23rd st and locust st","record #":70610,"state":"PA","traffic direction":"south"},"type":"Feature","geometry":{"type":"Point","coordinates":[-75.186054,39.91872]}},{"properties":{"city":"Philadelphia","name":"ben franklin pkwy outer la","latitude":39.959695,"from":"21st st","date":"8/26/2010","road":"ben franklin pkwy outer la","to":"22nd st","desc":34,"longitude":-75.173789,"id":"a623abr481eb","address":"ben franklin pkwy and 21st st","record #":70621,"state":"PA","traffic direction":"both"},"type":"Feature","geometry":{"type":"Point","coordinates":[-75.173789,39.959695]}},{"properties":{"city":"Philadelphia","name":"ben franklin pkwy outer la","latitude":39.959695,"from":"21st st","date":"8/26/2010","road":"ben franklin pkwy outer la","to":"22nd st","desc":85,"longitude":-75.173789,"id":"a623abqvruc0","address":"ben franklin pkwy and 21st st","record #":70622,"state":"PA","traffic direction":"both"},"type":"Feature","geometry":{"type":"Point","coordinates":[-75.173789,39.959695]}},{"properties":{"city":"Philadelphia","name":"15th st","latitude":39.9596,"from":"south st","date":"11/30/2010","road":"15th st","to":"bainbridge st","desc":156,"longitude":-75.163764,"id":"a623abqoej30","address":"15th st and south st","record #":71619,"state":"PA","traffic direction":"south"},"type":"Feature","geometry":{"type":"Point","coordinates":[-75.163764,39.9596]}},{"properties":{"city":"Philadelphia","name":"spruce st","latitude":39.94818,"from":"20th st","date":"8/12/2010","road":"spruce st","to":"19th st","desc":616,"longitude":-75.174319,"id":"a623abutw1ne","address":"spruce st and 20th st","record #":70605,"state":"PA","traffic direction":"west"},"type":"Feature","geometry":{"type":"Point","coordinates":[-75.174319,39.94818]}},{"properties":{"city":"Philadelphia","name":"spruce st","latitude":39.94613,"from":"10th st","date":"8/12/2010","road":"spruce st","to":"9th st","desc":498,"longitude":-75.157879,"id":"a623abyl5olr","address":"spruce st and 10th st","record #":70606,"state":"PA","traffic direction":"west"},"type":"Feature","geometry":{"type":"Point","coordinates":[-75.157879,39.94613]}},{"properties":{"city":"Philadelphia","name":"pine st","latitude":39.94674,"from":"20th st","date":"8/12/2010","road":"pine st","to":"19th st","desc":499,"longitude":-75.174629,"id":"a623abqs84cq","address":"pine st and 20th st","record #":70607,"state":"PA","traffic direction":"east"},"type":"Feature","geometry":{"type":"Point","coordinates":[-75.174629,39.94674]}},{"properties":{"city":"Philadelphia","name":"pine st","latitude":39.94471,"from":"10th st","date":"8/12/2010","road":"pine st","to":"9th st","desc":300,"longitude":-75.158199,"id":"a623abqv7swu","address":"pine st and 10th st","record #":70608,"state":"PA","traffic direction":"east"},"type":"Feature","geometry":{"type":"Point","coordinates":[-75.158199,39.94471]}},{"properties":{"city":"Philadelphia","name":"23rd st","latitude":39.94646,"from":"lombard st","date":"8/12/2010","road":"23rd st","to":"pine st","desc":255,"longitude":-75.179519,"id":"a623abtlvwpz","address":"23rd st and lombard st","record #":70609,"state":"PA","traffic direction":"south"},"type":"Feature","geometry":{"type":"Point","coordinates":[-75.179519,39.94646]}},{"properties":{"city":"Philadelphia","name":"18th st","latitude":39.96017,"from":"spruce st","date":"9/16/2010","road":"18th st","to":"walnut st","desc":288,"longitude":-75.168484,"id":"a623absd06ow","address":"18th st and spruce st","record #":71346,"state":"PA","traffic direction":"north"},"type":"Feature","geometry":{"type":"Point","coordinates":[-75.168484,39.96017]}},{"properties":{"city":"Philadelphia","name":"18th st","latitude":39.96017,"from":"walnut st","date":"9/16/2010","road":"18th st","to":"chestnut st","desc":201,"longitude":-75.168484,"id":"a623abybm6hd","address":"18th st and walnut st","record #":71347,"state":"PA","traffic direction":"north"},"type":"Feature","geometry":{"type":"Point","coordinates":[-75.168484,39.96017]}},{"properties":{"city":"Philadelphia","name":"arch st","latitude":39.95602,"from":"22nd st","date":"9/9/2010","road":"arch st","to":"21st st","desc":52,"longitude":-75.176219,"id":"a623abt4bb55","address":"arch st and 22nd st","record #":71352,"state":"PA","traffic direction":"west"},"type":"Feature","geometry":{"type":"Point","coordinates":[-75.176219,39.95602]}},{"properties":{"city":"Philadelphia","name":"broad st northbound lanes","latitude":39.95011,"from":"sansom st","date":"9/9/2010","road":"broad st northbound lanes","to":"chestnut st","desc":247,"longitude":-75.164079,"id":"a623abpcvvjj","address":"broad st and sansom st","record #":71357,"state":"PA","traffic direction":"both"},"type":"Feature","geometry":{"type":"Point","coordinates":[-75.164079,39.95011]}},{"properties":{"city":"Philadelphia","name":"market st eastbound lanes","latitude":39.95154,"from":"10th st","date":"9/23/2010","road":"market st eastbound lanes","to":"9th st","desc":121,"longitude":-75.156709,"id":"a623abjln60p","address":"market st and 10th st","record #":71363,"state":"PA","traffic direction":"both"},"type":"Feature","geometry":{"type":"Point","coordinates":[-75.156709,39.95154]}},{"properties":{"city":"Philadelphia","name":"market st westbound lanes","latitude":39.95154,"from":"10th st","date":"9/23/2010","road":"market st westbound lanes","to":"9th st","desc":62,"longitude":-75.156709,"id":"a623abuxdp0o","address":"market st and 10th st","record #":71364,"state":"PA","traffic direction":"both"},"type":"Feature","geometry":{"type":"Point","coordinates":[-75.156709,39.95154]}},{"properties":{"city":"Philadelphia","name":"sansom st","latitude":39.95089,"from":"18th st","date":"9/16/2010","road":"sansom st","to":"17th st","desc":245,"longitude":-75.170509,"id":"a623abijxu3j","address":"sansom st and 18th st","record #":71370,"state":"PA","traffic direction":"west"},"type":"Feature","geometry":{"type":"Point","coordinates":[-75.170509,39.95089]}},{"properties":{"city":"Philadelphia","name":"martin luther king jr dr eastbound lanes","latitude":39.97729,"from":"sweetbriar dr","date":"3/29/2011","road":"martin luther king jr dr eastbound lanes","to":"black rd","desc":12,"longitude":-75.198229,"id":"a623abqy16k4","address":"martin luther king jr dr and sweetbriar dr","record #":72302,"state":"PA","traffic direction":"both"},"type":"Feature","geometry":{"type":"Point","coordinates":[-75.198229,39.97729]}},{"properties":{"city":"Philadelphia","name":"martin luther king jr dr westbound lanes","latitude":39.97729,"from":"sweetbriar dr","date":"3/29/2011","road":"martin luther king jr dr westbound lanes","to":"black rd","desc":11,"longitude":-75.198229,"id":"a623abpwtv7r","address":"martin luther king jr dr and sweetbriar dr","record #":72303,"state":"PA","traffic direction":"both"},"type":"Feature","geometry":{"type":"Point","coordinates":[-75.198229,39.97729]}},{"properties":{"city":"Philadelphia","name":"martin luther king jr dr westbound lanes","latitude":39.958032,"from":"us 30 girard ave","date":"12/7/2010","road":"martin luther king jr dr westbound lanes","to":"sweetbriar dr","desc":5,"longitude":-75.164486,"id":"a623abwn3uqr","address":"martin luther king jr dr and us 30 girard ave","record #":72306,"state":"PA","traffic direction":"both"},"type":"Feature","geometry":{"type":"Point","coordinates":[-75.164486,39.958032]}},{"properties":{"city":"Philadelphia","name":"martin luther king jr dr eastbound lanes","latitude":39.958032,"from":"us 30 girard ave","date":"12/7/2010","road":"martin luther king jr dr eastbound lanes","to":"sweetbriar dr","desc":9,"longitude":-75.164486,"id":"a623abrmlesp","address":"martin luther king jr dr and us 30 girard ave","record #":72305,"state":"PA","traffic direction":"both"},"type":"Feature","geometry":{"type":"Point","coordinates":[-75.164486,39.958032]}},{"properties":{"city":"Philadelphia","name":"front st","latitude":39.952271,"from":"bainbridge st","date":"11/11/2010","road":"front st","to":"south st","desc":87,"longitude":-75.162369,"id":"a623abkgnuey","address":"front st and bainbridge st","record #":71773,"state":"PA","traffic direction":"north"},"type":"Feature","geometry":{"type":"Point","coordinates":[-75.162369,39.952271]}},{"properties":{"city":"Philadelphia","name":"5th st","latitude":39.952271,"from":"bainbridge st","date":"11/11/2010","road":"5th st","to":"south st","desc":164,"longitude":-75.162369,"id":"a623abtiys56","address":"5th st and bainbridge st","record #":71761,"state":"PA","traffic direction":"north"},"type":"Feature","geometry":{"type":"Point","coordinates":[-75.162369,39.952271]}},{"properties":{"city":"Philadelphia","name":"4th st","latitude":39.952271,"from":"bainbridge st","date":"11/11/2010","road":"4th st","to":"south st","desc":265,"longitude":-75.162369,"id":"a623abnglp3e","address":"4th st and bainbridge st","record #":71764,"state":"PA","traffic direction":"south"},"type":"Feature","geometry":{"type":"Point","coordinates":[-75.162369,39.952271]}},{"properties":{"city":"Philadelphia","name":"21st st","latitude":39.959695,"from":"south st","date":"10/20/2010","road":"21st st","to":"bainbridge st","desc":173,"longitude":-75.173789,"id":"a623aboktcy8","address":"21st st and south st","record #":71601,"state":"PA","traffic direction":"south"},"type":"Feature","geometry":{"type":"Point","coordinates":[-75.173789,39.959695]}},{"properties":{"city":"Philadelphia","name":"20th st","latitude":39.94395,"from":"bainbridge st","date":"10/20/2010","road":"20th st","to":"south st","desc":194,"longitude":-75.175239,"id":"a623abqfcik6","address":"20th st and bainbridge st","record #":71604,"state":"PA","traffic direction":"north"},"type":"Feature","geometry":{"type":"Point","coordinates":[-75.175239,39.94395]}},{"properties":{"city":"Philadelphia","name":"19th st","latitude":39.94377,"from":"bainbridge st","date":"10/20/2010","road":"19th st","to":"south st","desc":182,"longitude":-75.173659,"id":"a623abrst9c3","address":"19th st and bainbridge st","record #":71607,"state":"PA","traffic direction":"south"},"type":"Feature","geometry":{"type":"Point","coordinates":[-75.173659,39.94377]}},{"properties":{"city":"Philadelphia","name":"18th st","latitude":39.94357,"from":"bainbridge st","date":"11/30/2010","road":"18th st","to":"south st","desc":148,"longitude":-75.172089,"id":"a623abmdtrqh","address":"18th st and bainbridge st","record #":71610,"state":"PA","traffic direction":"north"},"type":"Feature","geometry":{"type":"Point","coordinates":[-75.172089,39.94357]}},{"properties":{"city":"Philadelphia","name":"17th st","latitude":39.94338,"from":"bainbridge st","date":"10/28/2010","road":"17th st","to":"south st","desc":179,"longitude":-75.170499,"id":"a623abj06fb0","address":"17th st and bainbridge st","record #":71613,"state":"PA","traffic direction":"south"},"type":"Feature","geometry":{"type":"Point","coordinates":[-75.170499,39.94338]}},{"properties":{"city":"Philadelphia","name":"16th st","latitude":39.94319,"from":"bainbridge st","date":"10/28/2010","road":"16th st","to":"south st","desc":267,"longitude":-75.168979,"id":"a623abnzcrfe","address":"16th st and bainbridge st","record #":71616,"state":"PA","traffic direction":"north"},"type":"Feature","geometry":{"type":"Point","coordinates":[-75.168979,39.94319]}},{"properties":{"city":"Philadelphia","name":"broad st northbound lanes","latitude":39.94276,"from":"bainbridge st","date":"11/10/2010","road":"broad st northbound lanes","to":"south st","desc":381,"longitude":-75.165689,"id":"a623abm4n1hl","address":"broad st and bainbridge st","record #":71622,"state":"PA","traffic direction":"both"},"type":"Feature","geometry":{"type":"Point","coordinates":[-75.165689,39.94276]}},{"properties":{"city":"Philadelphia","name":"broad st southbound lanes","latitude":39.94276,"from":"bainbridge st","date":"11/30/2010","road":"broad st southbound lanes","to":"south st","desc":200,"longitude":-75.165689,"id":"a623absty1rt","address":"broad st and bainbridge st","record #":71623,"state":"PA","traffic direction":"both"},"type":"Feature","geometry":{"type":"Point","coordinates":[-75.165689,39.94276]}},{"properties":{"city":"Philadelphia","name":"7th st","latitude":39.952271,"from":"bainbridge st","date":"11/10/2010","road":"7th st","to":"south st","desc":200,"longitude":-75.162369,"id":"a623abj1lrqg","address":"7th st and bainbridge st","record #":71681,"state":"PA","traffic direction":"north"},"type":"Feature","geometry":{"type":"Point","coordinates":[-75.162369,39.952271]}},{"properties":{"city":"Philadelphia","name":"6th st","latitude":39.952271,"from":"bainbridge st","date":"11/10/2010","road":"6th st","to":"south st","desc":234,"longitude":-75.162369,"id":"a623abxh56yq","address":"6th st and bainbridge st","record #":71701,"state":"PA","traffic direction":"south"},"type":"Feature","geometry":{"type":"Point","coordinates":[-75.162369,39.952271]}},{"properties":{"city":"Philadelphia","name":"22nd st","latitude":39.95909,"from":"south st","date":"10/20/2010","road":"22nd st","to":"bainbridge st","desc":406,"longitude":-75.175574,"id":"a623abqn2thk","address":"22nd st and south st","record #":71721,"state":"PA","traffic direction":"north"},"type":"Feature","geometry":{"type":"Point","coordinates":[-75.175574,39.95909]}},{"properties":{"city":"Philadelphia","name":"13th st","latitude":39.95906,"from":"bainbridge st","date":"11/4/2010","road":"13th st","to":"south st","desc":206,"longitude":-75.159934,"id":"a623abvkrvrb","address":"13th st and bainbridge st","record #":71626,"state":"PA","traffic direction":"north"},"type":"Feature","geometry":{"type":"Point","coordinates":[-75.159934,39.95906]}},{"properties":{"city":"Philadelphia","name":"12th st","latitude":39.958865,"from":"bainbridge st","date":"11/3/2010","road":"12th st","to":"south st","desc":48,"longitude":-75.158329,"id":"a623abysyb3k","address":"12th st and bainbridge st","record #":71629,"state":"PA","traffic direction":"south"},"type":"Feature","geometry":{"type":"Point","coordinates":[-75.158329,39.958865]}},{"properties":{"city":"Philadelphia","name":"grays ferry ave","latitude":39.94462,"from":"bainbridge st","date":"10/20/2010","road":"grays ferry ave","to":"south st","desc":106,"longitude":-75.180639,"id":"a623abo4w9fc","address":"Grays Ferry Av and bainbridge st","record #":71597,"state":"PA","traffic direction":"south"},"type":"Feature","geometry":{"type":"Point","coordinates":[-75.180639,39.94462]}},{"properties":{"city":"Philadelphia","name":"3rd st","latitude":39.952271,"from":"bainbridge st","date":"11/11/2010","road":"3rd st","to":"south st","desc":254,"longitude":-75.162369,"id":"a623abv4farn","address":"3rd st and bainbridge st","record #":71767,"state":"PA","traffic direction":"north"},"type":"Feature","geometry":{"type":"Point","coordinates":[-75.162369,39.952271]}},{"properties":{"city":"Philadelphia","name":"2nd st","latitude":39.945782,"from":"south st","date":"11/11/2010","road":"2nd st","to":"bainbridge st","desc":130,"longitude":-75.159393,"id":"a623abw3dz1s","address":"2nd st and south st","record #":71770,"state":"PA","traffic direction":"south"},"type":"Feature","geometry":{"type":"Point","coordinates":[-75.159393,39.945782]}},{"properties":{"city":"Philadelphia","name":"11th st","latitude":39.95869,"from":"south st","date":"11/4/2010","road":"11th st","to":"bainbridge st","desc":235,"longitude":-75.156799,"id":"a623abn3mxbp","address":"11th st and south st","record #":71632,"state":"PA","traffic direction":"north"},"type":"Feature","geometry":{"type":"Point","coordinates":[-75.156799,39.95869]}},{"properties":{"city":"Philadelphia","name":"10th st","latitude":39.95851,"from":"bainbridge st","date":"11/4/2010","road":"10th st","to":"south st","desc":309,"longitude":-75.155199,"id":"a623abpelgud","address":"10th st and bainbridge st","record #":71635,"state":"PA","traffic direction":"south"},"type":"Feature","geometry":{"type":"Point","coordinates":[-75.155199,39.95851]}},{"properties":{"city":"Philadelphia","name":"9th st","latitude":39.952271,"from":"bainbridge st","date":"11/10/2010","road":"9th st","to":"south st","desc":6,"longitude":-75.162369,"id":"a623abl2yns7","address":"9th st and bainbridge st","record #":71638,"state":"PA","traffic direction":"north"},"type":"Feature","geometry":{"type":"Point","coordinates":[-75.162369,39.952271]}},{"properties":{"city":"Philadelphia","name":"taney st","latitude":39.94501,"from":"bainbridge st","date":"10/13/2010","road":"taney st","to":"south st","desc":5,"longitude":-75.183859,"id":"a623abn41a52","address":"taney st and bainbridge st","record #":71588,"state":"PA","traffic direction":"south"},"type":"Feature","geometry":{"type":"Point","coordinates":[-75.183859,39.94501]}},{"properties":{"city":"Philadelphia","name":"26th st","latitude":39.94495,"from":"bainbridge st","date":"10/13/2010","road":"26th st","to":"south st","desc":7,"longitude":-75.183349,"id":"a623abptffi2","address":"26th st and bainbridge st","record #":71591,"state":"PA","traffic direction":"north"},"type":"Feature","geometry":{"type":"Point","coordinates":[-75.183349,39.94495]}},{"properties":{"city":"Philadelphia","name":"24th st","latitude":39.94466,"from":"bainbridge st","date":"10/13/2010","road":"24th st","to":"south st","desc":79,"longitude":-75.180939,"id":"a623abv2iwp4","address":"24th st and bainbridge st","record #":71594,"state":"PA","traffic direction":"south"},"type":"Feature","geometry":{"type":"Point","coordinates":[-75.180939,39.94466]}},{"properties":{"city":"Philadelphia","name":"22nd st","latitude":39.95504,"from":"pa 3 john f kennedy blvd","date":"2/12/2011","road":"22nd st","to":"pa 3 market st","desc":232,"longitude":-75.176439,"id":"a623abs33rnz","address":"22nd st and john f kennedy blvd","record #":71348,"state":"PA","traffic direction":"north"},"type":"Feature","geometry":{"type":"Point","coordinates":[-75.176439,39.95504]}}],"is_temporal":false,"author":{"url":"http://www.dvrpc.org/webmaps/pedbikecounts/","metadata":"","contact_name":"","contact_address":"","source":"Delaware Valley Regional Planning Commission","contact_phone":""},"source":"http://www.dvrpc.org/webmaps/pedbikecounts/","pagination":{"sort":null,"start":0,"total":139,"limit":1000000},"state":"complete","tags":"bicycle,bike commuters,bike counts","published":"2014-08-13T03:32:08-04:00","id":114394}