{"type":"FeatureCollection","data_type":"Dataset","url_type":null,"permissions":[{"permissions":{"download":true,"view":true},"group_id":"everyone"}],"classification":null,"title":"mexico","count":380,"stream_id":114666,"contributor":{"url":"http://geocommons.com/users/26550","name":"seregus"},"data_attributes":null,"calculation_params":null,"icon_link":null,"link":"http://geocommons.com/overlays/114666.json","extent":[-117.017,14.9,-86.8333,32.6519],"geometry_types":["point"],"unique_name":null,"name":"mexico","feature_count":380,"description":"","next_feature":null,"is_raster":false,"short_classification":"Y","stats":{"latitude":{"max":32.6519,"mean":21.6615277894737,"variance":16.7654208201492,"stdev":4.09455990555141,"min":14.9,"median":20.4},"id":{"max":1478551,"mean":543847.152631579,"variance":37947014105.2695,"stdev":194799.933535075,"min":471718,"median":505874},"users":{"max":2637498,"mean":26440.7710526316,"variance":24103704092.1876,"stdev":155253.676581869,"min":1003,"median":3113},"longitude":{"max":-86.8333,"mean":-100.246183263158,"variance":33.5280531733397,"stdev":5.790341369327,"min":-117.0167,"median":-99.3439}},"features":[{"properties":{"city":"Sayula","latitude":19.8667,"id":"a62uk0sguvib","users":1003,"longitude":-103.6167},"type":"Feature","geometry":{"type":"Point","coordinates":[-103.6167,19.8667]}},{"properties":{"city":"Arriaga","latitude":16.23333,"id":"a62uk0thtxf0","users":1004,"longitude":-93.9},"type":"Feature","geometry":{"type":"Point","coordinates":[-93.9,16.23333]}},{"properties":{"city":"San Angel","latitude":19.3733,"id":"a62uk0z0zs6a","users":1004,"longitude":-99.225},"type":"Feature","geometry":{"type":"Point","coordinates":[-99.225,19.3733]}},{"properties":{"city":"Culhuacán","latitude":19.3333,"id":"a62uk0sadw0j","users":1012,"longitude":-99.1},"type":"Feature","geometry":{"type":"Point","coordinates":[-99.1,19.3333]}},{"properties":{"city":"Teloloapan","latitude":18.35,"id":"a62uk1441khs","users":1013,"longitude":-99.85},"type":"Feature","geometry":{"type":"Point","coordinates":[-99.85,18.35]}},{"properties":{"city":"Huixquilucan","latitude":19.36027,"id":"a62uk0vnma3u","users":1014,"longitude":-99.35138},"type":"Feature","geometry":{"type":"Point","coordinates":[-99.35138,19.36027]}},{"properties":{"city":"Iztacalco","latitude":19.3967,"id":"a62uk11jkp4i","users":1015,"longitude":-99.0847},"type":"Feature","geometry":{"type":"Point","coordinates":[-99.0847,19.3967]}},{"properties":{"city":"Tejupilco de Hidalgo","latitude":18.9,"id":"a62uk0v23uxv","users":1022,"longitude":-100.15},"type":"Feature","geometry":{"type":"Point","coordinates":[-100.15,18.9]}},{"properties":{"city":"Tacámbaro de Collados","latitude":19.2333,"id":"a62uk0qex0ej","users":1029,"longitude":-101.4667},"type":"Feature","geometry":{"type":"Point","coordinates":[-101.4667,19.2333]}},{"properties":{"city":"Madera","latitude":29.2,"id":"a62uk0zeldqq","users":1030,"longitude":-108.1167},"type":"Feature","geometry":{"type":"Point","coordinates":[-108.1167,29.2]}},{"properties":{"city":"Calpulalpan","latitude":19.5833,"id":"a62uk0ra0678","users":1032,"longitude":-98.5833},"type":"Feature","geometry":{"type":"Point","coordinates":[-98.5833,19.5833]}},{"properties":{"city":"Lázaro Cárdenas","latitude":19.5389,"id":"a62uk12hvrcr","users":1033,"longitude":-97.9833},"type":"Feature","geometry":{"type":"Point","coordinates":[-97.9833,19.5389]}},{"properties":{"city":"La Reforma","latitude":17.9447,"id":"a62uk0poi5xl","users":1034,"longitude":-96.0714},"type":"Feature","geometry":{"type":"Point","coordinates":[-96.0714,17.9447]}},{"properties":{"city":"Cadereyta Jiménez","latitude":25.6,"id":"a62uk12gsqfo","users":1050,"longitude":-100.0},"type":"Feature","geometry":{"type":"Point","coordinates":[-100.0,25.6]}},{"properties":{"city":"Tequila","latitude":20.8833,"id":"a62uk0yogyrj","users":1052,"longitude":-103.8333},"type":"Feature","geometry":{"type":"Point","coordinates":[-103.8333,20.8833]}},{"properties":{"city":"Cosoleacaque","latitude":18.0,"id":"a62uk0rjnig8","users":1055,"longitude":-94.61666},"type":"Feature","geometry":{"type":"Point","coordinates":[-94.61666,18.0]}},{"properties":{"city":"Ometepec","latitude":16.68333,"id":"a62uk0rgk0oj","users":1090,"longitude":-98.41666},"type":"Feature","geometry":{"type":"Point","coordinates":[-98.41666,16.68333]}},{"properties":{"city":"Jalapa","latitude":24.8833,"id":"a62uk0wm0i67","users":1091,"longitude":-101.55},"type":"Feature","geometry":{"type":"Point","coordinates":[-101.55,24.8833]}},{"properties":{"city":"El Alamo","latitude":21.0375,"id":"a62uk0xf7m3i","users":1102,"longitude":-87.6542},"type":"Feature","geometry":{"type":"Point","coordinates":[-87.6542,21.0375]}},{"properties":{"city":"Huatusco de Chicuellar","latitude":19.15,"id":"a62uk0p255sf","users":1102,"longitude":-96.95},"type":"Feature","geometry":{"type":"Point","coordinates":[-96.95,19.15]}},{"properties":{"city":"Ixtepec","latitude":16.5781,"id":"a62uk0xy7mtd","users":1103,"longitude":-95.1014},"type":"Feature","geometry":{"type":"Point","coordinates":[-95.1014,16.5781]}},{"properties":{"city":"Uriangato","latitude":20.15,"id":"a62uk0rpq9af","users":1116,"longitude":-101.1833},"type":"Feature","geometry":{"type":"Point","coordinates":[-101.1833,20.15]}},{"properties":{"city":"Tepoztlán","latitude":18.9833,"id":"a62uk0vtlsv4","users":1132,"longitude":-99.1},"type":"Feature","geometry":{"type":"Point","coordinates":[-99.1,18.9833]}},{"properties":{"city":"Río Verde","latitude":17.61,"id":"a62uk138f565","users":1136,"longitude":-97.3125},"type":"Feature","geometry":{"type":"Point","coordinates":[-97.3125,17.61]}},{"properties":{"city":"Ticul","latitude":20.4,"id":"a62uk0s2q00z","users":1140,"longitude":-89.53333},"type":"Feature","geometry":{"type":"Point","coordinates":[-89.53333,20.4]}},{"properties":{"city":"Villa Juárez","latitude":22.7333,"id":"a62uk12m9zjk","users":1149,"longitude":-98.95},"type":"Feature","geometry":{"type":"Point","coordinates":[-98.95,22.7333]}},{"properties":{"city":"Felipe Carrillo Puerto","latitude":21.1708,"id":"a62uk0pncfax","users":1149,"longitude":-87.725},"type":"Feature","geometry":{"type":"Point","coordinates":[-87.725,21.1708]}},{"properties":{"city":"Jiquilpan de Juárez","latitude":19.9833,"id":"a62uk0s7lh4t","users":1152,"longitude":-102.7167},"type":"Feature","geometry":{"type":"Point","coordinates":[-102.7167,19.9833]}},{"properties":{"city":"Tierra Blanca","latitude":16.3128,"id":"a62uk0x9swvw","users":1152,"longitude":-97.6886},"type":"Feature","geometry":{"type":"Point","coordinates":[-97.6886,16.3128]}},{"properties":{"city":"Frontera","latitude":18.425,"id":"a62uk14ahjkp","users":1154,"longitude":-92.8333},"type":"Feature","geometry":{"type":"Point","coordinates":[-92.8333,18.425]}},{"properties":{"city":"Misantla","latitude":19.9333,"id":"a62uk0vrm4ys","users":1156,"longitude":-96.85},"type":"Feature","geometry":{"type":"Point","coordinates":[-96.85,19.9333]}},{"properties":{"city":"Ixtapa","latitude":18.5167,"id":"a62uk0s9ssow","users":1171,"longitude":-99.5833},"type":"Feature","geometry":{"type":"Point","coordinates":[-99.5833,18.5167]}},{"properties":{"city":"Tecamachalco","latitude":18.88333,"id":"a62uk0u0be32","users":1179,"longitude":-97.73333},"type":"Feature","geometry":{"type":"Point","coordinates":[-97.73333,18.88333]}},{"properties":{"city":"República Mexicana","latitude":32.6464,"id":"a62uk0sfqdc5","users":1181,"longitude":-114.7981},"type":"Feature","geometry":{"type":"Point","coordinates":[-114.7981,32.6464]}},{"properties":{"city":"Uruapán","latitude":31.6167,"id":"a62uk13nh65b","users":1189,"longitude":-116.4333},"type":"Feature","geometry":{"type":"Point","coordinates":[-116.4333,31.6167]}},{"properties":{"city":"Ramos Arizpe","latitude":25.55,"id":"a62uk0r2uokh","users":1197,"longitude":-100.9667},"type":"Feature","geometry":{"type":"Point","coordinates":[-100.9667,25.55]}},{"properties":{"city":"Zumpango de Ocampo","latitude":19.7978,"id":"a62uk0wd1txv","users":1213,"longitude":-99.1017},"type":"Feature","geometry":{"type":"Point","coordinates":[-99.1017,19.7978]}},{"properties":{"city":"Temixco","latitude":18.85,"id":"a62uk129kkab","users":1216,"longitude":-99.2333},"type":"Feature","geometry":{"type":"Point","coordinates":[-99.2333,18.85]}},{"properties":{"city":"Huatulco","latitude":17.5667,"id":"a62uk0wbx9y1","users":1227,"longitude":-93.3167},"type":"Feature","geometry":{"type":"Point","coordinates":[-93.3167,17.5667]}},{"properties":{"city":"Perote","latitude":19.56666,"id":"a62uk0yvelbk","users":1228,"longitude":-97.23333},"type":"Feature","geometry":{"type":"Point","coordinates":[-97.23333,19.56666]}},{"properties":{"city":"Tula de Allende","latitude":20.05,"id":"a62uk0vf4gwa","users":1236,"longitude":-99.35},"type":"Feature","geometry":{"type":"Point","coordinates":[-99.35,20.05]}},{"properties":{"city":"Tlaxiaco","latitude":17.2667,"id":"a62uk0r5ja4h","users":1239,"longitude":-97.6833},"type":"Feature","geometry":{"type":"Point","coordinates":[-97.6833,17.2667]}},{"properties":{"city":"Pánuco","latitude":22.05,"id":"a62uk0vrmkbx","users":1244,"longitude":-98.1667},"type":"Feature","geometry":{"type":"Point","coordinates":[-98.1667,22.05]}},{"properties":{"city":"Cuauhtémoc","latitude":19.4172,"id":"a62uk0v8jjca","users":1252,"longitude":-99.1569},"type":"Feature","geometry":{"type":"Point","coordinates":[-99.1569,19.4172]}},{"properties":{"city":"Nueva Rosita","latitude":27.95,"id":"a62uk0urf0ji","users":1255,"longitude":-101.2167},"type":"Feature","geometry":{"type":"Point","coordinates":[-101.2167,27.95]}},{"properties":{"city":"Teapa","latitude":21.2,"id":"a62uk0og3wac","users":1255,"longitude":-87.5458},"type":"Feature","geometry":{"type":"Point","coordinates":[-87.5458,21.2]}},{"properties":{"city":"Matías Romero","latitude":16.8833,"id":"a62uk0q4wfdx","users":1261,"longitude":-95.0333},"type":"Feature","geometry":{"type":"Point","coordinates":[-95.0333,16.8833]}},{"properties":{"city":"Escuinapa de Hidalgo","latitude":22.85,"id":"a62uk0sijnii","users":1264,"longitude":-105.8},"type":"Feature","geometry":{"type":"Point","coordinates":[-105.8,22.85]}},{"properties":{"city":"Zacatepec","latitude":19.1167,"id":"a62uk137vmw9","users":1266,"longitude":-98.8583},"type":"Feature","geometry":{"type":"Point","coordinates":[-98.8583,19.1167]}},{"properties":{"city":"Tantoyuca","latitude":21.35,"id":"a62uk0ol5eb7","users":1267,"longitude":-98.23333},"type":"Feature","geometry":{"type":"Point","coordinates":[-98.23333,21.35]}},{"properties":{"city":"Tenancingo","latitude":18.9667,"id":"a62uk0p8jms2","users":1269,"longitude":-99.6},"type":"Feature","geometry":{"type":"Point","coordinates":[-99.6,18.9667]}},{"properties":{"city":"Valle de Bravo","latitude":19.18333,"id":"a62uk0yektl1","users":1270,"longitude":-100.13333},"type":"Feature","geometry":{"type":"Point","coordinates":[-100.13333,19.18333]}},{"properties":{"city":"Cosamaloapan","latitude":18.3667,"id":"a62uk0rcqzkb","users":1282,"longitude":-95.8},"type":"Feature","geometry":{"type":"Point","coordinates":[-95.8,18.3667]}},{"properties":{"city":"Santiago Pinotepa Nacional","latitude":16.3167,"id":"a62uk0ty4a10","users":1283,"longitude":-98.0167},"type":"Feature","geometry":{"type":"Point","coordinates":[-98.0167,16.3167]}},{"properties":{"city":"Tultepec","latitude":19.6847,"id":"a62uk10uhwes","users":1283,"longitude":-99.1292},"type":"Feature","geometry":{"type":"Point","coordinates":[-99.1292,19.6847]}},{"properties":{"city":"Lázaro Cárdenas","latitude":19.6806,"id":"a62uk0t7a3it","users":1283,"longitude":-101.75},"type":"Feature","geometry":{"type":"Point","coordinates":[-101.75,19.6806]}},{"properties":{"city":"Abasolo","latitude":20.45,"id":"a62uk0utv5us","users":1285,"longitude":-101.5167},"type":"Feature","geometry":{"type":"Point","coordinates":[-101.5167,20.45]}},{"properties":{"city":"Costa Rica","latitude":24.5875,"id":"a62uk0vez4rx","users":1322,"longitude":-107.3875},"type":"Feature","geometry":{"type":"Point","coordinates":[-107.3875,24.5875]}},{"properties":{"city":"La Magdalena","latitude":26.8667,"id":"a62uk0vhn4a4","users":1336,"longitude":-106.3333},"type":"Feature","geometry":{"type":"Point","coordinates":[-106.3333,26.8667]}},{"properties":{"city":"Atlacomulco","latitude":19.7989,"id":"a62uk11als4h","users":1338,"longitude":-99.8744},"type":"Feature","geometry":{"type":"Point","coordinates":[-99.8744,19.7989]}},{"properties":{"city":"San Fernando","latitude":24.85,"id":"a62uk13ikzrf","users":1338,"longitude":-98.15},"type":"Feature","geometry":{"type":"Point","coordinates":[-98.15,24.85]}},{"properties":{"city":"Morelos","latitude":18.75,"id":"a62uk0zq0ip7","users":1341,"longitude":-99.0},"type":"Feature","geometry":{"type":"Point","coordinates":[-99.0,18.75]}},{"properties":{"city":"Tamazunchale","latitude":21.26666,"id":"a62uk0p9q4rp","users":1344,"longitude":-98.78333},"type":"Feature","geometry":{"type":"Point","coordinates":[-98.78333,21.26666]}},{"properties":{"city":"Emiliano Zapata","latitude":16.6717,"id":"a62uk12eajyc","users":1361,"longitude":-94.7125},"type":"Feature","geometry":{"type":"Point","coordinates":[-94.7125,16.6717]}},{"properties":{"city":"Tuxtla","latitude":18.45,"id":"a62uk132mhrt","users":1373,"longitude":-95.2167},"type":"Feature","geometry":{"type":"Point","coordinates":[-95.2167,18.45]}},{"properties":{"city":"Chiapa de Corzo","latitude":16.7,"id":"a62uk0ubzh58","users":1382,"longitude":-93.0},"type":"Feature","geometry":{"type":"Point","coordinates":[-93.0,16.7]}},{"properties":{"city":"Jerez","latitude":22.65,"id":"a62uk0s3uqeb","users":1382,"longitude":-103.0},"type":"Feature","geometry":{"type":"Point","coordinates":[-103.0,22.65]}},{"properties":{"city":"Huixtla","latitude":15.15,"id":"a62uk0u6mvy9","users":1392,"longitude":-92.46666},"type":"Feature","geometry":{"type":"Point","coordinates":[-92.46666,15.15]}},{"properties":{"city":"Agua Dulce","latitude":25.4833,"id":"a62uk12ngd4t","users":1398,"longitude":-103.15},"type":"Feature","geometry":{"type":"Point","coordinates":[-103.15,25.4833]}},{"properties":{"city":"Matamoros","latitude":18.6,"id":"a62uk126kl5i","users":1418,"longitude":-98.4667},"type":"Feature","geometry":{"type":"Point","coordinates":[-98.4667,18.6]}},{"properties":{"city":"La Barca","latitude":20.28333,"id":"a62uk0pzbkx8","users":1429,"longitude":-102.56666},"type":"Feature","geometry":{"type":"Point","coordinates":[-102.56666,20.28333]}},{"properties":{"city":"Pátzcuaro","latitude":20.85,"id":"a62uk124mq9z","users":1447,"longitude":-105.4667},"type":"Feature","geometry":{"type":"Point","coordinates":[-105.4667,20.85]}},{"properties":{"city":"Ameca","latitude":20.55,"id":"a62uk0tpt5ha","users":1458,"longitude":-104.03333},"type":"Feature","geometry":{"type":"Point","coordinates":[-104.03333,20.55]}},{"properties":{"city":"Saltillito","latitude":27.58333,"id":"a62uk0xztm96","users":1476,"longitude":-101.25},"type":"Feature","geometry":{"type":"Point","coordinates":[-101.25,27.58333]}},{"properties":{"city":"Sahagún","latitude":19.7667,"id":"a62uk112fa1y","users":1490,"longitude":-98.5833},"type":"Feature","geometry":{"type":"Point","coordinates":[-98.5833,19.7667]}},{"properties":{"city":"Jiménez","latitude":28.3333,"id":"a62uk11vtghh","users":1508,"longitude":-105.4},"type":"Feature","geometry":{"type":"Point","coordinates":[-105.4,28.3333]}},{"properties":{"city":"San Luis de la Paz","latitude":21.3,"id":"a62uk10sb316","users":1528,"longitude":-100.51666},"type":"Feature","geometry":{"type":"Point","coordinates":[-100.51666,21.3]}},{"properties":{"city":"Cintalapa","latitude":16.7333,"id":"a62uk0tz7ra2","users":1529,"longitude":-93.7167},"type":"Feature","geometry":{"type":"Point","coordinates":[-93.7167,16.7333]}},{"properties":{"city":"Nicolás Romero","latitude":19.6219,"id":"a62uk0wws25y","users":1537,"longitude":-99.3131},"type":"Feature","geometry":{"type":"Point","coordinates":[-99.3131,19.6219]}},{"properties":{"city":"Apan","latitude":19.7167,"id":"a62uk0ov0itv","users":1561,"longitude":-98.4167},"type":"Feature","geometry":{"type":"Point","coordinates":[-98.4167,19.7167]}},{"properties":{"city":"Tepeji de Ocampo","latitude":19.9053,"id":"a62uk12zpovf","users":1566,"longitude":-99.3439},"type":"Feature","geometry":{"type":"Point","coordinates":[-99.3439,19.9053]}},{"properties":{"city":"Guzmán","latitude":24.9833,"id":"a62uk0r8j64h","users":1582,"longitude":-98.35},"type":"Feature","geometry":{"type":"Point","coordinates":[-98.35,24.9833]}},{"properties":{"city":"El Progreso","latitude":16.7611,"id":"a62uk11f2sel","users":1592,"longitude":-93.9111},"type":"Feature","geometry":{"type":"Point","coordinates":[-93.9111,16.7611]}},{"properties":{"city":"Tulum","latitude":20.125,"id":"a62uk0pghsdj","users":1608,"longitude":-87.45},"type":"Feature","geometry":{"type":"Point","coordinates":[-87.45,20.125]}},{"properties":{"city":"Chapala","latitude":30.5167,"id":"a62uk0tlr3q4","users":1611,"longitude":-115.9667},"type":"Feature","geometry":{"type":"Point","coordinates":[-115.9667,30.5167]}},{"properties":{"city":"Cunduacán","latitude":18.0667,"id":"a62uk0nvhekg","users":1621,"longitude":-93.1667},"type":"Feature","geometry":{"type":"Point","coordinates":[-93.1667,18.0667]}},{"properties":{"city":"Alvaro Obregón","latitude":19.7583,"id":"a62uk10xjqrr","users":1627,"longitude":-98.875},"type":"Feature","geometry":{"type":"Point","coordinates":[-98.875,19.7583]}},{"properties":{"city":"Pénjamo","latitude":21.1833,"id":"a62uk0uphznm","users":1627,"longitude":-87.0833},"type":"Feature","geometry":{"type":"Point","coordinates":[-87.0833,21.1833]}},{"properties":{"city":"Tamaulipas","latitude":24.9086,"id":"a62uk0uhbi62","users":1627,"longitude":-107.5942},"type":"Feature","geometry":{"type":"Point","coordinates":[-107.5942,24.9086]}},{"properties":{"city":"Tlapa de Comonfort","latitude":17.55,"id":"a62uk0sub9dr","users":1651,"longitude":-98.55},"type":"Feature","geometry":{"type":"Point","coordinates":[-98.55,17.55]}},{"properties":{"city":"Nuevo León","latitude":21.1556,"id":"a62uk0uk5p3p","users":1661,"longitude":-101.6294},"type":"Feature","geometry":{"type":"Point","coordinates":[-101.6294,21.1556]}},{"properties":{"city":"San Juan de Aragón","latitude":19.4667,"id":"a62uk10o2f0l","users":1662,"longitude":-99.0833},"type":"Feature","geometry":{"type":"Point","coordinates":[-99.0833,19.4667]}},{"properties":{"city":"Constitución","latitude":25.0369,"id":"a62uk0suynub","users":1665,"longitude":-111.6644},"type":"Feature","geometry":{"type":"Point","coordinates":[-111.6644,25.0369]}},{"properties":{"city":"Minatitlán","latitude":17.9833,"id":"a62uk11ok5mk","users":1669,"longitude":-94.5167},"type":"Feature","geometry":{"type":"Point","coordinates":[-94.5167,17.9833]}},{"properties":{"city":"Las Choapas","latitude":17.93333,"id":"a62uk0un29ez","users":1675,"longitude":-94.08333},"type":"Feature","geometry":{"type":"Point","coordinates":[-94.08333,17.93333]}},{"properties":{"city":"Yautepec","latitude":18.8319,"id":"a62uk1053emj","users":1675,"longitude":-103.8667},"type":"Feature","geometry":{"type":"Point","coordinates":[-103.8667,18.8319]}},{"properties":{"city":"Tlalpan","latitude":19.2833,"id":"a62uk0v8jb53","users":1678,"longitude":-99.1667},"type":"Feature","geometry":{"type":"Point","coordinates":[-99.1667,19.2833]}},{"properties":{"city":"Tenosique","latitude":17.4833,"id":"a62uk13w9etp","users":1683,"longitude":-91.4333},"type":"Feature","geometry":{"type":"Point","coordinates":[-91.4333,17.4833]}},{"properties":{"city":"Coatepec","latitude":19.45,"id":"a62uk0r95rfk","users":1686,"longitude":-96.9667},"type":"Feature","geometry":{"type":"Point","coordinates":[-96.9667,19.45]}},{"properties":{"city":"Montemorelos","latitude":25.2,"id":"a62uk12skrzx","users":1697,"longitude":-99.81666},"type":"Feature","geometry":{"type":"Point","coordinates":[-99.81666,25.2]}},{"properties":{"city":"Benito Juárez","latitude":18.0311,"id":"a62uk0qss1ab","users":1708,"longitude":-96.1675},"type":"Feature","geometry":{"type":"Point","coordinates":[-96.1675,18.0311]}},{"properties":{"city":"Ocosingo","latitude":16.9056,"id":"a62uk0rty6xa","users":1717,"longitude":-92.0389},"type":"Feature","geometry":{"type":"Point","coordinates":[-92.0389,16.9056]}},{"properties":{"city":"Tula","latitude":20.8833,"id":"a62uk0on1g0w","users":1718,"longitude":-98.5389},"type":"Feature","geometry":{"type":"Point","coordinates":[-98.5389,20.8833]}},{"properties":{"city":"Agua Calientes","latitude":28.15,"id":"a62uk0txcvvg","users":1748,"longitude":-109.7333},"type":"Feature","geometry":{"type":"Point","coordinates":[-109.7333,28.15]}},{"properties":{"city":"Tanger","latitude":24.18333,"id":"a62uk0zrpgh1","users":1757,"longitude":-102.71666},"type":"Feature","geometry":{"type":"Point","coordinates":[-102.71666,24.18333]}},{"properties":{"city":"Colinas","latitude":25.35,"id":"a62uk123d56h","users":1763,"longitude":-98.6667},"type":"Feature","geometry":{"type":"Point","coordinates":[-98.6667,25.35]}},{"properties":{"city":"Nezahualcoyotl","latitude":31.68333,"id":"a62uk11f0gy7","users":1763,"longitude":-107.28333},"type":"Feature","geometry":{"type":"Point","coordinates":[-107.28333,31.68333]}},{"properties":{"city":"Xicotepec de Juárez","latitude":20.3,"id":"a62uk0qh0yuo","users":1766,"longitude":-97.9667},"type":"Feature","geometry":{"type":"Point","coordinates":[-97.9667,20.3]}},{"properties":{"city":"Tehuantepec","latitude":16.3333,"id":"a62uk0r83g02","users":1787,"longitude":-95.2333},"type":"Feature","geometry":{"type":"Point","coordinates":[-95.2333,16.3333]}},{"properties":{"city":"Puerto Escondido","latitude":18.6667,"id":"a62uk13ton0l","users":1794,"longitude":-95.5667},"type":"Feature","geometry":{"type":"Point","coordinates":[-95.5667,18.6667]}},{"properties":{"city":"Chimalhuacán","latitude":19.4167,"id":"a62uk12rrbxr","users":1826,"longitude":-98.9},"type":"Feature","geometry":{"type":"Point","coordinates":[-98.9,19.4167]}},{"properties":{"city":"Azcapotzalco","latitude":19.4889,"id":"a62uk0ofu8sc","users":1829,"longitude":-99.1836},"type":"Feature","geometry":{"type":"Point","coordinates":[-99.1836,19.4889]}},{"properties":{"city":"Tlaxco","latitude":20.6833,"id":"a62uk0yl73v2","users":1835,"longitude":-98.3333},"type":"Feature","geometry":{"type":"Point","coordinates":[-98.3333,20.6833]}},{"properties":{"city":"Guanajuato","latitude":19.8,"id":"a62uk0y00vwc","users":1838,"longitude":-104.35},"type":"Feature","geometry":{"type":"Point","coordinates":[-104.35,19.8]}},{"properties":{"city":"San Martin Texmelucan de Labastida","latitude":18.75,"id":"a62uk13jew5a","users":1852,"longitude":-100.25},"type":"Feature","geometry":{"type":"Point","coordinates":[-100.25,18.75]}},{"properties":{"city":"Navolato","latitude":24.76722,"id":"a62uk0oioo0w","users":1861,"longitude":-107.69444},"type":"Feature","geometry":{"type":"Point","coordinates":[-107.69444,24.76722]}},{"properties":{"city":"Tonalá","latitude":16.0833,"id":"a62uk0sqbhzd","users":1868,"longitude":-93.75},"type":"Feature","geometry":{"type":"Point","coordinates":[-93.75,16.0833]}},{"properties":{"city":"Estado de Coahuila de Zaragoza","latitude":27.3333,"id":"a62uk13brlmy","users":1873,"longitude":-102.0},"type":"Feature","geometry":{"type":"Point","coordinates":[-102.0,27.3333]}},{"properties":{"city":"Zacapú de Mier","latitude":19.8333,"id":"a62uk12zdxjv","users":1899,"longitude":-101.7167},"type":"Feature","geometry":{"type":"Point","coordinates":[-101.7167,19.8333]}},{"properties":{"city":"Cajeme","latitude":28.6,"id":"a62uk0uoc76n","users":1905,"longitude":-111.5167},"type":"Feature","geometry":{"type":"Point","coordinates":[-111.5167,28.6]}},{"properties":{"city":"Chihuahua","latitude":25.5472,"id":"a62uk0sa3q6z","users":1911,"longitude":-99.9417},"type":"Feature","geometry":{"type":"Point","coordinates":[-99.9417,25.5472]}},{"properties":{"city":"Estado de México","latitude":18.0,"id":"a62uk0u18jbi","users":1932,"longitude":-90.8903},"type":"Feature","geometry":{"type":"Point","coordinates":[-90.8903,18.0]}},{"properties":{"city":"Yucatán","latitude":26.8667,"id":"a62uk0qjk894","users":1945,"longitude":-101.1667},"type":"Feature","geometry":{"type":"Point","coordinates":[-101.1667,26.8667]}},{"properties":{"city":"San Juan de los Lagos","latitude":21.25,"id":"a62uk13lw042","users":1958,"longitude":-102.3},"type":"Feature","geometry":{"type":"Point","coordinates":[-102.3,21.25]}},{"properties":{"city":"Tecama","latitude":18.8333,"id":"a62uk0w6jizw","users":1959,"longitude":-99.9833},"type":"Feature","geometry":{"type":"Point","coordinates":[-99.9833,18.8333]}},{"properties":{"city":"Sabinas","latitude":25.9833,"id":"a62uk0ywazyw","users":1961,"longitude":-105.9333},"type":"Feature","geometry":{"type":"Point","coordinates":[-105.9333,25.9833]}},{"properties":{"city":"Huajuapan de León","latitude":17.8,"id":"a62uk12x8skt","users":1982,"longitude":-97.7667},"type":"Feature","geometry":{"type":"Point","coordinates":[-97.7667,17.8]}},{"properties":{"city":"El Mante","latitude":22.73333,"id":"a62uk0vm37sv","users":1992,"longitude":-98.96666},"type":"Feature","geometry":{"type":"Point","coordinates":[-98.96666,22.73333]}},{"properties":{"city":"Huimanguillo","latitude":17.85,"id":"a62uk0xnh8e9","users":1994,"longitude":-93.38333},"type":"Feature","geometry":{"type":"Point","coordinates":[-93.38333,17.85]}},{"properties":{"city":"Juárez","latitude":24.8206,"id":"a62uk0qum031","users":2026,"longitude":-104.0275},"type":"Feature","geometry":{"type":"Point","coordinates":[-104.0275,24.8206]}},{"properties":{"city":"Nuevo Casas Grandes","latitude":30.4167,"id":"a62uk0swv9zi","users":2073,"longitude":-107.9167},"type":"Feature","geometry":{"type":"Point","coordinates":[-107.9167,30.4167]}},{"properties":{"city":"El Tabasqueño","latitude":17.8667,"id":"a62uk0z06z2r","users":2075,"longitude":-94.5333},"type":"Feature","geometry":{"type":"Point","coordinates":[-94.5333,17.8667]}},{"properties":{"city":"General Escobedo","latitude":25.1744,"id":"a62uk0qtes9h","users":2084,"longitude":-99.8792},"type":"Feature","geometry":{"type":"Point","coordinates":[-99.8792,25.1744]}},{"properties":{"city":"Valle Hermoso","latitude":25.6667,"id":"a62uk0ua5pvs","users":2093,"longitude":-97.8333},"type":"Feature","geometry":{"type":"Point","coordinates":[-97.8333,25.6667]}},{"properties":{"city":"Salvatierra","latitude":20.2167,"id":"a62uk0s1wew8","users":2097,"longitude":-100.8833},"type":"Feature","geometry":{"type":"Point","coordinates":[-100.8833,20.2167]}},{"properties":{"city":"Sonora","latitude":29.95,"id":"a62uk0ujge3u","users":2137,"longitude":-114.95},"type":"Feature","geometry":{"type":"Point","coordinates":[-114.95,29.95]}},{"properties":{"city":"Jojutla","latitude":18.6167,"id":"a62uk0smvb7w","users":2140,"longitude":-99.1833},"type":"Feature","geometry":{"type":"Point","coordinates":[-99.1833,18.6167]}},{"properties":{"city":"San Francisco del Rincón","latitude":21.0167,"id":"a62uk11ahmi8","users":2153,"longitude":-101.85},"type":"Feature","geometry":{"type":"Point","coordinates":[-101.85,21.0167]}},{"properties":{"city":"Guadalupe","latitude":21.0164,"id":"a62uk0ot7azr","users":2166,"longitude":-101.8264},"type":"Feature","geometry":{"type":"Point","coordinates":[-101.8264,21.0164]}},{"properties":{"city":"Huamantla","latitude":19.3153,"id":"a62uk0o652y8","users":2172,"longitude":-97.925},"type":"Feature","geometry":{"type":"Point","coordinates":[-97.925,19.3153]}},{"properties":{"city":"Cholula","latitude":19.0667,"id":"a62uk0um1aoy","users":2190,"longitude":-98.3},"type":"Feature","geometry":{"type":"Point","coordinates":[-98.3,19.0667]}},{"properties":{"city":"Tizayuca","latitude":19.8333,"id":"a62uk0u9zubs","users":2196,"longitude":-98.9833},"type":"Feature","geometry":{"type":"Point","coordinates":[-98.9833,19.8333]}},{"properties":{"city":"San Pedro","latitude":25.1722,"id":"a62uk0y1gqp6","users":2209,"longitude":-98.8431},"type":"Feature","geometry":{"type":"Point","coordinates":[-98.8431,25.1722]}},{"properties":{"city":"Estado de Michoacán de Ocampo","latitude":19.1667,"id":"a62uk0x19im5","users":2211,"longitude":-101.8333},"type":"Feature","geometry":{"type":"Point","coordinates":[-101.8333,19.1667]}},{"properties":{"city":"El Empalme","latitude":28.9667,"id":"a62uk0zs8xtd","users":2229,"longitude":-109.9667},"type":"Feature","geometry":{"type":"Point","coordinates":[-109.9667,28.9667]}},{"properties":{"city":"Madagascar","latitude":17.5,"id":"a62uk0utq5h3","users":2249,"longitude":-92.78333},"type":"Feature","geometry":{"type":"Point","coordinates":[-92.78333,17.5]}},{"properties":{"city":"Huatabampo","latitude":26.83333,"id":"a62uk0v1pwpi","users":2274,"longitude":-109.63333},"type":"Feature","geometry":{"type":"Point","coordinates":[-109.63333,26.83333]}},{"properties":{"city":"Yucatán","latitude":21.2125,"id":"a62uk11y7jmg","users":2323,"longitude":-87.7417},"type":"Feature","geometry":{"type":"Point","coordinates":[-87.7417,21.2125]}},{"properties":{"city":"Matehuala","latitude":23.65,"id":"a62uk10xrva9","users":2341,"longitude":-100.65},"type":"Feature","geometry":{"type":"Point","coordinates":[-100.65,23.65]}},{"properties":{"city":"Tonalá","latitude":22.5667,"id":"a62uk13xe4ed","users":2345,"longitude":-103.7333},"type":"Feature","geometry":{"type":"Point","coordinates":[-103.7333,22.5667]}},{"properties":{"city":"México","latitude":28.6333,"id":"a62uk11t6buc","users":2368,"longitude":-111.6333},"type":"Feature","geometry":{"type":"Point","coordinates":[-111.6333,28.6333]}},{"properties":{"city":"Linares","latitude":24.85777,"id":"a62uk0ymkns5","users":2373,"longitude":-99.56777},"type":"Feature","geometry":{"type":"Point","coordinates":[-99.56777,24.85777]}},{"properties":{"city":"Taxco de Alarcón","latitude":18.55,"id":"a62uk0ojkhh8","users":2383,"longitude":-99.6},"type":"Feature","geometry":{"type":"Point","coordinates":[-99.6,18.55]}},{"properties":{"city":"Garza García","latitude":25.6667,"id":"a62uk0umjsc6","users":2384,"longitude":-100.4},"type":"Feature","geometry":{"type":"Point","coordinates":[-100.4,25.6667]}},{"properties":{"city":"Valle de Santiago","latitude":20.3833,"id":"a62uk0r0ir24","users":2385,"longitude":-101.2},"type":"Feature","geometry":{"type":"Point","coordinates":[-101.2,20.3833]}},{"properties":{"city":"Los Escareño","latitude":23.05,"id":"a62uk0vn1qsm","users":2396,"longitude":-101.9833},"type":"Feature","geometry":{"type":"Point","coordinates":[-101.9833,23.05]}},{"properties":{"city":"Villa de Alvarez","latitude":19.25,"id":"a62uk0u0vwls","users":2460,"longitude":-103.73333},"type":"Feature","geometry":{"type":"Point","coordinates":[-103.73333,19.25]}},{"properties":{"city":"Moroleón","latitude":20.1333,"id":"a62uk0w29zi1","users":2465,"longitude":-101.2},"type":"Feature","geometry":{"type":"Point","coordinates":[-101.2,20.1333]}},{"properties":{"city":"Cananea","latitude":30.95,"id":"a62uk0wgkmbv","users":2467,"longitude":-110.3},"type":"Feature","geometry":{"type":"Point","coordinates":[-110.3,30.95]}},{"properties":{"city":"Hidalgo","latitude":15.9608,"id":"a62uk0sot8wu","users":2472,"longitude":-97.2597},"type":"Feature","geometry":{"type":"Point","coordinates":[-97.2597,15.9608]}},{"properties":{"city":"Ciudad Camargo","latitude":27.6667,"id":"a62uk0v293zy","users":2480,"longitude":-105.1667},"type":"Feature","geometry":{"type":"Point","coordinates":[-105.1667,27.6667]}},{"properties":{"city":"Santa Catarina","latitude":25.68333,"id":"a62uk11o0cbp","users":2489,"longitude":-100.46666},"type":"Feature","geometry":{"type":"Point","coordinates":[-100.46666,25.68333]}},{"properties":{"city":"Papantla de Olarte","latitude":20.45,"id":"a62uk120uwqm","users":2502,"longitude":-97.3167},"type":"Feature","geometry":{"type":"Point","coordinates":[-97.3167,20.45]}},{"properties":{"city":"Actopan","latitude":20.26666,"id":"a62uk10gwjnk","users":2517,"longitude":-98.93333},"type":"Feature","geometry":{"type":"Point","coordinates":[-98.93333,20.26666]}},{"properties":{"city":"Arandas","latitude":20.7,"id":"a62uk141wsos","users":2528,"longitude":-102.35},"type":"Feature","geometry":{"type":"Point","coordinates":[-102.35,20.7]}},{"properties":{"city":"Boca del Río","latitude":19.1,"id":"a62uk12o3mel","users":2534,"longitude":-96.1},"type":"Feature","geometry":{"type":"Point","coordinates":[-96.1,19.1]}},{"properties":{"city":"Zacatlán","latitude":19.9333,"id":"a62uk0px1264","users":2547,"longitude":-97.9667},"type":"Feature","geometry":{"type":"Point","coordinates":[-97.9667,19.9333]}},{"properties":{"city":"Martínez de La Torre","latitude":20.0667,"id":"a62uk0ylmnqn","users":2563,"longitude":-97.05},"type":"Feature","geometry":{"type":"Point","coordinates":[-97.05,20.0667]}},{"properties":{"city":"Cuautitlán","latitude":19.6711,"id":"a62uk13v0ytb","users":2585,"longitude":-99.1828},"type":"Feature","geometry":{"type":"Point","coordinates":[-99.1828,19.6711]}},{"properties":{"city":"Madero","latitude":22.43333,"id":"a62uk0ytjx58","users":2587,"longitude":-102.0},"type":"Feature","geometry":{"type":"Point","coordinates":[-102.0,22.43333]}},{"properties":{"city":"Tecoman","latitude":18.9472,"id":"a62uk0q0nyns","users":2652,"longitude":-103.9},"type":"Feature","geometry":{"type":"Point","coordinates":[-103.9,18.9472]}},{"properties":{"city":"Orizaba","latitude":18.85,"id":"a62uk0q28zfl","users":2696,"longitude":-97.1},"type":"Feature","geometry":{"type":"Point","coordinates":[-97.1,18.85]}},{"properties":{"city":"Cortazar","latitude":20.4833,"id":"a62uk10pnnkb","users":2698,"longitude":-100.9333},"type":"Feature","geometry":{"type":"Point","coordinates":[-100.9333,20.4833]}},{"properties":{"city":"El Guamuchil","latitude":26.9333,"id":"a62uk0p1ftfb","users":2749,"longitude":-108.1167},"type":"Feature","geometry":{"type":"Point","coordinates":[-108.1167,26.9333]}},{"properties":{"city":"Atizapán de Zaragoza","latitude":19.5583,"id":"a62uk0sz6gyz","users":2750,"longitude":-99.2614},"type":"Feature","geometry":{"type":"Point","coordinates":[-99.2614,19.5583]}},{"properties":{"city":"Coyoacán","latitude":19.3289,"id":"a62uk0pdr2s1","users":2760,"longitude":-99.1603},"type":"Feature","geometry":{"type":"Point","coordinates":[-99.1603,19.3289]}},{"properties":{"city":"Ciudad Queretaro","latitude":20.6,"id":"a62uk0qm7d0y","users":2767,"longitude":-100.3833},"type":"Feature","geometry":{"type":"Point","coordinates":[-100.3833,20.6]}},{"properties":{"city":"Macuspana","latitude":17.76666,"id":"a62uk0tvilzp","users":2821,"longitude":-92.6},"type":"Feature","geometry":{"type":"Point","coordinates":[-92.6,17.76666]}},{"properties":{"city":"La Paz","latitude":24.1667,"id":"a62uk0pd32qi","users":2842,"longitude":-110.3},"type":"Feature","geometry":{"type":"Point","coordinates":[-110.3,24.1667]}},{"properties":{"city":"Ciudad Guzmán","latitude":19.6833,"id":"a62uk101uxpa","users":2852,"longitude":-103.4833},"type":"Feature","geometry":{"type":"Point","coordinates":[-103.4833,19.6833]}},{"properties":{"city":"Lerdo","latitude":25.5333,"id":"a62uk0o1w0fr","users":2856,"longitude":-103.5333},"type":"Feature","geometry":{"type":"Point","coordinates":[-103.5333,25.5333]}},{"properties":{"city":"Villa de Cecilia","latitude":22.2667,"id":"a62uk0yvhtmy","users":2867,"longitude":-97.8333},"type":"Feature","geometry":{"type":"Point","coordinates":[-97.8333,22.2667]}},{"properties":{"city":"Ixmiquilpan","latitude":20.4833,"id":"a62uk10kpywd","users":2876,"longitude":-99.2333},"type":"Feature","geometry":{"type":"Point","coordinates":[-99.2333,20.4833]}},{"properties":{"city":"Vera Cruz","latitude":27.55,"id":"a62uk13q8ax9","users":2925,"longitude":-99.7167},"type":"Feature","geometry":{"type":"Point","coordinates":[-99.7167,27.55]}},{"properties":{"city":"Autlán de Navarro","latitude":19.7667,"id":"a62uk0p5bypq","users":2960,"longitude":-104.3667},"type":"Feature","geometry":{"type":"Point","coordinates":[-104.3667,19.7667]}},{"properties":{"city":"Huejutla de Reyes","latitude":21.1333,"id":"a62uk105kygp","users":3033,"longitude":-98.4167},"type":"Feature","geometry":{"type":"Point","coordinates":[-98.4167,21.1333]}},{"properties":{"city":"Tuxpan","latitude":21.95,"id":"a62uk11rr4g4","users":3060,"longitude":-105.3},"type":"Feature","geometry":{"type":"Point","coordinates":[-105.3,21.95]}},{"properties":{"city":"Valladolid","latitude":22.0333,"id":"a62uk0zuedhh","users":3074,"longitude":-102.3167},"type":"Feature","geometry":{"type":"Point","coordinates":[-102.3167,22.0333]}},{"properties":{"city":"Paraíso","latitude":18.1917,"id":"a62uk1146vpb","users":3101,"longitude":-92.2},"type":"Feature","geometry":{"type":"Point","coordinates":[-92.2,18.1917]}},{"properties":{"city":"Campestre Juárez","latitude":31.7167,"id":"a62uk0st5w7x","users":3102,"longitude":-106.3833},"type":"Feature","geometry":{"type":"Point","coordinates":[-106.3833,31.7167]}},{"properties":{"city":"San Luis","latitude":17.2667,"id":"a62uk10t10gq","users":3113,"longitude":-100.875},"type":"Feature","geometry":{"type":"Point","coordinates":[-100.875,17.2667]}},{"properties":{"city":"San Luis","latitude":22.15,"id":"a62uk0rxb11s","users":3121,"longitude":-100.9833},"type":"Feature","geometry":{"type":"Point","coordinates":[-100.9833,22.15]}},{"properties":{"city":"Sahuayo de Porfirio Díaz","latitude":20.0667,"id":"a62uk1171k5n","users":3172,"longitude":-102.7167},"type":"Feature","geometry":{"type":"Point","coordinates":[-102.7167,20.0667]}},{"properties":{"city":"Huauchinango","latitude":20.18333,"id":"a62uk0r15x5j","users":3183,"longitude":-98.05},"type":"Feature","geometry":{"type":"Point","coordinates":[-98.05,20.18333]}},{"properties":{"city":"Ixtapaluca","latitude":19.31666,"id":"a62uk11h7uye","users":3223,"longitude":-98.88333},"type":"Feature","geometry":{"type":"Point","coordinates":[-98.88333,19.31666]}},{"properties":{"city":"Acayucan","latitude":17.95,"id":"a62uk0qt9veb","users":3251,"longitude":-94.91666},"type":"Feature","geometry":{"type":"Point","coordinates":[-94.91666,17.95]}},{"properties":{"city":"Silao","latitude":20.93333,"id":"a62uk0o1wyf9","users":3253,"longitude":-101.43333},"type":"Feature","geometry":{"type":"Point","coordinates":[-101.43333,20.93333]}},{"properties":{"city":"Tlaquepaque","latitude":20.65,"id":"a62uk11ywf7i","users":3272,"longitude":-103.31666},"type":"Feature","geometry":{"type":"Point","coordinates":[-103.31666,20.65]}},{"properties":{"city":"Chalco","latitude":19.2667,"id":"a62uk0v194up","users":3323,"longitude":-98.9},"type":"Feature","geometry":{"type":"Point","coordinates":[-98.9,19.2667]}},{"properties":{"city":"Tizimín","latitude":21.15,"id":"a62uk0qmk25r","users":3344,"longitude":-88.15},"type":"Feature","geometry":{"type":"Point","coordinates":[-88.15,21.15]}},{"properties":{"city":"Palenque","latitude":17.5167,"id":"a62uk0ovmif8","users":3365,"longitude":-91.9667},"type":"Feature","geometry":{"type":"Point","coordinates":[-91.9667,17.5167]}},{"properties":{"city":"Colima","latitude":19.2333,"id":"a62uk11mcoss","users":3365,"longitude":-103.7167},"type":"Feature","geometry":{"type":"Point","coordinates":[-103.7167,19.2333]}},{"properties":{"city":"Acámbaro","latitude":20.0333,"id":"a62uk0x54qu2","users":3380,"longitude":-100.7333},"type":"Feature","geometry":{"type":"Point","coordinates":[-100.7333,20.0333]}},{"properties":{"city":"San Luis Potosí","latitude":16.6139,"id":"a62uk12h36da","users":3450,"longitude":-91.6333},"type":"Feature","geometry":{"type":"Point","coordinates":[-91.6333,16.6139]}},{"properties":{"city":"Rosarito","latitude":26.4519,"id":"a62uk0shw3sh","users":3506,"longitude":-111.6528},"type":"Feature","geometry":{"type":"Point","coordinates":[-111.6528,26.4519]}},{"properties":{"city":"Dolores Hidalgo","latitude":21.1561,"id":"a62uk0xv36qr","users":3542,"longitude":-100.9308},"type":"Feature","geometry":{"type":"Point","coordinates":[-100.9308,21.1561]}},{"properties":{"city":"Puerto Rico","latitude":24.2333,"id":"a62uk0suuiif","users":3610,"longitude":-98.9833},"type":"Feature","geometry":{"type":"Point","coordinates":[-98.9833,24.2333]}},{"properties":{"city":"Venustiano Carranza","latitude":24.45,"id":"a62uk0x85qkk","users":3633,"longitude":-104.6},"type":"Feature","geometry":{"type":"Point","coordinates":[-104.6,24.45]}},{"properties":{"city":"Puerto Vallarta","latitude":20.62201,"id":"a62uk0yh7u50","users":3689,"longitude":-105.22845},"type":"Feature","geometry":{"type":"Point","coordinates":[-105.22845,20.62201]}},{"properties":{"city":"México Libre","latitude":22.6333,"id":"a62uk0o2t9g6","users":3701,"longitude":-99.15},"type":"Feature","geometry":{"type":"Point","coordinates":[-99.15,22.6333]}},{"properties":{"city":"San Pedro Atlixco","latitude":18.9667,"id":"a62uk0zv2jem","users":3704,"longitude":-98.4667},"type":"Feature","geometry":{"type":"Point","coordinates":[-98.4667,18.9667]}},{"properties":{"city":"Agua Prieta","latitude":31.3,"id":"a62uk12fpvpg","users":3859,"longitude":-109.5667},"type":"Feature","geometry":{"type":"Point","coordinates":[-109.5667,31.3]}},{"properties":{"city":"El Parral","latitude":30.4833,"id":"a62uk0rgnrxs","users":3909,"longitude":-115.1167},"type":"Feature","geometry":{"type":"Point","coordinates":[-115.1167,30.4833]}},{"properties":{"city":"Juchitan","latitude":16.4333,"id":"a62uk0tu4c3s","users":3937,"longitude":-95.0167},"type":"Feature","geometry":{"type":"Point","coordinates":[-95.0167,16.4333]}},{"properties":{"city":"Iguala","latitude":17.85,"id":"a62uk0xs0zox","users":3949,"longitude":-100.36666},"type":"Feature","geometry":{"type":"Point","coordinates":[-100.36666,17.85]}},{"properties":{"city":"Italia","latitude":18.13333,"id":"a62uk1310osj","users":3952,"longitude":-92.18333},"type":"Feature","geometry":{"type":"Point","coordinates":[-92.18333,18.13333]}},{"properties":{"city":"Zitácuaro","latitude":19.4,"id":"a62uk14ar2l7","users":4056,"longitude":-100.3667},"type":"Feature","geometry":{"type":"Point","coordinates":[-100.3667,19.4]}},{"properties":{"city":"Heroica Caborca","latitude":30.7167,"id":"a62uk0tkg0wm","users":4091,"longitude":-112.15},"type":"Feature","geometry":{"type":"Point","coordinates":[-112.15,30.7167]}},{"properties":{"city":"Jiutepec","latitude":18.8667,"id":"a62uk0xcxr78","users":4221,"longitude":-99.1833},"type":"Feature","geometry":{"type":"Point","coordinates":[-99.1833,18.8667]}},{"properties":{"city":"México","latitude":15.9833,"id":"a62uk12l7zb4","users":4229,"longitude":-93.2083},"type":"Feature","geometry":{"type":"Point","coordinates":[-93.2083,15.9833]}},{"properties":{"city":"Estado de Zacatecas","latitude":23.0,"id":"a62uk11u5r2z","users":4258,"longitude":-103.0},"type":"Feature","geometry":{"type":"Point","coordinates":[-103.0,23.0]}},{"properties":{"city":"Ensenada","latitude":31.8667,"id":"a62uk0t1fbfl","users":4292,"longitude":-116.6167},"type":"Feature","geometry":{"type":"Point","coordinates":[-116.6167,31.8667]}},{"properties":{"city":"Cuauhtémoc","latitude":16.7097,"id":"a62uk0y3x23j","users":4308,"longitude":-94.6717},"type":"Feature","geometry":{"type":"Point","coordinates":[-94.6717,16.7097]}},{"properties":{"city":"Apatzingan","latitude":19.0833,"id":"a62uk0pd5kou","users":4359,"longitude":-102.35},"type":"Feature","geometry":{"type":"Point","coordinates":[-102.35,19.0833]}},{"properties":{"city":"Quintana","latitude":20.4625,"id":"a62uk0vc7nmg","users":4362,"longitude":-88.1333},"type":"Feature","geometry":{"type":"Point","coordinates":[-88.1333,20.4625]}},{"properties":{"city":"Río Bravo","latitude":25.9833,"id":"a62uk0x0gp4b","users":4397,"longitude":-98.1},"type":"Feature","geometry":{"type":"Point","coordinates":[-98.1,25.9833]}},{"properties":{"city":"Coahuila","latitude":20.6833,"id":"a62uk1328r5m","users":4405,"longitude":-90.1667},"type":"Feature","geometry":{"type":"Point","coordinates":[-90.1667,20.6833]}},{"properties":{"city":"Puerto Peñasco","latitude":31.3167,"id":"a62uk0vrirrs","users":4444,"longitude":-113.5333},"type":"Feature","geometry":{"type":"Point","coordinates":[-113.5333,31.3167]}},{"properties":{"city":"La Piedad","latitude":19.6658,"id":"a62uk0x2q5if","users":4524,"longitude":-99.2414},"type":"Feature","geometry":{"type":"Point","coordinates":[-99.2414,19.6658]}},{"properties":{"city":"Tepatitlán de Morelos","latitude":20.8167,"id":"a62uk0pdws18","users":4538,"longitude":-102.7333},"type":"Feature","geometry":{"type":"Point","coordinates":[-102.7333,20.8167]}},{"properties":{"city":"Estado de México","latitude":18.0167,"id":"a62uk0r1wexg","users":4614,"longitude":-90.8667},"type":"Feature","geometry":{"type":"Point","coordinates":[-90.8667,18.0167]}},{"properties":{"city":"Hernández","latitude":23.0333,"id":"a62uk0scihge","users":4726,"longitude":-102.0333},"type":"Feature","geometry":{"type":"Point","coordinates":[-102.0333,23.0333]}},{"properties":{"city":"Estado de Oaxaca","latitude":17.0,"id":"a62uk0y0294v","users":4730,"longitude":-96.5},"type":"Feature","geometry":{"type":"Point","coordinates":[-96.5,17.0]}},{"properties":{"city":"Chihuahuita","latitude":28.1167,"id":"a62uk12ajer8","users":4765,"longitude":-107.2167},"type":"Feature","geometry":{"type":"Point","coordinates":[-107.2167,28.1167]}},{"properties":{"city":"Salina Cruz","latitude":16.16666,"id":"a62uk11gfgc5","users":4821,"longitude":-95.2},"type":"Feature","geometry":{"type":"Point","coordinates":[-95.2,16.16666]}},{"properties":{"city":"Iztapalapa","latitude":19.3511,"id":"a62uk13eidtz","users":4879,"longitude":-99.0519},"type":"Feature","geometry":{"type":"Point","coordinates":[-99.0519,19.3511]}},{"properties":{"city":"Apodaca","latitude":25.76666,"id":"a62uk11ur5j1","users":4940,"longitude":-100.2},"type":"Feature","geometry":{"type":"Point","coordinates":[-100.2,25.76666]}},{"properties":{"city":"Tuxpan","latitude":20.95,"id":"a62uk0re06hj","users":4955,"longitude":-97.4},"type":"Feature","geometry":{"type":"Point","coordinates":[-97.4,20.95]}},{"properties":{"city":"Altamira","latitude":25.1236,"id":"a62uk0o2i2ga","users":4956,"longitude":-99.7342},"type":"Feature","geometry":{"type":"Point","coordinates":[-99.7342,25.1236]}},{"properties":{"city":"Teziutlán","latitude":19.8167,"id":"a62uk0o1z8yd","users":5098,"longitude":-97.35},"type":"Feature","geometry":{"type":"Point","coordinates":[-97.35,19.8167]}},{"properties":{"city":"Tula de Allende","latitude":25.4667,"id":"a62uk0zahezc","users":5106,"longitude":-108.65},"type":"Feature","geometry":{"type":"Point","coordinates":[-108.65,25.4667]}},{"properties":{"city":"Estado de Tabasco","latitude":18.0,"id":"a62uk12gp2xf","users":5283,"longitude":-92.6667},"type":"Feature","geometry":{"type":"Point","coordinates":[-92.6667,18.0]}},{"properties":{"city":"Tepic","latitude":21.5167,"id":"a62uk0ys5ff3","users":5318,"longitude":-104.8833},"type":"Feature","geometry":{"type":"Point","coordinates":[-104.8833,21.5167]}},{"properties":{"city":"Tultitlán","latitude":20.45,"id":"a62uk12t1seg","users":5402,"longitude":-97.7333},"type":"Feature","geometry":{"type":"Point","coordinates":[-97.7333,20.45]}},{"properties":{"city":"Fresnillo","latitude":23.1667,"id":"a62uk0xwmbjz","users":5424,"longitude":-102.8833},"type":"Feature","geometry":{"type":"Point","coordinates":[-102.8833,23.1667]}},{"properties":{"city":"San Juan Cuautla","latitude":18.2333,"id":"a62uk0z093v8","users":5457,"longitude":-96.95},"type":"Feature","geometry":{"type":"Point","coordinates":[-96.95,18.2333]}},{"properties":{"city":"El León","latitude":30.7167,"id":"a62uk0xiqb9g","users":5457,"longitude":-107.6333},"type":"Feature","geometry":{"type":"Point","coordinates":[-107.6333,30.7167]}},{"properties":{"city":"Comalcalco","latitude":18.26666,"id":"a62uk0ovqq82","users":5489,"longitude":-93.21666},"type":"Feature","geometry":{"type":"Point","coordinates":[-93.21666,18.26666]}},{"properties":{"city":"Iguala de la Independencia","latitude":18.35,"id":"a62uk105meiy","users":5683,"longitude":-99.5333},"type":"Feature","geometry":{"type":"Point","coordinates":[-99.5333,18.35]}},{"properties":{"city":"Ciudad Acuña","latitude":29.3,"id":"a62uk0ukkrva","users":5727,"longitude":-100.9167},"type":"Feature","geometry":{"type":"Point","coordinates":[-100.9167,29.3]}},{"properties":{"city":"San Miguel de Allende","latitude":20.9167,"id":"a62uk0zrc73u","users":5809,"longitude":-100.75},"type":"Feature","geometry":{"type":"Point","coordinates":[-100.75,20.9167]}},{"properties":{"city":"Lagos de Moreno","latitude":21.35,"id":"a62uk0tdl3yu","users":5829,"longitude":-101.91666},"type":"Feature","geometry":{"type":"Point","coordinates":[-101.91666,21.35]}},{"properties":{"city":"Zihuatanejo","latitude":17.63333,"id":"a62uk0ryqhqo","users":5921,"longitude":-101.55},"type":"Feature","geometry":{"type":"Point","coordinates":[-101.55,17.63333]}},{"properties":{"city":"Tlalnepantla","latitude":19.5269,"id":"a62uk138wso8","users":5932,"longitude":-99.2217},"type":"Feature","geometry":{"type":"Point","coordinates":[-99.2217,19.5269]}},{"properties":{"city":"Victoriano","latitude":26.35,"id":"a62uk0uz45nx","users":6035,"longitude":-99.03333},"type":"Feature","geometry":{"type":"Point","coordinates":[-99.03333,26.35]}},{"properties":{"city":"México","latitude":32.5139,"id":"a62uk0x10bfg","users":6213,"longitude":-114.9761},"type":"Feature","geometry":{"type":"Point","coordinates":[-114.9761,32.5139]}},{"properties":{"city":"Estados Unidos","latitude":25.11666,"id":"a62uk0pymgzk","users":6216,"longitude":-100.46666},"type":"Feature","geometry":{"type":"Point","coordinates":[-100.46666,25.11666]}},{"properties":{"city":"Comitan","latitude":16.25,"id":"a62uk0u21nvl","users":6401,"longitude":-92.1333},"type":"Feature","geometry":{"type":"Point","coordinates":[-92.1333,16.25]}},{"properties":{"city":"Jalisco","latitude":17.9333,"id":"a62uk0q9ljpk","users":6434,"longitude":-91.4833},"type":"Feature","geometry":{"type":"Point","coordinates":[-91.4833,17.9333]}},{"properties":{"city":"Piedras Negras","latitude":28.7,"id":"a62uk0obyz6i","users":6496,"longitude":-100.5667},"type":"Feature","geometry":{"type":"Point","coordinates":[-100.5667,28.7]}},{"properties":{"city":"Tecate","latitude":32.5667,"id":"a62uk11xb1nz","users":6556,"longitude":-116.6333},"type":"Feature","geometry":{"type":"Point","coordinates":[-116.6333,32.5667]}},{"properties":{"city":"Santa María Ecatepec","latitude":16.2833,"id":"a62uk0o81iyp","users":6621,"longitude":-95.8833},"type":"Feature","geometry":{"type":"Point","coordinates":[-95.8833,16.2833]}},{"properties":{"city":"Lázaro Cárdenas","latitude":21.1583,"id":"a62uk11c61ii","users":6685,"longitude":-98.2806},"type":"Feature","geometry":{"type":"Point","coordinates":[-98.2806,21.1583]}},{"properties":{"city":"Delicias","latitude":30.3833,"id":"a62uk12c7jeo","users":6738,"longitude":-108.6},"type":"Feature","geometry":{"type":"Point","coordinates":[-108.6,30.3833]}},{"properties":{"city":"Ciudad Valles","latitude":21.9833,"id":"a62uk0pfyxxr","users":6797,"longitude":-99.0167},"type":"Feature","geometry":{"type":"Point","coordinates":[-99.0167,21.9833]}},{"properties":{"city":"Apizaco","latitude":19.41666,"id":"a62uk0r83eqm","users":6840,"longitude":-98.15},"type":"Feature","geometry":{"type":"Point","coordinates":[-98.15,19.41666]}},{"properties":{"city":"Estado de Tamaulipas","latitude":24.0,"id":"a62uk0ykhxit","users":6886,"longitude":-98.75},"type":"Feature","geometry":{"type":"Point","coordinates":[-98.75,24.0]}},{"properties":{"city":"Nayarit","latitude":21.6542,"id":"a62uk13926jm","users":6991,"longitude":-106.5458},"type":"Feature","geometry":{"type":"Point","coordinates":[-106.5458,21.6542]}},{"properties":{"city":"San José del Cabo","latitude":23.05,"id":"a62uk0v4sag4","users":7022,"longitude":-109.6833},"type":"Feature","geometry":{"type":"Point","coordinates":[-109.6833,23.05]}},{"properties":{"city":"San Juan del Río","latitude":18.1931,"id":"a62uk0p45ukv","users":7202,"longitude":-98.5069},"type":"Feature","geometry":{"type":"Point","coordinates":[-98.5069,18.1931]}},{"properties":{"city":"Torreón","latitude":25.55,"id":"a62uk0o9tr5h","users":7520,"longitude":-103.4333},"type":"Feature","geometry":{"type":"Point","coordinates":[-103.4333,25.55]}},{"properties":{"city":"Naucalpan de Juárez","latitude":19.4794,"id":"a62uk0ykerxg","users":7597,"longitude":-99.2383},"type":"Feature","geometry":{"type":"Point","coordinates":[-99.2383,19.4794]}},{"properties":{"city":"Metepec","latitude":19.9917,"id":"a62uk12xxk51","users":7638,"longitude":-98.05},"type":"Feature","geometry":{"type":"Point","coordinates":[-98.05,19.9917]}},{"properties":{"city":"San Luis Río Colorado","latitude":32.4631,"id":"a62uk0vcuw3p","users":7929,"longitude":-114.7767},"type":"Feature","geometry":{"type":"Point","coordinates":[-114.7767,32.4631]}},{"properties":{"city":"Tuxtepec","latitude":18.1,"id":"a62uk0s26d4n","users":8053,"longitude":-96.1167},"type":"Feature","geometry":{"type":"Point","coordinates":[-96.1167,18.1]}},{"properties":{"city":"Cozumel","latitude":20.5083,"id":"a62uk11scom1","users":8106,"longitude":-86.9458},"type":"Feature","geometry":{"type":"Point","coordinates":[-86.9458,20.5083]}},{"properties":{"city":"Victoria","latitude":21.2108,"id":"a62uk11t62rg","users":8235,"longitude":-100.2119},"type":"Feature","geometry":{"type":"Point","coordinates":[-100.2119,21.2108]}},{"properties":{"city":"Queretano","latitude":25.66666,"id":"a62uk113i1w8","users":8258,"longitude":-108.46666},"type":"Feature","geometry":{"type":"Point","coordinates":[-108.46666,25.66666]}},{"properties":{"city":"Texcoco","latitude":19.5167,"id":"a62uk14akpuo","users":8417,"longitude":-98.8833},"type":"Feature","geometry":{"type":"Point","coordinates":[-98.8833,19.5167]}},{"properties":{"city":"Villa del Refugio","latitude":21.8667,"id":"a62uk0pdr9i6","users":8467,"longitude":-102.9167},"type":"Feature","geometry":{"type":"Point","coordinates":[-102.9167,21.8667]}},{"properties":{"city":"Cárdenas","latitude":17.9833,"id":"a62uk0x5qqle","users":8501,"longitude":-93.3667},"type":"Feature","geometry":{"type":"Point","coordinates":[-93.3667,17.9833]}},{"properties":{"city":"Cuautla Morelos","latitude":18.8,"id":"a62uk13yt05g","users":8619,"longitude":-98.95},"type":"Feature","geometry":{"type":"Point","coordinates":[-98.95,18.8]}},{"properties":{"city":"Ecatepec","latitude":19.6011,"id":"a62uk0wztwk8","users":8624,"longitude":-99.0525},"type":"Feature","geometry":{"type":"Point","coordinates":[-99.0525,19.6011]}},{"properties":{"city":"San Nicolás de los Garzas","latitude":25.75,"id":"a62uk0z23bhd","users":8758,"longitude":-100.3},"type":"Feature","geometry":{"type":"Point","coordinates":[-100.3,25.75]}},{"properties":{"city":"Federal District","latitude":19.42705,"id":"a62uk0vukgez","users":8792,"longitude":-99.12757},"type":"Feature","geometry":{"type":"Point","coordinates":[-99.12757,19.42705]}},{"properties":{"city":"Sonoral","latitude":20.78333,"id":"a62uk0tol1cr","users":9054,"longitude":-105.16666},"type":"Feature","geometry":{"type":"Point","coordinates":[-105.16666,20.78333]}},{"properties":{"city":"Navojoa","latitude":27.1,"id":"a62uk12p5hpk","users":9105,"longitude":-109.4333},"type":"Feature","geometry":{"type":"Point","coordinates":[-109.4333,27.1]}},{"properties":{"city":"Guasave","latitude":25.5667,"id":"a62uk0vi9rbi","users":9397,"longitude":-108.45},"type":"Feature","geometry":{"type":"Point","coordinates":[-108.45,25.5667]}},{"properties":{"city":"Coacalco","latitude":19.6317,"id":"a62uk13oqkqe","users":9842,"longitude":-99.1103},"type":"Feature","geometry":{"type":"Point","coordinates":[-99.1103,19.6317]}},{"properties":{"city":"Minatitlán","latitude":19.3667,"id":"a62uk0s5q3hw","users":9933,"longitude":-104.0667},"type":"Feature","geometry":{"type":"Point","coordinates":[-104.0667,19.3667]}},{"properties":{"city":"Morelia","latitude":19.70059,"id":"a62uk0yi5zit","users":10199,"longitude":-101.18642},"type":"Feature","geometry":{"type":"Point","coordinates":[-101.18642,19.70059]}},{"properties":{"city":"Baja California","latitude":16.41666,"id":"a62uk0yw57ml","users":10230,"longitude":-93.78333},"type":"Feature","geometry":{"type":"Point","coordinates":[-93.78333,16.41666]}},{"properties":{"city":"San Cristóbal de Las Casas","latitude":16.75,"id":"a62uk0tibddq","users":10279,"longitude":-92.6333},"type":"Feature","geometry":{"type":"Point","coordinates":[-92.6333,16.75]}},{"properties":{"city":"Cabo San Lucas","latitude":28.1667,"id":"a62uk0vrvewv","users":10827,"longitude":-100.1667},"type":"Feature","geometry":{"type":"Point","coordinates":[-100.1667,28.1667]}},{"properties":{"city":"Poza Rica de Hidalgo","latitude":20.55,"id":"a62uk0qo46tn","users":10836,"longitude":-97.45},"type":"Feature","geometry":{"type":"Point","coordinates":[-97.45,20.55]}},{"properties":{"city":"Tijuana","latitude":25.25,"id":"a62uk0r2qj0t","users":11121,"longitude":-111.1333},"type":"Feature","geometry":{"type":"Point","coordinates":[-111.1333,25.25]}},{"properties":{"city":"Guaymas","latitude":27.9333,"id":"a62uk0whwok5","users":11603,"longitude":-110.9},"type":"Feature","geometry":{"type":"Point","coordinates":[-110.9,27.9333]}},{"properties":{"city":"Tulancingo","latitude":20.08333,"id":"a62uk11vqliw","users":12383,"longitude":-98.36666},"type":"Feature","geometry":{"type":"Point","coordinates":[-98.36666,20.08333]}},{"properties":{"city":"Sinaloa de Leyva","latitude":26.3667,"id":"a62uk0xrk3nx","users":12525,"longitude":-108.9833},"type":"Feature","geometry":{"type":"Point","coordinates":[-108.9833,26.3667]}},{"properties":{"city":"Zamora","latitude":19.9833,"id":"a62uk0uj75ev","users":12681,"longitude":-102.2667},"type":"Feature","geometry":{"type":"Point","coordinates":[-102.2667,19.9833]}},{"properties":{"city":"Guadalupe","latitude":24.4458,"id":"a62uk0sl1b4u","users":12775,"longitude":-99.8206},"type":"Feature","geometry":{"type":"Point","coordinates":[-99.8206,24.4458]}},{"properties":{"city":"Poza Rica","latitude":21.2667,"id":"a62uk0qnswkz","users":12853,"longitude":-98.3},"type":"Feature","geometry":{"type":"Point","coordinates":[-98.3,21.2667]}},{"properties":{"city":"Morelos","latitude":20.4603,"id":"a62uk1386m7b","users":13097,"longitude":-101.0572},"type":"Feature","geometry":{"type":"Point","coordinates":[-101.0572,20.4603]}},{"properties":{"city":"Manzanillo","latitude":19.05,"id":"a62uk0y81s9d","users":13411,"longitude":-104.33333},"type":"Feature","geometry":{"type":"Point","coordinates":[-104.33333,19.05]}},{"properties":{"city":"Gómez Palacio","latitude":25.5667,"id":"a62uk0xpcmjm","users":13418,"longitude":-103.5},"type":"Feature","geometry":{"type":"Point","coordinates":[-103.5,25.5667]}},{"properties":{"city":"Guerrero","latitude":17.05,"id":"a62uk0ynp2r9","users":14178,"longitude":-99.61666},"type":"Feature","geometry":{"type":"Point","coordinates":[-99.61666,17.05]}},{"properties":{"city":"Ciudad Victoria","latitude":23.73333,"id":"a62uk0ud0rmi","users":14215,"longitude":-99.13333},"type":"Feature","geometry":{"type":"Point","coordinates":[-99.13333,23.73333]}},{"properties":{"city":"Salamanca","latitude":20.5667,"id":"a62uk0ps5mwg","users":14924,"longitude":-101.2},"type":"Feature","geometry":{"type":"Point","coordinates":[-101.2,20.5667]}},{"properties":{"city":"Ciudad Nezahualcóyotl","latitude":19.4136,"id":"a62uk0tf4qtd","users":15003,"longitude":-99.0331},"type":"Feature","geometry":{"type":"Point","coordinates":[-99.0331,19.4136]}},{"properties":{"city":"Cuautitlán Izcalli","latitude":19.6469,"id":"a62uk11jv73w","users":15267,"longitude":-99.2467},"type":"Feature","geometry":{"type":"Point","coordinates":[-99.2467,19.6469]}},{"properties":{"city":"Reynosa Tamaulipas","latitude":19.5,"id":"a62uk0qfs3pt","users":15587,"longitude":-99.1833},"type":"Feature","geometry":{"type":"Point","coordinates":[-99.1833,19.5]}},{"properties":{"city":"Heroica Nogales","latitude":31.3333,"id":"a62uk0yzs2bs","users":15632,"longitude":-110.9333},"type":"Feature","geometry":{"type":"Point","coordinates":[-110.9333,31.3333]}},{"properties":{"city":"Monterrey","latitude":25.6667,"id":"a62uk0xy4zkt","users":15853,"longitude":-100.3167},"type":"Feature","geometry":{"type":"Point","coordinates":[-100.3167,25.6667]}},{"properties":{"city":"Orizaba","latitude":18.9667,"id":"a62uk0u0hadm","users":16307,"longitude":-91.2333},"type":"Feature","geometry":{"type":"Point","coordinates":[-91.2333,18.9667]}},{"properties":{"city":"Monclova","latitude":26.9,"id":"a62uk0o0h8cl","users":16375,"longitude":-101.4167},"type":"Feature","geometry":{"type":"Point","coordinates":[-101.4167,26.9]}},{"properties":{"city":"Tehuacán","latitude":18.45,"id":"a62uk0txmxgw","users":16500,"longitude":-97.3833},"type":"Feature","geometry":{"type":"Point","coordinates":[-97.3833,18.45]}},{"properties":{"city":"Michoacán de Ocampo","latitude":32.4647,"id":"a62uk131a6xn","users":16958,"longitude":-115.3086},"type":"Feature","geometry":{"type":"Point","coordinates":[-115.3086,32.4647]}},{"properties":{"city":"Playa del Carmen","latitude":20.6167,"id":"a62uk0y2ff86","users":17029,"longitude":-87.0667},"type":"Feature","geometry":{"type":"Point","coordinates":[-87.0667,20.6167]}},{"properties":{"city":"Chilpancingo","latitude":17.55,"id":"a62uk0vay6ub","users":17538,"longitude":-99.5},"type":"Feature","geometry":{"type":"Point","coordinates":[-99.5,17.55]}},{"properties":{"city":"Uruapan","latitude":19.41721,"id":"a62uk0qeqtoz","users":17770,"longitude":-102.05036},"type":"Feature","geometry":{"type":"Point","coordinates":[-102.05036,19.41721]}},{"properties":{"city":"Carmen","latitude":17.9083,"id":"a62uk0rnszjw","users":17817,"longitude":-92.0708},"type":"Feature","geometry":{"type":"Point","coordinates":[-92.0708,17.9083]}},{"properties":{"city":"Hidalgo","latitude":21.11388,"id":"a62uk0q1nqw7","users":18016,"longitude":-98.675},"type":"Feature","geometry":{"type":"Point","coordinates":[-98.675,21.11388]}},{"properties":{"city":"Córdoba","latitude":18.8833,"id":"a62uk0vonp3t","users":18405,"longitude":-96.9333},"type":"Feature","geometry":{"type":"Point","coordinates":[-96.9333,18.8833]}},{"properties":{"city":"Chetumal","latitude":18.5,"id":"a62uk0uetvlo","users":19122,"longitude":-88.3},"type":"Feature","geometry":{"type":"Point","coordinates":[-88.3,18.5]}},{"properties":{"city":"Santa Maria","latitude":17.05,"id":"a62uk14ckozy","users":21185,"longitude":-96.7167},"type":"Feature","geometry":{"type":"Point","coordinates":[-96.7167,17.05]}},{"properties":{"city":"Tapachula","latitude":14.9,"id":"a62uk0u72tl7","users":24390,"longitude":-92.28333},"type":"Feature","geometry":{"type":"Point","coordinates":[-92.28333,14.9]}},{"properties":{"city":"Nuevo Laredo","latitude":27.5,"id":"a62uk0xtvuoa","users":27298,"longitude":-99.51666},"type":"Feature","geometry":{"type":"Point","coordinates":[-99.51666,27.5]}},{"properties":{"city":"Estado de Chiapas","latitude":16.5,"id":"a62uk0wkbqmx","users":27683,"longitude":-92.5},"type":"Feature","geometry":{"type":"Point","coordinates":[-92.5,16.5]}},{"properties":{"city":"La Paz","latitude":21.8167,"id":"a62uk0ujf007","users":28530,"longitude":-101.7667},"type":"Feature","geometry":{"type":"Point","coordinates":[-101.7667,21.8167]}},{"properties":{"city":"Distrito Federal","latitude":32.4914,"id":"a62uk108psa1","users":28560,"longitude":-115.0369},"type":"Feature","geometry":{"type":"Point","coordinates":[-115.0369,32.4914]}},{"properties":{"city":"Ciudad Obregón","latitude":27.4833,"id":"a62uk0y0qrsg","users":29176,"longitude":-109.9333},"type":"Feature","geometry":{"type":"Point","coordinates":[-109.9333,27.4833]}},{"properties":{"city":"Matamoros","latitude":25.8833,"id":"a62uk0x5ore4","users":30202,"longitude":-97.5},"type":"Feature","geometry":{"type":"Point","coordinates":[-97.5,25.8833]}},{"properties":{"city":"Los Mochis","latitude":25.7667,"id":"a62uk0r51dq3","users":30226,"longitude":-108.9667},"type":"Feature","geometry":{"type":"Point","coordinates":[-108.9667,25.7667]}},{"properties":{"city":"Puerto Vallarta","latitude":16.6417,"id":"a62uk106623t","users":30652,"longitude":-99.05},"type":"Feature","geometry":{"type":"Point","coordinates":[-99.05,16.6417]}},{"properties":{"city":"Colima","latitude":22.725,"id":"a62uk12bofv6","users":31947,"longitude":-105.1167},"type":"Feature","geometry":{"type":"Point","coordinates":[-105.1167,22.725]}},{"properties":{"city":"Paso del Norte","latitude":31.7333,"id":"a62uk0xqp7e9","users":32166,"longitude":-106.4833},"type":"Feature","geometry":{"type":"Point","coordinates":[-106.4833,31.7333]}},{"properties":{"city":"Coatzacoalcos","latitude":18.15,"id":"a62uk0orwn94","users":33506,"longitude":-94.4167},"type":"Feature","geometry":{"type":"Point","coordinates":[-94.4167,18.15]}},{"properties":{"city":"La Laguna","latitude":20.3667,"id":"a62uk0ydqg8m","users":34136,"longitude":-97.7569},"type":"Feature","geometry":{"type":"Point","coordinates":[-97.7569,20.3667]}},{"properties":{"city":"Irapuato","latitude":20.6833,"id":"a62uk101eu1d","users":34343,"longitude":-101.35},"type":"Feature","geometry":{"type":"Point","coordinates":[-101.35,20.6833]}},{"properties":{"city":"La Ensenada","latitude":21.6333,"id":"a62uk0ybgtoo","users":34382,"longitude":-98.4167},"type":"Feature","geometry":{"type":"Point","coordinates":[-98.4167,21.6333]}},{"properties":{"city":"Zapopan","latitude":20.71666,"id":"a62uk0qu3k1w","users":36958,"longitude":-103.4},"type":"Feature","geometry":{"type":"Point","coordinates":[-103.4,20.71666]}},{"properties":{"city":"Reynosa","latitude":26.0833,"id":"a62uk11jtncw","users":37758,"longitude":-98.2833},"type":"Feature","geometry":{"type":"Point","coordinates":[-98.2833,26.0833]}},{"properties":{"city":"Celaya","latitude":20.51666,"id":"a62uk0uudv0t","users":38155,"longitude":-100.81666},"type":"Feature","geometry":{"type":"Point","coordinates":[-100.81666,20.51666]}},{"properties":{"city":"Estado de Campeche","latitude":19.0,"id":"a62uk122nlpi","users":38586,"longitude":-90.5},"type":"Feature","geometry":{"type":"Point","coordinates":[-90.5,19.0]}},{"properties":{"city":"Mazatlán","latitude":23.2167,"id":"a62uk0t7nhzz","users":40905,"longitude":-106.4167},"type":"Feature","geometry":{"type":"Point","coordinates":[-106.4167,23.2167]}},{"properties":{"city":"Estado de Guanajuato","latitude":21.0,"id":"a62uk0xx40ah","users":41579,"longitude":-101.0},"type":"Feature","geometry":{"type":"Point","coordinates":[-101.0,21.0]}},{"properties":{"city":"Zacatecas","latitude":22.5917,"id":"a62uk112hw1m","users":44554,"longitude":-105.075},"type":"Feature","geometry":{"type":"Point","coordinates":[-105.075,22.5917]}},{"properties":{"city":"Torreon de Mata","latitude":28.8167,"id":"a62uk10p8wfh","users":44912,"longitude":-106.3},"type":"Feature","geometry":{"type":"Point","coordinates":[-106.3,28.8167]}},{"properties":{"city":"Saltillo","latitude":25.41666,"id":"a62uk0tu1fe0","users":47014,"longitude":-101.0},"type":"Feature","geometry":{"type":"Point","coordinates":[-101.0,25.41666]}},{"properties":{"city":"Juárez","latitude":28.2167,"id":"a62uk0sz4kot","users":48078,"longitude":-105.3167},"type":"Feature","geometry":{"type":"Point","coordinates":[-105.3167,28.2167]}},{"properties":{"city":"Tlaxcala","latitude":19.3139,"id":"a62uk0xrgob3","users":48802,"longitude":-98.2417},"type":"Feature","geometry":{"type":"Point","coordinates":[-98.2417,19.3139]}},{"properties":{"city":"Jalapa","latitude":19.5333,"id":"a62uk112ezwl","users":51723,"longitude":-96.9167},"type":"Feature","geometry":{"type":"Point","coordinates":[-96.9167,19.5333]}},{"properties":{"city":"Pachuca","latitude":20.1167,"id":"a62uk0vm0ptz","users":51895,"longitude":-98.7333},"type":"Feature","geometry":{"type":"Point","coordinates":[-98.7333,20.1167]}},{"properties":{"city":"Durango","latitude":24.0333,"id":"a62uk0qfwy39","users":57781,"longitude":-104.6667},"type":"Feature","geometry":{"type":"Point","coordinates":[-104.6667,24.0333]}},{"properties":{"city":"Acapulco de Juárez","latitude":16.85,"id":"a62uk0vfmlra","users":59798,"longitude":-99.9167},"type":"Feature","geometry":{"type":"Point","coordinates":[-99.9167,16.85]}},{"properties":{"city":"Tampico","latitude":22.3,"id":"a62uk0z6b9pu","users":64711,"longitude":-97.85},"type":"Feature","geometry":{"type":"Point","coordinates":[-97.85,22.3]}},{"properties":{"city":"Cuernavaca","latitude":18.93402,"id":"a62uk0o1jj79","users":73029,"longitude":-99.23148},"type":"Feature","geometry":{"type":"Point","coordinates":[-99.23148,18.93402]}},{"properties":{"city":"Culiacán","latitude":24.0,"id":"a62uk1043f4m","users":73318,"longitude":-107.0333},"type":"Feature","geometry":{"type":"Point","coordinates":[-107.0333,24.0]}},{"properties":{"city":"Tuxtla","latitude":16.75,"id":"a62uk0qmyn5n","users":75071,"longitude":-93.1167},"type":"Feature","geometry":{"type":"Point","coordinates":[-93.1167,16.75]}},{"properties":{"city":"Hermosillo","latitude":29.06666,"id":"a62uk0wq3hj7","users":75160,"longitude":-110.96666},"type":"Feature","geometry":{"type":"Point","coordinates":[-110.96666,29.06666]}},{"properties":{"city":"Aguascalientes","latitude":21.8833,"id":"a62uk0xg3e6r","users":78828,"longitude":-102.3},"type":"Feature","geometry":{"type":"Point","coordinates":[-102.3,21.8833]}},{"properties":{"city":"Morelia","latitude":17.2917,"id":"a62uk0uxgnre","users":80106,"longitude":-92.5167},"type":"Feature","geometry":{"type":"Point","coordinates":[-92.5167,17.2917]}},{"properties":{"city":"Oaxaca de Juárez","latitude":17.9667,"id":"a62uk0umwucv","users":80590,"longitude":-95.65},"type":"Feature","geometry":{"type":"Point","coordinates":[-95.65,17.9667]}},{"properties":{"city":"Mexicali","latitude":32.6519,"id":"a62uk0ov2wkz","users":82529,"longitude":-115.4683},"type":"Feature","geometry":{"type":"Point","coordinates":[-115.4683,32.6519]}},{"properties":{"city":"Cancún","latitude":21.1667,"id":"a62uk12g0jaq","users":83480,"longitude":-86.8333},"type":"Feature","geometry":{"type":"Point","coordinates":[-86.8333,21.1667]}},{"properties":{"city":"Villahermosa","latitude":17.98333,"id":"a62uk0vqjxvp","users":86433,"longitude":-92.91666},"type":"Feature","geometry":{"type":"Point","coordinates":[-92.91666,17.98333]}},{"properties":{"city":"León","latitude":21.1167,"id":"a62uk0r4j3zn","users":91588,"longitude":-101.6667},"type":"Feature","geometry":{"type":"Point","coordinates":[-101.6667,21.1167]}},{"properties":{"city":"Estado de Chihuahua","latitude":28.5,"id":"a62uk11amz2r","users":93352,"longitude":-106.0},"type":"Feature","geometry":{"type":"Point","coordinates":[-106.0,28.5]}},{"properties":{"city":"Estado de San Luis Potosí","latitude":22.5,"id":"a62uk0pmi00u","users":97961,"longitude":-100.5},"type":"Feature","geometry":{"type":"Point","coordinates":[-100.5,22.5]}},{"properties":{"city":"Toluca","latitude":19.2883,"id":"a62uk0v06lr8","users":98151,"longitude":-99.6672},"type":"Feature","geometry":{"type":"Point","coordinates":[-99.6672,19.2883]}},{"properties":{"city":"Queretaro","latitude":21.0,"id":"a62uk0sqaiy1","users":98704,"longitude":-99.9167},"type":"Feature","geometry":{"type":"Point","coordinates":[-99.9167,21.0]}},{"properties":{"city":"Mérida","latitude":20.9667,"id":"a62uk0zesk0l","users":109904,"longitude":-89.6167},"type":"Feature","geometry":{"type":"Point","coordinates":[-89.6167,20.9667]}},{"properties":{"city":"Zaragoza","latitude":32.5333,"id":"a62uk0tvcieb","users":134760,"longitude":-117.0167},"type":"Feature","geometry":{"type":"Point","coordinates":[-117.0167,32.5333]}},{"properties":{"city":"Puebla","latitude":19.04129,"id":"a62uk0po4b1a","users":281326,"longitude":-98.2062},"type":"Feature","geometry":{"type":"Point","coordinates":[-98.2062,19.04129]}},{"properties":{"city":"Veracruz","latitude":19.2,"id":"a62uk0r1s8vh","users":387147,"longitude":-96.1333},"type":"Feature","geometry":{"type":"Point","coordinates":[-96.1333,19.2]}},{"properties":{"city":"Monterrey","latitude":26.0333,"id":"a62uk0ub83gt","users":421333,"longitude":-98.0833},"type":"Feature","geometry":{"type":"Point","coordinates":[-98.0833,26.0333]}},{"properties":{"city":"Mexico","latitude":19.3333,"id":"a62uk13my8jz","users":462448,"longitude":-99.5},"type":"Feature","geometry":{"type":"Point","coordinates":[-99.5,19.3333]}},{"properties":{"city":"Guadalajara","latitude":20.66666,"id":"a62uk0sac5jw","users":613932,"longitude":-103.33333},"type":"Feature","geometry":{"type":"Point","coordinates":[-103.33333,20.66666]}},{"properties":{"city":"Mexico","latitude":19.4342,"id":"a62uk0s89d4k","users":1116309,"longitude":-99.1386},"type":"Feature","geometry":{"type":"Point","coordinates":[-99.1386,19.4342]}},{"properties":{"city":"México","latitude":28.35,"id":"a62uk11lpul9","users":2637498,"longitude":-106.8},"type":"Feature","geometry":{"type":"Point","coordinates":[-106.8,28.35]}}],"is_temporal":false,"author":{"url":"","metadata":"","contact_name":"","contact_address":"","source":"","contact_phone":""},"source":"","pagination":{"sort":null,"start":0,"total":380,"limit":1000000},"state":"complete","tags":"","published":"2014-08-13T03:51:40-04:00","id":114666}