{"type":"FeatureCollection","data_type":"Dataset","url_type":null,"permissions":[{"permissions":{"download":true,"view":true},"group_id":"everyone"}],"classification":null,"title":"ky population change","count":115,"stream_id":11460,"contributor":{"url":"http://geocommons.com/users/3995","name":"amazon"},"data_attributes":null,"calculation_params":null,"icon_link":null,"link":"http://geocommons.com/overlays/11460.json","extent":[-88.3505,36.6102,-82.6042,39.0938],"geometry_types":["point"],"unique_name":null,"name":"ky population change","feature_count":115,"description":"ky population change","next_feature":null,"is_raster":false,"short_classification":"Y","stats":{"change":{"max":21402,"mean":1478.35652173913,"variance":9183934.67002288,"stdev":3030.50072925629,"min":100,"median":349},"lat":{"max":39.093775,"mean":37.9259870869565,"variance":0.411239629615378,"stdev":0.641279681274386,"min":36.61023,"median":38.03295},"long":{"max":-82.604215,"mean":-85.3140459913043,"variance":1.38858339479259,"stdev":1.17838168468141,"min":-88.350494,"median":-85.384904}},"features":[{"properties":{"city":"Albany","change":198,"id":"a6a2pvdyn25f","lat":36.6906,"state":"ky","long":-85.135863},"type":"Feature","geometry":{"type":"Point","coordinates":[-85.135863,36.6906]}},{"properties":{"city":"Anchorage","change":715,"id":"a6a2pvheixoq","lat":38.264985,"state":"ky","long":-85.539014},"type":"Feature","geometry":{"type":"Point","coordinates":[-85.539014,38.264985]}},{"properties":{"city":"Auburn","change":120,"id":"a6a2pvkg79s5","lat":36.86329,"state":"ky","long":-86.709899},"type":"Feature","geometry":{"type":"Point","coordinates":[-86.709899,36.86329]}},{"properties":{"city":"Augusta","change":134,"id":"a6a2pvmjhq41","lat":38.77168,"state":"ky","long":-84.007094},"type":"Feature","geometry":{"type":"Point","coordinates":[-84.007094,38.77168]}},{"properties":{"city":"Bardstown","change":619,"id":"a6a2pvc9kfwb","lat":37.80996,"state":"ky","long":-85.470914},"type":"Feature","geometry":{"type":"Point","coordinates":[-85.470914,37.80996]}},{"properties":{"city":"Beaver Dam","change":264,"id":"a6a2pvbxbbb3","lat":37.402695,"state":"ky","long":-86.875964},"type":"Feature","geometry":{"type":"Point","coordinates":[-86.875964,37.402695]}},{"properties":{"city":"Bedford","change":173,"id":"a6a2pvh8buwp","lat":38.59522,"state":"ky","long":-85.316549},"type":"Feature","geometry":{"type":"Point","coordinates":[-85.316549,38.59522]}},{"properties":{"city":"Berea","change":5116,"id":"a6a2pve47a9n","lat":37.57018,"state":"ky","long":-84.292964},"type":"Feature","geometry":{"type":"Point","coordinates":[-84.292964,37.57018]}},{"properties":{"city":"Bowling Green","change":8388,"id":"a6a2pvp54w38","lat":36.994625,"state":"ky","long":-86.445584},"type":"Feature","geometry":{"type":"Point","coordinates":[-86.445584,36.994625]}},{"properties":{"city":"Brandenburg","change":300,"id":"a6a2pvoe47o9","lat":38.000855,"state":"ky","long":-86.171559},"type":"Feature","geometry":{"type":"Point","coordinates":[-86.171559,38.000855]}},{"properties":{"city":"Cadiz","change":517,"id":"a6a2pva5sl1v","lat":36.862125,"state":"ky","long":-87.837069},"type":"Feature","geometry":{"type":"Point","coordinates":[-87.837069,36.862125]}},{"properties":{"city":"Calvert","change":141,"id":"a6a2pvkiekuk","lat":37.03219,"state":"ky","long":-88.350494},"type":"Feature","geometry":{"type":"Point","coordinates":[-88.350494,37.03219]}},{"properties":{"city":"Camargo","change":103,"id":"a6a2pvlm90kz","lat":37.99807,"state":"ky","long":-83.895585},"type":"Feature","geometry":{"type":"Point","coordinates":[-83.895585,37.99807]}},{"properties":{"city":"Campbellsville","change":1076,"id":"a6a2pvlhq5za","lat":37.342815,"state":"ky","long":-85.343039},"type":"Feature","geometry":{"type":"Point","coordinates":[-85.343039,37.342815]}},{"properties":{"city":"Cave","change":188,"id":"a6a2pvn1qu0f","lat":37.822399,"state":"ky","long":-85.691101},"type":"Feature","geometry":{"type":"Point","coordinates":[-85.691101,37.822399]}},{"properties":{"city":"Clay","change":118,"id":"a6a2pvkjftuw","lat":37.4766,"state":"ky","long":-87.820174},"type":"Feature","geometry":{"type":"Point","coordinates":[-87.820174,37.4766]}},{"properties":{"city":"Cold Spring","change":3773,"id":"a6a2pvpaais6","lat":39.017933,"state":"ky","long":-84.425031},"type":"Feature","geometry":{"type":"Point","coordinates":[-84.425031,39.017933]}},{"properties":{"city":"Corbin","change":764,"id":"a6a2pvbyfqnf","lat":36.94415,"state":"ky","long":-84.095534},"type":"Feature","geometry":{"type":"Point","coordinates":[-84.095534,36.94415]}},{"properties":{"city":"Crescent Springs","change":137,"id":"a6a2pvh80o8u","lat":39.05508,"state":"ky","long":-84.581549},"type":"Feature","geometry":{"type":"Point","coordinates":[-84.581549,39.05508]}},{"properties":{"city":"Crestview Hills","change":1204,"id":"a6a2pvm3iia1","lat":39.024922,"state":"ky","long":-84.573295},"type":"Feature","geometry":{"type":"Point","coordinates":[-84.573295,39.024922]}},{"properties":{"city":"Crestwood","change":474,"id":"a6a2pvbsod3y","lat":38.309736,"state":"ky","long":-85.488467},"type":"Feature","geometry":{"type":"Point","coordinates":[-85.488467,38.309736]}},{"properties":{"city":"Crittenden","change":340,"id":"a6a2pvfyqzx5","lat":38.78111,"state":"ky","long":-84.606051},"type":"Feature","geometry":{"type":"Point","coordinates":[-84.606051,38.78111]}},{"properties":{"city":"Crofton","change":301,"id":"a6a2pvofufk3","lat":37.04731,"state":"ky","long":-87.486834},"type":"Feature","geometry":{"type":"Point","coordinates":[-87.486834,37.04731]}},{"properties":{"city":"Douglass Hills","change":205,"id":"a6a2pvdceipd","lat":38.244,"state":"ky","long":-85.559834},"type":"Feature","geometry":{"type":"Point","coordinates":[-85.559834,38.244]}},{"properties":{"city":"Dry Ridge","change":249,"id":"a6a2pv9wzj9y","lat":38.68193,"state":"ky","long":-84.594314},"type":"Feature","geometry":{"type":"Point","coordinates":[-84.594314,38.68193]}},{"properties":{"city":"Elizabethtown","change":4388,"id":"a6a2pvo6ckrt","lat":37.693675,"state":"ky","long":-85.859124},"type":"Feature","geometry":{"type":"Point","coordinates":[-85.859124,37.693675]}},{"properties":{"city":"Erlanger","change":491,"id":"a6a2pvo54uyr","lat":39.023773,"state":"ky","long":-84.608535},"type":"Feature","geometry":{"type":"Point","coordinates":[-84.608535,39.023773]}},{"properties":{"city":"Falmouth","change":108,"id":"a6a2pvg2w8ir","lat":38.67767,"state":"ky","long":-84.329609},"type":"Feature","geometry":{"type":"Point","coordinates":[-84.329609,38.67767]}},{"properties":{"city":"Flatwoods","change":144,"id":"a6a2pvghv4sc","lat":38.522265,"state":"ky","long":-82.716724},"type":"Feature","geometry":{"type":"Point","coordinates":[-82.716724,38.522265]}},{"properties":{"city":"Flemingsburg","change":186,"id":"a6a2pvbzsj62","lat":38.422435,"state":"ky","long":-83.733399},"type":"Feature","geometry":{"type":"Point","coordinates":[-83.733399,38.422435]}},{"properties":{"city":"Florence","change":7415,"id":"a6a2pvjnxfxt","lat":39.00085,"state":"ky","long":-84.630994},"type":"Feature","geometry":{"type":"Point","coordinates":[-84.630994,39.00085]}},{"properties":{"city":"Georgetown","change":4881,"id":"a6a2pvanep7z","lat":38.2099,"state":"ky","long":-84.559344},"type":"Feature","geometry":{"type":"Point","coordinates":[-84.559344,38.2099]}},{"properties":{"city":"Glasgow","change":2665,"id":"a6a2pvn7rqiy","lat":36.993505,"state":"ky","long":-85.914044},"type":"Feature","geometry":{"type":"Point","coordinates":[-85.914044,36.993505]}},{"properties":{"city":"Glenview","change":272,"id":"a6a2pvlwhrj8","lat":38.306526,"state":"ky","long":-85.657125},"type":"Feature","geometry":{"type":"Point","coordinates":[-85.657125,38.306526]}},{"properties":{"city":"Goshen","change":140,"id":"a6a2pvjdiqxi","lat":38.39973,"state":"ky","long":-85.578249},"type":"Feature","geometry":{"type":"Point","coordinates":[-85.578249,38.39973]}},{"properties":{"city":"Grayson","change":264,"id":"a6a2pvmopbbw","lat":38.332195,"state":"ky","long":-82.946344},"type":"Feature","geometry":{"type":"Point","coordinates":[-82.946344,38.332195]}},{"properties":{"city":"Hardinsburg","change":274,"id":"a6a2pvibegkj","lat":37.7819,"state":"ky","long":-86.461489},"type":"Feature","geometry":{"type":"Point","coordinates":[-86.461489,37.7819]}},{"properties":{"city":"Harrodsburg","change":178,"id":"a6a2pvg7btgm","lat":37.763045,"state":"ky","long":-84.845592},"type":"Feature","geometry":{"type":"Point","coordinates":[-84.845592,37.763045]}},{"properties":{"city":"Hartford","change":253,"id":"a6a2pvnwo6c4","lat":37.451055,"state":"ky","long":-86.908919},"type":"Feature","geometry":{"type":"Point","coordinates":[-86.908919,37.451055]}},{"properties":{"city":"Hebron Estates","change":146,"id":"a6a2pvh7vbv6","lat":38.05002,"state":"ky","long":-85.678174},"type":"Feature","geometry":{"type":"Point","coordinates":[-85.678174,38.05002]}},{"properties":{"city":"Henderson","change":866,"id":"a6a2pvhxhkar","lat":37.8299,"state":"ky","long":-87.597034},"type":"Feature","geometry":{"type":"Point","coordinates":[-87.597034,37.8299]}},{"properties":{"city":"Hillview","change":953,"id":"a6a2pvpjt6ro","lat":38.077043,"state":"ky","long":-85.668421},"type":"Feature","geometry":{"type":"Point","coordinates":[-85.668421,38.077043]}},{"properties":{"city":"Hopkinsville","change":7454,"id":"a6a2pvhcwbw5","lat":36.867275,"state":"ky","long":-87.487699},"type":"Feature","geometry":{"type":"Point","coordinates":[-87.487699,36.867275]}},{"properties":{"city":"Horse Cave","change":218,"id":"a6a2pve8yr1l","lat":37.18066,"state":"ky","long":-85.906259},"type":"Feature","geometry":{"type":"Point","coordinates":[-85.906259,37.18066]}},{"properties":{"city":"Hurstbourne","change":287,"id":"a6a2pvk4up65","lat":38.242864,"state":"ky","long":-85.579922},"type":"Feature","geometry":{"type":"Point","coordinates":[-85.579922,38.242864]}},{"properties":{"city":"Independence","change":11509,"id":"a6a2pvnar2a6","lat":38.9432,"state":"ky","long":-84.544414},"type":"Feature","geometry":{"type":"Point","coordinates":[-84.544414,38.9432]}},{"properties":{"city":"Indian Hills","change":360,"id":"a6a2pvii2skl","lat":38.268023,"state":"ky","long":-85.658447},"type":"Feature","geometry":{"type":"Point","coordinates":[-85.658447,38.268023]}},{"properties":{"city":"Irvington","change":269,"id":"a6a2pvay82dp","lat":37.880815,"state":"ky","long":-86.283994},"type":"Feature","geometry":{"type":"Point","coordinates":[-86.283994,37.880815]}},{"properties":{"city":"Jamestown","change":230,"id":"a6a2pvafmiby","lat":36.984199,"state":"ky","long":-85.063223},"type":"Feature","geometry":{"type":"Point","coordinates":[-85.063223,36.984199]}},{"properties":{"city":"Jeffersonville","change":206,"id":"a6a2pvbmnbnq","lat":37.976821,"state":"ky","long":-83.852356},"type":"Feature","geometry":{"type":"Point","coordinates":[-83.852356,37.976821]}},{"properties":{"city":"La Grange","change":1021,"id":"a6a2pvmazvoj","lat":38.407205,"state":"ky","long":-85.384904},"type":"Feature","geometry":{"type":"Point","coordinates":[-85.384904,38.407205]}},{"properties":{"city":"Lancaster","change":1254,"id":"a6a2pv9la61a","lat":37.619045,"state":"ky","long":-84.578744},"type":"Feature","geometry":{"type":"Point","coordinates":[-84.578744,37.619045]}},{"properties":{"city":"Lawrenceburg","change":1021,"id":"a6a2pvphtpmt","lat":38.037185,"state":"ky","long":-84.895834},"type":"Feature","geometry":{"type":"Point","coordinates":[-84.895834,38.037185]}},{"properties":{"city":"Lebanon","change":370,"id":"a6a2pvgx13pu","lat":37.568789,"state":"ky","long":-85.255134},"type":"Feature","geometry":{"type":"Point","coordinates":[-85.255134,37.568789]}},{"properties":{"city":"Lebanon Junction","change":401,"id":"a6a2pvfj1a51","lat":37.83444,"state":"ky","long":-85.732684},"type":"Feature","geometry":{"type":"Point","coordinates":[-85.732684,37.83444]}},{"properties":{"city":"Leitchfield","change":748,"id":"a6a2pva5niud","lat":37.481035,"state":"ky","long":-86.293669},"type":"Feature","geometry":{"type":"Point","coordinates":[-86.293669,37.481035]}},{"properties":{"city":"Lexington","change":21402,"id":"a6a2pv9e49my","lat":38.048595,"state":"ky","long":-84.500319},"type":"Feature","geometry":{"type":"Point","coordinates":[-84.500319,38.048595]}},{"properties":{"city":"Liberty","change":108,"id":"a6a2pvd5wtfs","lat":37.317605,"state":"ky","long":-84.939369},"type":"Feature","geometry":{"type":"Point","coordinates":[-84.939369,37.317605]}},{"properties":{"city":"London","change":1005,"id":"a6a2pvmwgpjs","lat":37.127175,"state":"ky","long":-84.083774},"type":"Feature","geometry":{"type":"Point","coordinates":[-84.083774,37.127175]}},{"properties":{"city":"Louisa","change":120,"id":"a6a2pvki8pp0","lat":38.114032,"state":"ky","long":-82.604215},"type":"Feature","geometry":{"type":"Point","coordinates":[-82.604215,38.114032]}},{"properties":{"city":"Louisville","change":10341,"id":"a6a2pvid1cuu","lat":38.25486,"state":"ky","long":-85.766404},"type":"Feature","geometry":{"type":"Point","coordinates":[-85.766404,38.25486]}},{"properties":{"city":"Ludlow","change":777,"id":"a6a2pvbd7amg","lat":39.093775,"state":"ky","long":-84.547969},"type":"Feature","geometry":{"type":"Point","coordinates":[-84.547969,39.093775]}},{"properties":{"city":"Lyndon","change":451,"id":"a6a2pvoaw0fn","lat":38.257595,"state":"ky","long":-85.604609},"type":"Feature","geometry":{"type":"Point","coordinates":[-85.604609,38.257595]}},{"properties":{"city":"Madisonville","change":127,"id":"a6a2pvi4b4tf","lat":37.3279,"state":"ky","long":-87.498929},"type":"Feature","geometry":{"type":"Point","coordinates":[-87.498929,37.3279]}},{"properties":{"city":"Maysville","change":405,"id":"a6a2pvo0h23t","lat":38.644124,"state":"ky","long":-83.759383},"type":"Feature","geometry":{"type":"Point","coordinates":[-83.759383,38.644124]}},{"properties":{"city":"Middletown","change":864,"id":"a6a2pvh6lsai","lat":38.247625,"state":"ky","long":-85.537599},"type":"Feature","geometry":{"type":"Point","coordinates":[-85.537599,38.247625]}},{"properties":{"city":"Milton","change":142,"id":"a6a2pvcc9u1s","lat":38.72362,"state":"ky","long":-85.369866},"type":"Feature","geometry":{"type":"Point","coordinates":[-85.369866,38.72362]}},{"properties":{"city":"Minor Lane Heights","change":329,"id":"a6a2pvi9o0hy","lat":38.095545,"state":"ky","long":-85.614614},"type":"Feature","geometry":{"type":"Point","coordinates":[-85.614614,38.095545]}},{"properties":{"city":"Monticello","change":311,"id":"a6a2pv9efx3z","lat":36.828969,"state":"ky","long":-84.849539},"type":"Feature","geometry":{"type":"Point","coordinates":[-84.849539,36.828969]}},{"properties":{"city":"Mount Sterling","change":1185,"id":"a6a2pvpgf1ni","lat":38.05719,"state":"ky","long":-83.942349},"type":"Feature","geometry":{"type":"Point","coordinates":[-83.942349,38.05719]}},{"properties":{"city":"Mount Washington","change":7554,"id":"a6a2pvmfcn5s","lat":38.042255,"state":"ky","long":-85.536229},"type":"Feature","geometry":{"type":"Point","coordinates":[-85.536229,38.042255]}},{"properties":{"city":"Muldraugh","change":299,"id":"a6a2pvb0u5qw","lat":37.937555,"state":"ky","long":-85.991939},"type":"Feature","geometry":{"type":"Point","coordinates":[-85.991939,37.937555]}},{"properties":{"city":"Munfordville","change":156,"id":"a6a2pvlw1ekz","lat":37.272145,"state":"ky","long":-85.891349},"type":"Feature","geometry":{"type":"Point","coordinates":[-85.891349,37.272145]}},{"properties":{"city":"Murray","change":1632,"id":"a6a2pve41je0","lat":36.61023,"state":"ky","long":-88.302039},"type":"Feature","geometry":{"type":"Point","coordinates":[-88.302039,36.61023]}},{"properties":{"city":"Nicholasville","change":10529,"id":"a6a2pvos5nua","lat":37.88678,"state":"ky","long":-84.570344},"type":"Feature","geometry":{"type":"Point","coordinates":[-84.570344,37.88678]}},{"properties":{"city":"Oak Grove","change":1922,"id":"a6a2pvkfhujp","lat":36.665235,"state":"ky","long":-87.437714},"type":"Feature","geometry":{"type":"Point","coordinates":[-87.437714,36.665235]}},{"properties":{"city":"Orchard Grass Hills","change":205,"id":"a6a2pvi2m70i","lat":38.31828,"state":"ky","long":-85.523431},"type":"Feature","geometry":{"type":"Point","coordinates":[-85.523431,38.31828]}},{"properties":{"city":"Owensboro","change":2881,"id":"a6a2pvn4k3ac","lat":37.7742,"state":"ky","long":-87.113537},"type":"Feature","geometry":{"type":"Point","coordinates":[-87.113537,37.7742]}},{"properties":{"city":"Owenton","change":224,"id":"a6a2pvgfmda2","lat":38.536615,"state":"ky","long":-84.836034},"type":"Feature","geometry":{"type":"Point","coordinates":[-84.836034,38.536615]}},{"properties":{"city":"Owingsville","change":195,"id":"a6a2pvoloxy0","lat":38.14512,"state":"ky","long":-83.762099},"type":"Feature","geometry":{"type":"Point","coordinates":[-83.762099,38.14512]}},{"properties":{"city":"Paintsville","change":379,"id":"a6a2pvetfeba","lat":37.81552,"state":"ky","long":-82.806009},"type":"Feature","geometry":{"type":"Point","coordinates":[-82.806009,37.81552]}},{"properties":{"city":"Paris","change":354,"id":"a6a2pvbn4vwy","lat":38.209735,"state":"ky","long":-84.252659},"type":"Feature","geometry":{"type":"Point","coordinates":[-84.252659,38.209735]}},{"properties":{"city":"Pembroke","change":271,"id":"a6a2pvj0ttnl","lat":36.776465,"state":"ky","long":-87.355639},"type":"Feature","geometry":{"type":"Point","coordinates":[-87.355639,36.776465]}},{"properties":{"city":"Pewee Valley","change":292,"id":"a6a2pvhyckg2","lat":38.308695,"state":"ky","long":-85.489719},"type":"Feature","geometry":{"type":"Point","coordinates":[-85.489719,38.308695]}},{"properties":{"city":"Pioneer Village","change":335,"id":"a6a2pv9uwcy1","lat":38.057275,"state":"ky","long":-85.674129},"type":"Feature","geometry":{"type":"Point","coordinates":[-85.674129,38.057275]}},{"properties":{"city":"Prospect","change":836,"id":"a6a2pvlyplur","lat":38.340402,"state":"ky","long":-85.61882},"type":"Feature","geometry":{"type":"Point","coordinates":[-85.61882,38.340402]}},{"properties":{"city":"Raceland","change":349,"id":"a6a2pvarqlyu","lat":38.542202,"state":"ky","long":-82.727972},"type":"Feature","geometry":{"type":"Point","coordinates":[-82.727972,38.542202]}},{"properties":{"city":"Radcliff","change":4877,"id":"a6a2pvas2m08","lat":37.840927,"state":"ky","long":-85.939455},"type":"Feature","geometry":{"type":"Point","coordinates":[-85.939455,37.840927]}},{"properties":{"city":"Richmond","change":9370,"id":"a6a2pvbsqdts","lat":37.74877,"state":"ky","long":-84.297559},"type":"Feature","geometry":{"type":"Point","coordinates":[-84.297559,37.74877]}},{"properties":{"city":"Russell Springs","change":334,"id":"a6a2pvkxsyv7","lat":37.05668,"state":"ky","long":-85.087404},"type":"Feature","geometry":{"type":"Point","coordinates":[-85.087404,37.05668]}},{"properties":{"city":"Russellville","change":380,"id":"a6a2pvjjjdtl","lat":36.844825,"state":"ky","long":-86.887289},"type":"Feature","geometry":{"type":"Point","coordinates":[-86.887289,36.844825]}},{"properties":{"city":"Scottsville","change":513,"id":"a6a2pvaq76h4","lat":36.753204,"state":"ky","long":-86.189919},"type":"Feature","geometry":{"type":"Point","coordinates":[-86.189919,36.753204]}},{"properties":{"city":"Shelbyville","change":1932,"id":"a6a2pvln974j","lat":38.21229,"state":"ky","long":-85.224417},"type":"Feature","geometry":{"type":"Point","coordinates":[-85.224417,38.21229]}},{"properties":{"city":"Shepherdsville","change":1476,"id":"a6a2pvfvhecu","lat":37.987825,"state":"ky","long":-85.716654},"type":"Feature","geometry":{"type":"Point","coordinates":[-85.716654,37.987825]}},{"properties":{"city":"Shively","change":487,"id":"a6a2pviq01x1","lat":38.194775,"state":"ky","long":-85.806304},"type":"Feature","geometry":{"type":"Point","coordinates":[-85.806304,38.194775]}},{"properties":{"city":"Simpsonville","change":266,"id":"a6a2pvgbggzw","lat":38.222345,"state":"ky","long":-85.354404},"type":"Feature","geometry":{"type":"Point","coordinates":[-85.354404,38.222345]}},{"properties":{"city":"Somerset","change":2061,"id":"a6a2pvdhxioi","lat":37.093375,"state":"ky","long":-84.600834},"type":"Feature","geometry":{"type":"Point","coordinates":[-84.600834,37.093375]}},{"properties":{"city":"Springfield","change":203,"id":"a6a2pvb8tbob","lat":37.68545,"state":"ky","long":-85.222674},"type":"Feature","geometry":{"type":"Point","coordinates":[-85.222674,37.68545]}},{"properties":{"city":"St. Matthews","change":312,"id":"a6a2pvjr4m0s","lat":38.249655,"state":"ky","long":-85.650014},"type":"Feature","geometry":{"type":"Point","coordinates":[-85.650014,38.249655]}},{"properties":{"city":"Stamping Ground","change":172,"id":"a6a2pvd8y460","lat":38.272182,"state":"ky","long":-84.687553},"type":"Feature","geometry":{"type":"Point","coordinates":[-84.687553,38.272182]}},{"properties":{"city":"Stanford","change":106,"id":"a6a2pvd7u8tg","lat":37.52957,"state":"ky","long":-84.659779},"type":"Feature","geometry":{"type":"Point","coordinates":[-84.659779,37.52957]}},{"properties":{"city":"Stanton","change":233,"id":"a6a2pvfbe94c","lat":37.84621,"state":"ky","long":-83.858469},"type":"Feature","geometry":{"type":"Point","coordinates":[-83.858469,37.84621]}},{"properties":{"city":"Taylorsville","change":407,"id":"a6a2pvcr099o","lat":38.03295,"state":"ky","long":-85.341237},"type":"Feature","geometry":{"type":"Point","coordinates":[-85.341237,38.03295]}},{"properties":{"city":"Union","change":1301,"id":"a6a2pvnuac1f","lat":38.948284,"state":"ky","long":-84.665593},"type":"Feature","geometry":{"type":"Point","coordinates":[-84.665593,38.948284]}},{"properties":{"city":"Upton","change":157,"id":"a6a2pva0vbhe","lat":37.464665,"state":"ky","long":-85.894074},"type":"Feature","geometry":{"type":"Point","coordinates":[-85.894074,37.464665]}},{"properties":{"city":"Vine Grove","change":994,"id":"a6a2pvc8cmom","lat":37.81027,"state":"ky","long":-85.981749},"type":"Feature","geometry":{"type":"Point","coordinates":[-85.981749,37.81027]}},{"properties":{"city":"Walton","change":1028,"id":"a6a2pvfv0us7","lat":38.866651,"state":"ky","long":-84.611691},"type":"Feature","geometry":{"type":"Point","coordinates":[-84.611691,38.866651]}},{"properties":{"city":"Watterson Park","change":225,"id":"a6a2pvcpl9lh","lat":38.19612,"state":"ky","long":-85.686579},"type":"Feature","geometry":{"type":"Point","coordinates":[-85.686579,38.19612]}},{"properties":{"city":"West Buechel","change":100,"id":"a6a2pvdzryta","lat":38.19472,"state":"ky","long":-85.659799},"type":"Feature","geometry":{"type":"Point","coordinates":[-85.659799,38.19472]}},{"properties":{"city":"West Liberty","change":187,"id":"a6a2pvcwz8ca","lat":37.922955,"state":"ky","long":-83.259594},"type":"Feature","geometry":{"type":"Point","coordinates":[-83.259594,37.922955]}},{"properties":{"city":"West Point","change":291,"id":"a6a2pvgei908","lat":37.999225,"state":"ky","long":-85.945849},"type":"Feature","geometry":{"type":"Point","coordinates":[-85.945849,37.999225]}},{"properties":{"city":"Wilder","change":949,"id":"a6a2pvhue3in","lat":39.054365,"state":"ky","long":-84.487859},"type":"Feature","geometry":{"type":"Point","coordinates":[-84.487859,39.054365]}},{"properties":{"city":"Williamsburg","change":478,"id":"a6a2pvmmjul3","lat":36.744029,"state":"ky","long":-84.158077},"type":"Feature","geometry":{"type":"Point","coordinates":[-84.158077,36.744029]}},{"properties":{"city":"Williamstown","change":472,"id":"a6a2pvpuvigf","lat":38.63981,"state":"ky","long":-84.560159},"type":"Feature","geometry":{"type":"Point","coordinates":[-84.560159,38.63981]}},{"properties":{"city":"Windy Hills","change":131,"id":"a6a2pvcccezd","lat":38.267566,"state":"ky","long":-85.647523},"type":"Feature","geometry":{"type":"Point","coordinates":[-85.647523,38.267566]}}],"is_temporal":false,"author":{"url":"","metadata":"","contact_name":"","contact_address":"","source":"","contact_phone":""},"source":"","pagination":{"sort":null,"start":0,"total":115,"limit":1000000},"state":"complete","tags":"county,ky,population","published":"2009-04-02T12:00:00Z","id":11460}