{"type":"FeatureCollection","data_type":"Dataset","url_type":null,"permissions":[{"permissions":{"download":true,"view":true},"group_id":"everyone"}],"classification":null,"title":"france","count":854,"stream_id":114661,"contributor":{"url":"http://geocommons.com/users/26550","name":"seregus"},"data_attributes":null,"calculation_params":null,"icon_link":null,"link":"http://geocommons.com/overlays/114661.json","extent":[-52.6454,-12.7806,45.2278,51.0343],"geometry_types":["point"],"unique_name":null,"name":"france","feature_count":854,"description":"","next_feature":null,"is_raster":false,"short_classification":"Y","stats":{"latitude":{"max":51.03429,"mean":47.2683574473068,"variance":13.533560957634,"stdev":3.67879884712851,"min":-12.78056,"median":48.43333},"id":{"max":994882,"mean":34598.3887587822,"variance":6525367466.29652,"stdev":80779.7466342679,"min":5149,"median":28888},"users":{"max":1478608,"mean":8113.46370023419,"variance":2983247751.5573,"stdev":54619.115257914,"min":1008,"median":2102},"longitude":{"max":45.22778,"mean":2.67472269320843,"variance":15.8682475732577,"stdev":3.98349690262936,"min":-52.64537,"median":2.48333}},"features":[{"properties":{"city":"Bourg-en-Bresse","latitude":46.2,"id":"a6249ip7feoh","users":8429,"longitude":5.21666},"type":"Feature","geometry":{"type":"Point","coordinates":[5.21666,46.2]}},{"properties":{"city":"Oyonnax","latitude":46.25,"id":"a6249iumlwxt","users":3084,"longitude":5.66666},"type":"Feature","geometry":{"type":"Point","coordinates":[5.66666,46.25]}},{"properties":{"city":"Gex","latitude":46.33333,"id":"a6249iml8gid","users":1512,"longitude":6.06666},"type":"Feature","geometry":{"type":"Point","coordinates":[6.06666,46.33333]}},{"properties":{"city":"Bellegarde-sur-Valserine","latitude":46.1,"id":"a6249ilwg3zh","users":1390,"longitude":5.81666},"type":"Feature","geometry":{"type":"Point","coordinates":[5.81666,46.1]}},{"properties":{"city":"Ferney-Voltaire","latitude":46.25,"id":"a6249iq61zj7","users":1009,"longitude":6.11666},"type":"Feature","geometry":{"type":"Point","coordinates":[6.11666,46.25]}},{"properties":{"city":"Belley","latitude":45.76666,"id":"a6249iuj3nh5","users":1265,"longitude":5.68333},"type":"Feature","geometry":{"type":"Point","coordinates":[5.68333,45.76666]}},{"properties":{"city":"Frans","latitude":45.98333,"id":"a6249ijf29bo","users":2438,"longitude":4.78333},"type":"Feature","geometry":{"type":"Point","coordinates":[4.78333,45.98333]}},{"properties":{"city":"Ambérieu-en-Bugey","latitude":45.95,"id":"a6249iy0bmah","users":2064,"longitude":5.35},"type":"Feature","geometry":{"type":"Point","coordinates":[5.35,45.95]}},{"properties":{"city":"Laon","latitude":49.56666,"id":"a6249ixwor6i","users":7037,"longitude":3.61666},"type":"Feature","geometry":{"type":"Point","coordinates":[3.61666,49.56666]}},{"properties":{"city":"Saint-Quentin","latitude":49.78259,"id":"a6249iuj82ne","users":11359,"longitude":3.38926},"type":"Feature","geometry":{"type":"Point","coordinates":[3.38926,49.78259]}},{"properties":{"city":"Soissons","latitude":49.38232,"id":"a6249iwdjlw7","users":7994,"longitude":3.32771},"type":"Feature","geometry":{"type":"Point","coordinates":[3.32771,49.38232]}},{"properties":{"city":"Chauny","latitude":49.61666,"id":"a6249iuym83d","users":2826,"longitude":3.21666},"type":"Feature","geometry":{"type":"Point","coordinates":[3.21666,49.61666]}},{"properties":{"city":"Château-Thierry","latitude":49.05,"id":"a6249ixq5ars","users":4015,"longitude":3.4},"type":"Feature","geometry":{"type":"Point","coordinates":[3.4,49.05]}},{"properties":{"city":"Hirson","latitude":49.91666,"id":"a6249ingutwq","users":1673,"longitude":4.08333},"type":"Feature","geometry":{"type":"Point","coordinates":[4.08333,49.91666]}},{"properties":{"city":"Villers-Cotterêts","latitude":49.25,"id":"a6249ijtvm81","users":1761,"longitude":3.08333},"type":"Feature","geometry":{"type":"Point","coordinates":[3.08333,49.25]}},{"properties":{"city":"Tergnier","latitude":49.65,"id":"a6249is1yqez","users":1458,"longitude":3.3},"type":"Feature","geometry":{"type":"Point","coordinates":[3.3,49.65]}},{"properties":{"city":"Moulins","latitude":46.56666,"id":"a6249iofpxiy","users":5397,"longitude":3.33333},"type":"Feature","geometry":{"type":"Point","coordinates":[3.33333,46.56666]}},{"properties":{"city":"Montluçon","latitude":46.33333,"id":"a6249isgw6qm","users":7763,"longitude":2.6},"type":"Feature","geometry":{"type":"Point","coordinates":[2.6,46.33333]}},{"properties":{"city":"Vichy","latitude":46.11666,"id":"a6249ixkwoi4","users":7961,"longitude":3.41666},"type":"Feature","geometry":{"type":"Point","coordinates":[3.41666,46.11666]}},{"properties":{"city":"Digne-Les-Bains","latitude":44.091,"id":"a6249ikpnmp5","users":2088,"longitude":6.23147},"type":"Feature","geometry":{"type":"Point","coordinates":[6.23147,44.091]}},{"properties":{"city":"Manosque","latitude":43.83333,"id":"a6249iuohf2o","users":3358,"longitude":5.78333},"type":"Feature","geometry":{"type":"Point","coordinates":[5.78333,43.83333]}},{"properties":{"city":"Sisteron","latitude":44.2,"id":"a6249ij4luzb","users":1024,"longitude":5.93333},"type":"Feature","geometry":{"type":"Point","coordinates":[5.93333,44.2]}},{"properties":{"city":"Gap","latitude":44.56666,"id":"a6249inoj7hd","users":6784,"longitude":6.08333},"type":"Feature","geometry":{"type":"Point","coordinates":[6.08333,44.56666]}},{"properties":{"city":"Briançon","latitude":44.9,"id":"a6249ilpqjlg","users":1769,"longitude":6.65},"type":"Feature","geometry":{"type":"Point","coordinates":[6.65,44.9]}},{"properties":{"city":"Nice","latitude":43.70342,"id":"a6249islqdi6","users":81198,"longitude":7.26626},"type":"Feature","geometry":{"type":"Point","coordinates":[7.26626,43.70342]}},{"properties":{"city":"Le Cannet","latitude":43.56666,"id":"a6249it7u6wq","users":3599,"longitude":7.01666},"type":"Feature","geometry":{"type":"Point","coordinates":[7.01666,43.56666]}},{"properties":{"city":"Grasse","latitude":43.66666,"id":"a6249ijocn5y","users":6509,"longitude":6.91666},"type":"Feature","geometry":{"type":"Point","coordinates":[6.91666,43.66666]}},{"properties":{"city":"Vence","latitude":43.71666,"id":"a6249imffq8w","users":1798,"longitude":7.11666},"type":"Feature","geometry":{"type":"Point","coordinates":[7.11666,43.71666]}},{"properties":{"city":"Antibes","latitude":43.58072,"id":"a6249ijg0plf","users":10276,"longitude":7.12087},"type":"Feature","geometry":{"type":"Point","coordinates":[7.12087,43.58072]}},{"properties":{"city":"Juan-les-Pins","latitude":43.56666,"id":"a6249ipbm74q","users":1689,"longitude":7.1},"type":"Feature","geometry":{"type":"Point","coordinates":[7.1,43.56666]}},{"properties":{"city":"Mandelieu-la-Napoule","latitude":43.55,"id":"a6249iso2w63","users":2333,"longitude":6.93333},"type":"Feature","geometry":{"type":"Point","coordinates":[6.93333,43.55]}},{"properties":{"city":"Vallauris","latitude":43.58333,"id":"a6249ircqg22","users":2123,"longitude":7.05},"type":"Feature","geometry":{"type":"Point","coordinates":[7.05,43.58333]}},{"properties":{"city":"Beausoleil","latitude":43.75,"id":"a6249ija7uhz","users":1202,"longitude":7.43333},"type":"Feature","geometry":{"type":"Point","coordinates":[7.43333,43.75]}},{"properties":{"city":"Mougins","latitude":43.60009,"id":"a6249ivnldgk","users":1804,"longitude":6.99621},"type":"Feature","geometry":{"type":"Point","coordinates":[6.99621,43.60009]}},{"properties":{"city":"Villeneuve-Loubet","latitude":43.65,"id":"a6249iv8z2m3","users":1555,"longitude":7.11666},"type":"Feature","geometry":{"type":"Point","coordinates":[7.11666,43.65]}},{"properties":{"city":"Cannes","latitude":43.55,"id":"a6249it3dkxm","users":21293,"longitude":7.01666},"type":"Feature","geometry":{"type":"Point","coordinates":[7.01666,43.55]}},{"properties":{"city":"Menton","latitude":43.78333,"id":"a6249ikdql9m","users":4207,"longitude":7.5},"type":"Feature","geometry":{"type":"Point","coordinates":[7.5,43.78333]}},{"properties":{"city":"Valbonne","latitude":43.64081,"id":"a6249iz1irtq","users":1408,"longitude":7.00855},"type":"Feature","geometry":{"type":"Point","coordinates":[7.00855,43.64081]}},{"properties":{"city":"Saint-Laurent-du-Var","latitude":43.66666,"id":"a6249it1km4b","users":3789,"longitude":7.18333},"type":"Feature","geometry":{"type":"Point","coordinates":[7.18333,43.66666]}},{"properties":{"city":"Cagnes-sur-Mer","latitude":43.66666,"id":"a6249im3oiih","users":5669,"longitude":7.15},"type":"Feature","geometry":{"type":"Point","coordinates":[7.15,43.66666]}},{"properties":{"city":"Privas","latitude":44.73333,"id":"a6249iwjhmjg","users":1456,"longitude":4.6},"type":"Feature","geometry":{"type":"Point","coordinates":[4.6,44.73333]}},{"properties":{"city":"Annonay","latitude":45.23333,"id":"a6249ijkh0yn","users":2915,"longitude":4.66666},"type":"Feature","geometry":{"type":"Point","coordinates":[4.66666,45.23333]}},{"properties":{"city":"Aubenas","latitude":44.61666,"id":"a6249iqekmuh","users":3111,"longitude":4.38333},"type":"Feature","geometry":{"type":"Point","coordinates":[4.38333,44.61666]}},{"properties":{"city":"Charleville-Mézières","latitude":49.76666,"id":"a6249irxtgpv","users":11706,"longitude":4.71666},"type":"Feature","geometry":{"type":"Point","coordinates":[4.71666,49.76666]}},{"properties":{"city":"Sedan","latitude":49.7,"id":"a6249ivvxpuz","users":4757,"longitude":4.95},"type":"Feature","geometry":{"type":"Point","coordinates":[4.95,49.7]}},{"properties":{"city":"Rethel","latitude":49.51666,"id":"a6249isyy80k","users":1759,"longitude":4.36666},"type":"Feature","geometry":{"type":"Point","coordinates":[4.36666,49.51666]}},{"properties":{"city":"Givet","latitude":50.13333,"id":"a6249ilywt83","users":1079,"longitude":4.81666},"type":"Feature","geometry":{"type":"Point","coordinates":[4.81666,50.13333]}},{"properties":{"city":"Foix","latitude":42.96666,"id":"a6249iycrsi0","users":1995,"longitude":1.6},"type":"Feature","geometry":{"type":"Point","coordinates":[1.6,42.96666]}},{"properties":{"city":"Pamiers","latitude":43.11666,"id":"a6249imqyow9","users":3107,"longitude":1.6},"type":"Feature","geometry":{"type":"Point","coordinates":[1.6,43.11666]}},{"properties":{"city":"Troyes","latitude":48.3,"id":"a6249ik9dvvz","users":23802,"longitude":4.08333},"type":"Feature","geometry":{"type":"Point","coordinates":[4.08333,48.3]}},{"properties":{"city":"Romilly-sur-Seine","latitude":48.51666,"id":"a6249iwzu4sv","users":1832,"longitude":3.71666},"type":"Feature","geometry":{"type":"Point","coordinates":[3.71666,48.51666]}},{"properties":{"city":"Carcassonne","latitude":43.21666,"id":"a6249ivckr7a","users":10781,"longitude":2.35},"type":"Feature","geometry":{"type":"Point","coordinates":[2.35,43.21666]}},{"properties":{"city":"Narbonne","latitude":43.18356,"id":"a6249is1fwj1","users":10420,"longitude":3.00419},"type":"Feature","geometry":{"type":"Point","coordinates":[3.00419,43.18356]}},{"properties":{"city":"Limoux","latitude":43.06666,"id":"a6249ivj2hli","users":1138,"longitude":2.23333},"type":"Feature","geometry":{"type":"Point","coordinates":[2.23333,43.06666]}},{"properties":{"city":"Castelnaudary","latitude":43.31666,"id":"a6249ipxymwv","users":1674,"longitude":1.95},"type":"Feature","geometry":{"type":"Point","coordinates":[1.95,43.31666]}},{"properties":{"city":"Marseillette","latitude":43.2,"id":"a6249iybshso","users":1561,"longitude":2.55},"type":"Feature","geometry":{"type":"Point","coordinates":[2.55,43.2]}},{"properties":{"city":"Rodez","latitude":44.35109,"id":"a6249iliaewg","users":6821,"longitude":2.57359},"type":"Feature","geometry":{"type":"Point","coordinates":[2.57359,44.35109]}},{"properties":{"city":"Millau","latitude":44.1,"id":"a6249ixzva3u","users":2709,"longitude":3.08333},"type":"Feature","geometry":{"type":"Point","coordinates":[3.08333,44.1]}},{"properties":{"city":"Villefranche-de-Rouergue","latitude":44.35,"id":"a6249infggtu","users":1389,"longitude":2.05},"type":"Feature","geometry":{"type":"Point","coordinates":[2.05,44.35]}},{"properties":{"city":"Marseille","latitude":43.29761,"id":"a6249ikb9aji","users":294278,"longitude":5.38104},"type":"Feature","geometry":{"type":"Point","coordinates":[5.38104,43.29761]}},{"properties":{"city":"Aix-en-Provence","latitude":43.5249,"id":"a6249ivgz20i","users":25810,"longitude":5.45414},"type":"Feature","geometry":{"type":"Point","coordinates":[5.45414,43.5249]}},{"properties":{"city":"Port-de-Bouc","latitude":43.4,"id":"a6249irhbr8s","users":1281,"longitude":4.98333},"type":"Feature","geometry":{"type":"Point","coordinates":[4.98333,43.4]}},{"properties":{"city":"Gardanne","latitude":43.45,"id":"a6249ik84elg","users":1980,"longitude":5.46666},"type":"Feature","geometry":{"type":"Point","coordinates":[5.46666,43.45]}},{"properties":{"city":"Vitrolles","latitude":43.46666,"id":"a6249it8xg1d","users":3705,"longitude":5.25},"type":"Feature","geometry":{"type":"Point","coordinates":[5.25,43.46666]}},{"properties":{"city":"Miramas","latitude":43.58333,"id":"a6249ikoz2g0","users":2385,"longitude":5.0},"type":"Feature","geometry":{"type":"Point","coordinates":[5.0,43.58333]}},{"properties":{"city":"Tarascon","latitude":43.8,"id":"a6249imrnmey","users":1165,"longitude":4.66666},"type":"Feature","geometry":{"type":"Point","coordinates":[4.66666,43.8]}},{"properties":{"city":"Châteaurenard","latitude":43.88333,"id":"a6249iyzhufq","users":1214,"longitude":4.85},"type":"Feature","geometry":{"type":"Point","coordinates":[4.85,43.88333]}},{"properties":{"city":"Arles","latitude":43.67665,"id":"a6249iu5phkr","users":6447,"longitude":4.6278},"type":"Feature","geometry":{"type":"Point","coordinates":[4.6278,43.67665]}},{"properties":{"city":"Fos-sur-Mer","latitude":43.43333,"id":"a6249iwm3xjm","users":1685,"longitude":4.95},"type":"Feature","geometry":{"type":"Point","coordinates":[4.95,43.43333]}},{"properties":{"city":"Salon-de-Provence","latitude":43.63333,"id":"a6249ikhwbt1","users":6894,"longitude":5.1},"type":"Feature","geometry":{"type":"Point","coordinates":[5.1,43.63333]}},{"properties":{"city":"Rognac","latitude":43.48333,"id":"a6249iubfjee","users":1211,"longitude":5.23333},"type":"Feature","geometry":{"type":"Point","coordinates":[5.23333,43.48333]}},{"properties":{"city":"Aubagne","latitude":43.29325,"id":"a6249it9w38l","users":5082,"longitude":5.57028},"type":"Feature","geometry":{"type":"Point","coordinates":[5.57028,43.29325]}},{"properties":{"city":"Martigues","latitude":43.4,"id":"a6249iojrhrn","users":5697,"longitude":5.05},"type":"Feature","geometry":{"type":"Point","coordinates":[5.05,43.4]}},{"properties":{"city":"La Ciotat","latitude":43.16666,"id":"a6249iqe5453","users":3276,"longitude":5.6},"type":"Feature","geometry":{"type":"Point","coordinates":[5.6,43.16666]}},{"properties":{"city":"Marignane","latitude":43.41666,"id":"a6249ium38ij","users":3444,"longitude":5.21666},"type":"Feature","geometry":{"type":"Point","coordinates":[5.21666,43.41666]}},{"properties":{"city":"La Pomme","latitude":43.28333,"id":"a6249iuwe5f7","users":1299,"longitude":5.43333},"type":"Feature","geometry":{"type":"Point","coordinates":[5.43333,43.28333]}},{"properties":{"city":"Istres","latitude":43.51267,"id":"a6249is39yus","users":5133,"longitude":4.98776},"type":"Feature","geometry":{"type":"Point","coordinates":[4.98776,43.51267]}},{"properties":{"city":"Caen","latitude":49.18333,"id":"a6249iq2mvt9","users":47508,"longitude":-0.35},"type":"Feature","geometry":{"type":"Point","coordinates":[-0.35,49.18333]}},{"properties":{"city":"Lisieux","latitude":49.15,"id":"a6249iyq7dl2","users":5062,"longitude":0.23333},"type":"Feature","geometry":{"type":"Point","coordinates":[0.23333,49.15]}},{"properties":{"city":"Hérouville-Saint-Clair","latitude":49.2,"id":"a6249ix32kc8","users":2069,"longitude":-0.31666},"type":"Feature","geometry":{"type":"Point","coordinates":[-0.31666,49.2]}},{"properties":{"city":"Bayeux","latitude":49.26666,"id":"a6249ise15gt","users":2775,"longitude":-0.7},"type":"Feature","geometry":{"type":"Point","coordinates":[-0.7,49.26666]}},{"properties":{"city":"Vire","latitude":48.83333,"id":"a6249ivkfxv9","users":2402,"longitude":-0.88333},"type":"Feature","geometry":{"type":"Point","coordinates":[-0.88333,48.83333]}},{"properties":{"city":"Honfleur","latitude":49.41666,"id":"a6249iuom1sl","users":1451,"longitude":0.23333},"type":"Feature","geometry":{"type":"Point","coordinates":[0.23333,49.41666]}},{"properties":{"city":"Falaise","latitude":48.9,"id":"a6249ipupqj0","users":1462,"longitude":-0.2},"type":"Feature","geometry":{"type":"Point","coordinates":[-0.2,48.9]}},{"properties":{"city":"Deauville","latitude":49.36,"id":"a6249ivq0iys","users":1534,"longitude":0.07527},"type":"Feature","geometry":{"type":"Point","coordinates":[0.07527,49.36]}},{"properties":{"city":"Aurillac","latitude":44.91666,"id":"a6249ijficd1","users":5088,"longitude":2.45},"type":"Feature","geometry":{"type":"Point","coordinates":[2.45,44.91666]}},{"properties":{"city":"Angoulême","latitude":45.64834,"id":"a6249iugzaeh","users":20385,"longitude":0.16092},"type":"Feature","geometry":{"type":"Point","coordinates":[0.16092,45.64834]}},{"properties":{"city":"Cognac","latitude":45.69346,"id":"a6249ijon6hj","users":5983,"longitude":-0.32498},"type":"Feature","geometry":{"type":"Point","coordinates":[-0.32498,45.69346]}},{"properties":{"city":"La Rochelle","latitude":46.15802,"id":"a6249ikc7y69","users":26181,"longitude":-1.15359},"type":"Feature","geometry":{"type":"Point","coordinates":[-1.15359,46.15802]}},{"properties":{"city":"Saintes","latitude":45.75,"id":"a6249iu6qgqt","users":8166,"longitude":-0.63333},"type":"Feature","geometry":{"type":"Point","coordinates":[-0.63333,45.75]}},{"properties":{"city":"Royan","latitude":45.62557,"id":"a6249ix9d558","users":5069,"longitude":-1.02691},"type":"Feature","geometry":{"type":"Point","coordinates":[-1.02691,45.62557]}},{"properties":{"city":"Rochefort","latitude":46.0239,"id":"a6249imfhc53","users":5305,"longitude":-1.2078},"type":"Feature","geometry":{"type":"Point","coordinates":[-1.2078,46.0239]}},{"properties":{"city":"Marennes","latitude":45.82166,"id":"a6249iriibw6","users":1077,"longitude":-1.10661},"type":"Feature","geometry":{"type":"Point","coordinates":[-1.10661,45.82166]}},{"properties":{"city":"Saint-Jean-d'Angély","latitude":45.94631,"id":"a6249im61s3l","users":1397,"longitude":-0.52928},"type":"Feature","geometry":{"type":"Point","coordinates":[-0.52928,45.94631]}},{"properties":{"city":"Tonnay-Charente","latitude":45.95,"id":"a6249it6nzbp","users":1030,"longitude":-0.9},"type":"Feature","geometry":{"type":"Point","coordinates":[-0.9,45.95]}},{"properties":{"city":"Jonzac","latitude":45.45,"id":"a6249its5gff","users":1332,"longitude":-0.43333},"type":"Feature","geometry":{"type":"Point","coordinates":[-0.43333,45.45]}},{"properties":{"city":"Surgères","latitude":46.1,"id":"a6249ipmm0ws","users":1277,"longitude":-0.75},"type":"Feature","geometry":{"type":"Point","coordinates":[-0.75,46.1]}},{"properties":{"city":"Bourges","latitude":47.08333,"id":"a6249irxa1sd","users":17149,"longitude":2.4},"type":"Feature","geometry":{"type":"Point","coordinates":[2.4,47.08333]}},{"properties":{"city":"Vierzon","latitude":47.21666,"id":"a6249isuk2sc","users":4060,"longitude":2.08333},"type":"Feature","geometry":{"type":"Point","coordinates":[2.08333,47.21666]}},{"properties":{"city":"Saint-Amand-Montrond","latitude":46.72361,"id":"a6249iwir5ww","users":1101,"longitude":2.50555},"type":"Feature","geometry":{"type":"Point","coordinates":[2.50555,46.72361]}},{"properties":{"city":"Tulle","latitude":45.26666,"id":"a6249is39thf","users":3007,"longitude":1.76666},"type":"Feature","geometry":{"type":"Point","coordinates":[1.76666,45.26666]}},{"properties":{"city":"Brive-la-Gaillarde","latitude":45.15,"id":"a6249ixz0lw9","users":11170,"longitude":1.53333},"type":"Feature","geometry":{"type":"Point","coordinates":[1.53333,45.15]}},{"properties":{"city":"Ussel","latitude":45.55,"id":"a6249io2mqgu","users":1177,"longitude":2.31666},"type":"Feature","geometry":{"type":"Point","coordinates":[2.31666,45.55]}},{"properties":{"city":"Ajaccio","latitude":41.91666,"id":"a6249in49bnb","users":8112,"longitude":8.73333},"type":"Feature","geometry":{"type":"Point","coordinates":[8.73333,41.91666]}},{"properties":{"city":"Porto-Vecchio","latitude":41.58333,"id":"a6249iioodfa","users":1894,"longitude":9.28333},"type":"Feature","geometry":{"type":"Point","coordinates":[9.28333,41.58333]}},{"properties":{"city":"Calvi","latitude":42.56666,"id":"a6249ikg3c0i","users":1044,"longitude":8.75},"type":"Feature","geometry":{"type":"Point","coordinates":[8.75,42.56666]}},{"properties":{"city":"Bastia","latitude":42.7,"id":"a6249iqfm8nb","users":7284,"longitude":9.45},"type":"Feature","geometry":{"type":"Point","coordinates":[9.45,42.7]}},{"properties":{"city":"Dijon","latitude":47.32721,"id":"a6249ixqwfpq","users":45353,"longitude":5.04398},"type":"Feature","geometry":{"type":"Point","coordinates":[5.04398,47.32721]}},{"properties":{"city":"Auxonne","latitude":47.2,"id":"a6249is1meb7","users":1272,"longitude":5.38333},"type":"Feature","geometry":{"type":"Point","coordinates":[5.38333,47.2]}},{"properties":{"city":"Beaune","latitude":47.03333,"id":"a6249iw36j8j","users":4438,"longitude":4.83333},"type":"Feature","geometry":{"type":"Point","coordinates":[4.83333,47.03333]}},{"properties":{"city":"Chenôve","latitude":47.28333,"id":"a6249iy3rvzg","users":1170,"longitude":5.0},"type":"Feature","geometry":{"type":"Point","coordinates":[5.0,47.28333]}},{"properties":{"city":"Soussey-sur-Brionne","latitude":47.31666,"id":"a6249ittqrfp","users":2375,"longitude":4.53333},"type":"Feature","geometry":{"type":"Point","coordinates":[4.53333,47.31666]}},{"properties":{"city":"Saint-Brieuc","latitude":48.51666,"id":"a6249ivojomg","users":11730,"longitude":-2.78333},"type":"Feature","geometry":{"type":"Point","coordinates":[-2.78333,48.51666]}},{"properties":{"city":"Dinan","latitude":48.45638,"id":"a6249iruqphr","users":4119,"longitude":-2.23638},"type":"Feature","geometry":{"type":"Point","coordinates":[-2.23638,48.45638]}},{"properties":{"city":"Guingamp","latitude":48.55,"id":"a6249ilmfcoh","users":2925,"longitude":-3.15},"type":"Feature","geometry":{"type":"Point","coordinates":[-3.15,48.55]}},{"properties":{"city":"Lannion","latitude":48.73333,"id":"a6249iw8wcf6","users":3893,"longitude":-3.46666},"type":"Feature","geometry":{"type":"Point","coordinates":[-3.46666,48.73333]}},{"properties":{"city":"Lamballe","latitude":48.46666,"id":"a6249ip6u26j","users":2012,"longitude":-2.51666},"type":"Feature","geometry":{"type":"Point","coordinates":[-2.51666,48.46666]}},{"properties":{"city":"Paimpol","latitude":48.76666,"id":"a6249ikmm8bi","users":1216,"longitude":-3.05},"type":"Feature","geometry":{"type":"Point","coordinates":[-3.05,48.76666]}},{"properties":{"city":"Loudéac","latitude":48.17648,"id":"a6249itmvypa","users":1783,"longitude":-2.75279},"type":"Feature","geometry":{"type":"Point","coordinates":[-2.75279,48.17648]}},{"properties":{"city":"Guéret","latitude":46.16666,"id":"a6249ijwcpew","users":3413,"longitude":1.86666},"type":"Feature","geometry":{"type":"Point","coordinates":[1.86666,46.16666]}},{"properties":{"city":"Saint-Georges-la-Pouge","latitude":45.98916,"id":"a6249iyp2eel","users":5032,"longitude":1.97223},"type":"Feature","geometry":{"type":"Point","coordinates":[1.97223,45.98916]}},{"properties":{"city":"Périgueux","latitude":45.18333,"id":"a6249it0btpb","users":12386,"longitude":0.71666},"type":"Feature","geometry":{"type":"Point","coordinates":[0.71666,45.18333]}},{"properties":{"city":"Bergerac","latitude":44.85335,"id":"a6249ipgzc35","users":7185,"longitude":0.483},"type":"Feature","geometry":{"type":"Point","coordinates":[0.483,44.85335]}},{"properties":{"city":"Sarlat-la-Canéda","latitude":44.88333,"id":"a6249iv5y07v","users":2025,"longitude":1.21666},"type":"Feature","geometry":{"type":"Point","coordinates":[1.21666,44.88333]}},{"properties":{"city":"Besançon","latitude":47.25,"id":"a6249iksr5pf","users":31828,"longitude":6.03333},"type":"Feature","geometry":{"type":"Point","coordinates":[6.03333,47.25]}},{"properties":{"city":"Montbéliard","latitude":47.51666,"id":"a6249ij6e228","users":7618,"longitude":6.8},"type":"Feature","geometry":{"type":"Point","coordinates":[6.8,47.51666]}},{"properties":{"city":"Pontarlier","latitude":46.9,"id":"a6249iof6j8c","users":3677,"longitude":6.36666},"type":"Feature","geometry":{"type":"Point","coordinates":[6.36666,46.9]}},{"properties":{"city":"Audincourt","latitude":47.48333,"id":"a6249iu3syet","users":1906,"longitude":6.83333},"type":"Feature","geometry":{"type":"Point","coordinates":[6.83333,47.48333]}},{"properties":{"city":"Fesches-le-Châtel","latitude":47.51666,"id":"a6249ip1rba9","users":1748,"longitude":6.9},"type":"Feature","geometry":{"type":"Point","coordinates":[6.9,47.51666]}},{"properties":{"city":"Morteau","latitude":47.06666,"id":"a6249int0aar","users":1112,"longitude":6.61666},"type":"Feature","geometry":{"type":"Point","coordinates":[6.61666,47.06666]}},{"properties":{"city":"Valence","latitude":44.93333,"id":"a6249iwv8cve","users":19522,"longitude":4.9},"type":"Feature","geometry":{"type":"Point","coordinates":[4.9,44.93333]}},{"properties":{"city":"Romans-sur-Isère","latitude":45.05,"id":"a6249iilwwr0","users":5188,"longitude":5.05},"type":"Feature","geometry":{"type":"Point","coordinates":[5.05,45.05]}},{"properties":{"city":"Montélimar","latitude":44.55868,"id":"a6249iqz2ihi","users":8024,"longitude":4.75093},"type":"Feature","geometry":{"type":"Point","coordinates":[4.75093,44.55868]}},{"properties":{"city":"Bourg-lès-Valence","latitude":44.94003,"id":"a6249in3xzuq","users":1157,"longitude":4.89275},"type":"Feature","geometry":{"type":"Point","coordinates":[4.89275,44.94003]}},{"properties":{"city":"Pierrelatte","latitude":44.38333,"id":"a6249inx5p0f","users":1725,"longitude":4.7},"type":"Feature","geometry":{"type":"Point","coordinates":[4.7,44.38333]}},{"properties":{"city":"Évreux","latitude":49.01666,"id":"a6249iph1evg","users":14998,"longitude":1.15},"type":"Feature","geometry":{"type":"Point","coordinates":[1.15,49.01666]}},{"properties":{"city":"Gisors","latitude":49.28333,"id":"a6249ir1qc7g","users":2143,"longitude":1.78333},"type":"Feature","geometry":{"type":"Point","coordinates":[1.78333,49.28333]}},{"properties":{"city":"Vernon","latitude":49.08333,"id":"a6249iyjj0wa","users":3599,"longitude":1.48333},"type":"Feature","geometry":{"type":"Point","coordinates":[1.48333,49.08333]}},{"properties":{"city":"Asnières","latitude":49.2,"id":"a6249iog8rv4","users":3772,"longitude":0.38333},"type":"Feature","geometry":{"type":"Point","coordinates":[0.38333,49.2]}},{"properties":{"city":"Bernay","latitude":49.1,"id":"a6249il5pczd","users":2379,"longitude":0.6},"type":"Feature","geometry":{"type":"Point","coordinates":[0.6,49.1]}},{"properties":{"city":"Louviers","latitude":49.21666,"id":"a6249iltjnar","users":4119,"longitude":1.16666},"type":"Feature","geometry":{"type":"Point","coordinates":[1.16666,49.21666]}},{"properties":{"city":"Lyons-la-Forêt","latitude":49.4,"id":"a6249ilxvm3q","users":1063,"longitude":1.46666},"type":"Feature","geometry":{"type":"Point","coordinates":[1.46666,49.4]}},{"properties":{"city":"Pont-Audemer","latitude":49.35,"id":"a6249ivxs3lm","users":2441,"longitude":0.51666},"type":"Feature","geometry":{"type":"Point","coordinates":[0.51666,49.35]}},{"properties":{"city":"Gaillon","latitude":49.16666,"id":"a6249iz1kcpe","users":1470,"longitude":1.33333},"type":"Feature","geometry":{"type":"Point","coordinates":[1.33333,49.16666]}},{"properties":{"city":"Les Andelys","latitude":49.25,"id":"a6249isrl5qi","users":1139,"longitude":1.41666},"type":"Feature","geometry":{"type":"Point","coordinates":[1.41666,49.25]}},{"properties":{"city":"Chartres","latitude":48.45,"id":"a6249iysh1sd","users":14417,"longitude":1.5},"type":"Feature","geometry":{"type":"Point","coordinates":[1.5,48.45]}},{"properties":{"city":"Dreux","latitude":48.73333,"id":"a6249ir6uh1s","users":5623,"longitude":1.36666},"type":"Feature","geometry":{"type":"Point","coordinates":[1.36666,48.73333]}},{"properties":{"city":"Lucé","latitude":48.43333,"id":"a6249ilj49y0","users":1321,"longitude":1.46666},"type":"Feature","geometry":{"type":"Point","coordinates":[1.46666,48.43333]}},{"properties":{"city":"Châteaudun","latitude":48.08333,"id":"a6249ivnetsb","users":2102,"longitude":1.33333},"type":"Feature","geometry":{"type":"Point","coordinates":[1.33333,48.08333]}},{"properties":{"city":"Nogent-le-Rotrou","latitude":48.31666,"id":"a6249isa03gf","users":1719,"longitude":0.83333},"type":"Feature","geometry":{"type":"Point","coordinates":[0.83333,48.31666]}},{"properties":{"city":"Quimper","latitude":47.99595,"id":"a6249itmsmrd","users":13925,"longitude":-4.09992},"type":"Feature","geometry":{"type":"Point","coordinates":[-4.09992,47.99595]}},{"properties":{"city":"Douarnenez","latitude":48.1,"id":"a6249iy3swk4","users":1242,"longitude":-4.33333},"type":"Feature","geometry":{"type":"Point","coordinates":[-4.33333,48.1]}},{"properties":{"city":"Brest","latitude":48.4,"id":"a6249imsegqy","users":36369,"longitude":-4.48333},"type":"Feature","geometry":{"type":"Point","coordinates":[-4.48333,48.4]}},{"properties":{"city":"Carhaix-Plouguer","latitude":48.28333,"id":"a6249ikx8gyw","users":1108,"longitude":-3.58333},"type":"Feature","geometry":{"type":"Point","coordinates":[-3.58333,48.28333]}},{"properties":{"city":"Quimperlé","latitude":47.86666,"id":"a6249irk10xy","users":2459,"longitude":-3.55},"type":"Feature","geometry":{"type":"Point","coordinates":[-3.55,47.86666]}},{"properties":{"city":"Landivisiau","latitude":48.51666,"id":"a6249itbtaat","users":1291,"longitude":-4.06666},"type":"Feature","geometry":{"type":"Point","coordinates":[-4.06666,48.51666]}},{"properties":{"city":"Morlaix","latitude":48.58333,"id":"a6249imrik9n","users":4443,"longitude":-3.83333},"type":"Feature","geometry":{"type":"Point","coordinates":[-3.83333,48.58333]}},{"properties":{"city":"Landerneau","latitude":48.45,"id":"a6249ixmts9o","users":1949,"longitude":-4.25},"type":"Feature","geometry":{"type":"Point","coordinates":[-4.25,48.45]}},{"properties":{"city":"Concarneau","latitude":47.86666,"id":"a6249ij51pcx","users":2305,"longitude":-3.91666},"type":"Feature","geometry":{"type":"Point","coordinates":[-3.91666,47.86666]}},{"properties":{"city":"Nîmes","latitude":43.83333,"id":"a6249iqlmqck","users":31088,"longitude":4.35},"type":"Feature","geometry":{"type":"Point","coordinates":[4.35,43.83333]}},{"properties":{"city":"Alès","latitude":44.13333,"id":"a6249iqabafu","users":8135,"longitude":4.08333},"type":"Feature","geometry":{"type":"Point","coordinates":[4.08333,44.13333]}},{"properties":{"city":"Pont-Saint-Esprit","latitude":44.25,"id":"a6249ix82lv1","users":1040,"longitude":4.65},"type":"Feature","geometry":{"type":"Point","coordinates":[4.65,44.25]}},{"properties":{"city":"Bagnols-sur-Cèze","latitude":44.16666,"id":"a6249iozad9x","users":2760,"longitude":4.61666},"type":"Feature","geometry":{"type":"Point","coordinates":[4.61666,44.16666]}},{"properties":{"city":"Beaucaire","latitude":43.8,"id":"a6249ij7ecv1","users":1385,"longitude":4.63333},"type":"Feature","geometry":{"type":"Point","coordinates":[4.63333,43.8]}},{"properties":{"city":"Uzès","latitude":44.01666,"id":"a6249iqcz9l9","users":1267,"longitude":4.41666},"type":"Feature","geometry":{"type":"Point","coordinates":[4.41666,44.01666]}},{"properties":{"city":"Balma","latitude":43.61666,"id":"a6249irh5z5w","users":1389,"longitude":1.5},"type":"Feature","geometry":{"type":"Point","coordinates":[1.5,43.61666]}},{"properties":{"city":"Tournefeuille","latitude":43.58333,"id":"a6249iniu5f8","users":1761,"longitude":1.35},"type":"Feature","geometry":{"type":"Point","coordinates":[1.35,43.58333]}},{"properties":{"city":"Cugnaux","latitude":43.53333,"id":"a6249iiqcrr8","users":1322,"longitude":1.36666},"type":"Feature","geometry":{"type":"Point","coordinates":[1.36666,43.53333]}},{"properties":{"city":"Toulouse","latitude":43.60436,"id":"a6249iyiymm3","users":147007,"longitude":1.44295},"type":"Feature","geometry":{"type":"Point","coordinates":[1.44295,43.60436]}},{"properties":{"city":"Ramonville-Saint-Agne","latitude":43.55,"id":"a6249imlmcs3","users":1319,"longitude":1.46666},"type":"Feature","geometry":{"type":"Point","coordinates":[1.46666,43.55]}},{"properties":{"city":"Muret","latitude":43.46666,"id":"a6249iqz4amy","users":2747,"longitude":1.35},"type":"Feature","geometry":{"type":"Point","coordinates":[1.35,43.46666]}},{"properties":{"city":"Blagnac","latitude":43.63333,"id":"a6249irbtf8c","users":2597,"longitude":1.4},"type":"Feature","geometry":{"type":"Point","coordinates":[1.4,43.63333]}},{"properties":{"city":"Colomiers","latitude":43.61666,"id":"a6249imjz85r","users":3110,"longitude":1.35},"type":"Feature","geometry":{"type":"Point","coordinates":[1.35,43.61666]}},{"properties":{"city":"Saint-Gaudens","latitude":43.11666,"id":"a6249iosvg0g","users":1796,"longitude":0.73333},"type":"Feature","geometry":{"type":"Point","coordinates":[0.73333,43.11666]}},{"properties":{"city":"Plaisance-du-Touch","latitude":43.56666,"id":"a6249ijuh480","users":1247,"longitude":1.3},"type":"Feature","geometry":{"type":"Point","coordinates":[1.3,43.56666]}},{"properties":{"city":"Auch","latitude":43.65,"id":"a6249ijpqnrg","users":4812,"longitude":0.58333},"type":"Feature","geometry":{"type":"Point","coordinates":[0.58333,43.65]}},{"properties":{"city":"Le Bouscat","latitude":44.86666,"id":"a6249ijgr8oy","users":1384,"longitude":-0.61666},"type":"Feature","geometry":{"type":"Point","coordinates":[-0.61666,44.86666]}},{"properties":{"city":"Arcachon","latitude":44.65889,"id":"a6249im02ghh","users":2559,"longitude":-1.16355},"type":"Feature","geometry":{"type":"Point","coordinates":[-1.16355,44.65889]}},{"properties":{"city":"Bègles","latitude":44.8,"id":"a6249inlqlub","users":2616,"longitude":-0.53333},"type":"Feature","geometry":{"type":"Point","coordinates":[-0.53333,44.8]}},{"properties":{"city":"Villenave-d'Ornon","latitude":44.76666,"id":"a6249ij342zy","users":1884,"longitude":-0.55},"type":"Feature","geometry":{"type":"Point","coordinates":[-0.55,44.76666]}},{"properties":{"city":"Cenon","latitude":44.85,"id":"a6249imnizzf","users":1762,"longitude":-0.53333},"type":"Feature","geometry":{"type":"Point","coordinates":[-0.53333,44.85]}},{"properties":{"city":"Saint-Médard-en-Jalles","latitude":44.9,"id":"a6249in5j0hi","users":1795,"longitude":-0.73333},"type":"Feature","geometry":{"type":"Point","coordinates":[-0.73333,44.9]}},{"properties":{"city":"Gradignan","latitude":44.76666,"id":"a6249ird0hme","users":1746,"longitude":-0.61666},"type":"Feature","geometry":{"type":"Point","coordinates":[-0.61666,44.76666]}},{"properties":{"city":"Langon","latitude":44.55,"id":"a6249incv9co","users":2416,"longitude":-0.25},"type":"Feature","geometry":{"type":"Point","coordinates":[-0.25,44.55]}},{"properties":{"city":"Coutras","latitude":45.03333,"id":"a6249itbk43d","users":1406,"longitude":-0.13333},"type":"Feature","geometry":{"type":"Point","coordinates":[-0.13333,45.03333]}},{"properties":{"city":"Saint-André-de-Cubzac","latitude":44.99166,"id":"a6249iovzudj","users":1078,"longitude":-0.44166},"type":"Feature","geometry":{"type":"Point","coordinates":[-0.44166,44.99166]}},{"properties":{"city":"La Teste-de-Buch","latitude":44.6343,"id":"a6249istnfw0","users":1842,"longitude":-1.13704},"type":"Feature","geometry":{"type":"Point","coordinates":[-1.13704,44.6343]}},{"properties":{"city":"Floirac","latitude":44.83333,"id":"a6249iuw9ojn","users":1142,"longitude":-0.53333},"type":"Feature","geometry":{"type":"Point","coordinates":[-0.53333,44.83333]}},{"properties":{"city":"Blanquefort","latitude":44.91666,"id":"a6249iv2csgs","users":1241,"longitude":-0.63333},"type":"Feature","geometry":{"type":"Point","coordinates":[-0.63333,44.91666]}},{"properties":{"city":"Bordeaux","latitude":44.83333,"id":"a6249il9d4gk","users":123924,"longitude":-0.56666},"type":"Feature","geometry":{"type":"Point","coordinates":[-0.56666,44.83333]}},{"properties":{"city":"Lormont","latitude":44.86666,"id":"a6249ivnxcyc","users":2082,"longitude":-0.53333},"type":"Feature","geometry":{"type":"Point","coordinates":[-0.53333,44.86666]}},{"properties":{"city":"Eysines","latitude":44.88333,"id":"a6249ivh1jkg","users":1487,"longitude":-0.65},"type":"Feature","geometry":{"type":"Point","coordinates":[-0.65,44.88333]}},{"properties":{"city":"Talence","latitude":44.81666,"id":"a6249ilfykbp","users":4548,"longitude":-0.6},"type":"Feature","geometry":{"type":"Point","coordinates":[-0.6,44.81666]}},{"properties":{"city":"Gujan-Mestras","latitude":44.63333,"id":"a6249iktsz4g","users":1682,"longitude":-1.06666},"type":"Feature","geometry":{"type":"Point","coordinates":[-1.06666,44.63333]}},{"properties":{"city":"Libourne","latitude":44.91666,"id":"a6249io5fsqu","users":6582,"longitude":-0.23333},"type":"Feature","geometry":{"type":"Point","coordinates":[-0.23333,44.91666]}},{"properties":{"city":"Bruges","latitude":44.88333,"id":"a6249iivih8h","users":1138,"longitude":-0.61666},"type":"Feature","geometry":{"type":"Point","coordinates":[-0.61666,44.88333]}},{"properties":{"city":"Pessac","latitude":44.8,"id":"a6249irfn7nn","users":5514,"longitude":-0.61666},"type":"Feature","geometry":{"type":"Point","coordinates":[-0.61666,44.8]}},{"properties":{"city":"Cestas","latitude":44.73333,"id":"a6249iosla0r","users":1153,"longitude":-0.68333},"type":"Feature","geometry":{"type":"Point","coordinates":[-0.68333,44.73333]}},{"properties":{"city":"Mérignac","latitude":44.84176,"id":"a6249imn31hr","users":5839,"longitude":-0.64779},"type":"Feature","geometry":{"type":"Point","coordinates":[-0.64779,44.84176]}},{"properties":{"city":"Montpellier","latitude":43.60817,"id":"a6249iovf6bd","users":74328,"longitude":3.87944},"type":"Feature","geometry":{"type":"Point","coordinates":[3.87944,43.60817]}},{"properties":{"city":"Frontignan","latitude":43.45,"id":"a6249iygs3lg","users":2125,"longitude":3.75},"type":"Feature","geometry":{"type":"Point","coordinates":[3.75,43.45]}},{"properties":{"city":"Pézenas","latitude":43.45,"id":"a6249irc5lo6","users":1455,"longitude":3.41666},"type":"Feature","geometry":{"type":"Point","coordinates":[3.41666,43.45]}},{"properties":{"city":"Mèze","latitude":43.42375,"id":"a6249iwpfc8c","users":1113,"longitude":3.60886},"type":"Feature","geometry":{"type":"Point","coordinates":[3.60886,43.42375]}},{"properties":{"city":"Sète","latitude":43.4017,"id":"a6249iq1p7v9","users":5622,"longitude":3.6966},"type":"Feature","geometry":{"type":"Point","coordinates":[3.6966,43.4017]}},{"properties":{"city":"La Grande Motte","latitude":43.56666,"id":"a6249ilf1hf6","users":1091,"longitude":4.08333},"type":"Feature","geometry":{"type":"Point","coordinates":[4.08333,43.56666]}},{"properties":{"city":"Agde","latitude":43.31666,"id":"a6249ilmeh6l","users":4055,"longitude":3.46666},"type":"Feature","geometry":{"type":"Point","coordinates":[3.46666,43.31666]}},{"properties":{"city":"Lunel","latitude":43.68333,"id":"a6249ipppqj5","users":2935,"longitude":4.13333},"type":"Feature","geometry":{"type":"Point","coordinates":[4.13333,43.68333]}},{"properties":{"city":"Béziers","latitude":43.34162,"id":"a6249iv9d8mx","users":14604,"longitude":3.21781},"type":"Feature","geometry":{"type":"Point","coordinates":[3.21781,43.34162]}},{"properties":{"city":"Rennes","latitude":48.08333,"id":"a6249iq4jllr","users":67804,"longitude":-1.68333},"type":"Feature","geometry":{"type":"Point","coordinates":[-1.68333,48.08333]}},{"properties":{"city":"Bruz","latitude":48.03333,"id":"a6249it24k7h","users":1091,"longitude":-1.75},"type":"Feature","geometry":{"type":"Point","coordinates":[-1.75,48.03333]}},{"properties":{"city":"Fougères","latitude":48.35,"id":"a6249iuc3uj7","users":3552,"longitude":-1.2},"type":"Feature","geometry":{"type":"Point","coordinates":[-1.2,48.35]}},{"properties":{"city":"Saint-Malo","latitude":48.65,"id":"a6249ijepwiy","users":6545,"longitude":-2.01666},"type":"Feature","geometry":{"type":"Point","coordinates":[-2.01666,48.65]}},{"properties":{"city":"Tremblay","latitude":48.41666,"id":"a6249in655f1","users":1513,"longitude":-1.46666},"type":"Feature","geometry":{"type":"Point","coordinates":[-1.46666,48.41666]}},{"properties":{"city":"Vitré","latitude":48.13333,"id":"a6249il5ms0h","users":2689,"longitude":-1.2},"type":"Feature","geometry":{"type":"Point","coordinates":[-1.2,48.13333]}},{"properties":{"city":"Redon","latitude":47.65,"id":"a6249iqq1l3t","users":2158,"longitude":-2.08333},"type":"Feature","geometry":{"type":"Point","coordinates":[-2.08333,47.65]}},{"properties":{"city":"Dinard","latitude":48.63333,"id":"a6249iiqi0if","users":1209,"longitude":-2.06666},"type":"Feature","geometry":{"type":"Point","coordinates":[-2.06666,48.63333]}},{"properties":{"city":"Châteauroux","latitude":46.81666,"id":"a6249iu9ah7g","users":10458,"longitude":1.7},"type":"Feature","geometry":{"type":"Point","coordinates":[1.7,46.81666]}},{"properties":{"city":"Issoudun","latitude":46.95,"id":"a6249ikzmtov","users":1679,"longitude":2.0},"type":"Feature","geometry":{"type":"Point","coordinates":[2.0,46.95]}},{"properties":{"city":"Bretagne","latitude":47.0,"id":"a6249ix5gyil","users":1567,"longitude":1.7},"type":"Feature","geometry":{"type":"Point","coordinates":[1.7,47.0]}},{"properties":{"city":"Tours","latitude":47.38333,"id":"a6249iurr7gb","users":46955,"longitude":0.68333},"type":"Feature","geometry":{"type":"Point","coordinates":[0.68333,47.38333]}},{"properties":{"city":"Joué-lés-Tours","latitude":47.35,"id":"a6249ijm1p9x","users":2949,"longitude":0.66666},"type":"Feature","geometry":{"type":"Point","coordinates":[0.66666,47.35]}},{"properties":{"city":"Chinon","latitude":47.16666,"id":"a6249ixg3qc2","users":1310,"longitude":0.25},"type":"Feature","geometry":{"type":"Point","coordinates":[0.25,47.16666]}},{"properties":{"city":"Amboise","latitude":47.41666,"id":"a6249in8ua2v","users":2115,"longitude":0.98333},"type":"Feature","geometry":{"type":"Point","coordinates":[0.98333,47.41666]}},{"properties":{"city":"Saint-Cyr-sur-Loire","latitude":47.4,"id":"a6249ik8h9h1","users":1052,"longitude":0.66666},"type":"Feature","geometry":{"type":"Point","coordinates":[0.66666,47.4]}},{"properties":{"city":"Loches","latitude":47.13333,"id":"a6249inh9bc9","users":1087,"longitude":1.0},"type":"Feature","geometry":{"type":"Point","coordinates":[1.0,47.13333]}},{"properties":{"city":"Saint-Pierre-des-Corps","latitude":47.38333,"id":"a6249iuzivle","users":1435,"longitude":0.73333},"type":"Feature","geometry":{"type":"Point","coordinates":[0.73333,47.38333]}},{"properties":{"city":"Grenoble","latitude":45.16666,"id":"a6249ijl83ef","users":54849,"longitude":5.71666},"type":"Feature","geometry":{"type":"Point","coordinates":[5.71666,45.16666]}},{"properties":{"city":"L'Isle-d'Abeau","latitude":45.61666,"id":"a6249iw5zlos","users":1195,"longitude":5.23333},"type":"Feature","geometry":{"type":"Point","coordinates":[5.23333,45.61666]}},{"properties":{"city":"Villefontaine","latitude":45.61666,"id":"a6249irdfmcx","users":1681,"longitude":5.15},"type":"Feature","geometry":{"type":"Point","coordinates":[5.15,45.61666]}},{"properties":{"city":"Échirolles","latitude":45.13333,"id":"a6249iypg6pz","users":2140,"longitude":5.71666},"type":"Feature","geometry":{"type":"Point","coordinates":[5.71666,45.13333]}},{"properties":{"city":"Saint-Marcellin","latitude":45.15,"id":"a6249il1o5ae","users":1008,"longitude":5.31666},"type":"Feature","geometry":{"type":"Point","coordinates":[5.31666,45.15]}},{"properties":{"city":"Vienne","latitude":45.51666,"id":"a6249iyrlup6","users":5073,"longitude":4.86666},"type":"Feature","geometry":{"type":"Point","coordinates":[4.86666,45.51666]}},{"properties":{"city":"Bourgoin-Jallieu","latitude":45.59166,"id":"a6249iw6lbt1","users":4173,"longitude":5.27972},"type":"Feature","geometry":{"type":"Point","coordinates":[5.27972,45.59166]}},{"properties":{"city":"Saint-Martin-d'Hères","latitude":45.16666,"id":"a6249ivdwgvp","users":1404,"longitude":5.76666},"type":"Feature","geometry":{"type":"Point","coordinates":[5.76666,45.16666]}},{"properties":{"city":"Voiron","latitude":45.36666,"id":"a6249iqe7c0l","users":3218,"longitude":5.58333},"type":"Feature","geometry":{"type":"Point","coordinates":[5.58333,45.36666]}},{"properties":{"city":"Fontaine","latitude":45.18333,"id":"a6249ijdakl4","users":1215,"longitude":5.66666},"type":"Feature","geometry":{"type":"Point","coordinates":[5.66666,45.18333]}},{"properties":{"city":"Dole","latitude":47.08925,"id":"a6249inp63wg","users":5956,"longitude":5.48784},"type":"Feature","geometry":{"type":"Point","coordinates":[5.48784,47.08925]}},{"properties":{"city":"Saint-Claude","latitude":46.38333,"id":"a6249iuayff4","users":1126,"longitude":5.86666},"type":"Feature","geometry":{"type":"Point","coordinates":[5.86666,46.38333]}},{"properties":{"city":"Toulouse-le-Château","latitude":46.81666,"id":"a6249iuwn5yz","users":2303,"longitude":5.58333},"type":"Feature","geometry":{"type":"Point","coordinates":[5.58333,46.81666]}},{"properties":{"city":"Champagnole","latitude":46.75,"id":"a6249imyewa5","users":1144,"longitude":5.91666},"type":"Feature","geometry":{"type":"Point","coordinates":[5.91666,46.75]}},{"properties":{"city":"Lons-le-Saunier","latitude":46.66666,"id":"a6249iroeeg5","users":4950,"longitude":5.55},"type":"Feature","geometry":{"type":"Point","coordinates":[5.55,46.66666]}},{"properties":{"city":"Mont-de-Marsan","latitude":43.88333,"id":"a6249im4h3wx","users":7914,"longitude":-0.5},"type":"Feature","geometry":{"type":"Point","coordinates":[-0.5,43.88333]}},{"properties":{"city":"Dax","latitude":43.70945,"id":"a6249ipy9ioh","users":8635,"longitude":-1.0554},"type":"Feature","geometry":{"type":"Point","coordinates":[-1.0554,43.70945]}},{"properties":{"city":"Capbreton","latitude":43.63333,"id":"a6249iv18k8h","users":1288,"longitude":-1.43333},"type":"Feature","geometry":{"type":"Point","coordinates":[-1.43333,43.63333]}},{"properties":{"city":"Mimizan","latitude":44.2,"id":"a6249isi0qg1","users":1061,"longitude":-1.23333},"type":"Feature","geometry":{"type":"Point","coordinates":[-1.23333,44.2]}},{"properties":{"city":"Tarnos","latitude":43.53333,"id":"a6249iuponww","users":1381,"longitude":-1.46666},"type":"Feature","geometry":{"type":"Point","coordinates":[-1.46666,43.53333]}},{"properties":{"city":"Biscarrosse","latitude":44.39166,"id":"a6249iswc6yh","users":1552,"longitude":-1.16666},"type":"Feature","geometry":{"type":"Point","coordinates":[-1.16666,44.39166]}},{"properties":{"city":"Saint-Paul-lès-Dax","latitude":43.73333,"id":"a6249imr45p3","users":1286,"longitude":-1.05},"type":"Feature","geometry":{"type":"Point","coordinates":[-1.05,43.73333]}},{"properties":{"city":"Blois","latitude":47.58333,"id":"a6249iuohpa2","users":13439,"longitude":1.33333},"type":"Feature","geometry":{"type":"Point","coordinates":[1.33333,47.58333]}},{"properties":{"city":"Vendôme","latitude":47.8,"id":"a6249inznzs9","users":3599,"longitude":1.06666},"type":"Feature","geometry":{"type":"Point","coordinates":[1.06666,47.8]}},{"properties":{"city":"Romorantin-Lanthenay","latitude":47.35944,"id":"a6249ir6wky1","users":2682,"longitude":1.74443},"type":"Feature","geometry":{"type":"Point","coordinates":[1.74443,47.35944]}},{"properties":{"city":"Saint-Étienne","latitude":45.43333,"id":"a6249iy4d9o6","users":29842,"longitude":4.4},"type":"Feature","geometry":{"type":"Point","coordinates":[4.4,45.43333]}},{"properties":{"city":"Roanne","latitude":46.03666,"id":"a6249ioqaowc","users":8462,"longitude":4.06888},"type":"Feature","geometry":{"type":"Point","coordinates":[4.06888,46.03666]}},{"properties":{"city":"Saint-Chamond","latitude":45.46666,"id":"a6249ilq591c","users":2519,"longitude":4.5},"type":"Feature","geometry":{"type":"Point","coordinates":[4.5,45.46666]}},{"properties":{"city":"Montbrison","latitude":45.6,"id":"a6249ivnyhwi","users":1841,"longitude":4.05},"type":"Feature","geometry":{"type":"Point","coordinates":[4.05,45.6]}},{"properties":{"city":"Firminy","latitude":45.38333,"id":"a6249imsy1vl","users":1998,"longitude":4.3},"type":"Feature","geometry":{"type":"Point","coordinates":[4.3,45.38333]}},{"properties":{"city":"Rive-de-Gier","latitude":45.53333,"id":"a6249ishunxo","users":1584,"longitude":4.61666},"type":"Feature","geometry":{"type":"Point","coordinates":[4.61666,45.53333]}},{"properties":{"city":"Le Puy-en-Velay","latitude":45.04416,"id":"a6249imr1990","users":4371,"longitude":3.88583},"type":"Feature","geometry":{"type":"Point","coordinates":[3.88583,45.04416]}},{"properties":{"city":"Brioude","latitude":45.3,"id":"a6249ilsjtxt","users":1063,"longitude":3.4},"type":"Feature","geometry":{"type":"Point","coordinates":[3.4,45.3]}},{"properties":{"city":"Châteaubriant","latitude":47.71666,"id":"a6249inm622k","users":1692,"longitude":-1.38333},"type":"Feature","geometry":{"type":"Point","coordinates":[-1.38333,47.71666]}},{"properties":{"city":"Vertou","latitude":47.16666,"id":"a6249ika93m7","users":1247,"longitude":-1.48333},"type":"Feature","geometry":{"type":"Point","coordinates":[-1.48333,47.16666]}},{"properties":{"city":"Ancenis","latitude":47.36666,"id":"a6249iky5kft","users":1911,"longitude":-1.16666},"type":"Feature","geometry":{"type":"Point","coordinates":[-1.16666,47.36666]}},{"properties":{"city":"Pontchâteau","latitude":47.43333,"id":"a6249ivbiy1g","users":1019,"longitude":-2.08333},"type":"Feature","geometry":{"type":"Point","coordinates":[-2.08333,47.43333]}},{"properties":{"city":"Nantes","latitude":47.21684,"id":"a6249imijk6u","users":96529,"longitude":-1.55674},"type":"Feature","geometry":{"type":"Point","coordinates":[-1.55674,47.21684]}},{"properties":{"city":"Pornic","latitude":47.11666,"id":"a6249iuep7t7","users":1558,"longitude":-2.1},"type":"Feature","geometry":{"type":"Point","coordinates":[-2.1,47.11666]}},{"properties":{"city":"Saint-Sébastien-sur-Loire","latitude":47.21666,"id":"a6249ijnmjo9","users":1305,"longitude":-1.5},"type":"Feature","geometry":{"type":"Point","coordinates":[-1.5,47.21666]}},{"properties":{"city":"Bouguenais","latitude":47.18333,"id":"a6249iisbxmt","users":1238,"longitude":-1.61666},"type":"Feature","geometry":{"type":"Point","coordinates":[-1.61666,47.18333]}},{"properties":{"city":"Guérande","latitude":47.33333,"id":"a6249ixkwr29","users":1658,"longitude":-2.43333},"type":"Feature","geometry":{"type":"Point","coordinates":[-2.43333,47.33333]}},{"properties":{"city":"Pornichet","latitude":47.25,"id":"a6249ip7c5tf","users":1040,"longitude":-2.35},"type":"Feature","geometry":{"type":"Point","coordinates":[-2.35,47.25]}},{"properties":{"city":"Rezé","latitude":47.2,"id":"a6249iwemsae","users":3528,"longitude":-1.56666},"type":"Feature","geometry":{"type":"Point","coordinates":[-1.56666,47.2]}},{"properties":{"city":"Carquefou","latitude":47.3,"id":"a6249ip87u3y","users":1322,"longitude":-1.5},"type":"Feature","geometry":{"type":"Point","coordinates":[-1.5,47.3]}},{"properties":{"city":"La Baule-Escoublac","latitude":47.3,"id":"a6249iyolmsl","users":1572,"longitude":-2.36666},"type":"Feature","geometry":{"type":"Point","coordinates":[-2.36666,47.3]}},{"properties":{"city":"Saint-Nazaire","latitude":47.27433,"id":"a6249inxeyzd","users":9889,"longitude":-2.21371},"type":"Feature","geometry":{"type":"Point","coordinates":[-2.21371,47.27433]}},{"properties":{"city":"Orvault","latitude":47.26666,"id":"a6249ij0t6zc","users":1525,"longitude":-1.61666},"type":"Feature","geometry":{"type":"Point","coordinates":[-1.61666,47.26666]}},{"properties":{"city":"Saint-Herblain","latitude":47.21666,"id":"a6249it2a6x3","users":2250,"longitude":-1.65},"type":"Feature","geometry":{"type":"Point","coordinates":[-1.65,47.21666]}},{"properties":{"city":"Sainte-Luce-sur-Loire","latitude":47.25,"id":"a6249ivpqufv","users":1127,"longitude":-1.5},"type":"Feature","geometry":{"type":"Point","coordinates":[-1.5,47.25]}},{"properties":{"city":"Orléans","latitude":47.91666,"id":"a6249irivy5e","users":39693,"longitude":1.9},"type":"Feature","geometry":{"type":"Point","coordinates":[1.9,47.91666]}},{"properties":{"city":"Saint-Jean-de-la-Ruelle","latitude":47.91666,"id":"a6249is1eojf","users":1013,"longitude":1.86666},"type":"Feature","geometry":{"type":"Point","coordinates":[1.86666,47.91666]}},{"properties":{"city":"Olivet","latitude":47.86666,"id":"a6249itbqxaq","users":1498,"longitude":1.9},"type":"Feature","geometry":{"type":"Point","coordinates":[1.9,47.86666]}},{"properties":{"city":"Beaugency","latitude":47.78333,"id":"a6249it3dysu","users":1149,"longitude":1.63333},"type":"Feature","geometry":{"type":"Point","coordinates":[1.63333,47.78333]}},{"properties":{"city":"Montargis","latitude":47.99609,"id":"a6249iriz427","users":6008,"longitude":2.73268},"type":"Feature","geometry":{"type":"Point","coordinates":[2.73268,47.99609]}},{"properties":{"city":"Pithiviers","latitude":48.16666,"id":"a6249irn1euk","users":1656,"longitude":2.25},"type":"Feature","geometry":{"type":"Point","coordinates":[2.25,48.16666]}},{"properties":{"city":"Fleury-les-Aubrais","latitude":47.93333,"id":"a6249irjf984","users":1544,"longitude":1.91666},"type":"Feature","geometry":{"type":"Point","coordinates":[1.91666,47.93333]}},{"properties":{"city":"Gien","latitude":47.7,"id":"a6249ix6zt3v","users":2424,"longitude":2.63333},"type":"Feature","geometry":{"type":"Point","coordinates":[2.63333,47.7]}},{"properties":{"city":"Sully-sur-Loire","latitude":47.76666,"id":"a6249ivz2ejl","users":1029,"longitude":2.36666},"type":"Feature","geometry":{"type":"Point","coordinates":[2.36666,47.76666]}},{"properties":{"city":"Saint-Jean-le-Blanc","latitude":47.9,"id":"a6249iwssnk0","users":1077,"longitude":1.91666},"type":"Feature","geometry":{"type":"Point","coordinates":[1.91666,47.9]}},{"properties":{"city":"Saran","latitude":47.95,"id":"a6249iud41f3","users":1280,"longitude":1.88333},"type":"Feature","geometry":{"type":"Point","coordinates":[1.88333,47.95]}},{"properties":{"city":"Saint-Jean-de-Braye","latitude":47.9,"id":"a6249iyymx5g","users":1077,"longitude":1.96666},"type":"Feature","geometry":{"type":"Point","coordinates":[1.96666,47.9]}},{"properties":{"city":"Cahors","latitude":44.44562,"id":"a6249ikli4dw","users":4611,"longitude":1.44146},"type":"Feature","geometry":{"type":"Point","coordinates":[1.44146,44.44562]}},{"properties":{"city":"Figeac","latitude":44.6,"id":"a6249ip40yyx","users":1506,"longitude":2.03333},"type":"Feature","geometry":{"type":"Point","coordinates":[2.03333,44.6]}},{"properties":{"city":"Agen","latitude":44.2,"id":"a6249iutzfnj","users":13666,"longitude":0.63333},"type":"Feature","geometry":{"type":"Point","coordinates":[0.63333,44.2]}},{"properties":{"city":"Marmande","latitude":44.5,"id":"a6249iz0tigy","users":4163,"longitude":0.16666},"type":"Feature","geometry":{"type":"Point","coordinates":[0.16666,44.5]}},{"properties":{"city":"Villeneuve-sur-Lot","latitude":44.4,"id":"a6249iouxgxj","users":3728,"longitude":0.71666},"type":"Feature","geometry":{"type":"Point","coordinates":[0.71666,44.4]}},{"properties":{"city":"Francescas","latitude":44.06666,"id":"a6249ilctk8o","users":25953,"longitude":0.43333},"type":"Feature","geometry":{"type":"Point","coordinates":[0.43333,44.06666]}},{"properties":{"city":"Mende","latitude":44.51666,"id":"a6249isqmysj","users":1447,"longitude":3.5},"type":"Feature","geometry":{"type":"Point","coordinates":[3.5,44.51666]}},{"properties":{"city":"Angers","latitude":47.46666,"id":"a6249iyfpasp","users":45412,"longitude":-0.55},"type":"Feature","geometry":{"type":"Point","coordinates":[-0.55,47.46666]}},{"properties":{"city":"Cholet","latitude":47.06666,"id":"a6249inep1x2","users":10684,"longitude":-0.88333},"type":"Feature","geometry":{"type":"Point","coordinates":[-0.88333,47.06666]}},{"properties":{"city":"Saumur","latitude":47.26666,"id":"a6249ixvkfoc","users":5715,"longitude":-0.08333},"type":"Feature","geometry":{"type":"Point","coordinates":[-0.08333,47.26666]}},{"properties":{"city":"Segré","latitude":47.68333,"id":"a6249im00mbu","users":1230,"longitude":-0.86666},"type":"Feature","geometry":{"type":"Point","coordinates":[-0.86666,47.68333]}},{"properties":{"city":"Trélazé","latitude":47.45,"id":"a6249iqoekne","users":1124,"longitude":-0.46666},"type":"Feature","geometry":{"type":"Point","coordinates":[-0.46666,47.45]}},{"properties":{"city":"Saint-Lô","latitude":49.11666,"id":"a6249isyizpr","users":4938,"longitude":-1.08333},"type":"Feature","geometry":{"type":"Point","coordinates":[-1.08333,49.11666]}},{"properties":{"city":"Cherbourg-Octeville","latitude":49.63866,"id":"a6249inxnd2u","users":12358,"longitude":-1.61424},"type":"Feature","geometry":{"type":"Point","coordinates":[-1.61424,49.63866]}},{"properties":{"city":"Tourlaville","latitude":49.63333,"id":"a6249ikylr6e","users":1592,"longitude":-1.56666},"type":"Feature","geometry":{"type":"Point","coordinates":[-1.56666,49.63333]}},{"properties":{"city":"Coutances","latitude":49.05,"id":"a6249iubke6c","users":2278,"longitude":-1.43333},"type":"Feature","geometry":{"type":"Point","coordinates":[-1.43333,49.05]}},{"properties":{"city":"Avranches","latitude":48.68333,"id":"a6249iwhe0zj","users":2912,"longitude":-1.36666},"type":"Feature","geometry":{"type":"Point","coordinates":[-1.36666,48.68333]}},{"properties":{"city":"Granville","latitude":48.83333,"id":"a6249irtg9ad","users":3144,"longitude":-1.6},"type":"Feature","geometry":{"type":"Point","coordinates":[-1.6,48.83333]}},{"properties":{"city":"Carentan","latitude":49.3,"id":"a6249iljza0k","users":1236,"longitude":-1.23333},"type":"Feature","geometry":{"type":"Point","coordinates":[-1.23333,49.3]}},{"properties":{"city":"Valognes","latitude":49.51666,"id":"a6249iqnqwqu","users":1312,"longitude":-1.46666},"type":"Feature","geometry":{"type":"Point","coordinates":[-1.46666,49.51666]}},{"properties":{"city":"Châlons-en-Champagne","latitude":48.95521,"id":"a6249ir90jay","users":11396,"longitude":4.36364},"type":"Feature","geometry":{"type":"Point","coordinates":[4.36364,48.95521]}},{"properties":{"city":"Reims","latitude":49.2566,"id":"a6249iinhncl","users":46669,"longitude":4.03309},"type":"Feature","geometry":{"type":"Point","coordinates":[4.03309,49.2566]}},{"properties":{"city":"Épernay","latitude":49.03409,"id":"a6249itsr2cq","users":5664,"longitude":3.95738},"type":"Feature","geometry":{"type":"Point","coordinates":[3.95738,49.03409]}},{"properties":{"city":"Vitry-le-François","latitude":48.73333,"id":"a6249it39om6","users":3083,"longitude":4.58333},"type":"Feature","geometry":{"type":"Point","coordinates":[4.58333,48.73333]}},{"properties":{"city":"Chaumont","latitude":48.11666,"id":"a6249is9p3p2","users":5318,"longitude":5.13333},"type":"Feature","geometry":{"type":"Point","coordinates":[5.13333,48.11666]}},{"properties":{"city":"Saint-Dizier","latitude":48.63333,"id":"a6249ivjc7mr","users":4491,"longitude":4.95},"type":"Feature","geometry":{"type":"Point","coordinates":[4.95,48.63333]}},{"properties":{"city":"Langres","latitude":47.86666,"id":"a6249iyaflna","users":2289,"longitude":5.33333},"type":"Feature","geometry":{"type":"Point","coordinates":[5.33333,47.86666]}},{"properties":{"city":"Joinville","latitude":48.45,"id":"a6249ij1217o","users":1060,"longitude":5.13333},"type":"Feature","geometry":{"type":"Point","coordinates":[5.13333,48.45]}},{"properties":{"city":"Laval","latitude":48.06666,"id":"a6249il4f0ma","users":13020,"longitude":-0.76666},"type":"Feature","geometry":{"type":"Point","coordinates":[-0.76666,48.06666]}},{"properties":{"city":"Mayenne","latitude":48.3,"id":"a6249io6rxie","users":3280,"longitude":-0.61666},"type":"Feature","geometry":{"type":"Point","coordinates":[-0.61666,48.3]}},{"properties":{"city":"Château-Gontier","latitude":47.83333,"id":"a6249iqf2cs1","users":1562,"longitude":-0.7},"type":"Feature","geometry":{"type":"Point","coordinates":[-0.7,47.83333]}},{"properties":{"city":"Nancy","latitude":48.69078,"id":"a6249imuj9zu","users":53503,"longitude":6.1825},"type":"Feature","geometry":{"type":"Point","coordinates":[6.1825,48.69078]}},{"properties":{"city":"Saint-Max","latitude":48.7,"id":"a6249iqr1hbp","users":1085,"longitude":6.21666},"type":"Feature","geometry":{"type":"Point","coordinates":[6.21666,48.7]}},{"properties":{"city":"Briey","latitude":49.25,"id":"a6249ilhaq79","users":1252,"longitude":5.93333},"type":"Feature","geometry":{"type":"Point","coordinates":[5.93333,49.25]}},{"properties":{"city":"Villerupt","latitude":49.46666,"id":"a6249iwzzawj","users":1099,"longitude":5.93333},"type":"Feature","geometry":{"type":"Point","coordinates":[5.93333,49.46666]}},{"properties":{"city":"Toul","latitude":48.68333,"id":"a6249iu72ng0","users":3350,"longitude":5.9},"type":"Feature","geometry":{"type":"Point","coordinates":[5.9,48.68333]}},{"properties":{"city":"Lunéville","latitude":48.59135,"id":"a6249ijntgxp","users":3760,"longitude":6.49081},"type":"Feature","geometry":{"type":"Point","coordinates":[6.49081,48.59135]}},{"properties":{"city":"Longwy","latitude":49.51666,"id":"a6249il4cgwn","users":4635,"longitude":5.76666},"type":"Feature","geometry":{"type":"Point","coordinates":[5.76666,49.51666]}},{"properties":{"city":"Vandoeuvre-lès-Nancy","latitude":48.65,"id":"a6249iq25swz","users":2161,"longitude":6.18333},"type":"Feature","geometry":{"type":"Point","coordinates":[6.18333,48.65]}},{"properties":{"city":"Laxou","latitude":48.68333,"id":"a6249iju4aor","users":1316,"longitude":6.15},"type":"Feature","geometry":{"type":"Point","coordinates":[6.15,48.68333]}},{"properties":{"city":"Pont-à-Mousson","latitude":48.9,"id":"a6249ivtq3b3","users":2841,"longitude":6.06666},"type":"Feature","geometry":{"type":"Point","coordinates":[6.06666,48.9]}},{"properties":{"city":"Jarny","latitude":49.15,"id":"a6249int7xj5","users":1443,"longitude":5.88333},"type":"Feature","geometry":{"type":"Point","coordinates":[5.88333,49.15]}},{"properties":{"city":"Bar-le-Duc","latitude":48.78333,"id":"a6249ioaf0tw","users":4020,"longitude":5.16666},"type":"Feature","geometry":{"type":"Point","coordinates":[5.16666,48.78333]}},{"properties":{"city":"Commercy","latitude":48.75,"id":"a6249irw0vnx","users":1347,"longitude":5.58333},"type":"Feature","geometry":{"type":"Point","coordinates":[5.58333,48.75]}},{"properties":{"city":"Vannes","latitude":47.66666,"id":"a6249ile8l4v","users":15896,"longitude":-2.75},"type":"Feature","geometry":{"type":"Point","coordinates":[-2.75,47.66666]}},{"properties":{"city":"Lorient","latitude":47.75,"id":"a6249ixtjgch","users":17299,"longitude":-3.36666},"type":"Feature","geometry":{"type":"Point","coordinates":[-3.36666,47.75]}},{"properties":{"city":"Pontivy","latitude":48.06666,"id":"a6249iy75t4o","users":2938,"longitude":-2.98333},"type":"Feature","geometry":{"type":"Point","coordinates":[-2.98333,48.06666]}},{"properties":{"city":"Auray","latitude":47.66666,"id":"a6249itw9507","users":2862,"longitude":-2.98333},"type":"Feature","geometry":{"type":"Point","coordinates":[-2.98333,47.66666]}},{"properties":{"city":"Lanester","latitude":47.75,"id":"a6249ipuek7v","users":2513,"longitude":-3.35},"type":"Feature","geometry":{"type":"Point","coordinates":[-3.35,47.75]}},{"properties":{"city":"Hennebont","latitude":47.8,"id":"a6249imir0q5","users":2078,"longitude":-3.28333},"type":"Feature","geometry":{"type":"Point","coordinates":[-3.28333,47.8]}},{"properties":{"city":"Ploërmel","latitude":47.93333,"id":"a6249imfbaax","users":1737,"longitude":-2.4},"type":"Feature","geometry":{"type":"Point","coordinates":[-2.4,47.93333]}},{"properties":{"city":"Metz","latitude":49.13333,"id":"a6249iv8hkd3","users":53177,"longitude":6.16666},"type":"Feature","geometry":{"type":"Point","coordinates":[6.16666,49.13333]}},{"properties":{"city":"Thionville","latitude":49.35714,"id":"a6249iybvdwy","users":13859,"longitude":6.16856},"type":"Feature","geometry":{"type":"Point","coordinates":[6.16856,49.35714]}},{"properties":{"city":"Rombas","latitude":49.25,"id":"a6249iwz9jxb","users":1231,"longitude":6.08333},"type":"Feature","geometry":{"type":"Point","coordinates":[6.08333,49.25]}},{"properties":{"city":"Montigny-lès-Metz","latitude":49.1,"id":"a6249iods5i1","users":2131,"longitude":6.15},"type":"Feature","geometry":{"type":"Point","coordinates":[6.15,49.1]}},{"properties":{"city":"Florange","latitude":49.33333,"id":"a6249ikgiu0j","users":1158,"longitude":6.11666},"type":"Feature","geometry":{"type":"Point","coordinates":[6.11666,49.33333]}},{"properties":{"city":"Sarreguemines","latitude":49.1,"id":"a6249itsshk7","users":5470,"longitude":7.05},"type":"Feature","geometry":{"type":"Point","coordinates":[7.05,49.1]}},{"properties":{"city":"Maizières-lès-Metz","latitude":49.21666,"id":"a6249il9bttc","users":1064,"longitude":6.15},"type":"Feature","geometry":{"type":"Point","coordinates":[6.15,49.21666]}},{"properties":{"city":"Fameck","latitude":49.3,"id":"a6249iwuzfkl","users":1113,"longitude":6.11666},"type":"Feature","geometry":{"type":"Point","coordinates":[6.11666,49.3]}},{"properties":{"city":"Hagondange","latitude":49.25,"id":"a6249ivd2z3g","users":1566,"longitude":6.16666},"type":"Feature","geometry":{"type":"Point","coordinates":[6.16666,49.25]}},{"properties":{"city":"Suisse","latitude":48.96666,"id":"a6249isyfggr","users":2867,"longitude":6.58333},"type":"Feature","geometry":{"type":"Point","coordinates":[6.58333,48.96666]}},{"properties":{"city":"Stiring-Wendel","latitude":49.2,"id":"a6249itrj06h","users":1213,"longitude":6.93333},"type":"Feature","geometry":{"type":"Point","coordinates":[6.93333,49.2]}},{"properties":{"city":"Amnéville","latitude":49.26666,"id":"a6249iuebpc4","users":1290,"longitude":6.15},"type":"Feature","geometry":{"type":"Point","coordinates":[6.15,49.26666]}},{"properties":{"city":"Sarrebourg","latitude":48.73497,"id":"a6249ik0slkn","users":3540,"longitude":7.0519},"type":"Feature","geometry":{"type":"Point","coordinates":[7.0519,48.73497]}},{"properties":{"city":"Saint-Avold","latitude":49.1,"id":"a6249ivhz3vd","users":4685,"longitude":6.7},"type":"Feature","geometry":{"type":"Point","coordinates":[6.7,49.1]}},{"properties":{"city":"Forbach","latitude":49.18593,"id":"a6249iwq2zpe","users":6255,"longitude":6.89843},"type":"Feature","geometry":{"type":"Point","coordinates":[6.89843,49.18593]}},{"properties":{"city":"Hayange","latitude":49.33333,"id":"a6249ijeolt2","users":1508,"longitude":6.05},"type":"Feature","geometry":{"type":"Point","coordinates":[6.05,49.33333]}},{"properties":{"city":"Merlebach","latitude":49.15,"id":"a6249itl1lvi","users":1387,"longitude":6.8},"type":"Feature","geometry":{"type":"Point","coordinates":[6.8,49.15]}},{"properties":{"city":"Nevers","latitude":46.98333,"id":"a6249irdlcz4","users":11129,"longitude":3.16666},"type":"Feature","geometry":{"type":"Point","coordinates":[3.16666,46.98333]}},{"properties":{"city":"Cosne-Cours-sur-Loire","latitude":47.41222,"id":"a6249ijlwt63","users":1605,"longitude":2.9275},"type":"Feature","geometry":{"type":"Point","coordinates":[2.9275,47.41222]}},{"properties":{"city":"Roubaix","latitude":50.7,"id":"a6249ivchkaq","users":12139,"longitude":3.16666},"type":"Feature","geometry":{"type":"Point","coordinates":[3.16666,50.7]}},{"properties":{"city":"La Madeleine","latitude":50.65,"id":"a6249io1v3u9","users":1891,"longitude":3.06666},"type":"Feature","geometry":{"type":"Point","coordinates":[3.06666,50.65]}},{"properties":{"city":"Annoeullin","latitude":50.53333,"id":"a6249ix9pecr","users":1271,"longitude":2.93333},"type":"Feature","geometry":{"type":"Point","coordinates":[2.93333,50.53333]}},{"properties":{"city":"Seclin","latitude":50.55,"id":"a6249ilymlqw","users":1726,"longitude":3.03333},"type":"Feature","geometry":{"type":"Point","coordinates":[3.03333,50.55]}},{"properties":{"city":"Loos","latitude":50.61666,"id":"a6249iml5o5h","users":2572,"longitude":3.01666},"type":"Feature","geometry":{"type":"Point","coordinates":[3.01666,50.61666]}},{"properties":{"city":"Lambersart","latitude":50.65,"id":"a6249iw6d3fb","users":2225,"longitude":3.03333},"type":"Feature","geometry":{"type":"Point","coordinates":[3.03333,50.65]}},{"properties":{"city":"Wattignies","latitude":50.58333,"id":"a6249ioamb6m","users":1450,"longitude":3.05},"type":"Feature","geometry":{"type":"Point","coordinates":[3.05,50.58333]}},{"properties":{"city":"Wattrelos","latitude":50.7,"id":"a6249iunwrvj","users":4479,"longitude":3.21666},"type":"Feature","geometry":{"type":"Point","coordinates":[3.21666,50.7]}},{"properties":{"city":"Lomme","latitude":50.65,"id":"a6249iufv6vv","users":2289,"longitude":2.98333},"type":"Feature","geometry":{"type":"Point","coordinates":[2.98333,50.65]}},{"properties":{"city":"Croix","latitude":50.66666,"id":"a6249ikgpnhx","users":2280,"longitude":3.15},"type":"Feature","geometry":{"type":"Point","coordinates":[3.15,50.66666]}},{"properties":{"city":"Hazebrouck","latitude":50.71666,"id":"a6249iy06v12","users":2964,"longitude":2.53333},"type":"Feature","geometry":{"type":"Point","coordinates":[2.53333,50.71666]}},{"properties":{"city":"Tourcoing","latitude":50.71666,"id":"a6249ivaq9wv","users":12094,"longitude":3.15},"type":"Feature","geometry":{"type":"Point","coordinates":[3.15,50.71666]}},{"properties":{"city":"Coudekerque-Branche","latitude":51.03333,"id":"a6249iol7f74","users":1997,"longitude":2.4},"type":"Feature","geometry":{"type":"Point","coordinates":[2.4,51.03333]}},{"properties":{"city":"Denain","latitude":50.33333,"id":"a6249iipape3","users":2979,"longitude":3.38333},"type":"Feature","geometry":{"type":"Point","coordinates":[3.38333,50.33333]}},{"properties":{"city":"Roncq","latitude":50.75,"id":"a6249ixyg0th","users":1166,"longitude":3.11666},"type":"Feature","geometry":{"type":"Point","coordinates":[3.11666,50.75]}},{"properties":{"city":"Saint-Amand-les-Eaux","latitude":50.43333,"id":"a6249ins5x4s","users":1962,"longitude":3.43333},"type":"Feature","geometry":{"type":"Point","coordinates":[3.43333,50.43333]}},{"properties":{"city":"Dunkerque","latitude":51.03429,"id":"a6249ip63b1s","users":16027,"longitude":2.37681},"type":"Feature","geometry":{"type":"Point","coordinates":[2.37681,51.03429]}},{"properties":{"city":"Halluin","latitude":50.78333,"id":"a6249ijtkt4n","users":1749,"longitude":3.13333},"type":"Feature","geometry":{"type":"Point","coordinates":[3.13333,50.78333]}},{"properties":{"city":"Hellemmes-Lille","latitude":50.61666,"id":"a6249ixm122x","users":1518,"longitude":3.11666},"type":"Feature","geometry":{"type":"Point","coordinates":[3.11666,50.61666]}},{"properties":{"city":"Bailleul","latitude":50.73333,"id":"a6249iyemk3k","users":1580,"longitude":2.73333},"type":"Feature","geometry":{"type":"Point","coordinates":[2.73333,50.73333]}},{"properties":{"city":"Armentières","latitude":50.68333,"id":"a6249iqn71h1","users":3902,"longitude":2.88333},"type":"Feature","geometry":{"type":"Point","coordinates":[2.88333,50.68333]}},{"properties":{"city":"Wasquehal","latitude":50.66666,"id":"a6249iplzkgg","users":1235,"longitude":3.15},"type":"Feature","geometry":{"type":"Point","coordinates":[3.15,50.66666]}},{"properties":{"city":"Valenciennes","latitude":50.35772,"id":"a6249iqkl1ih","users":21342,"longitude":3.52327},"type":"Feature","geometry":{"type":"Point","coordinates":[3.52327,50.35772]}},{"properties":{"city":"Orchies","latitude":50.46666,"id":"a6249irdvym9","users":1300,"longitude":3.23333},"type":"Feature","geometry":{"type":"Point","coordinates":[3.23333,50.46666]}},{"properties":{"city":"Haubourdin","latitude":50.6,"id":"a6249isw1x18","users":1863,"longitude":2.98333},"type":"Feature","geometry":{"type":"Point","coordinates":[2.98333,50.6]}},{"properties":{"city":"Hautmont","latitude":50.25,"id":"a6249isv01c0","users":1881,"longitude":3.93333},"type":"Feature","geometry":{"type":"Point","coordinates":[3.93333,50.25]}},{"properties":{"city":"Cambrai","latitude":50.16666,"id":"a6249ixpuhfj","users":10011,"longitude":3.23333},"type":"Feature","geometry":{"type":"Point","coordinates":[3.23333,50.16666]}},{"properties":{"city":"Anzin","latitude":50.3744,"id":"a6249ixnz2x8","users":1296,"longitude":3.50382},"type":"Feature","geometry":{"type":"Point","coordinates":[3.50382,50.3744]}},{"properties":{"city":"Saint-Pol-sur-Mer","latitude":51.03333,"id":"a6249irw7vqe","users":2294,"longitude":2.35},"type":"Feature","geometry":{"type":"Point","coordinates":[2.35,51.03333]}},{"properties":{"city":"Sin-le-Noble","latitude":50.36666,"id":"a6249ir8dy0f","users":1431,"longitude":3.11666},"type":"Feature","geometry":{"type":"Point","coordinates":[3.11666,50.36666]}},{"properties":{"city":"Jeumont","latitude":50.3,"id":"a6249iys6omy","users":1308,"longitude":4.1},"type":"Feature","geometry":{"type":"Point","coordinates":[4.1,50.3]}},{"properties":{"city":"Somain","latitude":50.36666,"id":"a6249ijlpgin","users":1889,"longitude":3.28333},"type":"Feature","geometry":{"type":"Point","coordinates":[3.28333,50.36666]}},{"properties":{"city":"Villeneuve d'Ascq","latitude":50.68333,"id":"a6249im5wyaf","users":2950,"longitude":3.14166},"type":"Feature","geometry":{"type":"Point","coordinates":[3.14166,50.68333]}},{"properties":{"city":"Douai","latitude":50.36666,"id":"a6249iti42cz","users":13827,"longitude":3.06666},"type":"Feature","geometry":{"type":"Point","coordinates":[3.06666,50.36666]}},{"properties":{"city":"Hem","latitude":50.65,"id":"a6249iyp5txf","users":1116,"longitude":3.2},"type":"Feature","geometry":{"type":"Point","coordinates":[3.2,50.65]}},{"properties":{"city":"Caudry","latitude":50.13333,"id":"a6249itch7ej","users":2425,"longitude":3.41666},"type":"Feature","geometry":{"type":"Point","coordinates":[3.41666,50.13333]}},{"properties":{"city":"Comines","latitude":50.76666,"id":"a6249iqh55m6","users":1276,"longitude":3.01666},"type":"Feature","geometry":{"type":"Point","coordinates":[3.01666,50.76666]}},{"properties":{"city":"Aniche","latitude":50.33333,"id":"a6249iuvqok2","users":1229,"longitude":3.25},"type":"Feature","geometry":{"type":"Point","coordinates":[3.25,50.33333]}},{"properties":{"city":"Raismes","latitude":50.38333,"id":"a6249iwy5ehl","users":1092,"longitude":3.48333},"type":"Feature","geometry":{"type":"Point","coordinates":[3.48333,50.38333]}},{"properties":{"city":"Maubeuge","latitude":50.28333,"id":"a6249iqc8uq6","users":7872,"longitude":3.96666},"type":"Feature","geometry":{"type":"Point","coordinates":[3.96666,50.28333]}},{"properties":{"city":"Fourmies","latitude":50.0,"id":"a6249iydryt3","users":1793,"longitude":4.05},"type":"Feature","geometry":{"type":"Point","coordinates":[4.05,50.0]}},{"properties":{"city":"Aulnoye-Aymeries","latitude":50.2,"id":"a6249im7om71","users":1276,"longitude":3.83333},"type":"Feature","geometry":{"type":"Point","coordinates":[3.83333,50.2]}},{"properties":{"city":"Marcq-en-Barœul","latitude":50.66666,"id":"a6249in09htq","users":2412,"longitude":3.08333},"type":"Feature","geometry":{"type":"Point","coordinates":[3.08333,50.66666]}},{"properties":{"city":"Grande-Synthe","latitude":51.01666,"id":"a6249ismdqye","users":2370,"longitude":2.28333},"type":"Feature","geometry":{"type":"Point","coordinates":[2.28333,51.01666]}},{"properties":{"city":"Ronchin","latitude":50.6,"id":"a6249iy96d93","users":1292,"longitude":3.1},"type":"Feature","geometry":{"type":"Point","coordinates":[3.1,50.6]}},{"properties":{"city":"Lille","latitude":50.63333,"id":"a6249itzcql3","users":237079,"longitude":3.06666},"type":"Feature","geometry":{"type":"Point","coordinates":[3.06666,50.63333]}},{"properties":{"city":"Gravelines","latitude":50.98333,"id":"a6249ij6opv1","users":1803,"longitude":2.125},"type":"Feature","geometry":{"type":"Point","coordinates":[2.125,50.98333]}},{"properties":{"city":"Bruay-sur-l'Escaut","latitude":50.38333,"id":"a6249ix991ek","users":1180,"longitude":3.53333},"type":"Feature","geometry":{"type":"Point","coordinates":[3.53333,50.38333]}},{"properties":{"city":"Creil","latitude":49.26666,"id":"a6249ij8o3wm","users":6028,"longitude":2.48333},"type":"Feature","geometry":{"type":"Point","coordinates":[2.48333,49.26666]}},{"properties":{"city":"Méru","latitude":49.23333,"id":"a6249ivehcsz","users":1849,"longitude":2.13333},"type":"Feature","geometry":{"type":"Point","coordinates":[2.13333,49.23333]}},{"properties":{"city":"Breteuil","latitude":49.63333,"id":"a6249ionfdj5","users":1156,"longitude":2.3},"type":"Feature","geometry":{"type":"Point","coordinates":[2.3,49.63333]}},{"properties":{"city":"Saint-Just-en-Chaussée","latitude":49.5,"id":"a6249iiux1qd","users":1105,"longitude":2.43333},"type":"Feature","geometry":{"type":"Point","coordinates":[2.43333,49.5]}},{"properties":{"city":"Liancourt","latitude":49.33333,"id":"a6249ivz0p2f","users":1062,"longitude":2.46666},"type":"Feature","geometry":{"type":"Point","coordinates":[2.46666,49.33333]}},{"properties":{"city":"Beauvais","latitude":49.43333,"id":"a6249iyz1ajb","users":15045,"longitude":2.08333},"type":"Feature","geometry":{"type":"Point","coordinates":[2.08333,49.43333]}},{"properties":{"city":"Montataire","latitude":49.26666,"id":"a6249ioib4xl","users":1320,"longitude":2.43333},"type":"Feature","geometry":{"type":"Point","coordinates":[2.43333,49.26666]}},{"properties":{"city":"Nogent-sur-Oise","latitude":49.26666,"id":"a6249ixgj8gh","users":2268,"longitude":2.46666},"type":"Feature","geometry":{"type":"Point","coordinates":[2.46666,49.26666]}},{"properties":{"city":"Compiègne","latitude":49.41666,"id":"a6249ikwyguc","users":11935,"longitude":2.83333},"type":"Feature","geometry":{"type":"Point","coordinates":[2.83333,49.41666]}},{"properties":{"city":"Chambly","latitude":49.16666,"id":"a6249illzg5x","users":1231,"longitude":2.25},"type":"Feature","geometry":{"type":"Point","coordinates":[2.25,49.16666]}},{"properties":{"city":"Margny-lès-Compiègne","latitude":49.43333,"id":"a6249itkz4zy","users":1037,"longitude":2.81666},"type":"Feature","geometry":{"type":"Point","coordinates":[2.81666,49.43333]}},{"properties":{"city":"Senlis","latitude":49.2,"id":"a6249it2fukl","users":2580,"longitude":2.58333},"type":"Feature","geometry":{"type":"Point","coordinates":[2.58333,49.2]}},{"properties":{"city":"Lagny","latitude":49.61666,"id":"a6249ipvn32r","users":1153,"longitude":2.91666},"type":"Feature","geometry":{"type":"Point","coordinates":[2.91666,49.61666]}},{"properties":{"city":"Noyon","latitude":49.58333,"id":"a6249iwea0m2","users":3271,"longitude":3.0},"type":"Feature","geometry":{"type":"Point","coordinates":[3.0,49.58333]}},{"properties":{"city":"Chantilly","latitude":49.2,"id":"a6249isqd2aa","users":2215,"longitude":2.46666},"type":"Feature","geometry":{"type":"Point","coordinates":[2.46666,49.2]}},{"properties":{"city":"Clermont","latitude":49.38333,"id":"a6249ijbozov","users":3075,"longitude":2.4},"type":"Feature","geometry":{"type":"Point","coordinates":[2.4,49.38333]}},{"properties":{"city":"Pont-Sainte-Maxence","latitude":49.3,"id":"a6249iy4mlbr","users":2055,"longitude":2.6},"type":"Feature","geometry":{"type":"Point","coordinates":[2.6,49.3]}},{"properties":{"city":"Crépy-en-Valois","latitude":49.23333,"id":"a6249iwrg3mw","users":2277,"longitude":2.9},"type":"Feature","geometry":{"type":"Point","coordinates":[2.9,49.23333]}},{"properties":{"city":"Alençon","latitude":48.43333,"id":"a6249itciybh","users":7644,"longitude":0.08333},"type":"Feature","geometry":{"type":"Point","coordinates":[0.08333,48.43333]}},{"properties":{"city":"Flers","latitude":48.75,"id":"a6249ikgxsp2","users":3757,"longitude":-0.56666},"type":"Feature","geometry":{"type":"Point","coordinates":[-0.56666,48.75]}},{"properties":{"city":"Argentan","latitude":48.75,"id":"a6249iv9sc8x","users":2694,"longitude":-0.01666},"type":"Feature","geometry":{"type":"Point","coordinates":[-0.01666,48.75]}},{"properties":{"city":"L'Aigle","latitude":48.75,"id":"a6249ikj3mth","users":1611,"longitude":0.63333},"type":"Feature","geometry":{"type":"Point","coordinates":[0.63333,48.75]}},{"properties":{"city":"Arras","latitude":50.28333,"id":"a6249irm1o1n","users":15070,"longitude":2.78333},"type":"Feature","geometry":{"type":"Point","coordinates":[2.78333,50.28333]}},{"properties":{"city":"Calais","latitude":50.95,"id":"a6249im1nocs","users":17385,"longitude":1.83333},"type":"Feature","geometry":{"type":"Point","coordinates":[1.83333,50.95]}},{"properties":{"city":"Hénin-Beaumont","latitude":50.41666,"id":"a6249iy4kr8j","users":4841,"longitude":2.93333},"type":"Feature","geometry":{"type":"Point","coordinates":[2.93333,50.41666]}},{"properties":{"city":"Aire-sur-la-Lys","latitude":50.63333,"id":"a6249im525eb","users":1477,"longitude":2.4},"type":"Feature","geometry":{"type":"Point","coordinates":[2.4,50.63333]}},{"properties":{"city":"Bully-les-Mines","latitude":50.43333,"id":"a6249il3abdh","users":2361,"longitude":2.71666},"type":"Feature","geometry":{"type":"Point","coordinates":[2.71666,50.43333]}},{"properties":{"city":"Lillers","latitude":50.56666,"id":"a6249ircmu7h","users":1651,"longitude":2.48333},"type":"Feature","geometry":{"type":"Point","coordinates":[2.48333,50.56666]}},{"properties":{"city":"Boulogne-sur-Mer","latitude":50.71666,"id":"a6249ivvh6bz","users":12600,"longitude":1.61666},"type":"Feature","geometry":{"type":"Point","coordinates":[1.61666,50.71666]}},{"properties":{"city":"Avion","latitude":50.4,"id":"a6249iz3a9em","users":2129,"longitude":2.83333},"type":"Feature","geometry":{"type":"Point","coordinates":[2.83333,50.4]}},{"properties":{"city":"Longuenesse","latitude":50.73333,"id":"a6249ipq5me1","users":1074,"longitude":2.23333},"type":"Feature","geometry":{"type":"Point","coordinates":[2.23333,50.73333]}},{"properties":{"city":"Carvin","latitude":50.48333,"id":"a6249iws9u2v","users":2841,"longitude":2.96666},"type":"Feature","geometry":{"type":"Point","coordinates":[2.96666,50.48333]}},{"properties":{"city":"Outreau","latitude":50.7,"id":"a6249itplmuy","users":1497,"longitude":1.58333},"type":"Feature","geometry":{"type":"Point","coordinates":[1.58333,50.7]}},{"properties":{"city":"Auchel","latitude":50.5,"id":"a6249isbmd3p","users":1803,"longitude":2.46666},"type":"Feature","geometry":{"type":"Point","coordinates":[2.46666,50.5]}},{"properties":{"city":"Noeux-les-Mines","latitude":50.48333,"id":"a6249irj3d0p","users":1789,"longitude":2.66666},"type":"Feature","geometry":{"type":"Point","coordinates":[2.66666,50.48333]}},{"properties":{"city":"Lens","latitude":50.43333,"id":"a6249it17d2o","users":14309,"longitude":2.83333},"type":"Feature","geometry":{"type":"Point","coordinates":[2.83333,50.43333]}},{"properties":{"city":"Béthune","latitude":50.53333,"id":"a6249ixretip","users":10721,"longitude":2.63333},"type":"Feature","geometry":{"type":"Point","coordinates":[2.63333,50.53333]}},{"properties":{"city":"Wingles","latitude":50.48333,"id":"a6249iqbwwv8","users":1171,"longitude":2.85},"type":"Feature","geometry":{"type":"Point","coordinates":[2.85,50.48333]}},{"properties":{"city":"Billy-Montigny","latitude":50.41666,"id":"a6249ixjq3lj","users":1149,"longitude":2.9},"type":"Feature","geometry":{"type":"Point","coordinates":[2.9,50.41666]}},{"properties":{"city":"Sallaumines","latitude":50.41666,"id":"a6249ijxvbhv","users":1239,"longitude":2.86666},"type":"Feature","geometry":{"type":"Point","coordinates":[2.86666,50.41666]}},{"properties":{"city":"Harnes","latitude":50.45,"id":"a6249iinbqnq","users":1644,"longitude":2.9},"type":"Feature","geometry":{"type":"Point","coordinates":[2.9,50.45]}},{"properties":{"city":"Saint-Omer","latitude":50.75005,"id":"a6249iz1yg5o","users":5578,"longitude":2.26072},"type":"Feature","geometry":{"type":"Point","coordinates":[2.26072,50.75005]}},{"properties":{"city":"Arques","latitude":50.73333,"id":"a6249iwmbmgi","users":1179,"longitude":2.28333},"type":"Feature","geometry":{"type":"Point","coordinates":[2.28333,50.73333]}},{"properties":{"city":"Oignies","latitude":50.46666,"id":"a6249in256s3","users":1120,"longitude":2.98333},"type":"Feature","geometry":{"type":"Point","coordinates":[2.98333,50.46666]}},{"properties":{"city":"Étaples","latitude":50.51666,"id":"a6249iym1e12","users":1314,"longitude":1.65},"type":"Feature","geometry":{"type":"Point","coordinates":[1.65,50.51666]}},{"properties":{"city":"Montigny-en-Gohelle","latitude":50.43333,"id":"a6249iy7muqy","users":1214,"longitude":2.93333},"type":"Feature","geometry":{"type":"Point","coordinates":[2.93333,50.43333]}},{"properties":{"city":"Méricourt","latitude":50.4,"id":"a6249ipnpnb6","users":1318,"longitude":2.86666},"type":"Feature","geometry":{"type":"Point","coordinates":[2.86666,50.4]}},{"properties":{"city":"Courrières","latitude":50.45,"id":"a6249incfxew","users":1532,"longitude":2.93333},"type":"Feature","geometry":{"type":"Point","coordinates":[2.93333,50.45]}},{"properties":{"city":"Leforest","latitude":50.43333,"id":"a6249inymcfj","users":1047,"longitude":3.06666},"type":"Feature","geometry":{"type":"Point","coordinates":[3.06666,50.43333]}},{"properties":{"city":"Liévin","latitude":50.41666,"id":"a6249isscem0","users":4820,"longitude":2.76666},"type":"Feature","geometry":{"type":"Point","coordinates":[2.76666,50.41666]}},{"properties":{"city":"Clermont-Ferrand","latitude":45.78333,"id":"a6249iuudo8h","users":45165,"longitude":3.08333},"type":"Feature","geometry":{"type":"Point","coordinates":[3.08333,45.78333]}},{"properties":{"city":"Beaumont","latitude":45.75,"id":"a6249iwv1oyr","users":1088,"longitude":3.1},"type":"Feature","geometry":{"type":"Point","coordinates":[3.1,45.75]}},{"properties":{"city":"Riom","latitude":45.9,"id":"a6249iqi6uhl","users":2948,"longitude":3.11666},"type":"Feature","geometry":{"type":"Point","coordinates":[3.11666,45.9]}},{"properties":{"city":"Thiers","latitude":45.85,"id":"a6249iwvtlbb","users":1593,"longitude":3.56666},"type":"Feature","geometry":{"type":"Point","coordinates":[3.56666,45.85]}},{"properties":{"city":"Chamalières","latitude":45.78333,"id":"a6249iu9ptuq","users":1077,"longitude":3.06666},"type":"Feature","geometry":{"type":"Point","coordinates":[3.06666,45.78333]}},{"properties":{"city":"Issoire","latitude":45.55,"id":"a6249irhxkbi","users":2998,"longitude":3.25},"type":"Feature","geometry":{"type":"Point","coordinates":[3.25,45.55]}},{"properties":{"city":"Cournon-d'Auvergne","latitude":45.75,"id":"a6249iq6vr42","users":1403,"longitude":3.21666},"type":"Feature","geometry":{"type":"Point","coordinates":[3.21666,45.75]}},{"properties":{"city":"Pau","latitude":43.3,"id":"a6249il6y9bv","users":26520,"longitude":-0.36666},"type":"Feature","geometry":{"type":"Point","coordinates":[-0.36666,43.3]}},{"properties":{"city":"Bayonne","latitude":43.48333,"id":"a6249ijtzior","users":13011,"longitude":-1.48333},"type":"Feature","geometry":{"type":"Point","coordinates":[-1.48333,43.48333]}},{"properties":{"city":"Biarritz","latitude":43.48333,"id":"a6249ipaohyo","users":5627,"longitude":-1.56666},"type":"Feature","geometry":{"type":"Point","coordinates":[-1.56666,43.48333]}},{"properties":{"city":"Orthez","latitude":43.48333,"id":"a6249inwtr8o","users":2024,"longitude":-0.76666},"type":"Feature","geometry":{"type":"Point","coordinates":[-0.76666,43.48333]}},{"properties":{"city":"Oloron-Sainte-Marie","latitude":43.2,"id":"a6249iot2lne","users":1812,"longitude":-0.6},"type":"Feature","geometry":{"type":"Point","coordinates":[-0.6,43.2]}},{"properties":{"city":"Saint-Jean-de-Luz","latitude":43.38333,"id":"a6249inh6yhf","users":1685,"longitude":-1.66666},"type":"Feature","geometry":{"type":"Point","coordinates":[-1.66666,43.38333]}},{"properties":{"city":"Anglet","latitude":43.48033,"id":"a6249iqurrct","users":4681,"longitude":-1.51563},"type":"Feature","geometry":{"type":"Point","coordinates":[-1.51563,43.48033]}},{"properties":{"city":"Hendaye","latitude":43.35833,"id":"a6249ilqu41n","users":1653,"longitude":-1.775},"type":"Feature","geometry":{"type":"Point","coordinates":[-1.775,43.35833]}},{"properties":{"city":"Tarbes","latitude":43.23333,"id":"a6249iqtx3vn","users":12881,"longitude":0.08333},"type":"Feature","geometry":{"type":"Point","coordinates":[0.08333,43.23333]}},{"properties":{"city":"Lourdes","latitude":43.1,"id":"a6249innecnt","users":2115,"longitude":-0.05},"type":"Feature","geometry":{"type":"Point","coordinates":[-0.05,43.1]}},{"properties":{"city":"Perpignan","latitude":42.68333,"id":"a6249inv1uws","users":34023,"longitude":2.88333},"type":"Feature","geometry":{"type":"Point","coordinates":[2.88333,42.68333]}},{"properties":{"city":"Argelès-sur-Mer","latitude":42.55,"id":"a6249ivcr87c","users":1281,"longitude":3.01666},"type":"Feature","geometry":{"type":"Point","coordinates":[3.01666,42.55]}},{"properties":{"city":"Strasbourg","latitude":48.58293,"id":"a6249iw3zpao","users":151391,"longitude":7.74374},"type":"Feature","geometry":{"type":"Point","coordinates":[7.74374,48.58293]}},{"properties":{"city":"Molsheim","latitude":48.53333,"id":"a6249ivll54k","users":1069,"longitude":7.48333},"type":"Feature","geometry":{"type":"Point","coordinates":[7.48333,48.53333]}},{"properties":{"city":"Erstein","latitude":48.43333,"id":"a6249is0823p","users":1095,"longitude":7.66666},"type":"Feature","geometry":{"type":"Point","coordinates":[7.66666,48.43333]}},{"properties":{"city":"Obernai","latitude":48.46666,"id":"a6249isrh4hz","users":1405,"longitude":7.48333},"type":"Feature","geometry":{"type":"Point","coordinates":[7.48333,48.46666]}},{"properties":{"city":"Bischwiller","latitude":48.76666,"id":"a6249ilpzk0a","users":1074,"longitude":7.86666},"type":"Feature","geometry":{"type":"Point","coordinates":[7.86666,48.76666]}},{"properties":{"city":"Schiltigheim","latitude":48.6,"id":"a6249iqnweqt","users":2275,"longitude":7.75},"type":"Feature","geometry":{"type":"Point","coordinates":[7.75,48.6]}},{"properties":{"city":"Lingolsheim","latitude":48.56666,"id":"a6249iltdf8h","users":1095,"longitude":7.68333},"type":"Feature","geometry":{"type":"Point","coordinates":[7.68333,48.56666]}},{"properties":{"city":"Illkirch-Graffenstaden","latitude":48.53333,"id":"a6249iyt5duo","users":1840,"longitude":7.71666},"type":"Feature","geometry":{"type":"Point","coordinates":[7.71666,48.53333]}},{"properties":{"city":"Haguenau","latitude":48.81666,"id":"a6249iwl9ncc","users":6558,"longitude":7.78333},"type":"Feature","geometry":{"type":"Point","coordinates":[7.78333,48.81666]}},{"properties":{"city":"Sélestat","latitude":48.26666,"id":"a6249ipzj9lw","users":3614,"longitude":7.45},"type":"Feature","geometry":{"type":"Point","coordinates":[7.45,48.26666]}},{"properties":{"city":"Saverne","latitude":48.73333,"id":"a6249ijzjyf2","users":1926,"longitude":7.36666},"type":"Feature","geometry":{"type":"Point","coordinates":[7.36666,48.73333]}},{"properties":{"city":"Bischheim","latitude":48.61666,"id":"a6249ijnjulu","users":1408,"longitude":7.75},"type":"Feature","geometry":{"type":"Point","coordinates":[7.75,48.61666]}},{"properties":{"city":"Colmar","latitude":48.08333,"id":"a6249iy2mizh","users":16107,"longitude":7.36666},"type":"Feature","geometry":{"type":"Point","coordinates":[7.36666,48.08333]}},{"properties":{"city":"Mulhouse","latitude":47.74949,"id":"a6249iv6tc2y","users":28685,"longitude":7.33978},"type":"Feature","geometry":{"type":"Point","coordinates":[7.33978,47.74949]}},{"properties":{"city":"Illzach","latitude":47.78333,"id":"a6249ilusbi3","users":1150,"longitude":7.33333},"type":"Feature","geometry":{"type":"Point","coordinates":[7.33333,47.78333]}},{"properties":{"city":"Saint-Louis","latitude":47.58333,"id":"a6249iv96mjx","users":2600,"longitude":7.56666},"type":"Feature","geometry":{"type":"Point","coordinates":[7.56666,47.58333]}},{"properties":{"city":"Altkirch","latitude":47.61666,"id":"a6249imgs3wf","users":1485,"longitude":7.25},"type":"Feature","geometry":{"type":"Point","coordinates":[7.25,47.61666]}},{"properties":{"city":"Rixheim","latitude":47.76666,"id":"a6249ilhtw3b","users":1042,"longitude":7.4},"type":"Feature","geometry":{"type":"Point","coordinates":[7.4,47.76666]}},{"properties":{"city":"Kingersheim","latitude":47.8,"id":"a6249ija7rwx","users":1137,"longitude":7.33333},"type":"Feature","geometry":{"type":"Point","coordinates":[7.33333,47.8]}},{"properties":{"city":"Wittenheim","latitude":47.81666,"id":"a6249iygdb4l","users":1193,"longitude":7.33333},"type":"Feature","geometry":{"type":"Point","coordinates":[7.33333,47.81666]}},{"properties":{"city":"Guebwiller","latitude":47.91666,"id":"a6249is1yfl7","users":1943,"longitude":7.2},"type":"Feature","geometry":{"type":"Point","coordinates":[7.2,47.91666]}},{"properties":{"city":"Cernay","latitude":47.81666,"id":"a6249iu7a3uw","users":1289,"longitude":7.16666},"type":"Feature","geometry":{"type":"Point","coordinates":[7.16666,47.81666]}},{"properties":{"city":"Thann","latitude":47.81666,"id":"a6249irmp8d6","users":1189,"longitude":7.08333},"type":"Feature","geometry":{"type":"Point","coordinates":[7.08333,47.81666]}},{"properties":{"city":"Lyon","latitude":45.76729,"id":"a6249ijivuej","users":348502,"longitude":4.83432},"type":"Feature","geometry":{"type":"Point","coordinates":[4.83432,45.76729]}},{"properties":{"city":"Villeurbanne","latitude":45.76666,"id":"a6249ioo43q6","users":9776,"longitude":4.88333},"type":"Feature","geometry":{"type":"Point","coordinates":[4.88333,45.76666]}},{"properties":{"city":"Vaulx-en-Velin","latitude":45.78333,"id":"a6249ipab5yk","users":1844,"longitude":4.93333},"type":"Feature","geometry":{"type":"Point","coordinates":[4.93333,45.78333]}},{"properties":{"city":"Décines-Charpieu","latitude":45.75,"id":"a6249ituu1t6","users":1574,"longitude":4.96666},"type":"Feature","geometry":{"type":"Point","coordinates":[4.96666,45.75]}},{"properties":{"city":"Tassin-la-Demi-Lune","latitude":45.62767,"id":"a6249iwtj1er","users":1232,"longitude":4.8999},"type":"Feature","geometry":{"type":"Point","coordinates":[4.8999,45.62767]}},{"properties":{"city":"Saint-Fons","latitude":45.7,"id":"a6249imvzxyl","users":1056,"longitude":4.86666},"type":"Feature","geometry":{"type":"Point","coordinates":[4.86666,45.7]}},{"properties":{"city":"Vénissieux","latitude":45.68333,"id":"a6249iv1txdp","users":2568,"longitude":4.88333},"type":"Feature","geometry":{"type":"Point","coordinates":[4.88333,45.68333]}},{"properties":{"city":"Saint-Genis-Laval","latitude":45.68333,"id":"a6249ijmpujn","users":1037,"longitude":4.8},"type":"Feature","geometry":{"type":"Point","coordinates":[4.8,45.68333]}},{"properties":{"city":"Caluire-et-Cuire","latitude":45.8,"id":"a6249iwoc70e","users":1636,"longitude":4.85},"type":"Feature","geometry":{"type":"Point","coordinates":[4.85,45.8]}},{"properties":{"city":"Meyzieu","latitude":45.76722,"id":"a6249itsa073","users":1740,"longitude":5.00333},"type":"Feature","geometry":{"type":"Point","coordinates":[5.00333,45.76722]}},{"properties":{"city":"Villefranche-sur-Saône","latitude":45.98333,"id":"a6249iujlus5","users":4652,"longitude":4.71666},"type":"Feature","geometry":{"type":"Point","coordinates":[4.71666,45.98333]}},{"properties":{"city":"Bron","latitude":45.73333,"id":"a6249iui1h5p","users":2307,"longitude":4.91666},"type":"Feature","geometry":{"type":"Point","coordinates":[4.91666,45.73333]}},{"properties":{"city":"Oullins","latitude":45.71352,"id":"a6249itd8ii6","users":1915,"longitude":4.80538},"type":"Feature","geometry":{"type":"Point","coordinates":[4.80538,45.71352]}},{"properties":{"city":"Givors","latitude":45.58333,"id":"a6249iong1v8","users":1626,"longitude":4.76666},"type":"Feature","geometry":{"type":"Point","coordinates":[4.76666,45.58333]}},{"properties":{"city":"Saint-Priest","latitude":45.69166,"id":"a6249ipvocil","users":1386,"longitude":4.93333},"type":"Feature","geometry":{"type":"Point","coordinates":[4.93333,45.69166]}},{"properties":{"city":"Vesoul","latitude":47.63333,"id":"a6249ip68ijt","users":6365,"longitude":6.16666},"type":"Feature","geometry":{"type":"Point","coordinates":[6.16666,47.63333]}},{"properties":{"city":"Gray","latitude":47.45,"id":"a6249imlc0e1","users":1652,"longitude":5.58333},"type":"Feature","geometry":{"type":"Point","coordinates":[5.58333,47.45]}},{"properties":{"city":"Lure","latitude":47.68333,"id":"a6249ik7jat3","users":1910,"longitude":6.5},"type":"Feature","geometry":{"type":"Point","coordinates":[6.5,47.68333]}},{"properties":{"city":"Luxeuil-les-Bains","latitude":47.81666,"id":"a6249io42hce","users":1721,"longitude":6.38333},"type":"Feature","geometry":{"type":"Point","coordinates":[6.38333,47.81666]}},{"properties":{"city":"Héricourt","latitude":47.58333,"id":"a6249iimvtbd","users":1298,"longitude":6.75},"type":"Feature","geometry":{"type":"Point","coordinates":[6.75,47.58333]}},{"properties":{"city":"Paris-l'Hôpital","latitude":46.91666,"id":"a6249ij4b5sh","users":3891,"longitude":4.63333},"type":"Feature","geometry":{"type":"Point","coordinates":[4.63333,46.91666]}},{"properties":{"city":"Le Creusot","latitude":46.8,"id":"a6249ilm42k5","users":3528,"longitude":4.43333},"type":"Feature","geometry":{"type":"Point","coordinates":[4.43333,46.8]}},{"properties":{"city":"Montceau-les-Mines","latitude":46.66666,"id":"a6249itm71wx","users":3357,"longitude":4.36666},"type":"Feature","geometry":{"type":"Point","coordinates":[4.36666,46.66666]}},{"properties":{"city":"Autun","latitude":46.95,"id":"a6249ivwcr9d","users":2162,"longitude":4.3},"type":"Feature","geometry":{"type":"Point","coordinates":[4.3,46.95]}},{"properties":{"city":"Louhans","latitude":46.63333,"id":"a6249ikqyli9","users":1338,"longitude":5.21666},"type":"Feature","geometry":{"type":"Point","coordinates":[5.21666,46.63333]}},{"properties":{"city":"Chalon-sur-Saône","latitude":46.78421,"id":"a6249iou1e5z","users":13605,"longitude":4.85294},"type":"Feature","geometry":{"type":"Point","coordinates":[4.85294,46.78421]}},{"properties":{"city":"Paray-le-Monial","latitude":46.45,"id":"a6249iistyww","users":1179,"longitude":4.11666},"type":"Feature","geometry":{"type":"Point","coordinates":[4.11666,46.45]}},{"properties":{"city":"Mâcon","latitude":46.3,"id":"a6249iubzr4m","users":7370,"longitude":4.83333},"type":"Feature","geometry":{"type":"Point","coordinates":[4.83333,46.3]}},{"properties":{"city":"Le Mans","latitude":48.00771,"id":"a6249ikmq0n9","users":41205,"longitude":0.19857},"type":"Feature","geometry":{"type":"Point","coordinates":[0.19857,48.00771]}},{"properties":{"city":"La Flèche","latitude":47.69771,"id":"a6249iqbmdob","users":2202,"longitude":-0.07498},"type":"Feature","geometry":{"type":"Point","coordinates":[-0.07498,47.69771]}},{"properties":{"city":"Sablé-sur-Sarthe","latitude":47.83333,"id":"a6249iy7e2g8","users":2358,"longitude":-0.33333},"type":"Feature","geometry":{"type":"Point","coordinates":[-0.33333,47.83333]}},{"properties":{"city":"La Ferté-Bernard","latitude":48.18333,"id":"a6249iu6risu","users":1390,"longitude":0.66666},"type":"Feature","geometry":{"type":"Point","coordinates":[0.66666,48.18333]}},{"properties":{"city":"Chambéry","latitude":45.56666,"id":"a6249ikt3bhm","users":17040,"longitude":5.93333},"type":"Feature","geometry":{"type":"Point","coordinates":[5.93333,45.56666]}},{"properties":{"city":"Aix-les-Bains","latitude":45.7,"id":"a6249iw6vunc","users":4758,"longitude":5.91666},"type":"Feature","geometry":{"type":"Point","coordinates":[5.91666,45.7]}},{"properties":{"city":"Albertville","latitude":45.68333,"id":"a6249iri9z9o","users":4235,"longitude":6.38333},"type":"Feature","geometry":{"type":"Point","coordinates":[6.38333,45.68333]}},{"properties":{"city":"Saint-Jean-de-Maurienne","latitude":45.28333,"id":"a6249iirtq71","users":1102,"longitude":6.35},"type":"Feature","geometry":{"type":"Point","coordinates":[6.35,45.28333]}},{"properties":{"city":"Annecy","latitude":45.9,"id":"a6249ixoz28u","users":22513,"longitude":6.11666},"type":"Feature","geometry":{"type":"Point","coordinates":[6.11666,45.9]}},{"properties":{"city":"Annemasse","latitude":46.2,"id":"a6249ikdqr4w","users":10170,"longitude":6.25},"type":"Feature","geometry":{"type":"Point","coordinates":[6.25,46.2]}},{"properties":{"city":"Bonneville","latitude":46.08333,"id":"a6249isgjxw6","users":1895,"longitude":6.41666},"type":"Feature","geometry":{"type":"Point","coordinates":[6.41666,46.08333]}},{"properties":{"city":"Rumilly","latitude":45.86666,"id":"a6249ioygouz","users":1493,"longitude":5.95},"type":"Feature","geometry":{"type":"Point","coordinates":[5.95,45.86666]}},{"properties":{"city":"Saint-Julien-en-Genevois","latitude":46.13333,"id":"a6249it1vp6o","users":1357,"longitude":6.08333},"type":"Feature","geometry":{"type":"Point","coordinates":[6.08333,46.13333]}},{"properties":{"city":"Thonon-les-Bains","latitude":46.36666,"id":"a6249iq2sq7e","users":5659,"longitude":6.48333},"type":"Feature","geometry":{"type":"Point","coordinates":[6.48333,46.36666]}},{"properties":{"city":"Gaillard","latitude":46.18333,"id":"a6249ijz79zm","users":1016,"longitude":6.21666},"type":"Feature","geometry":{"type":"Point","coordinates":[6.21666,46.18333]}},{"properties":{"city":"Cluses","latitude":46.06666,"id":"a6249iwvk88q","users":2835,"longitude":6.6},"type":"Feature","geometry":{"type":"Point","coordinates":[6.6,46.06666]}},{"properties":{"city":"Chamonix-Mont-Blanc","latitude":45.91666,"id":"a6249ikcqa9t","users":1253,"longitude":6.86666},"type":"Feature","geometry":{"type":"Point","coordinates":[6.86666,45.91666]}},{"properties":{"city":"Évian-les-Bains","latitude":46.38333,"id":"a6249ir45slk","users":1681,"longitude":6.58333},"type":"Feature","geometry":{"type":"Point","coordinates":[6.58333,46.38333]}},{"properties":{"city":"Sallanches","latitude":45.93333,"id":"a6249ioz2tet","users":2015,"longitude":6.63333},"type":"Feature","geometry":{"type":"Point","coordinates":[6.63333,45.93333]}},{"properties":{"city":"La Roche-sur-Foron","latitude":46.06666,"id":"a6249ij7i73w","users":1197,"longitude":6.31666},"type":"Feature","geometry":{"type":"Point","coordinates":[6.31666,46.06666]}},{"properties":{"city":"Fessy","latitude":46.26666,"id":"a6249iz0bizb","users":1191,"longitude":6.41666},"type":"Feature","geometry":{"type":"Point","coordinates":[6.41666,46.26666]}},{"properties":{"city":"Annecy-le-Vieux","latitude":45.91666,"id":"a6249iyh6yi6","users":2238,"longitude":6.15},"type":"Feature","geometry":{"type":"Point","coordinates":[6.15,45.91666]}},{"properties":{"city":"Paris","latitude":48.85666,"id":"a6249ittjyip","users":1478608,"longitude":2.35098},"type":"Feature","geometry":{"type":"Point","coordinates":[2.35098,48.85666]}},{"properties":{"city":"Rouen","latitude":49.44236,"id":"a6249is45j1a","users":64913,"longitude":1.09849},"type":"Feature","geometry":{"type":"Point","coordinates":[1.09849,49.44236]}},{"properties":{"city":"Le Grand-Quevilly","latitude":49.41666,"id":"a6249iqvrnzj","users":2619,"longitude":1.03333},"type":"Feature","geometry":{"type":"Point","coordinates":[1.03333,49.41666]}},{"properties":{"city":"Mont-Saint-Aignan","latitude":49.46666,"id":"a6249ium3lf3","users":1210,"longitude":1.08333},"type":"Feature","geometry":{"type":"Point","coordinates":[1.08333,49.46666]}},{"properties":{"city":"Le Petit-Quevilly","latitude":49.43333,"id":"a6249ilzxn0u","users":1433,"longitude":1.03333},"type":"Feature","geometry":{"type":"Point","coordinates":[1.03333,49.43333]}},{"properties":{"city":"Maromme","latitude":49.46666,"id":"a6249isn7z2l","users":1409,"longitude":1.03333},"type":"Feature","geometry":{"type":"Point","coordinates":[1.03333,49.46666]}},{"properties":{"city":"Darnétal","latitude":49.45,"id":"a6249iiosqrr","users":1161,"longitude":1.15},"type":"Feature","geometry":{"type":"Point","coordinates":[1.15,49.45]}},{"properties":{"city":"Lillebonne","latitude":49.51666,"id":"a6249io0pu8c","users":2410,"longitude":0.55},"type":"Feature","geometry":{"type":"Point","coordinates":[0.55,49.51666]}},{"properties":{"city":"Yvetot","latitude":49.61666,"id":"a6249iv8e39j","users":2595,"longitude":0.76666},"type":"Feature","geometry":{"type":"Point","coordinates":[0.76666,49.61666]}},{"properties":{"city":"Dieppe","latitude":49.93333,"id":"a6249inp5kqj","users":7930,"longitude":1.08333},"type":"Feature","geometry":{"type":"Point","coordinates":[1.08333,49.93333]}},{"properties":{"city":"Bolbec","latitude":49.56666,"id":"a6249illrs5k","users":2152,"longitude":0.48333},"type":"Feature","geometry":{"type":"Point","coordinates":[0.48333,49.56666]}},{"properties":{"city":"Gournay-en-Bray","latitude":49.48333,"id":"a6249il3otk1","users":1032,"longitude":1.73333},"type":"Feature","geometry":{"type":"Point","coordinates":[1.73333,49.48333]}},{"properties":{"city":"Eu","latitude":50.05,"id":"a6249iuael9m","users":1224,"longitude":1.41666},"type":"Feature","geometry":{"type":"Point","coordinates":[1.41666,50.05]}},{"properties":{"city":"Montivilliers","latitude":49.55,"id":"a6249is1kx3y","users":1816,"longitude":0.2},"type":"Feature","geometry":{"type":"Point","coordinates":[0.2,49.55]}},{"properties":{"city":"Sotteville-lès-Rouen","latitude":49.41666,"id":"a6249iv1x0iw","users":2698,"longitude":1.1},"type":"Feature","geometry":{"type":"Point","coordinates":[1.1,49.41666]}},{"properties":{"city":"Notre-Dame-de-Gravenchon","latitude":49.48333,"id":"a6249ir8phda","users":1158,"longitude":0.58333},"type":"Feature","geometry":{"type":"Point","coordinates":[0.58333,49.48333]}},{"properties":{"city":"Oissel","latitude":49.33333,"id":"a6249ip2bwy4","users":1352,"longitude":1.1},"type":"Feature","geometry":{"type":"Point","coordinates":[1.1,49.33333]}},{"properties":{"city":"Barentin","latitude":49.55,"id":"a6249iya0ull","users":1935,"longitude":0.95},"type":"Feature","geometry":{"type":"Point","coordinates":[0.95,49.55]}},{"properties":{"city":"Canteleu","latitude":49.45,"id":"a6249im4oarf","users":1845,"longitude":1.03333},"type":"Feature","geometry":{"type":"Point","coordinates":[1.03333,49.45]}},{"properties":{"city":"Fécamp","latitude":49.75,"id":"a6249ipzew4j","users":3882,"longitude":0.36666},"type":"Feature","geometry":{"type":"Point","coordinates":[0.36666,49.75]}},{"properties":{"city":"Elbeuf","latitude":49.28333,"id":"a6249iyz1rrs","users":4711,"longitude":1.0},"type":"Feature","geometry":{"type":"Point","coordinates":[1.0,49.28333]}},{"properties":{"city":"Grand-Couronne","latitude":49.35,"id":"a6249ijo4kot","users":1014,"longitude":1.0},"type":"Feature","geometry":{"type":"Point","coordinates":[1.0,49.35]}},{"properties":{"city":"Le Havre","latitude":49.49259,"id":"a6249iv1oj3t","users":38429,"longitude":0.1065},"type":"Feature","geometry":{"type":"Point","coordinates":[0.1065,49.49259]}},{"properties":{"city":"Harfleur","latitude":49.5,"id":"a6249ikebo2c","users":1203,"longitude":0.2},"type":"Feature","geometry":{"type":"Point","coordinates":[0.2,49.5]}},{"properties":{"city":"Saint-Étienne-du-Rouvray","latitude":49.38333,"id":"a6249iip9xhp","users":2105,"longitude":1.1},"type":"Feature","geometry":{"type":"Point","coordinates":[1.1,49.38333]}},{"properties":{"city":"Melun","latitude":48.53333,"id":"a6249inm28hp","users":10323,"longitude":2.66666},"type":"Feature","geometry":{"type":"Point","coordinates":[2.66666,48.53333]}},{"properties":{"city":"Meaux","latitude":48.95,"id":"a6249is2xxwh","users":9445,"longitude":2.86666},"type":"Feature","geometry":{"type":"Point","coordinates":[2.86666,48.95]}},{"properties":{"city":"Coulommiers","latitude":48.81666,"id":"a6249itdumcm","users":2903,"longitude":3.08333},"type":"Feature","geometry":{"type":"Point","coordinates":[3.08333,48.81666]}},{"properties":{"city":"Lieusaint","latitude":48.63333,"id":"a6249ivqnc5r","users":1090,"longitude":2.55},"type":"Feature","geometry":{"type":"Point","coordinates":[2.55,48.63333]}},{"properties":{"city":"Montereau-faut-Yonne","latitude":48.38333,"id":"a6249ilgzwq6","users":1865,"longitude":2.95},"type":"Feature","geometry":{"type":"Point","coordinates":[2.95,48.38333]}},{"properties":{"city":"Nemours","latitude":48.26666,"id":"a6249ivy7f1i","users":2264,"longitude":2.7},"type":"Feature","geometry":{"type":"Point","coordinates":[2.7,48.26666]}},{"properties":{"city":"Provins","latitude":48.55,"id":"a6249in5zr2j","users":2339,"longitude":3.3},"type":"Feature","geometry":{"type":"Point","coordinates":[3.3,48.55]}},{"properties":{"city":"Brie-Comte-Robert","latitude":48.68333,"id":"a6249ikpn2gs","users":1850,"longitude":2.61666},"type":"Feature","geometry":{"type":"Point","coordinates":[2.61666,48.68333]}},{"properties":{"city":"Savigny-le-Temple","latitude":48.56666,"id":"a6249isuyf7n","users":2526,"longitude":2.58333},"type":"Feature","geometry":{"type":"Point","coordinates":[2.58333,48.56666]}},{"properties":{"city":"Lognes","latitude":48.83333,"id":"a6249ixd7rpe","users":1157,"longitude":2.61666},"type":"Feature","geometry":{"type":"Point","coordinates":[2.61666,48.83333]}},{"properties":{"city":"Noisiel","latitude":48.85,"id":"a6249ivylfoc","users":1208,"longitude":2.63333},"type":"Feature","geometry":{"type":"Point","coordinates":[2.63333,48.85]}},{"properties":{"city":"Torcy","latitude":48.85,"id":"a6249iuc135q","users":2280,"longitude":2.65},"type":"Feature","geometry":{"type":"Point","coordinates":[2.65,48.85]}},{"properties":{"city":"Gretz-Armainvilliers","latitude":48.73333,"id":"a6249ikzn9ow","users":1061,"longitude":2.73333},"type":"Feature","geometry":{"type":"Point","coordinates":[2.73333,48.73333]}},{"properties":{"city":"Villeparisis","latitude":48.93333,"id":"a6249iv0rz7z","users":2208,"longitude":2.61666},"type":"Feature","geometry":{"type":"Point","coordinates":[2.61666,48.93333]}},{"properties":{"city":"Mitry-Mory","latitude":48.98333,"id":"a6249in39xk4","users":1299,"longitude":2.61666},"type":"Feature","geometry":{"type":"Point","coordinates":[2.61666,48.98333]}},{"properties":{"city":"Fontainebleau","latitude":48.4,"id":"a6249iy61uab","users":3291,"longitude":2.7},"type":"Feature","geometry":{"type":"Point","coordinates":[2.7,48.4]}},{"properties":{"city":"Ozoir-la-Ferrière","latitude":48.76236,"id":"a6249iupfg0u","users":1891,"longitude":2.67175},"type":"Feature","geometry":{"type":"Point","coordinates":[2.67175,48.76236]}},{"properties":{"city":"Le Mée-sur-Seine","latitude":48.53333,"id":"a6249iqklwkf","users":1374,"longitude":2.63333},"type":"Feature","geometry":{"type":"Point","coordinates":[2.63333,48.53333]}},{"properties":{"city":"Nangis","latitude":48.55,"id":"a6249inmzg17","users":1071,"longitude":3.0},"type":"Feature","geometry":{"type":"Point","coordinates":[3.0,48.55]}},{"properties":{"city":"Combs-la-Ville","latitude":48.66666,"id":"a6249inb8zti","users":1792,"longitude":2.56666},"type":"Feature","geometry":{"type":"Point","coordinates":[2.56666,48.66666]}},{"properties":{"city":"Lagny-sur-Marne","latitude":48.86666,"id":"a6249iljerux","users":1705,"longitude":2.71666},"type":"Feature","geometry":{"type":"Point","coordinates":[2.71666,48.86666]}},{"properties":{"city":"Claye-Souilly","latitude":48.95,"id":"a6249ik7xeg0","users":1020,"longitude":2.7},"type":"Feature","geometry":{"type":"Point","coordinates":[2.7,48.95]}},{"properties":{"city":"Champs-Sur-Marne","latitude":48.85,"id":"a6249ios4dwy","users":1815,"longitude":2.6},"type":"Feature","geometry":{"type":"Point","coordinates":[2.6,48.85]}},{"properties":{"city":"Chelles","latitude":48.88333,"id":"a6249iqa8wbc","users":4312,"longitude":2.6},"type":"Feature","geometry":{"type":"Point","coordinates":[2.6,48.88333]}},{"properties":{"city":"Moissy-Cramayel","latitude":48.61666,"id":"a6249irbnvzw","users":1440,"longitude":2.6},"type":"Feature","geometry":{"type":"Point","coordinates":[2.6,48.61666]}},{"properties":{"city":"Bussy-Saint-Georges","latitude":48.85,"id":"a6249ikjm9s0","users":2304,"longitude":2.7},"type":"Feature","geometry":{"type":"Point","coordinates":[2.7,48.85]}},{"properties":{"city":"Roissy-en-Brie","latitude":48.8,"id":"a6249iksvwdu","users":2055,"longitude":2.65},"type":"Feature","geometry":{"type":"Point","coordinates":[2.65,48.8]}},{"properties":{"city":"Serris","latitude":48.85,"id":"a6249ikydvx7","users":1490,"longitude":2.78333},"type":"Feature","geometry":{"type":"Point","coordinates":[2.78333,48.85]}},{"properties":{"city":"Versailles","latitude":48.8,"id":"a6249in79ixq","users":11499,"longitude":2.13333},"type":"Feature","geometry":{"type":"Point","coordinates":[2.13333,48.8]}},{"properties":{"city":"Saint-Germain-en-Laye","latitude":48.9,"id":"a6249iq3805q","users":2912,"longitude":2.08333},"type":"Feature","geometry":{"type":"Point","coordinates":[2.08333,48.9]}},{"properties":{"city":"Rambouillet","latitude":48.65,"id":"a6249im7zsny","users":2907,"longitude":1.83333},"type":"Feature","geometry":{"type":"Point","coordinates":[1.83333,48.65]}},{"properties":{"city":"Les Mureaux","latitude":49.0,"id":"a6249iybb0hf","users":2547,"longitude":1.91666},"type":"Feature","geometry":{"type":"Point","coordinates":[1.91666,49.0]}},{"properties":{"city":"Vélizy-Villacoublay","latitude":48.8,"id":"a6249ij7hfqx","users":1713,"longitude":2.18333},"type":"Feature","geometry":{"type":"Point","coordinates":[2.18333,48.8]}},{"properties":{"city":"Le Chesnay","latitude":48.825,"id":"a6249irse4ci","users":1626,"longitude":2.125},"type":"Feature","geometry":{"type":"Point","coordinates":[2.125,48.825]}},{"properties":{"city":"Montigny-le-Bretonneux","latitude":48.76666,"id":"a6249ipwocs9","users":2748,"longitude":2.03333},"type":"Feature","geometry":{"type":"Point","coordinates":[2.03333,48.76666]}},{"properties":{"city":"Trappes","latitude":48.78333,"id":"a6249iy1wjot","users":2698,"longitude":2.0},"type":"Feature","geometry":{"type":"Point","coordinates":[2.0,48.78333]}},{"properties":{"city":"Mantes-la-Jolie","latitude":48.98333,"id":"a6249is25wfq","users":5169,"longitude":1.71666},"type":"Feature","geometry":{"type":"Point","coordinates":[1.71666,48.98333]}},{"properties":{"city":"Mantes-la-Ville","latitude":48.96666,"id":"a6249isjxdp6","users":1503,"longitude":1.71666},"type":"Feature","geometry":{"type":"Point","coordinates":[1.71666,48.96666]}},{"properties":{"city":"Saint-Cyr-l'École","latitude":48.8,"id":"a6249iodlgwh","users":1136,"longitude":2.06666},"type":"Feature","geometry":{"type":"Point","coordinates":[2.06666,48.8]}},{"properties":{"city":"Achères","latitude":48.96666,"id":"a6249ixd4p4p","users":1590,"longitude":2.06666},"type":"Feature","geometry":{"type":"Point","coordinates":[2.06666,48.96666]}},{"properties":{"city":"Guyancourt","latitude":48.76666,"id":"a6249ikxsfrj","users":2557,"longitude":2.06666},"type":"Feature","geometry":{"type":"Point","coordinates":[2.06666,48.76666]}},{"properties":{"city":"Poissy","latitude":48.93333,"id":"a6249is0nd6l","users":4269,"longitude":2.05},"type":"Feature","geometry":{"type":"Point","coordinates":[2.05,48.93333]}},{"properties":{"city":"Maurepas","latitude":48.76666,"id":"a6249ip7ukfj","users":1323,"longitude":1.91666},"type":"Feature","geometry":{"type":"Point","coordinates":[1.91666,48.76666]}},{"properties":{"city":"Plaisir","latitude":48.81666,"id":"a6249ij8ltwo","users":3051,"longitude":1.95},"type":"Feature","geometry":{"type":"Point","coordinates":[1.95,48.81666]}},{"properties":{"city":"Chatou","latitude":48.88333,"id":"a6249iux0pz0","users":1631,"longitude":2.15},"type":"Feature","geometry":{"type":"Point","coordinates":[2.15,48.88333]}},{"properties":{"city":"Aubergenville","latitude":48.96666,"id":"a6249iypyrga","users":1220,"longitude":1.85},"type":"Feature","geometry":{"type":"Point","coordinates":[1.85,48.96666]}},{"properties":{"city":"Sartrouville","latitude":48.95,"id":"a6249ijz19zw","users":3558,"longitude":2.18333},"type":"Feature","geometry":{"type":"Point","coordinates":[2.18333,48.95]}},{"properties":{"city":"Limay","latitude":48.98333,"id":"a6249imhiiru","users":1442,"longitude":1.73333},"type":"Feature","geometry":{"type":"Point","coordinates":[1.73333,48.98333]}},{"properties":{"city":"Maisons-Laffitte","latitude":48.95,"id":"a6249itl2p3z","users":1396,"longitude":2.15},"type":"Feature","geometry":{"type":"Point","coordinates":[2.15,48.95]}},{"properties":{"city":"Conflans-Sainte-Honorine","latitude":48.98333,"id":"a6249ivwcy6k","users":2458,"longitude":2.1},"type":"Feature","geometry":{"type":"Point","coordinates":[2.1,48.98333]}},{"properties":{"city":"Houilles","latitude":48.91666,"id":"a6249inwlq50","users":1971,"longitude":2.2},"type":"Feature","geometry":{"type":"Point","coordinates":[2.2,48.91666]}},{"properties":{"city":"Élancourt","latitude":48.78333,"id":"a6249il5lwxm","users":2345,"longitude":1.95},"type":"Feature","geometry":{"type":"Point","coordinates":[1.95,48.78333]}},{"properties":{"city":"Niort","latitude":46.32385,"id":"a6249ipddovr","users":16018,"longitude":-0.45758},"type":"Feature","geometry":{"type":"Point","coordinates":[-0.45758,46.32385]}},{"properties":{"city":"Thouars","latitude":46.96666,"id":"a6249ivml171","users":2252,"longitude":-0.21666},"type":"Feature","geometry":{"type":"Point","coordinates":[-0.21666,46.96666]}},{"properties":{"city":"Parthenay","latitude":46.65,"id":"a6249issjl1u","users":2300,"longitude":-0.25},"type":"Feature","geometry":{"type":"Point","coordinates":[-0.25,46.65]}},{"properties":{"city":"Bressuire","latitude":46.85,"id":"a6249ioqlenl","users":2668,"longitude":-0.48333},"type":"Feature","geometry":{"type":"Point","coordinates":[-0.48333,46.85]}},{"properties":{"city":"Amiens","latitude":49.9,"id":"a6249iu6wl9j","users":38876,"longitude":2.3},"type":"Feature","geometry":{"type":"Point","coordinates":[2.3,49.9]}},{"properties":{"city":"Abbeville","latitude":50.1,"id":"a6249ingbio5","users":6151,"longitude":1.83333},"type":"Feature","geometry":{"type":"Point","coordinates":[1.83333,50.1]}},{"properties":{"city":"Péronne","latitude":49.93333,"id":"a6249iptor4t","users":2120,"longitude":2.93333},"type":"Feature","geometry":{"type":"Point","coordinates":[2.93333,49.93333]}},{"properties":{"city":"Albert","latitude":50.0,"id":"a6249iwnl90i","users":1940,"longitude":2.65},"type":"Feature","geometry":{"type":"Point","coordinates":[2.65,50.0]}},{"properties":{"city":"Ham","latitude":49.75,"id":"a6249islas82","users":1033,"longitude":3.06666},"type":"Feature","geometry":{"type":"Point","coordinates":[3.06666,49.75]}},{"properties":{"city":"Montdidier","latitude":49.65,"id":"a6249in13aib","users":1304,"longitude":2.56666},"type":"Feature","geometry":{"type":"Point","coordinates":[2.56666,49.65]}},{"properties":{"city":"Roye","latitude":49.7,"id":"a6249imn965u","users":1134,"longitude":2.8},"type":"Feature","geometry":{"type":"Point","coordinates":[2.8,49.7]}},{"properties":{"city":"Castres","latitude":43.6,"id":"a6249ipfkady","users":7431,"longitude":2.25},"type":"Feature","geometry":{"type":"Point","coordinates":[2.25,43.6]}},{"properties":{"city":"Mazamet","latitude":43.5,"id":"a6249irleyac","users":1552,"longitude":2.4},"type":"Feature","geometry":{"type":"Point","coordinates":[2.4,43.5]}},{"properties":{"city":"Graulhet","latitude":43.76666,"id":"a6249ij7w44q","users":1021,"longitude":2.0},"type":"Feature","geometry":{"type":"Point","coordinates":[2.0,43.76666]}},{"properties":{"city":"Parisot","latitude":43.81666,"id":"a6249iml9zyg","users":1073,"longitude":1.83333},"type":"Feature","geometry":{"type":"Point","coordinates":[1.83333,43.81666]}},{"properties":{"city":"Carmaux","latitude":44.05,"id":"a6249iwn5jzx","users":1104,"longitude":2.15},"type":"Feature","geometry":{"type":"Point","coordinates":[2.15,44.05]}},{"properties":{"city":"Lavaur","latitude":43.7,"id":"a6249ioxei3c","users":1157,"longitude":1.81666},"type":"Feature","geometry":{"type":"Point","coordinates":[1.81666,43.7]}},{"properties":{"city":"Gaillac","latitude":43.9,"id":"a6249imj4di4","users":1751,"longitude":1.91666},"type":"Feature","geometry":{"type":"Point","coordinates":[1.91666,43.9]}},{"properties":{"city":"Albi","latitude":43.93333,"id":"a6249is4fxly","users":11001,"longitude":2.15},"type":"Feature","geometry":{"type":"Point","coordinates":[2.15,43.93333]}},{"properties":{"city":"Montauban","latitude":44.01666,"id":"a6249isorvvu","users":11892,"longitude":1.35},"type":"Feature","geometry":{"type":"Point","coordinates":[1.35,44.01666]}},{"properties":{"city":"Castelsarrasin","latitude":44.03333,"id":"a6249iwjas2r","users":1571,"longitude":1.1},"type":"Feature","geometry":{"type":"Point","coordinates":[1.1,44.03333]}},{"properties":{"city":"Sanary-sur-Mer","latitude":43.11666,"id":"a6249ilhrloh","users":2369,"longitude":5.8},"type":"Feature","geometry":{"type":"Point","coordinates":[5.8,43.11666]}},{"properties":{"city":"Sainte-Maxime","latitude":43.3,"id":"a6249it4wjxi","users":1821,"longitude":6.63333},"type":"Feature","geometry":{"type":"Point","coordinates":[6.63333,43.3]}},{"properties":{"city":"Bandol","latitude":43.13333,"id":"a6249io3ykh6","users":1278,"longitude":5.75},"type":"Feature","geometry":{"type":"Point","coordinates":[5.75,43.13333]}},{"properties":{"city":"La Valette-du-Var","latitude":43.13333,"id":"a6249ijmaaq2","users":2047,"longitude":5.98333},"type":"Feature","geometry":{"type":"Point","coordinates":[5.98333,43.13333]}},{"properties":{"city":"Brignoles","latitude":43.4,"id":"a6249intwkhv","users":2974,"longitude":6.06666},"type":"Feature","geometry":{"type":"Point","coordinates":[6.06666,43.4]}},{"properties":{"city":"Ollioules","latitude":43.13333,"id":"a6249iv1orv8","users":1161,"longitude":5.85},"type":"Feature","geometry":{"type":"Point","coordinates":[5.85,43.13333]}},{"properties":{"city":"Toulon","latitude":43.12516,"id":"a6249ituag2j","users":41574,"longitude":5.93111},"type":"Feature","geometry":{"type":"Point","coordinates":[5.93111,43.12516]}},{"properties":{"city":"Solliès-Pont","latitude":43.18333,"id":"a6249iprsjfz","users":1230,"longitude":6.05},"type":"Feature","geometry":{"type":"Point","coordinates":[6.05,43.18333]}},{"properties":{"city":"La Crau","latitude":43.15,"id":"a6249irfyzjf","users":1334,"longitude":6.06666},"type":"Feature","geometry":{"type":"Point","coordinates":[6.06666,43.15]}},{"properties":{"city":"Draguignan","latitude":43.53333,"id":"a6249ixvbih4","users":6700,"longitude":6.46666},"type":"Feature","geometry":{"type":"Point","coordinates":[6.46666,43.53333]}},{"properties":{"city":"Cogolin","latitude":43.25,"id":"a6249ix0qq23","users":1440,"longitude":6.53333},"type":"Feature","geometry":{"type":"Point","coordinates":[6.53333,43.25]}},{"properties":{"city":"Le Luc","latitude":43.38333,"id":"a6249ixlfyfp","users":1229,"longitude":6.31666},"type":"Feature","geometry":{"type":"Point","coordinates":[6.31666,43.38333]}},{"properties":{"city":"Cuers","latitude":43.23333,"id":"a6249iniocfj","users":1105,"longitude":6.06666},"type":"Feature","geometry":{"type":"Point","coordinates":[6.06666,43.23333]}},{"properties":{"city":"Hyères","latitude":43.11666,"id":"a6249isiikcl","users":7966,"longitude":6.11666},"type":"Feature","geometry":{"type":"Point","coordinates":[6.11666,43.11666]}},{"properties":{"city":"Saint-Maximin-la-Sainte-Baume","latitude":43.45,"id":"a6249itcpbxc","users":1477,"longitude":5.86666},"type":"Feature","geometry":{"type":"Point","coordinates":[5.86666,43.45]}},{"properties":{"city":"La Seyne-sur-Mer","latitude":43.1,"id":"a6249iszxb9b","users":6971,"longitude":5.88333},"type":"Feature","geometry":{"type":"Point","coordinates":[5.88333,43.1]}},{"properties":{"city":"Vidauban","latitude":43.41666,"id":"a6249ingzv1j","users":1081,"longitude":6.43333},"type":"Feature","geometry":{"type":"Point","coordinates":[6.43333,43.41666]}},{"properties":{"city":"Fréjus","latitude":43.43246,"id":"a6249io9biob","users":9553,"longitude":6.73518},"type":"Feature","geometry":{"type":"Point","coordinates":[6.73518,43.43246]}},{"properties":{"city":"Saint-Raphaël","latitude":43.41666,"id":"a6249iq7lfc8","users":3976,"longitude":6.76666},"type":"Feature","geometry":{"type":"Point","coordinates":[6.76666,43.41666]}},{"properties":{"city":"Saint-Tropez","latitude":43.26666,"id":"a6249iyvdz02","users":1638,"longitude":6.63333},"type":"Feature","geometry":{"type":"Point","coordinates":[6.63333,43.26666]}},{"properties":{"city":"Avignon","latitude":43.94861,"id":"a6249iksufq1","users":28364,"longitude":4.80596},"type":"Feature","geometry":{"type":"Point","coordinates":[4.80596,43.94861]}},{"properties":{"city":"Orange","latitude":44.13925,"id":"a6249il3z6l7","users":5159,"longitude":4.79553},"type":"Feature","geometry":{"type":"Point","coordinates":[4.79553,44.13925]}},{"properties":{"city":"Pertuis","latitude":43.68333,"id":"a6249ioyuek4","users":2303,"longitude":5.5},"type":"Feature","geometry":{"type":"Point","coordinates":[5.5,43.68333]}},{"properties":{"city":"Le Pontet","latitude":43.96666,"id":"a6249iudnsam","users":1026,"longitude":4.85},"type":"Feature","geometry":{"type":"Point","coordinates":[4.85,43.96666]}},{"properties":{"city":"Monteux","latitude":44.03333,"id":"a6249iro7o19","users":1136,"longitude":5.0},"type":"Feature","geometry":{"type":"Point","coordinates":[5.0,44.03333]}},{"properties":{"city":"Carpentras","latitude":44.05,"id":"a6249iwjcssf","users":3807,"longitude":5.05},"type":"Feature","geometry":{"type":"Point","coordinates":[5.05,44.05]}},{"properties":{"city":"Cavaillon","latitude":43.8375,"id":"a6249ip5hj11","users":3528,"longitude":5.03805},"type":"Feature","geometry":{"type":"Point","coordinates":[5.03805,43.8375]}},{"properties":{"city":"Apt","latitude":43.88333,"id":"a6249it2id9f","users":1343,"longitude":5.4},"type":"Feature","geometry":{"type":"Point","coordinates":[5.4,43.88333]}},{"properties":{"city":"Bollène","latitude":44.28333,"id":"a6249ikwch50","users":1620,"longitude":4.75},"type":"Feature","geometry":{"type":"Point","coordinates":[4.75,44.28333]}},{"properties":{"city":"Sorgues","latitude":44.0,"id":"a6249ip75gt7","users":1551,"longitude":4.86666},"type":"Feature","geometry":{"type":"Point","coordinates":[4.86666,44.0]}},{"properties":{"city":"L'Isle-sur-la-Sorgue","latitude":43.91666,"id":"a6249ip3qcek","users":1155,"longitude":5.05},"type":"Feature","geometry":{"type":"Point","coordinates":[5.05,43.91666]}},{"properties":{"city":"La Roche-sur-Yon","latitude":46.66666,"id":"a6249iiwmx0k","users":11251,"longitude":-1.43333},"type":"Feature","geometry":{"type":"Point","coordinates":[-1.43333,46.66666]}},{"properties":{"city":"Les Sables-d'Olonne","latitude":46.5,"id":"a6249ixbel72","users":3516,"longitude":-1.78333},"type":"Feature","geometry":{"type":"Point","coordinates":[-1.78333,46.5]}},{"properties":{"city":"Fontenay-le-Comte","latitude":46.46666,"id":"a6249iulugxu","users":2915,"longitude":-0.81666},"type":"Feature","geometry":{"type":"Point","coordinates":[-0.81666,46.46666]}},{"properties":{"city":"Challans","latitude":46.85,"id":"a6249iytphwm","users":2838,"longitude":-1.88333},"type":"Feature","geometry":{"type":"Point","coordinates":[-1.88333,46.85]}},{"properties":{"city":"Luçon","latitude":46.45,"id":"a6249iozik29","users":1729,"longitude":-1.16666},"type":"Feature","geometry":{"type":"Point","coordinates":[-1.16666,46.45]}},{"properties":{"city":"Les Herbiers","latitude":46.86666,"id":"a6249io11fb3","users":2035,"longitude":-1.01666},"type":"Feature","geometry":{"type":"Point","coordinates":[-1.01666,46.86666]}},{"properties":{"city":"Montaigu","latitude":46.98333,"id":"a6249iu0odae","users":1254,"longitude":-1.31666},"type":"Feature","geometry":{"type":"Point","coordinates":[-1.31666,46.98333]}},{"properties":{"city":"Poitiers","latitude":46.58333,"id":"a6249il7cyqq","users":30365,"longitude":0.33333},"type":"Feature","geometry":{"type":"Point","coordinates":[0.33333,46.58333]}},{"properties":{"city":"Châtellerault","latitude":46.8,"id":"a6249im7wac5","users":5690,"longitude":0.53333},"type":"Feature","geometry":{"type":"Point","coordinates":[0.53333,46.8]}},{"properties":{"city":"Loudun","latitude":47.0,"id":"a6249iyudtao","users":1075,"longitude":0.06666},"type":"Feature","geometry":{"type":"Point","coordinates":[0.06666,47.0]}},{"properties":{"city":"Limoges","latitude":45.82852,"id":"a6249irter9n","users":32444,"longitude":1.26174},"type":"Feature","geometry":{"type":"Point","coordinates":[1.26174,45.82852]}},{"properties":{"city":"Épinal","latitude":48.18333,"id":"a6249ijmes7d","users":11138,"longitude":6.45},"type":"Feature","geometry":{"type":"Point","coordinates":[6.45,48.18333]}},{"properties":{"city":"Saint-Dié-des-Vosges","latitude":48.28333,"id":"a6249ix305su","users":4817,"longitude":6.95},"type":"Feature","geometry":{"type":"Point","coordinates":[6.95,48.28333]}},{"properties":{"city":"Thaon-les-Vosges","latitude":48.25,"id":"a6249isenbay","users":1059,"longitude":6.41666},"type":"Feature","geometry":{"type":"Point","coordinates":[6.41666,48.25]}},{"properties":{"city":"Remiremont","latitude":48.01666,"id":"a6249imi10gq","users":2560,"longitude":6.58333},"type":"Feature","geometry":{"type":"Point","coordinates":[6.58333,48.01666]}},{"properties":{"city":"Neufchâteau","latitude":48.35,"id":"a6249itf36hz","users":1409,"longitude":5.7},"type":"Feature","geometry":{"type":"Point","coordinates":[5.7,48.35]}},{"properties":{"city":"Gérardmer","latitude":48.06666,"id":"a6249irngcar","users":1199,"longitude":6.88333},"type":"Feature","geometry":{"type":"Point","coordinates":[6.88333,48.06666]}},{"properties":{"city":"Mirecourt","latitude":48.3,"id":"a6249iolwxra","users":1063,"longitude":6.13333},"type":"Feature","geometry":{"type":"Point","coordinates":[6.13333,48.3]}},{"properties":{"city":"Vittel","latitude":48.2,"id":"a6249ijngcid","users":1142,"longitude":5.95},"type":"Feature","geometry":{"type":"Point","coordinates":[5.95,48.2]}},{"properties":{"city":"Auxerre","latitude":47.8,"id":"a6249inr6kpm","users":12617,"longitude":3.56666},"type":"Feature","geometry":{"type":"Point","coordinates":[3.56666,47.8]}},{"properties":{"city":"Sens","latitude":48.19805,"id":"a6249iwln1ms","users":7551,"longitude":3.28388},"type":"Feature","geometry":{"type":"Point","coordinates":[3.28388,48.19805]}},{"properties":{"city":"Avallon","latitude":47.48333,"id":"a6249iwdtrhd","users":1652,"longitude":3.9},"type":"Feature","geometry":{"type":"Point","coordinates":[3.9,47.48333]}},{"properties":{"city":"Joigny","latitude":47.98333,"id":"a6249ipa8rl9","users":1492,"longitude":3.4},"type":"Feature","geometry":{"type":"Point","coordinates":[3.4,47.98333]}},{"properties":{"city":"Belfort","latitude":47.63333,"id":"a6249iyp13n1","users":14133,"longitude":6.86666},"type":"Feature","geometry":{"type":"Point","coordinates":[6.86666,47.63333]}},{"properties":{"city":"Ris-Orangis","latitude":48.65,"id":"a6249iotsljk","users":2225,"longitude":2.41666},"type":"Feature","geometry":{"type":"Point","coordinates":[2.41666,48.65]}},{"properties":{"city":"Évry","latitude":48.63333,"id":"a6249iryx5p7","users":7545,"longitude":2.45},"type":"Feature","geometry":{"type":"Point","coordinates":[2.45,48.63333]}},{"properties":{"city":"Corbeil-Essonnes","latitude":48.6,"id":"a6249in0kdmy","users":4526,"longitude":2.48333},"type":"Feature","geometry":{"type":"Point","coordinates":[2.48333,48.6]}},{"properties":{"city":"Palaiseau","latitude":48.71666,"id":"a6249itu4uuc","users":2275,"longitude":2.25},"type":"Feature","geometry":{"type":"Point","coordinates":[2.25,48.71666]}},{"properties":{"city":"Étampes","latitude":48.43333,"id":"a6249iitkik0","users":3192,"longitude":2.15},"type":"Feature","geometry":{"type":"Point","coordinates":[2.15,48.43333]}},{"properties":{"city":"Longjumeau","latitude":48.7,"id":"a6249it2kvt9","users":2269,"longitude":2.3},"type":"Feature","geometry":{"type":"Point","coordinates":[2.3,48.7]}},{"properties":{"city":"Viry-Châtillon","latitude":48.67944,"id":"a6249ilp9tya","users":2547,"longitude":2.37533},"type":"Feature","geometry":{"type":"Point","coordinates":[2.37533,48.67944]}},{"properties":{"city":"Gif-sur-Yvette","latitude":48.68333,"id":"a6249iiy8ry5","users":1309,"longitude":2.13333},"type":"Feature","geometry":{"type":"Point","coordinates":[2.13333,48.68333]}},{"properties":{"city":"Athis-Mons","latitude":48.71666,"id":"a6249ivnmpqs","users":2317,"longitude":2.4},"type":"Feature","geometry":{"type":"Point","coordinates":[2.4,48.71666]}},{"properties":{"city":"Draveil","latitude":48.68333,"id":"a6249io01cx5","users":2126,"longitude":2.41666},"type":"Feature","geometry":{"type":"Point","coordinates":[2.41666,48.68333]}},{"properties":{"city":"Brétigny-sur-Orge","latitude":48.61666,"id":"a6249iuc6uv1","users":2648,"longitude":2.31666},"type":"Feature","geometry":{"type":"Point","coordinates":[2.31666,48.61666]}},{"properties":{"city":"Montgeron","latitude":48.7,"id":"a6249itsb8pd","users":1514,"longitude":2.45},"type":"Feature","geometry":{"type":"Point","coordinates":[2.45,48.7]}},{"properties":{"city":"Saint-Michel-sur-Orge","latitude":48.63333,"id":"a6249imfxoyj","users":1596,"longitude":2.3},"type":"Feature","geometry":{"type":"Point","coordinates":[2.3,48.63333]}},{"properties":{"city":"Juvisy-sur-Orge","latitude":48.68333,"id":"a6249imyd00k","users":1504,"longitude":2.38333},"type":"Feature","geometry":{"type":"Point","coordinates":[2.38333,48.68333]}},{"properties":{"city":"Vigneux-sur-Seine","latitude":48.7,"id":"a6249iy8x5r3","users":1825,"longitude":2.41666},"type":"Feature","geometry":{"type":"Point","coordinates":[2.41666,48.7]}},{"properties":{"city":"Arpajon","latitude":48.58333,"id":"a6249iy9cggs","users":1927,"longitude":2.25},"type":"Feature","geometry":{"type":"Point","coordinates":[2.25,48.58333]}},{"properties":{"city":"Massy","latitude":48.73333,"id":"a6249ixmbjri","users":3765,"longitude":2.28333},"type":"Feature","geometry":{"type":"Point","coordinates":[2.28333,48.73333]}},{"properties":{"city":"Yerres","latitude":48.71666,"id":"a6249ioxq8pg","users":1846,"longitude":2.5},"type":"Feature","geometry":{"type":"Point","coordinates":[2.5,48.71666]}},{"properties":{"city":"Grigny","latitude":48.65,"id":"a6249ij5gyhl","users":1763,"longitude":2.38333},"type":"Feature","geometry":{"type":"Point","coordinates":[2.38333,48.65]}},{"properties":{"city":"Chilly-Mazarin","latitude":48.7,"id":"a6249is8tuay","users":1314,"longitude":2.3},"type":"Feature","geometry":{"type":"Point","coordinates":[2.3,48.7]}},{"properties":{"city":"Morsang-sur-Orge","latitude":48.66666,"id":"a6249iu3ao2z","users":1704,"longitude":2.35},"type":"Feature","geometry":{"type":"Point","coordinates":[2.35,48.66666]}},{"properties":{"city":"Orsay","latitude":48.7,"id":"a6249iybtoqq","users":1623,"longitude":2.18333},"type":"Feature","geometry":{"type":"Point","coordinates":[2.18333,48.7]}},{"properties":{"city":"Dourdan","latitude":48.53333,"id":"a6249isdn3t2","users":1079,"longitude":2.01666},"type":"Feature","geometry":{"type":"Point","coordinates":[2.01666,48.53333]}},{"properties":{"city":"Mennecy","latitude":48.56666,"id":"a6249iyjkga4","users":1224,"longitude":2.43333},"type":"Feature","geometry":{"type":"Point","coordinates":[2.43333,48.56666]}},{"properties":{"city":"Savigny-sur-Orge","latitude":48.66666,"id":"a6249ipdkjvw","users":2344,"longitude":2.35},"type":"Feature","geometry":{"type":"Point","coordinates":[2.35,48.66666]}},{"properties":{"city":"Sainte-Geneviève-des-Bois","latitude":48.63333,"id":"a6249ijy0dh5","users":1838,"longitude":2.33333},"type":"Feature","geometry":{"type":"Point","coordinates":[2.33333,48.63333]}},{"properties":{"city":"Brunoy","latitude":48.7,"id":"a6249ivez2si","users":2054,"longitude":2.5},"type":"Feature","geometry":{"type":"Point","coordinates":[2.5,48.7]}},{"properties":{"city":"Nanterre","latitude":48.9,"id":"a6249in0l93t","users":7280,"longitude":2.2},"type":"Feature","geometry":{"type":"Point","coordinates":[2.2,48.9]}},{"properties":{"city":"Boulogne-Billancourt","latitude":48.83333,"id":"a6249iutc5tb","users":7073,"longitude":2.25},"type":"Feature","geometry":{"type":"Point","coordinates":[2.25,48.83333]}},{"properties":{"city":"Clichy","latitude":48.9,"id":"a6249ijz66ml","users":5080,"longitude":2.3},"type":"Feature","geometry":{"type":"Point","coordinates":[2.3,48.9]}},{"properties":{"city":"Montrouge","latitude":48.81666,"id":"a6249iiu0ft8","users":3090,"longitude":2.31666},"type":"Feature","geometry":{"type":"Point","coordinates":[2.31666,48.81666]}},{"properties":{"city":"Issy-les-Moulineaux","latitude":48.81666,"id":"a6249isujdw8","users":3803,"longitude":2.26666},"type":"Feature","geometry":{"type":"Point","coordinates":[2.26666,48.81666]}},{"properties":{"city":"Clamart","latitude":48.8,"id":"a6249ixtlejk","users":2975,"longitude":2.26666},"type":"Feature","geometry":{"type":"Point","coordinates":[2.26666,48.8]}},{"properties":{"city":"Suresnes","latitude":48.86666,"id":"a6249iwzd25f","users":3621,"longitude":2.23333},"type":"Feature","geometry":{"type":"Point","coordinates":[2.23333,48.86666]}},{"properties":{"city":"Antony","latitude":48.75,"id":"a6249itj1li5","users":3589,"longitude":2.3},"type":"Feature","geometry":{"type":"Point","coordinates":[2.3,48.75]}},{"properties":{"city":"Vanves","latitude":48.83333,"id":"a6249iv9dwnz","users":4220,"longitude":2.3},"type":"Feature","geometry":{"type":"Point","coordinates":[2.3,48.83333]}},{"properties":{"city":"Meudon","latitude":48.80833,"id":"a6249iquvpzj","users":2371,"longitude":2.24166},"type":"Feature","geometry":{"type":"Point","coordinates":[2.24166,48.80833]}},{"properties":{"city":"Neuilly-sur-Seine","latitude":48.88333,"id":"a6249isnxr59","users":4134,"longitude":2.26666},"type":"Feature","geometry":{"type":"Point","coordinates":[2.26666,48.88333]}},{"properties":{"city":"Saint-Cloud","latitude":48.84166,"id":"a6249ipgnciz","users":1370,"longitude":2.21666},"type":"Feature","geometry":{"type":"Point","coordinates":[2.21666,48.84166]}},{"properties":{"city":"Bagneux","latitude":48.8,"id":"a6249ist43ze","users":2152,"longitude":2.3},"type":"Feature","geometry":{"type":"Point","coordinates":[2.3,48.8]}},{"properties":{"city":"Gennevilliers","latitude":48.93333,"id":"a6249ixt1gih","users":2418,"longitude":2.3},"type":"Feature","geometry":{"type":"Point","coordinates":[2.3,48.93333]}},{"properties":{"city":"Malakoff","latitude":48.81666,"id":"a6249iipzldc","users":1960,"longitude":2.3},"type":"Feature","geometry":{"type":"Point","coordinates":[2.3,48.81666]}},{"properties":{"city":"La Garenne-Colombes","latitude":48.9,"id":"a6249iyj2py0","users":2132,"longitude":2.25},"type":"Feature","geometry":{"type":"Point","coordinates":[2.25,48.9]}},{"properties":{"city":"Fontenay-aux-Roses","latitude":48.78333,"id":"a6249iv7szt4","users":1237,"longitude":2.28333},"type":"Feature","geometry":{"type":"Point","coordinates":[2.28333,48.78333]}},{"properties":{"city":"Bois-Colombes","latitude":48.91666,"id":"a6249irl91od","users":1917,"longitude":2.26666},"type":"Feature","geometry":{"type":"Point","coordinates":[2.26666,48.91666]}},{"properties":{"city":"Châtenay-Malabry","latitude":48.76666,"id":"a6249iuwqlfr","users":1564,"longitude":2.26666},"type":"Feature","geometry":{"type":"Point","coordinates":[2.26666,48.76666]}},{"properties":{"city":"Levallois-Perret","latitude":48.9,"id":"a6249il9lnub","users":3822,"longitude":2.28333},"type":"Feature","geometry":{"type":"Point","coordinates":[2.28333,48.9]}},{"properties":{"city":"Sèvres","latitude":48.81666,"id":"a6249ipb4s0a","users":1099,"longitude":2.2},"type":"Feature","geometry":{"type":"Point","coordinates":[2.2,48.81666]}},{"properties":{"city":"Châtillon","latitude":48.8,"id":"a6249iwmleul","users":1725,"longitude":2.28333},"type":"Feature","geometry":{"type":"Point","coordinates":[2.28333,48.8]}},{"properties":{"city":"Le Plessis-Robinson","latitude":48.78333,"id":"a6249iuitn9j","users":1322,"longitude":2.26666},"type":"Feature","geometry":{"type":"Point","coordinates":[2.26666,48.78333]}},{"properties":{"city":"Chaville","latitude":48.8,"id":"a6249ila4br9","users":1054,"longitude":2.2},"type":"Feature","geometry":{"type":"Point","coordinates":[2.2,48.8]}},{"properties":{"city":"Villeneuve-la-Garenne","latitude":48.93333,"id":"a6249iljlehf","users":1600,"longitude":2.33333},"type":"Feature","geometry":{"type":"Point","coordinates":[2.33333,48.93333]}},{"properties":{"city":"Rueil-Malmaison","latitude":48.88333,"id":"a6249ioiq54f","users":4602,"longitude":2.2},"type":"Feature","geometry":{"type":"Point","coordinates":[2.2,48.88333]}},{"properties":{"city":"Colombes","latitude":48.91666,"id":"a6249iyvcajg","users":6396,"longitude":2.25},"type":"Feature","geometry":{"type":"Point","coordinates":[2.25,48.91666]}},{"properties":{"city":"Puteaux","latitude":48.86666,"id":"a6249is74pxe","users":2650,"longitude":2.23333},"type":"Feature","geometry":{"type":"Point","coordinates":[2.23333,48.86666]}},{"properties":{"city":"Bobigny","latitude":48.9,"id":"a6249ily859q","users":3669,"longitude":2.45},"type":"Feature","geometry":{"type":"Point","coordinates":[2.45,48.9]}},{"properties":{"city":"Montreuil","latitude":48.86666,"id":"a6249ixks0wq","users":9338,"longitude":2.43333},"type":"Feature","geometry":{"type":"Point","coordinates":[2.43333,48.86666]}},{"properties":{"city":"Rosny-sous-Bois","latitude":48.86666,"id":"a6249inxq20r","users":3179,"longitude":2.48333},"type":"Feature","geometry":{"type":"Point","coordinates":[2.48333,48.86666]}},{"properties":{"city":"La Courneuve","latitude":48.91666,"id":"a6249ix0lbcm","users":3596,"longitude":2.38333},"type":"Feature","geometry":{"type":"Point","coordinates":[2.38333,48.91666]}},{"properties":{"city":"Noisy-le-Sec","latitude":48.88333,"id":"a6249ik3e4si","users":2425,"longitude":2.46666},"type":"Feature","geometry":{"type":"Point","coordinates":[2.46666,48.88333]}},{"properties":{"city":"Bondy","latitude":48.9,"id":"a6249iwsjvkg","users":4298,"longitude":2.46666},"type":"Feature","geometry":{"type":"Point","coordinates":[2.46666,48.9]}},{"properties":{"city":"Le Blanc-Mesnil","latitude":48.93333,"id":"a6249iln24o3","users":2553,"longitude":2.45},"type":"Feature","geometry":{"type":"Point","coordinates":[2.45,48.93333]}},{"properties":{"city":"Noisy-le-Grand","latitude":48.85,"id":"a6249iu214zc","users":4977,"longitude":2.56666},"type":"Feature","geometry":{"type":"Point","coordinates":[2.56666,48.85]}},{"properties":{"city":"Bagnolet","latitude":48.86666,"id":"a6249ivz8m6o","users":3552,"longitude":2.41666},"type":"Feature","geometry":{"type":"Point","coordinates":[2.41666,48.86666]}},{"properties":{"city":"Livry-Gargan","latitude":48.91666,"id":"a6249iiulgbi","users":2942,"longitude":2.55},"type":"Feature","geometry":{"type":"Point","coordinates":[2.55,48.91666]}},{"properties":{"city":"Saint-Denis","latitude":48.93333,"id":"a6249it9wdpk","users":6180,"longitude":2.35833},"type":"Feature","geometry":{"type":"Point","coordinates":[2.35833,48.93333]}},{"properties":{"city":"La Plaine-Saint-Denis","latitude":48.9,"id":"a6249iojoubg","users":2146,"longitude":2.36666},"type":"Feature","geometry":{"type":"Point","coordinates":[2.36666,48.9]}},{"properties":{"city":"Gagny","latitude":48.88333,"id":"a6249ixvfyj4","users":2447,"longitude":2.53333},"type":"Feature","geometry":{"type":"Point","coordinates":[2.53333,48.88333]}},{"properties":{"city":"Romainville","latitude":48.88333,"id":"a6249ixo20x9","users":1845,"longitude":2.43333},"type":"Feature","geometry":{"type":"Point","coordinates":[2.43333,48.88333]}},{"properties":{"city":"Stains","latitude":48.95,"id":"a6249iv3y2sz","users":2555,"longitude":2.38333},"type":"Feature","geometry":{"type":"Point","coordinates":[2.38333,48.95]}},{"properties":{"city":"Villemomble","latitude":48.88333,"id":"a6249isdzkj7","users":1802,"longitude":2.5},"type":"Feature","geometry":{"type":"Point","coordinates":[2.5,48.88333]}},{"properties":{"city":"Sevran","latitude":48.93333,"id":"a6249imyfbko","users":3658,"longitude":2.53333},"type":"Feature","geometry":{"type":"Point","coordinates":[2.53333,48.93333]}},{"properties":{"city":"Aubervilliers","latitude":48.91666,"id":"a6249ijbagl0","users":2726,"longitude":2.38333},"type":"Feature","geometry":{"type":"Point","coordinates":[2.38333,48.91666]}},{"properties":{"city":"Le Pré-Saint-Gervais","latitude":48.88333,"id":"a6249isuucas","users":2808,"longitude":2.4},"type":"Feature","geometry":{"type":"Point","coordinates":[2.4,48.88333]}},{"properties":{"city":"Les Pavillons-sous-Bois","latitude":48.9,"id":"a6249iiruf1h","users":1131,"longitude":2.51666},"type":"Feature","geometry":{"type":"Point","coordinates":[2.51666,48.9]}},{"properties":{"city":"Neuilly-sur-Marne","latitude":48.85699,"id":"a6249im2yz05","users":2680,"longitude":2.52919},"type":"Feature","geometry":{"type":"Point","coordinates":[2.52919,48.85699]}},{"properties":{"city":"Le Raincy","latitude":48.9,"id":"a6249ixzfl24","users":1122,"longitude":2.51666},"type":"Feature","geometry":{"type":"Point","coordinates":[2.51666,48.9]}},{"properties":{"city":"Le Bourget","latitude":48.93333,"id":"a6249ilg9x2x","users":1398,"longitude":2.41666},"type":"Feature","geometry":{"type":"Point","coordinates":[2.41666,48.93333]}},{"properties":{"city":"Neuilly-Plaisance","latitude":48.86666,"id":"a6249iz2sgvs","users":1514,"longitude":2.51666},"type":"Feature","geometry":{"type":"Point","coordinates":[2.51666,48.86666]}},{"properties":{"city":"Montfermeil","latitude":48.9,"id":"a6249ik360iu","users":1552,"longitude":2.56666},"type":"Feature","geometry":{"type":"Point","coordinates":[2.56666,48.9]}},{"properties":{"city":"Pierrefitte-sur-Seine","latitude":48.96666,"id":"a6249io74k93","users":1760,"longitude":2.36666},"type":"Feature","geometry":{"type":"Point","coordinates":[2.36666,48.96666]}},{"properties":{"city":"Clichy-sous-Bois","latitude":48.91666,"id":"a6249in41hte","users":1191,"longitude":2.55},"type":"Feature","geometry":{"type":"Point","coordinates":[2.55,48.91666]}},{"properties":{"city":"Saint-Ouen","latitude":48.9,"id":"a6249ipyvrps","users":5069,"longitude":2.33333},"type":"Feature","geometry":{"type":"Point","coordinates":[2.33333,48.9]}},{"properties":{"city":"Villepinte","latitude":48.96666,"id":"a6249iivfi2s","users":2392,"longitude":2.53333},"type":"Feature","geometry":{"type":"Point","coordinates":[2.53333,48.96666]}},{"properties":{"city":"Pantin","latitude":48.9,"id":"a6249imlqb4h","users":3802,"longitude":2.4},"type":"Feature","geometry":{"type":"Point","coordinates":[2.4,48.9]}},{"properties":{"city":"Aulnay-sous-Bois","latitude":48.94021,"id":"a6249ivr5pki","users":6122,"longitude":2.50224},"type":"Feature","geometry":{"type":"Point","coordinates":[2.50224,48.94021]}},{"properties":{"city":"Drancy","latitude":48.93333,"id":"a6249imwbrbn","users":4455,"longitude":2.45},"type":"Feature","geometry":{"type":"Point","coordinates":[2.45,48.93333]}},{"properties":{"city":"Épinay-sur-Seine","latitude":48.95,"id":"a6249iys47fe","users":3062,"longitude":2.30833},"type":"Feature","geometry":{"type":"Point","coordinates":[2.30833,48.95]}},{"properties":{"city":"Créteil","latitude":48.78333,"id":"a6249irtmjjx","users":9355,"longitude":2.46666},"type":"Feature","geometry":{"type":"Point","coordinates":[2.46666,48.78333]}},{"properties":{"city":"Arcueil","latitude":48.8,"id":"a6249irjp2dm","users":1235,"longitude":2.33333},"type":"Feature","geometry":{"type":"Point","coordinates":[2.33333,48.8]}},{"properties":{"city":"Fontenay-sous-Bois","latitude":48.85,"id":"a6249iyejxb9","users":3150,"longitude":2.48333},"type":"Feature","geometry":{"type":"Point","coordinates":[2.48333,48.85]}},{"properties":{"city":"Nogent-sur-Marne","latitude":48.83333,"id":"a6249iowk9iq","users":1895,"longitude":2.48333},"type":"Feature","geometry":{"type":"Point","coordinates":[2.48333,48.83333]}},{"properties":{"city":"Alfortville","latitude":48.8,"id":"a6249ite8xqc","users":3112,"longitude":2.41666},"type":"Feature","geometry":{"type":"Point","coordinates":[2.41666,48.8]}},{"properties":{"city":"Saint-Mandé","latitude":48.83333,"id":"a6249iir6sht","users":1745,"longitude":2.41666},"type":"Feature","geometry":{"type":"Point","coordinates":[2.41666,48.83333]}},{"properties":{"city":"Le Perreux-sur-Marne","latitude":48.85,"id":"a6249isg0pm9","users":1149,"longitude":2.5},"type":"Feature","geometry":{"type":"Point","coordinates":[2.5,48.85]}},{"properties":{"city":"Villeneuve-Saint-Georges","latitude":48.73333,"id":"a6249iyih1wg","users":2344,"longitude":2.45},"type":"Feature","geometry":{"type":"Point","coordinates":[2.45,48.73333]}},{"properties":{"city":"Ivry-sur-Seine","latitude":48.81666,"id":"a6249irnpkpj","users":4650,"longitude":2.38333},"type":"Feature","geometry":{"type":"Point","coordinates":[2.38333,48.81666]}},{"properties":{"city":"Saint-Maur-des-Fossés","latitude":48.8,"id":"a6249ijjqwf9","users":3373,"longitude":2.5},"type":"Feature","geometry":{"type":"Point","coordinates":[2.5,48.8]}},{"properties":{"city":"Charenton-le-Pont","latitude":48.81666,"id":"a6249iv850op","users":1598,"longitude":2.41666},"type":"Feature","geometry":{"type":"Point","coordinates":[2.41666,48.81666]}},{"properties":{"city":"Cachan","latitude":48.78333,"id":"a6249iobiwb6","users":2336,"longitude":2.33333},"type":"Feature","geometry":{"type":"Point","coordinates":[2.33333,48.78333]}},{"properties":{"city":"Gentilly","latitude":48.81666,"id":"a6249ilotx0a","users":2047,"longitude":2.33333},"type":"Feature","geometry":{"type":"Point","coordinates":[2.33333,48.81666]}},{"properties":{"city":"Fresnes","latitude":48.75,"id":"a6249ipqjg17","users":1558,"longitude":2.31666},"type":"Feature","geometry":{"type":"Point","coordinates":[2.31666,48.75]}},{"properties":{"city":"Le Kremlin-Bicêtre","latitude":48.81666,"id":"a6249io0gcjl","users":2355,"longitude":2.36666},"type":"Feature","geometry":{"type":"Point","coordinates":[2.36666,48.81666]}},{"properties":{"city":"Villeneuve-le-Roi","latitude":48.73333,"id":"a6249ijck1qk","users":1296,"longitude":2.41666},"type":"Feature","geometry":{"type":"Point","coordinates":[2.41666,48.73333]}},{"properties":{"city":"Vincennes","latitude":48.85,"id":"a6249in062yf","users":3484,"longitude":2.43333},"type":"Feature","geometry":{"type":"Point","coordinates":[2.43333,48.85]}},{"properties":{"city":"Orly","latitude":48.75,"id":"a6249iofc2u7","users":1902,"longitude":2.4},"type":"Feature","geometry":{"type":"Point","coordinates":[2.4,48.75]}},{"properties":{"city":"Thiais","latitude":48.76666,"id":"a6249ijjta1k","users":1915,"longitude":2.38333},"type":"Feature","geometry":{"type":"Point","coordinates":[2.38333,48.76666]}},{"properties":{"city":"Joinville-le-Pont","latitude":48.81666,"id":"a6249ionmq5u","users":1364,"longitude":2.46666},"type":"Feature","geometry":{"type":"Point","coordinates":[2.46666,48.81666]}},{"properties":{"city":"Villiers-sur-Marne","latitude":48.83333,"id":"a6249imj6dlq","users":1669,"longitude":2.55},"type":"Feature","geometry":{"type":"Point","coordinates":[2.55,48.83333]}},{"properties":{"city":"Vitry-sur-Seine","latitude":48.78333,"id":"a6249iyr69xe","users":5985,"longitude":2.4},"type":"Feature","geometry":{"type":"Point","coordinates":[2.4,48.78333]}},{"properties":{"city":"Chennevières-sur-Marne","latitude":48.8,"id":"a6249iu6j7yr","users":1227,"longitude":2.51666},"type":"Feature","geometry":{"type":"Point","coordinates":[2.51666,48.8]}},{"properties":{"city":"Limeil-Brévannes","latitude":48.73333,"id":"a6249iqw9v2s","users":1286,"longitude":2.48333},"type":"Feature","geometry":{"type":"Point","coordinates":[2.48333,48.73333]}},{"properties":{"city":"Boissy-Saint-Léger","latitude":48.75,"id":"a6249ir3ql8q","users":1077,"longitude":2.51666},"type":"Feature","geometry":{"type":"Point","coordinates":[2.51666,48.75]}},{"properties":{"city":"Champigny-sur-Marne","latitude":48.81725,"id":"a6249ip7kc5d","users":5389,"longitude":2.49704},"type":"Feature","geometry":{"type":"Point","coordinates":[2.49704,48.81725]}},{"properties":{"city":"Chevilly-Larue","latitude":48.76666,"id":"a6249iqfpfrz","users":1354,"longitude":2.35},"type":"Feature","geometry":{"type":"Point","coordinates":[2.35,48.76666]}},{"properties":{"city":"Choisy-le-Roi","latitude":48.76666,"id":"a6249iss8qf8","users":3066,"longitude":2.41666},"type":"Feature","geometry":{"type":"Point","coordinates":[2.41666,48.76666]}},{"properties":{"city":"Maisons-Alfort","latitude":48.8,"id":"a6249iyeo8xd","users":3703,"longitude":2.43333},"type":"Feature","geometry":{"type":"Point","coordinates":[2.43333,48.8]}},{"properties":{"city":"Villejuif","latitude":48.8,"id":"a6249iqihkci","users":4225,"longitude":2.36666},"type":"Feature","geometry":{"type":"Point","coordinates":[2.36666,48.8]}},{"properties":{"city":"Sucy-en-Brie","latitude":48.76666,"id":"a6249iwlbl2n","users":1422,"longitude":2.53333},"type":"Feature","geometry":{"type":"Point","coordinates":[2.53333,48.76666]}},{"properties":{"city":"Cergy","latitude":49.03333,"id":"a6249ima1x05","users":9371,"longitude":2.06666},"type":"Feature","geometry":{"type":"Point","coordinates":[2.06666,49.03333]}},{"properties":{"city":"Argenteuil","latitude":48.95,"id":"a6249inxxa54","users":8404,"longitude":2.25},"type":"Feature","geometry":{"type":"Point","coordinates":[2.25,48.95]}},{"properties":{"city":"Sannois","latitude":48.96666,"id":"a6249ikyn5p8","users":1779,"longitude":2.25},"type":"Feature","geometry":{"type":"Point","coordinates":[2.25,48.96666]}},{"properties":{"city":"Ermont","latitude":48.98333,"id":"a6249ivhejdn","users":2248,"longitude":2.26666},"type":"Feature","geometry":{"type":"Point","coordinates":[2.26666,48.98333]}},{"properties":{"city":"Franconville","latitude":48.98333,"id":"a6249irief5s","users":3352,"longitude":2.23333},"type":"Feature","geometry":{"type":"Point","coordinates":[2.23333,48.98333]}},{"properties":{"city":"Garges-lès-Gonesse","latitude":48.96666,"id":"a6249imhp2a9","users":2277,"longitude":2.41666},"type":"Feature","geometry":{"type":"Point","coordinates":[2.41666,48.96666]}},{"properties":{"city":"Taverny","latitude":49.03333,"id":"a6249iqix8k0","users":2321,"longitude":2.21666},"type":"Feature","geometry":{"type":"Point","coordinates":[2.21666,49.03333]}},{"properties":{"city":"Montmorency","latitude":49.0,"id":"a6249irrhi95","users":1257,"longitude":2.33333},"type":"Feature","geometry":{"type":"Point","coordinates":[2.33333,49.0]}},{"properties":{"city":"Deuil-la-Barre","latitude":48.98333,"id":"a6249iouhh33","users":1377,"longitude":2.33333},"type":"Feature","geometry":{"type":"Point","coordinates":[2.33333,48.98333]}},{"properties":{"city":"Goussainville","latitude":49.01666,"id":"a6249io9sjwi","users":1969,"longitude":2.46666},"type":"Feature","geometry":{"type":"Point","coordinates":[2.46666,49.01666]}},{"properties":{"city":"Sarcelles","latitude":49.0,"id":"a6249ix33ihs","users":4606,"longitude":2.38333},"type":"Feature","geometry":{"type":"Point","coordinates":[2.38333,49.0]}},{"properties":{"city":"Saint-Gratien","latitude":48.96666,"id":"a6249ijefnxd","users":1315,"longitude":2.28333},"type":"Feature","geometry":{"type":"Point","coordinates":[2.28333,48.96666]}},{"properties":{"city":"Herblay","latitude":48.99083,"id":"a6249iregn6q","users":1893,"longitude":2.16752},"type":"Feature","geometry":{"type":"Point","coordinates":[2.16752,48.99083]}},{"properties":{"city":"Soisy-sous-Montmorency","latitude":48.98333,"id":"a6249iiph1jl","users":1118,"longitude":2.3},"type":"Feature","geometry":{"type":"Point","coordinates":[2.3,48.98333]}},{"properties":{"city":"Cormeilles-en-Parisis","latitude":48.98333,"id":"a6249ipxy6wv","users":1354,"longitude":2.2},"type":"Feature","geometry":{"type":"Point","coordinates":[2.2,48.98333]}},{"properties":{"city":"Jouy-le-Moutier","latitude":49.01666,"id":"a6249ivmf02s","users":1139,"longitude":2.03333},"type":"Feature","geometry":{"type":"Point","coordinates":[2.03333,49.01666]}},{"properties":{"city":"Pontoise","latitude":49.05,"id":"a6249iprjb0i","users":3162,"longitude":2.1},"type":"Feature","geometry":{"type":"Point","coordinates":[2.1,49.05]}},{"properties":{"city":"Saint-Ouen-l'Aumône","latitude":49.05,"id":"a6249iky0fk8","users":1395,"longitude":2.11666},"type":"Feature","geometry":{"type":"Point","coordinates":[2.11666,49.05]}},{"properties":{"city":"Domont","latitude":49.03333,"id":"a6249ikpmshy","users":1348,"longitude":2.33333},"type":"Feature","geometry":{"type":"Point","coordinates":[2.33333,49.03333]}},{"properties":{"city":"Persan","latitude":49.15,"id":"a6249ikxcerk","users":1061,"longitude":2.26666},"type":"Feature","geometry":{"type":"Point","coordinates":[2.26666,49.15]}},{"properties":{"city":"Montigny-lès-Cormeilles","latitude":48.98333,"id":"a6249imzldjm","users":1177,"longitude":2.18333},"type":"Feature","geometry":{"type":"Point","coordinates":[2.18333,48.98333]}},{"properties":{"city":"Villiers-le-Bel","latitude":49.0,"id":"a6249ivv7rw5","users":1368,"longitude":2.38333},"type":"Feature","geometry":{"type":"Point","coordinates":[2.38333,49.0]}},{"properties":{"city":"Gonesse","latitude":48.98681,"id":"a6249itf35h9","users":2409,"longitude":2.44845},"type":"Feature","geometry":{"type":"Point","coordinates":[2.44845,48.98681]}},{"properties":{"city":"Eaubonne","latitude":49.0,"id":"a6249ikkf89e","users":2021,"longitude":2.28333},"type":"Feature","geometry":{"type":"Point","coordinates":[2.28333,49.0]}},{"properties":{"city":"Éragny","latitude":49.01666,"id":"a6249iwkm57p","users":1272,"longitude":2.1},"type":"Feature","geometry":{"type":"Point","coordinates":[2.1,49.01666]}},{"properties":{"city":"Bezons","latitude":48.93333,"id":"a6249iwpfz7y","users":2071,"longitude":2.21666},"type":"Feature","geometry":{"type":"Point","coordinates":[2.21666,48.93333]}},{"properties":{"city":"Enghien-les-Bains","latitude":48.96666,"id":"a6249ivq6y9x","users":1282,"longitude":2.31666},"type":"Feature","geometry":{"type":"Point","coordinates":[2.31666,48.96666]}},{"properties":{"city":"Courbevoie","latitude":48.89742,"id":"a6249isdscn0","users":4089,"longitude":2.25597},"type":"Feature","geometry":{"type":"Point","coordinates":[2.25597,48.89742]}},{"properties":{"city":"Cayenne","latitude":4.9227,"id":"a6249injnffm","users":11271,"longitude":-52.3269},"type":"Feature","geometry":{"type":"Point","coordinates":[-52.3269,4.9227]}},{"properties":{"city":"Verdun","latitude":49.16004,"id":"a6249ixgqak8","users":3682,"longitude":5.3839},"type":"Feature","geometry":{"type":"Point","coordinates":[5.3839,49.16004]}},{"properties":{"city":"Mamoudzou","latitude":-12.78056,"id":"a6249is3n7gf","users":1274,"longitude":45.22778},"type":"Feature","geometry":{"type":"Point","coordinates":[45.22778,-12.78056]}},{"properties":{"city":"Pontault-Combault","latitude":48.79372,"id":"a6249iysu3ar","users":1174,"longitude":2.60882},"type":"Feature","geometry":{"type":"Point","coordinates":[2.60882,48.79372]}},{"properties":{"city":"Berck","latitude":50.40888,"id":"a6249iyfng50","users":1109,"longitude":1.59333},"type":"Feature","geometry":{"type":"Point","coordinates":[1.59333,50.40888]}},{"properties":{"city":"Kourou","latitude":5.16194,"id":"a6249im8shi6","users":1539,"longitude":-52.64537},"type":"Feature","geometry":{"type":"Point","coordinates":[-52.64537,5.16194]}}],"is_temporal":false,"author":{"url":"","metadata":"","contact_name":"","contact_address":"","source":"","contact_phone":""},"source":"","pagination":{"sort":null,"start":0,"total":854,"limit":1000000},"state":"complete","tags":"","published":"2014-08-13T03:51:36-04:00","id":114661}