{"type":"FeatureCollection","data_type":"Dataset","url_type":null,"permissions":[{"permissions":{"download":true,"view":true},"group_id":"everyone"}],"classification":null,"title":"geocomm","count":49,"stream_id":114764,"contributor":{"url":"http://geocommons.com/users/26569","name":"Bouvant"},"data_attributes":null,"calculation_params":null,"icon_link":null,"link":"http://geocommons.com/overlays/114764.json","extent":[-123.618,26.2129,-71.4705,47.3073],"geometry_types":["point"],"unique_name":null,"name":"geocomm","feature_count":49,"description":"","next_feature":null,"is_raster":false,"short_classification":"Y","stats":{"volume":{"max":6229000000,"mean":810102040.816326,"variance":1.06671476020408e+18,"stdev":1032818841.90989,"min":0,"median":524000000}},"features":[{"properties":{"city":"ACWORTH","geo_score":0.857,"volume":1400000000,"id":"a7bhcsf2hxfh","geo_precision":"city","state":"GA"},"type":"Feature","geometry":{"type":"Point","coordinates":[-84.673784,34.023398]}},{"properties":{"city":"ALLENTOWN","geo_score":0.857,"volume":729000000,"id":"a7bhcsdewhib","geo_precision":"city","state":"PA"},"type":"Feature","geometry":{"type":"Point","coordinates":[-75.490183,40.608431]}},{"properties":{"city":"AUBURN","geo_score":0.857,"volume":524000000,"id":"a7bhcsh64c12","geo_precision":"city","state":"WA"},"type":"Feature","geometry":{"type":"Point","coordinates":[-122.228453,47.307323]}},{"properties":{"city":"AURORA","geo_score":0.857,"volume":1679000000,"id":"a7bhcsk4q2df","geo_precision":"city","state":"CO"},"type":"Feature","geometry":{"type":"Point","coordinates":[-104.83192,39.729432]}},{"properties":{"city":"BELLINGHAM","geo_score":0.857,"volume":0,"id":"a7bhcsm32z4q","geo_precision":"city","state":"MA"},"type":"Feature","geometry":{"type":"Point","coordinates":[-71.470464,42.076501]}},{"properties":{"city":"BROOKLYN","geo_score":0.857,"volume":41000000,"id":"a7bhcslyzpv0","geo_precision":"city","state":"NY"},"type":"Feature","geometry":{"type":"Point","coordinates":[-78.748363,42.433118]}},{"properties":{"city":"CHARLESTON","geo_score":0.798,"volume":1409000000,"id":"a7bhcsgrmnfl","geo_precision":"city","state":"SC"},"type":"Feature","geometry":{"type":"Point","coordinates":[-79.970643,32.85712]}},{"properties":{"city":"CHESAPEAKE","geo_score":0.857,"volume":202000000,"id":"a7bhcsjoqard","geo_precision":"city","state":"VA"},"type":"Feature","geometry":{"type":"Point","coordinates":[-76.218759,36.749991]}},{"properties":{"city":"CHINO","geo_score":0.857,"volume":6229000000,"id":"a7bhcsq7flt8","geo_precision":"city","state":"CA"},"type":"Feature","geometry":{"type":"Point","coordinates":[-115.967051,34.839964]}},{"properties":{"city":"COLUMBIA","geo_score":0.857,"volume":957000000,"id":"a7bhcsoasn7a","geo_precision":"city","state":"MD"},"type":"Feature","geometry":{"type":"Point","coordinates":[-76.887905,39.206132]}},{"properties":{"city":"DALLAS","geo_score":0.857,"volume":159000000,"id":"a7bhcsjepgqz","geo_precision":"city","state":"TX"},"type":"Feature","geometry":{"type":"Point","coordinates":[-96.806667,32.783056]}},{"properties":{"city":"DARTMOUTH","geo_score":0.663,"volume":1043000000,"id":"a7bhcsgzjq51","geo_precision":"city","state":"Nova Scotia"},"type":"Feature","geometry":{"type":"Point","coordinates":[-75.510755,39.833445]}},{"properties":{"city":"ELK GROVE","geo_score":0.768,"volume":1040000000,"id":"a7bhcsf48bvm","geo_precision":"city","state":"CA"},"type":"Feature","geometry":{"type":"Point","coordinates":[-123.618031,39.076371]}},{"properties":{"city":"FARMINGTON","geo_score":0.805,"volume":249000000,"id":"a7bhcsgmhy0b","geo_precision":"city","state":"NY"},"type":"Feature","geometry":{"type":"Point","coordinates":[-73.601772,40.754757]}},{"properties":{"city":"FREDERICK","geo_score":0.813,"volume":245000000,"id":"a7bhcsol444d","geo_precision":"city","state":"MD"},"type":"Feature","geometry":{"type":"Point","coordinates":[-75.883828,39.366223]}},{"properties":{"city":"GREENVILLE","geo_score":0.831,"volume":71000000,"id":"a7bhcsiarpl1","geo_precision":"city","state":"TN"},"type":"Feature","geometry":{"type":"Point","coordinates":[-86.040261,36.609773]}},{"properties":{"city":"HANOVER","geo_score":0.857,"volume":755000000,"id":"a7bhcspnlh83","geo_precision":"city","state":"MD"},"type":"Feature","geometry":{"type":"Point","coordinates":[-76.724137,39.192885]}},{"properties":{"city":"HARRISBURG","geo_score":0.857,"volume":297000000,"id":"a7bhcsjh3yut","geo_precision":"city","state":"NC"},"type":"Feature","geometry":{"type":"Point","coordinates":[-80.672368,35.353672]}},{"properties":{"city":"HOUSTON","geo_score":0.816,"volume":399000000,"id":"a7bhcsr2jpmm","geo_precision":"city","state":"TX"},"type":"Feature","geometry":{"type":"Point","coordinates":[-96.919704,29.845783]}},{"properties":{"city":"INDIANAPOLIS","geo_score":0.857,"volume":844000000,"id":"a7bhcsmatc3n","geo_precision":"city","state":"IN"},"type":"Feature","geometry":{"type":"Point","coordinates":[-86.158042,39.768377]}},{"properties":{"city":"LAKELAND","geo_score":0.857,"volume":356000000,"id":"a7bhcss50qa7","geo_precision":"city","state":"FL"},"type":"Feature","geometry":{"type":"Point","coordinates":[-81.949804,28.039465]}},{"properties":{"city":"LANGLEY","geo_score":0.714,"volume":1801000000,"id":"a7bhcsfa8e5l","geo_precision":"city","state":"British Columbia"},"type":"Feature","geometry":{"type":"Point","coordinates":[-97.962827,38.546675]}},{"properties":{"city":"LAWRENCEVILLE","geo_score":0.857,"volume":1270000000,"id":"a7bhcsqjtop3","geo_precision":"city","state":"GA"},"type":"Feature","geometry":{"type":"Point","coordinates":[-83.987963,33.956215]}},{"properties":{"city":"LOXLEY","geo_score":0.857,"volume":36000000,"id":"a7bhcsmu1fxl","geo_precision":"city","state":"AL"},"type":"Feature","geometry":{"type":"Point","coordinates":[-87.667604,30.513519]}},{"properties":{"city":"MAHWAH","geo_score":0.857,"volume":147000000,"id":"a7bhcspyq9b6","geo_precision":"city","state":"NJ"},"type":"Feature","geometry":{"type":"Point","coordinates":[-74.172766,41.053446]}},{"properties":{"city":"MILTON","geo_score":0.714,"volume":1768000000,"id":"a7bhcsizc25o","geo_precision":"city","state":"Ontario"},"type":"Feature","geometry":{"type":"Point","coordinates":[-86.807207,32.558744]}},{"properties":{"city":"Montreal","geo_score":0.714,"volume":769000000,"id":"a7bhcsdu55gz","geo_precision":"city","state":"Quebec"},"type":"Feature","geometry":{"type":"Point","coordinates":[-94.348548,35.117596]}},{"properties":{"city":"NEW LENOX","geo_score":0.857,"volume":1140000000,"id":"a7bhcskc25v6","geo_precision":"city","state":"IL"},"type":"Feature","geometry":{"type":"Point","coordinates":[-87.961808,41.510802]}},{"properties":{"city":"NORTHBOROUGH","geo_score":0.773,"volume":36000000,"id":"a7bhcsgoqwar","geo_precision":"city","state":"MA"},"type":"Feature","geometry":{"type":"Point","coordinates":[-71.672568,42.134818]}},{"properties":{"city":"NOVATO","geo_score":0.857,"volume":555000000,"id":"a7bhcseo9vgv","geo_precision":"city","state":"CA"},"type":"Feature","geometry":{"type":"Point","coordinates":[-122.540951,38.027654]}},{"properties":{"city":"ONTARIO","geo_score":0.857,"volume":3274000000,"id":"a7bhcssvrau9","geo_precision":"city","state":"CA"},"type":"Feature","geometry":{"type":"Point","coordinates":[-117.650888,34.063344]}},{"properties":{"city":"OPELOUSAS","geo_score":0.857,"volume":264000000,"id":"a7bhcsle8w08","geo_precision":"city","state":"LA"},"type":"Feature","geometry":{"type":"Point","coordinates":[-92.00983,30.529765]}},{"properties":{"city":"ORLANDO","geo_score":0.857,"volume":294000000,"id":"a7bhcsh8sxna","geo_precision":"city","state":"FL"},"type":"Feature","geometry":{"type":"Point","coordinates":[-81.379237,28.538336]}},{"properties":{"city":"RAMSEY","geo_score":0.857,"volume":40000000,"id":"a7bhcsnuvd8d","geo_precision":"city","state":"NJ"},"type":"Feature","geometry":{"type":"Point","coordinates":[-74.133441,41.059124]}},{"properties":{"city":"RANDOLPH","geo_score":0.857,"volume":1656000000,"id":"a7bhcsfpzbc9","geo_precision":"city","state":"NJ"},"type":"Feature","geometry":{"type":"Point","coordinates":[-74.586052,40.837399]}},{"properties":{"city":"ROSEVILLE","geo_score":0.857,"volume":576000000,"id":"a7bhcstd83ag","geo_precision":"city","state":"CA"},"type":"Feature","geometry":{"type":"Point","coordinates":[-121.25603,38.74073]}},{"properties":{"city":"SAN RAFAEL","geo_score":0.857,"volume":90000000,"id":"a7bhcsiheiw2","geo_precision":"city","state":"CA"},"type":"Feature","geometry":{"type":"Point","coordinates":[-122.531087,37.973535]}},{"properties":{"city":"SHREVEPORT","geo_score":0.857,"volume":40000000,"id":"a7bhcsdehqb3","geo_precision":"city","state":"LA"},"type":"Feature","geometry":{"type":"Point","coordinates":[-93.750179,32.525152]}},{"properties":{"city":"SUMNER","geo_score":0.857,"volume":1881000000,"id":"a7bhcslqio1u","geo_precision":"city","state":"WA"},"type":"Feature","geometry":{"type":"Point","coordinates":[-122.113223,47.066193]}},{"properties":{"city":"TALLMAN","geo_score":0.857,"volume":163000000,"id":"a7bhcsn2mayl","geo_precision":"city","state":"NY"},"type":"Feature","geometry":{"type":"Point","coordinates":[-74.060826,41.160945]}},{"properties":{"city":"Tamarac","geo_score":0.857,"volume":40000000,"id":"a7bhcsj6wb7y","geo_precision":"city","state":"FL"},"type":"Feature","geometry":{"type":"Point","coordinates":[-80.249771,26.212861]}},{"properties":{"city":"TAYLOR","geo_score":0.714,"volume":779000000,"id":"a7bhcsptoqf3","geo_precision":"city","state":"MI"},"type":"Feature","geometry":{"type":"Point","coordinates":[-83.11659,42.295872]}},{"properties":{"city":"TOLLESON","geo_score":0.857,"volume":449000000,"id":"a7bhcsp8ssje","geo_precision":"city","state":"AZ"},"type":"Feature","geometry":{"type":"Point","coordinates":[-112.18717,33.276539]}},{"properties":{"city":"UNIVERSITY PARK","geo_score":0.857,"volume":188000000,"id":"a7bhcsskihea","geo_precision":"city","state":"IL"},"type":"Feature","geometry":{"type":"Point","coordinates":[-87.685325,41.592257]}},{"properties":{"city":"WEEHAWKEN","geo_score":0.857,"volume":320000000,"id":"a7bhcsizd6f9","geo_precision":"city","state":"NJ"},"type":"Feature","geometry":{"type":"Point","coordinates":[-74.020418,40.769546]}},{"properties":{"city":"WELLFORD","geo_score":0.857,"volume":1141000000,"id":"a7bhcselbs4v","geo_precision":"city","state":"SC"},"type":"Feature","geometry":{"type":"Point","coordinates":[-82.009137,34.834143]}},{"properties":{"city":"WINDSOR LOCKS","geo_score":0.798,"volume":1024000000,"id":"a7bhcsllb4mp","geo_precision":"city","state":"CT"},"type":"Feature","geometry":{"type":"Point","coordinates":[-72.535365,41.890931]}},{"properties":{"city":"WYOMING","geo_score":0.857,"volume":395000000,"id":"a7bhcsiwf8kx","geo_precision":"city","state":"MI"},"type":"Feature","geometry":{"type":"Point","coordinates":[-85.705309,42.91336]}},{"properties":{"city":"ZEELAND","geo_score":0.857,"volume":931000000,"id":"a7bhcsl2coos","geo_precision":"city","state":"MI"},"type":"Feature","geometry":{"type":"Point","coordinates":[-85.969722,42.869816]}}],"is_temporal":false,"author":{"url":"","metadata":"","contact_name":"","contact_address":"","source":"","contact_phone":""},"source":"","pagination":{"sort":null,"start":0,"total":49,"limit":1000000},"state":"complete","tags":"","published":"2014-08-13T03:58:13-04:00","id":114764}