{"type":"FeatureCollection","data_type":"Dataset","url_type":null,"permissions":[{"permissions":{"download":true,"view":true},"group_id":"everyone"}],"classification":null,"title":"CA LF","count":129,"stream_id":114959,"contributor":{"url":"http://geocommons.com/users/26609","name":"mmeisel"},"data_attributes":null,"calculation_params":null,"icon_link":null,"link":"http://geocommons.com/overlays/114959.json","extent":[-123.139,32.5979,-114.6,41.7115],"geometry_types":["point"],"unique_name":null,"name":"CA LF","feature_count":129,"description":"","next_feature":null,"is_raster":false,"short_classification":"Y","stats":{"close date":{"max":104462,"mean":49077.3258426966,"variance":103588728.699438,"stdev":10177.8548181549,"min":40542,"median":46022},"remaining capacity (tons)":{"max":99100000,"mean":5686386.86046512,"variance":175272425857876.0,"stdev":13239049.2807405,"min":185,"median":1340000},"start date":{"max":36326,"mean":29507.8067226891,"variance":11378190.3606324,"stdev":3373.15732817673,"min":14853,"median":29056},"$/ ton":{"max":114.0,"mean":42.371472868217,"variance":325.972820469961,"stdev":18.0547174021074,"min":0.0,"median":39.5},"acres":{"max":2600,"mean":302.643410852713,"variance":164725.168725775,"stdev":405.863485331922,"min":0,"median":157},"latitude":{"max":41.711528,"mean":36.1054892015504,"variance":5.29947130059808,"stdev":2.30205805760804,"min":32.597911,"median":36.019253},"tons /day":{"max":8009.79,"mean":750.813100775194,"variance":1857722.15230594,"stdev":1362.98281438393,"min":0.06,"median":220.62},"longitude":{"max":-114.6,"mean":-119.366451674419,"variance":5.3460780951888,"stdev":2.31215875215972,"min":-123.139252,"median":-119.45}},"features":[{"properties":{"close date":47484,"remaining capacity (tons)":2980000,"city":"Imperial","start date":28769,"$/ ton":45.0,"acres":230,"latitude":32.854491,"code":"CA0588","county":"Imperial","volume-weighted tip fee":"22116.15","waste shed":"Regional Waste District","type":"LF","tons /day":491.47,"access":"Highway","longitude":-115.532664,"facility name":"Allied Imperial Landfill","id":"a62vyhmowvcm","map label":"CA-8","group":"LF","state":"CA","location":"104 East Robinson Rd, Dogwood @ Robinson Roads"},"type":"Feature","geometry":{"type":"Point","coordinates":[-115.532664,32.854491]}},{"properties":{"close date":70494,"remaining capacity (tons)":99100000,"city":"Livermore","start date":32840,"$/ ton":55.5,"acres":1528,"latitude":37.746317,"code":"CA0297","county":"Alameda","volume-weighted tip fee":"183256.005","waste shed":"Regional Waste District","type":"LF","tons /day":3301.91,"access":"Highway, Rail","longitude":-121.657961,"facility name":"Altamont Sanitary Landfill &amp; Resource Recovery","id":"a62vyhw8idc7","map label":"CA-9","group":"LF","state":"CA","location":"10840 Altamont Pass Road"},"type":"Feature","geometry":{"type":"Point","coordinates":[-121.657961,37.746317]}},{"properties":{"close date":46387,"remaining capacity (tons)":6350000,"city":"Kerman","start date":31792,"$/ ton":21.6,"acres":440,"latitude":36.66192,"code":"CA0015","county":"Fresno","volume-weighted tip fee":"22697.064","waste shed":"County/Metro. Exclusive","type":"LF","tons /day":1050.79,"access":"Highway","longitude":-120.1044,"facility name":"American Avenue Landfill","id":"a62vyhroqsat","map label":"CA-10","group":"LF","state":"CA","location":"18950 W American Avenue"},"type":"Feature","geometry":{"type":"Point","coordinates":[-120.1044,36.66192]}},{"properties":{"close date":null,"remaining capacity (tons)":3090000,"city":"Anderson","start date":33568,"$/ ton":38.75,"acres":1200,"latitude":40.418796,"code":"CA0180","county":"Shasta","volume-weighted tip fee":"20277.1","waste shed":"County/Metro.","type":"LF","tons /day":523.28,"access":"Highway, Rail","longitude":-122.366064,"facility name":"Anderson Landfill","id":"a62vyhy5q0jl","map label":"CA-11","group":"LF","state":"CA","location":"18703 Cambridge Road"},"type":"Feature","geometry":{"type":"Point","coordinates":[-122.366064,40.418796]}},{"properties":{"close date":null,"remaining capacity (tons)":7140000,"city":"Palmdale","start date":29000,"$/ ton":50.0,"acres":57,"latitude":34.57039,"code":"CA0049","county":"Los Angeles","volume-weighted tip fee":"27798.5","waste shed":"County/Metro. Exclusive","type":"LF","tons /day":555.97,"access":"Highway, Rail","longitude":-118.14466,"facility name":"Antelope Valley Landfill","id":"a62vyhxchv0l","map label":"CA-12","group":"LF","state":"CA","location":"1200 West City Ranch Road"},"type":"Feature","geometry":{"type":"Point","coordinates":[-118.14466,34.57039]}},{"properties":{"close date":null,"remaining capacity (tons)":10100,"city":"Apple Valley","start date":28992,"$/ ton":41.47,"acres":128,"latitude":34.498182,"code":"CA0130","county":"San Bernardino","volume-weighted tip fee":"165.88","waste shed":"County/Metro. Exclusive","type":"LF","tons /day":4.0,"access":"Highway","longitude":-117.110109,"facility name":"Apple Valley Collection Site","id":"a62vyhr61pxm","map label":"CA-13","group":"LF","state":"CA","location":"13401 Laguna Seca Dr., 3 mi E of Hwy 18"},"type":"Feature","geometry":{"type":"Point","coordinates":[-117.110109,34.498182]}},{"properties":{"close date":46022,"remaining capacity (tons)":11300000,"city":"Avenal","start date":31443,"$/ ton":35.55,"acres":159,"latitude":36.007186,"code":"CA0595","county":"Kings","volume-weighted tip fee":"78054.6465","waste shed":"County/Metro. Exclusive","type":"LF","tons /day":2195.63,"access":"Highway","longitude":-120.123745,"facility name":"Avenal Landfill","id":"a62vyhuguq5b","map label":"CA-14","group":"LF","state":"CA","location":"919 Skyline Blvd."},"type":"Feature","geometry":{"type":"Point","coordinates":[-120.123745,36.007186]}},{"properties":{"close date":43465,"remaining capacity (tons)":4510000,"city":"Moreno Valley","start date":24253,"$/ ton":34.33,"acres":1093,"latitude":33.946416,"code":"CA0102","county":"Riverside","volume-weighted tip fee":"55537.0142","waste shed":"Regional Waste District","type":"LF","tons /day":1617.74,"access":"Highway","longitude":-117.148168,"facility name":"Badlands Disposal Site Landfill","id":"a62vyhwzaqax","map label":"CA-16","group":"LF","state":"CA","location":"Ironwood Avenue"},"type":"Feature","geometry":{"type":"Point","coordinates":[-117.148168,33.946416]}},{"properties":{"close date":58806,"remaining capacity (tons)":23900000,"city":"Edison","start date":33711,"$/ ton":39.5,"acres":2285,"latitude":35.35,"code":"CA0594","county":"Kern","volume-weighted tip fee":"50315.495","waste shed":"County/Metro.","type":"LF","tons /day":1273.81,"access":"Highway","longitude":-118.75,"facility name":"Bakersfield Metropolitan (BENA) Sanitary Landfill","id":"a62vyhm9mc2m","map label":"CA-17","group":"LF","state":"CA","location":"Highway 58/Tower Line Road, 17 mi E of Bakersfield"},"type":"Feature","geometry":{"type":"Point","coordinates":[-118.75,35.35]}},{"properties":{"close date":44561,"remaining capacity (tons)":883000,"city":"Barstow","start date":28992,"$/ ton":41.47,"acres":640,"latitude":34.892437,"code":"CA0129","county":"San Bernardino","volume-weighted tip fee":"8172.0782","waste shed":"County/Metro. Exclusive","type":"LF","tons /day":197.06,"access":"Highway","longitude":-117.022815,"facility name":"Barstow Refuse Disposal Site Landfill","id":"a62vyhwtsgaq","map label":"CA-18","group":"LF","state":"CA","location":"32553 Barstow Road, 5 miles S of Barstow"},"type":"Feature","geometry":{"type":"Point","coordinates":[-117.022815,34.892437]}},{"properties":{"close date":null,"remaining capacity (tons)":456000,"city":"Susanville","start date":32843,"$/ ton":59.4,"acres":200,"latitude":40.383334,"code":"CA0455","county":"Lassen","volume-weighted tip fee":"3166.614","waste shed":"County/Metro. Exclusive","type":"LF","tons /day":53.31,"access":"Highway","longitude":-120.583334,"facility name":"Bass Hill Landfill","id":"a62vyhvvr7q8","map label":"CA-19","group":"LF","state":"CA","location":"Hwy 395 Johnstonville Area"},"type":"Feature","geometry":{"type":"Point","coordinates":[-120.583334,40.383334]}},{"properties":{"close date":41274,"remaining capacity (tons)":130000,"city":"Crowley Lake","start date":28685,"$/ ton":39.5,"acres":90,"latitude":37.816667,"code":"CA0083","county":"Mono","volume-weighted tip fee":"1823.32","waste shed":"County/Metro. Exclusive","type":"LF","tons /day":46.16,"access":"Highway","longitude":-118.466667,"facility name":"Benton Crossing Landfill","id":"a62vyho86cvv","map label":"CA-20","group":"LF","state":"CA","location":"Pit Rd"},"type":"Feature","geometry":{"type":"Point","coordinates":[-118.466667,37.816667]}},{"properties":{"close date":40542,"remaining capacity (tons)":49100,"city":"Los Banos","start date":32269,"$/ ton":35.15,"acres":87,"latitude":37.040074,"code":"CA0081","county":"Merced","volume-weighted tip fee":"4789.8905","waste shed":"County/Metro. Exclusive","type":"LF","tons /day":136.27,"access":"Highway","longitude":-120.967737,"facility name":"Billy Wright Dump Site Landfill","id":"a62vyhks1oi6","map label":"CA-21","group":"LF","state":"CA","location":"17173 Billy Wright Rd"},"type":"Feature","geometry":{"type":"Point","coordinates":[-120.967737,37.040074]}},{"properties":{"close date":42369,"remaining capacity (tons)":21500,"city":"Independence","start date":28790,"$/ ton":27.0,"acres":118,"latitude":37.366667,"code":"CA0449","county":"Inyo","volume-weighted tip fee":"1440.99","waste shed":"County/Metro. Exclusive","type":"LF","tons /day":53.37,"access":"Highway","longitude":-118.4,"facility name":"Bishop-Sunland Landfill","id":"a62vyhxurwhs","map label":"CA-22","group":"LF","state":"CA","location":"S End of City off Sunland Reservation Rd"},"type":"Feature","geometry":{"type":"Point","coordinates":[-118.4,37.366667]}},{"properties":{"close date":48944,"remaining capacity (tons)":190000,"city":"Blythe","start date":27961,"$/ ton":34.33,"acres":335,"latitude":33.616667,"code":"CA0100","county":"Riverside","volume-weighted tip fee":"2037.4855","waste shed":"County/Metro. Exclusive","type":"LF","tons /day":59.35,"access":"Highway","longitude":-114.6,"facility name":"Blythe Sanitary Landfill","id":"a62vyhlfiaqo","map label":"CA-23","group":"LF","state":"CA","location":"1000 Midland Road"},"type":"Feature","geometry":{"type":"Point","coordinates":[-114.6,33.616667]}},{"properties":{"close date":42735,"remaining capacity (tons)":45200,"city":"Borrego Springs","start date":26995,"$/ ton":35.0,"acres":42,"latitude":33.25801,"code":"CA0459","county":"San Diego","volume-weighted tip fee":"855.05","waste shed":"County/Metro. Exclusive","type":"LF","tons /day":24.43,"access":"Highway","longitude":-116.301931,"facility name":"Borrego Springs Landfill &amp; MRF","id":"a62vyhwg7der","map label":"CA-26","group":"LF","state":"CA","location":"2449 Palm Canyon Road"},"type":"Feature","geometry":{"type":"Point","coordinates":[-116.301931,33.25801]}},{"properties":{"close date":null,"remaining capacity (tons)":376000,"city":"Brawley","start date":29056,"$/ ton":25.0,"acres":52,"latitude":32.983334,"code":"CA0024","county":"Imperial","volume-weighted tip fee":"1424","waste shed":"County/Metro.","type":"LF","tons /day":56.96,"access":"Highway","longitude":-115.533334,"facility name":"Brawley Disposal Site Landfill","id":"a62vyhpsjcdh","map label":"CA-28","group":"LF","state":"CA","location":"Hovley Road South of Fredricks Rd"},"type":"Feature","geometry":{"type":"Point","coordinates":[-115.533334,32.983334]}},{"properties":{"close date":43829,"remaining capacity (tons)":748000,"city":"Watsonville","start date":31220,"$/ ton":51.5,"acres":72,"latitude":36.916637,"code":"CA0179","county":"Santa Cruz","volume-weighted tip fee":"10218.63","waste shed":"County/Metro. Exclusive","type":"LF","tons /day":198.42,"access":"Highway","longitude":-121.821858,"facility name":"Buena Vista Disposal Site Landfill","id":"a62vyhm5emfc","map label":"CA-30","group":"LF","state":"CA","location":"1231 Buena Vista Drive, 1 Mile South of Highway 1"},"type":"Feature","geometry":{"type":"Point","coordinates":[-121.821858,36.916637]}},{"properties":{"close date":null,"remaining capacity (tons)":576000,"city":"Ione","start date":28867,"$/ ton":49.5,"acres":113,"latitude":38.268953,"code":"CA0298","county":"Amador","volume-weighted tip fee":"3733.29","waste shed":"County/Metro. Exclusive","type":"LF","tons /day":75.42,"access":"Highway","longitude":-120.928928,"facility name":"Buena Vista Landfill","id":"a62vyht03c03","map label":"CA-31","group":"LF","state":"CA","location":"6500 Buena Vista Road, 1 Mile S Hwy 88"},"type":"Feature","geometry":{"type":"Point","coordinates":[-120.928928,38.268953]}},{"properties":{"close date":53326,"remaining capacity (tons)":1300000,"city":"Burbank","start date":32486,"$/ ton":21.55,"acres":88,"latitude":34.20438,"code":"CA0052","county":"Los Angeles","volume-weighted tip fee":"3106.217","waste shed":"Exclusive or Captive","type":"LF","tons /day":144.14,"access":"Highway","longitude":-118.31335,"facility name":"Burbank Landfill","id":"a62vyhowbq34","map label":"CA-32","group":"LF","state":"CA","location":"1600 N Bel Aire Drive"},"type":"Feature","geometry":{"type":"Point","coordinates":[-118.31335,34.20438]}},{"properties":{"close date":null,"remaining capacity (tons)":8290000,"city":"Agoura","start date":32885,"$/ ton":38.88,"acres":500,"latitude":34.148636,"code":"CA0476","county":"Los Angeles","volume-weighted tip fee":"36687.168","waste shed":"County/Metro. Exclusive","type":"LF","tons /day":943.6,"access":"Highway","longitude":-118.71264,"facility name":"Calabasas Landfill","id":"a62vyho2dpvj","map label":"CA-33","group":"LF","state":"CA","location":"5300 Lost Hills Road, N of 101 Freeway"},"type":"Feature","geometry":{"type":"Point","coordinates":[-118.71264,34.148636]}},{"properties":{"close date":41640,"remaining capacity (tons)":11400,"city":"Calexico","start date":29056,"$/ ton":25.0,"acres":108,"latitude":32.666667,"code":"CA0021","county":"Imperial","volume-weighted tip fee":"484.5","waste shed":"County/Metro. Exclusive","type":"LF","tons /day":19.38,"access":"Highway","longitude":-115.5,"facility name":"Calexico Solid Waste Disposal Site","id":"a62vyhqht99u","map label":"CA-34","group":"LF","state":"CA","location":"133 W Hwy 98 (New River &amp; Hwy 98), 3 mi W of Calexico"},"type":"Feature","geometry":{"type":"Point","coordinates":[-115.5,32.666667]}},{"properties":{"close date":null,"remaining capacity (tons)":1980000,"city":"Redlands","start date":28748,"$/ ton":0.0,"acres":155,"latitude":34.066667,"code":"CA0122","county":"San Bernardino","volume-weighted tip fee":"#VALUE!","waste shed":"Exclusive or Captive","type":"LF","tons /day":255.23,"access":"Highway","longitude":-117.166667,"facility name":"California Street Landfill","id":"a62vyhykaf3c","map label":"CA-35","group":"LF","state":"CA","location":"N Most End Of California Street"},"type":"Feature","geometry":{"type":"Point","coordinates":[-117.166667,34.066667]}},{"properties":{"close date":null,"remaining capacity (tons)":2410000,"city":"Fresno","start date":28698,"$/ ton":50.0,"acres":39,"latitude":36.686691,"code":"CA0583","county":"Fresno","volume-weighted tip fee":"11139.5","waste shed":"County/Metro.","type":"LF","tons /day":222.79,"access":"Highway","longitude":-119.755622,"facility name":"Cedar Avenue Recycling &amp; Transfer Station","id":"a62vyhzelrdm","map label":"CA-39","group":"LF","state":"CA","location":"3457 S Cedar Ave"},"type":"Feature","geometry":{"type":"Point","coordinates":[-119.755622,36.686691]}},{"properties":{"close date":null,"remaining capacity (tons)":5940000,"city":"Petaluma","start date":33316,"$/ ton":92.8,"acres":389,"latitude":38.233334,"code":"CA0191","county":"Sonoma","volume-weighted tip fee":"69653.824","waste shed":"County/Metro. Exclusive","type":"LF","tons /day":750.58,"access":"Highway","longitude":-122.616667,"facility name":"Central Landfill","id":"a62vyi04u5yj","map label":"CA-40","group":"LF","state":"CA","location":"500 Mecham Road"},"type":"Feature","geometry":{"type":"Point","coordinates":[-122.616667,38.233334]}},{"properties":{"close date":53692,"remaining capacity (tons)":2350000,"city":"Templeton","start date":31701,"$/ ton":45.0,"acres":45,"latitude":35.521757,"code":"CA0160","county":"San Luis Obispo","volume-weighted tip fee":"8828.1","waste shed":"County/Metro.","type":"LF","tons /day":196.18,"access":"Highway","longitude":-120.641158,"facility name":"Chicago Grade Landfill","id":"a62vyhwn9u5x","map label":"CA-43","group":"LF","state":"CA","location":"2290 Homestead Road"},"type":"Feature","geometry":{"type":"Point","coordinates":[-120.641158,35.521757]}},{"properties":{"close date":null,"remaining capacity (tons)":7240,"city":"China Lake","start date":null,"$/ ton":0.0,"acres":0,"latitude":35.65,"code":"CA0042","county":"Kern","volume-weighted tip fee":"#VALUE!","waste shed":"Exclusive or Captive","type":"LF","tons /day":1.0,"access":"Highway","longitude":-117.666667,"facility name":"China Lake Landfill (EOD #1 &amp; 2)","id":"a62vyhmu7vb2","map label":"CA-44","group":"LF","state":"CA","location":"1 Administrative Circle"},"type":"Feature","geometry":{"type":"Point","coordinates":[-117.666667,35.65]}},{"properties":{"close date":43830,"remaining capacity (tons)":16200000,"city":"Valencia","start date":31902,"$/ ton":57.0,"acres":592,"latitude":34.424165,"code":"CA0055","county":"Los Angeles","volume-weighted tip fee":"155857.95","waste shed":"Regional Waste District","type":"LF","tons /day":2734.35,"access":"Highway, Rail","longitude":-118.643017,"facility name":"Chiquita Canyon SLF","id":"a62vyhumj10g","map label":"CA-45","group":"LF","state":"CA","location":"29201 Henry Mayo Drive"},"type":"Feature","geometry":{"type":"Point","coordinates":[-118.643017,34.424165]}},{"properties":{"close date":53693,"remaining capacity (tons)":1050000,"city":"Lompoc","start date":33709,"$/ ton":64.0,"acres":115,"latitude":34.65,"code":"CA0166","county":"Santa Barbara","volume-weighted tip fee":"5683.2","waste shed":"County/Metro.","type":"LF","tons /day":88.8,"access":"Highway","longitude":-120.466667,"facility name":"City of Lompoc Sanitary Landfill","id":"a62vyhwl4v8i","map label":"CA-46","group":"LF","state":"CA","location":"2 1/2 mi Sw Lompoc; Off W Olive Ave, Avalon Rd"},"type":"Feature","geometry":{"type":"Point","coordinates":[-120.466667,34.65]}},{"properties":{"close date":null,"remaining capacity (tons)":65800,"city":"Rialto","start date":null,"$/ ton":0.0,"acres":4,"latitude":34.055812,"code":"CA4561","county":"San Bernardino","volume-weighted tip fee":"#VALUE!","waste shed":null,"type":"LF","tons /day":13.63,"access":"Highway","longitude":-117.364334,"facility name":"City Of Rialto Disposal Site (Inactive)","id":"a62vyi0tsjkr","map label":"CA-47","group":"LF","state":"CA","location":"501 East Santa Ana Avenue"},"type":"Feature","geometry":{"type":"Point","coordinates":[-117.364334,34.055812]}},{"properties":{"close date":null,"remaining capacity (tons)":463000,"city":"Ukiah","start date":28996,"$/ ton":71.0,"acres":283,"latitude":39.162839,"code":"CA0078","county":"Mendocino","volume-weighted tip fee":"7100","waste shed":"County/Metro. Exclusive","type":"LF","tons /day":100.0,"access":"Highway","longitude":-123.139252,"facility name":"City of Ukiah Solid Waste Disposal Site","id":"a62vyhkx0uxh","map label":"CA-48","group":"LF","state":"CA","location":"3100 Vichy Springs Road, 3 mi SW of Ukiah"},"type":"Feature","geometry":{"type":"Point","coordinates":[-123.139252,39.162839]}},{"properties":{"close date":40907,"remaining capacity (tons)":16700,"city":"Coalinga","start date":28608,"$/ ton":35.9,"acres":120,"latitude":36.108139,"code":"CA0014","county":"Fresno","volume-weighted tip fee":"1372.098","waste shed":"County/Metro. Exclusive","type":"LF","tons /day":38.22,"access":"Highway","longitude":-120.271767,"facility name":"Coalinga Disposal Site Landfill","id":"a62vyhxabx90","map label":"CA-50","group":"LF","state":"CA","location":"30825 Lost Hills Road, 3 miles East of Hwy 198"},"type":"Feature","geometry":{"type":"Point","coordinates":[-120.271767,36.108139]}},{"properties":{"close date":null,"remaining capacity (tons)":3480000,"city":"San Luis Obispo","start date":29083,"$/ ton":48.0,"acres":121,"latitude":35.183749,"code":"CA0159","county":"San Luis Obispo","volume-weighted tip fee":"17013.12","waste shed":"County/Metro.","type":"LF","tons /day":354.44,"access":"Highway","longitude":-120.597419,"facility name":"Cold Canyon Landfill","id":"a62vyhx95xqk","map label":"CA-51","group":"LF","state":"CA","location":"2268 Carpenter Canyon Road, (off State Hwy 227)"},"type":"Feature","geometry":{"type":"Point","coordinates":[-120.597419,35.183749]}},{"properties":{"close date":null,"remaining capacity (tons)":3540000,"city":"Colton","start date":29035,"$/ ton":41.47,"acres":95,"latitude":34.045992,"code":"CA0133","county":"San Bernardino","volume-weighted tip fee":"22583.7326","waste shed":"County/Metro. Exclusive","type":"LF","tons /day":544.58,"access":"Highway","longitude":-117.343133,"facility name":"Colton Refuse Disposal Site Landfill","id":"a62vyhu3ct4e","map label":"CA-52","group":"LF","state":"CA","location":"850 Tropica Rancho Rd, 1/2 Mi W of La Cadena"},"type":"Feature","geometry":{"type":"Point","coordinates":[-117.343133,34.045992]}},{"properties":{"close date":null,"remaining capacity (tons)":5380000,"city":"Prunedale","start date":30567,"$/ ton":63.0,"acres":160,"latitude":36.783334,"code":"CA0087","county":"Monterey","volume-weighted tip fee":"48014.82","waste shed":"County/Metro.","type":"LF","tons /day":762.14,"access":"Highway, Rail","longitude":-121.666667,"facility name":"Crazy Horse Canyon Landfill","id":"a62vyhvzd5x7","map label":"CA-53","group":"LF","state":"CA","location":"350 Crazy Horse Rd, N of Prunedale"},"type":"Feature","geometry":{"type":"Point","coordinates":[-121.666667,36.783334]}},{"properties":{"close date":47195,"remaining capacity (tons)":185,"city":"Desert Center","start date":33253,"$/ ton":31.91,"acres":160,"latitude":33.795396,"code":"CA0110","county":"Riverside","volume-weighted tip fee":"1.9146","waste shed":"County/Metro. Exclusive","type":"LF","tons /day":0.06,"access":"Highway","longitude":-115.40102,"facility name":"Desert Center Landfill","id":"a62vyhysw5s7","map label":"CA-55","group":"LF","state":"CA","location":"17-991 Kaiser Road"},"type":"Feature","geometry":{"type":"Point","coordinates":[-115.40102,33.795396]}},{"properties":{"close date":null,"remaining capacity (tons)":393000,"city":"Sacramento","start date":null,"$/ ton":30.0,"acres":0,"latitude":38.533871,"code":"CA4306","county":"Sacramento","volume-weighted tip fee":"1398.9","waste shed":"County/Metro.","type":"LF","tons /day":46.63,"access":"Highway","longitude":-121.409165,"facility name":"Dixon Pit Landfill","id":"a62vyhurtv0e","map label":"CA-56","group":"LF","state":"CA","location":"4600 Power Inn Road"},"type":"Feature","geometry":{"type":"Point","coordinates":[-121.409165,38.533871]}},{"properties":{"close date":44195,"remaining capacity (tons)":1020000,"city":"Clearlake","start date":28790,"$/ ton":37.0,"acres":55,"latitude":38.954416,"code":"CA0596","county":"Lake","volume-weighted tip fee":"5244.01","waste shed":"County/Metro.","type":"LF","tons /day":141.73,"access":"Highway, Rail","longitude":-122.614497,"facility name":"Eastlake Sanitary Landfill","id":"a62vyhvlm3qw","map label":"CA-57","group":"LF","state":"CA","location":"16015 Davis Ave"},"type":"Feature","geometry":{"type":"Point","coordinates":[-122.614497,38.954416]}},{"properties":{"close date":49310,"remaining capacity (tons)":973000,"city":"Paso Robles","start date":31593,"$/ ton":46.85,"acres":80,"latitude":35.616667,"code":"CA0157","county":"San Luis Obispo","volume-weighted tip fee":"4819.928","waste shed":"County/Metro. Exclusive","type":"LF","tons /day":102.88,"access":"Highway","longitude":-120.683334,"facility name":"El Paso De Robles Landfill","id":"a62vyhrjxoaa","map label":"CA-59","group":"LF","state":"CA","location":"Hwy 46 E ~8.5 mi E of the Hwy 101/46"},"type":"Feature","geometry":{"type":"Point","coordinates":[-120.683334,35.616667]}},{"properties":{"close date":41274,"remaining capacity (tons)":7420000,"city":"Corona","start date":31560,"$/ ton":34.33,"acres":178,"latitude":33.784216,"code":"CA0114","county":"Riverside","volume-weighted tip fee":"197000.6452","waste shed":"Regional Waste District","type":"LF","tons /day":5738.44,"access":"Highway, Rail","longitude":-117.464008,"facility name":"El Sobrante Sanitary Landfill","id":"a62vyhv3klh0","map label":"CA-60","group":"LF","state":"CA","location":"10910 Dawson Canyon Road, Temescal Canyon Road"},"type":"Feature","geometry":{"type":"Point","coordinates":[-117.464008,33.784216]}},{"properties":{"close date":null,"remaining capacity (tons)":2610000,"city":"Chowchilla","start date":31419,"$/ ton":55.13,"acres":160,"latitude":37.065402,"code":"CA0067","county":"Madera","volume-weighted tip fee":"19090.9677","waste shed":"County/Metro. Exclusive","type":"LF","tons /day":346.29,"access":"Highway","longitude":-120.202367,"facility name":"Fairmead Solid Waste Disposal Site (Mammoth LF)","id":"a62vyhm32ebs","map label":"CA-62","group":"LF","state":"CA","location":"21739 Road 19"},"type":"Feature","geometry":{"type":"Point","coordinates":[-120.202367,37.065402]}},{"properties":{"close date":50770,"remaining capacity (tons)":6630000,"city":"Crows Landing","start date":32346,"$/ ton":33.0,"acres":250,"latitude":37.396306,"code":"CA0195","county":"Stanislaus","volume-weighted tip fee":"15397.8","waste shed":"County/Metro.","type":"LF","tons /day":466.6,"access":"Highway","longitude":-121.143907,"facility name":"Fink Road Landfill","id":"a62vyhoou27o","map label":"CA-63","group":"LF","state":"CA","location":"4000 Fink Road"},"type":"Feature","geometry":{"type":"Point","coordinates":[-121.143907,37.396306]}},{"properties":{"close date":64284,"remaining capacity (tons)":22400000,"city":"Linden","start date":23754,"$/ ton":29.72,"acres":800,"latitude":38.036833,"code":"CA0154","county":"San Joaquin","volume-weighted tip fee":"17545.202","waste shed":"County/Metro.","type":"LF","tons /day":590.35,"access":"Highway","longitude":-120.946888,"facility name":"Foothill Sanitary Landfill","id":"a62vyhwhid6m","map label":"CA-65","group":"LF","state":"CA","location":"6484 N. Waverly Road, (8 miles East of Linden)"},"type":"Feature","geometry":{"type":"Point","coordinates":[-120.946888,38.036833]}},{"properties":{"close date":56249,"remaining capacity (tons)":58800000,"city":"Manteca","start date":28766,"$/ ton":49.5,"acres":157,"latitude":37.876601,"code":"CA0156","county":"San Joaquin","volume-weighted tip fee":"155716.11","waste shed":"Regional Waste District","type":"LF","tons /day":3145.78,"access":"Highway","longitude":-121.183282,"facility name":"Forward Inc Landfill","id":"a62vyhqo9p6k","map label":"CA-68","group":"LF","state":"CA","location":"9999 South Austin Road"},"type":"Feature","geometry":{"type":"Point","coordinates":[-121.183282,37.876601]}},{"properties":{"close date":45657,"remaining capacity (tons)":30100000,"city":"Irvine","start date":32860,"$/ ton":46.0,"acres":725,"latitude":33.622169,"code":"CA0097","county":"Orange","volume-weighted tip fee":"191443.26","waste shed":"County/Metro.","type":"LF","tons /day":4161.81,"access":"Highway","longitude":-117.874201,"facility name":"Frank R. Bowerman Landfill","id":"a62vyhx6bmjm","map label":"CA-69","group":"LF","state":"CA","location":"11002 Bee Canyon Access Road"},"type":"Feature","geometry":{"type":"Point","coordinates":[-117.874201,33.622169]}},{"properties":{"close date":44301,"remaining capacity (tons)":185000,"city":"Artois","start date":33735,"$/ ton":30.0,"acres":193,"latitude":39.616667,"code":"CA0017","county":"Glenn","volume-weighted tip fee":"1495.5","waste shed":"County/Metro. Exclusive","type":"LF","tons /day":49.85,"access":"Highway","longitude":-122.183334,"facility name":"Glenn County Landfill Site","id":"a62vyhqu52z4","map label":"CA-71","group":"LF","state":"CA","location":"5 mi W Of I-5 On County Rd 33"},"type":"Feature","geometry":{"type":"Point","coordinates":[-122.183334,39.616667]}},{"properties":{"close date":46021,"remaining capacity (tons)":3230000,"city":"San Jose","start date":33562,"$/ ton":75.84,"acres":115,"latitude":37.217083,"code":"CA0174","county":"Santa Clara","volume-weighted tip fee":"40666.9248","waste shed":"County/Metro.","type":"LF","tons /day":536.22,"access":"Highway","longitude":-121.909108,"facility name":"Guadalupe Disposal Site Landfill","id":"a62vyhxpu1xv","map label":"CA-73","group":"LF","state":"CA","location":"15999 Guadalupe Mines Road"},"type":"Feature","geometry":{"type":"Point","coordinates":[-121.909108,37.217083]}},{"properties":{"close date":51501,"remaining capacity (tons)":4640000,"city":"Vacaville","start date":23586,"$/ ton":46.0,"acres":640,"latitude":38.315063,"code":"CA0187","county":"Solano","volume-weighted tip fee":"19304.36","waste shed":"County/Metro.","type":"LF","tons /day":419.66,"access":"Highway","longitude":-121.829154,"facility name":"Hay Road Landfill","id":"a62vyhzf2476","map label":"CA-74","group":"LF","state":"CA","location":"6426 Hay Road, 1/4 mile West of Hwy 113"},"type":"Feature","geometry":{"type":"Point","coordinates":[-121.829154,38.315063]}},{"properties":{"close date":null,"remaining capacity (tons)":50700,"city":"Herlong","start date":29014,"$/ ton":27.0,"acres":20,"latitude":40.266667,"code":"CA0046","county":"Lassen","volume-weighted tip fee":"405","waste shed":"County/Metro. Exclusive","type":"LF","tons /day":15.0,"access":"Highway","longitude":-120.116667,"facility name":"Herlong Landfill","id":"a62vyhog2eoy","map label":"CA-75","group":"LF","state":"CA","location":null},"type":"Feature","geometry":{"type":"Point","coordinates":[-120.116667,40.266667]}},{"properties":{"close date":null,"remaining capacity (tons)":5790,"city":"Hesperia","start date":28992,"$/ ton":41.47,"acres":80,"latitude":34.433334,"code":"CA0132","county":"San Bernardino","volume-weighted tip fee":"124.41","waste shed":"County/Metro. Exclusive","type":"LF","tons /day":3.0,"access":"Highway","longitude":-117.3,"facility name":"Hesperia Refuse Collection Site","id":"a62vyhnttyiu","map label":"CA-76","group":"LF","state":"CA","location":"5500 Hesperia Dump Road, 1/4 mile S of Summitt Valley Road"},"type":"Feature","geometry":{"type":"Point","coordinates":[-117.3,34.433334]}},{"properties":{"close date":null,"remaining capacity (tons)":3230000,"city":"Merced","start date":32269,"$/ ton":35.15,"acres":175,"latitude":37.394045,"code":"CA0080","county":"Merced","volume-weighted tip fee":"17542.662","waste shed":"County/Metro. Exclusive","type":"LF","tons /day":499.08,"access":"Highway","longitude":-120.500407,"facility name":"Highway 59 Disposal Site Landfill","id":"a62vyhmojwgs","map label":"CA-77","group":"LF","state":"CA","location":"6040 SR-59"},"type":"Feature","geometry":{"type":"Point","coordinates":[-120.500407,37.394045]}},{"properties":{"close date":null,"remaining capacity (tons)":19300,"city":"Holtville","start date":29119,"$/ ton":25.0,"acres":40,"latitude":32.816667,"code":"CA0302","county":"Imperial","volume-weighted tip fee":"273","waste shed":"County/Metro. Exclusive","type":"LF","tons /day":10.92,"access":"Highway","longitude":-115.383334,"facility name":"Holtville Disposal Site Landfill","id":"a62vyhsf1w1t","map label":"CA-80","group":"LF","state":"CA","location":"2678 Whitlock Road, 8 mi NE of Holtville"},"type":"Feature","geometry":{"type":"Point","coordinates":[-115.383334,32.816667]}},{"properties":{"close date":67938,"remaining capacity (tons)":71700,"city":"Niland","start date":31301,"$/ ton":25.0,"acres":40,"latitude":33.233334,"code":"CA0025","county":"Imperial","volume-weighted tip fee":"312.5","waste shed":"County/Metro.","type":"LF","tons /day":12.5,"access":"Highway","longitude":-115.516667,"facility name":"Hot Spa Disposal Site","id":"a62vyhzqf4t5","map label":"CA-81","group":"LF","state":"CA","location":"10466 Spa Road, East Of Hot Spa Road"},"type":"Feature","geometry":{"type":"Point","coordinates":[-115.516667,33.233334]}},{"properties":{"close date":null,"remaining capacity (tons)":79600,"city":"Imperial","start date":29056,"$/ ton":30.0,"acres":60,"latitude":32.85,"code":"CA0020","county":"Imperial","volume-weighted tip fee":"505.5","waste shed":"County/Metro.","type":"LF","tons /day":16.85,"access":"Highway","longitude":-115.566667,"facility name":"Imperial Disposal Site","id":"a62vyhnfid2i","map label":"CA-82","group":"LF","state":"CA","location":"1705 W Worthington Road, 3 mi W of Forrester on Worthington"},"type":"Feature","geometry":{"type":"Point","coordinates":[-115.566667,32.85]}},{"properties":{"close date":null,"remaining capacity (tons)":18100,"city":"Independence","start date":null,"$/ ton":27.0,"acres":90,"latitude":36.8,"code":"CA0247","county":"Inyo","volume-weighted tip fee":"210.06","waste shed":"County/Metro. Exclusive","type":"LF","tons /day":7.78,"access":"Highway","longitude":-118.2,"facility name":"Independence Disposal Site Landfill","id":"a62vyhmpjuej","map label":"CA-83","group":"LF","state":"CA","location":"Road E off Hwy 395; 1 mi south town"},"type":"Feature","geometry":{"type":"Point","coordinates":[-118.2,36.8]}},{"properties":{"close date":43831,"remaining capacity (tons)":947000,"city":"Hollister","start date":33996,"$/ ton":22.5,"acres":57,"latitude":36.825174,"code":"CA0121","county":"San Benito","volume-weighted tip fee":"4963.95","waste shed":"County/Metro.","type":"LF","tons /day":220.62,"access":"Highway, Rail","longitude":-121.324053,"facility name":"John Smith Road Solid Waste Disposal Site","id":"a62vyhtmxqjk","map label":"CA-84","group":"LF","state":"CA","location":"2650 John Smith Rd, 6 mi E of Hollister"},"type":"Feature","geometry":{"type":"Point","coordinates":[-121.324053,36.825174]}},{"properties":{"close date":54422,"remaining capacity (tons)":1770000,"city":"Gonzales","start date":28494,"$/ ton":63.0,"acres":80,"latitude":36.528616,"code":"CA0085","county":"Monterey","volume-weighted tip fee":"51975","waste shed":"County/Metro. Exclusive","type":"LF","tons /day":825.0,"access":"Highway, Rail","longitude":-121.414105,"facility name":"Johnson Canyon Sanitary Landfill","id":"a62vyhnb3ge0","map label":"CA-85","group":"LF","state":"CA","location":"31400 Johnson Canyon Rd"},"type":"Feature","geometry":{"type":"Point","coordinates":[-121.414105,36.528616]}},{"properties":{"close date":48579,"remaining capacity (tons)":18600000,"city":"Pittsburg","start date":33731,"$/ ton":62.0,"acres":2600,"latitude":38.012469,"code":"CA0470","county":"Contra Costa","volume-weighted tip fee":"167927.62","waste shed":"Regional Waste District","type":"LF","tons /day":2708.51,"access":"Highway","longitude":-121.94197,"facility name":"Keller Canyon Landfill","id":"a62vyhwgov3g","map label":"CA-86","group":"LF","state":"CA","location":"901 Bailey Road"},"type":"Feature","geometry":{"type":"Point","coordinates":[-121.94197,38.012469]}},{"properties":{"close date":43101,"remaining capacity (tons)":5140000,"city":"Mather","start date":28506,"$/ ton":30.0,"acres":1098,"latitude":38.583334,"code":"CA0117","county":"Sacramento","volume-weighted tip fee":"39520.8","waste shed":"County/Metro.","type":"LF","tons /day":1317.36,"access":"Highway","longitude":-121.3,"facility name":"Kiefer Landfill &amp; Recycling Site","id":"a62vyi0gm06o","map label":"CA-87","group":"LF","state":"CA","location":"12701 Kiefer Boulevard"},"type":"Feature","geometry":{"type":"Point","coordinates":[-121.3,38.583334]}},{"properties":{"close date":44926,"remaining capacity (tons)":2960000,"city":"San Jose","start date":33918,"$/ ton":87.88,"acres":827,"latitude":37.185942,"code":"CA0173","county":"Santa Clara","volume-weighted tip fee":"47524.6252","waste shed":"County/Metro.","type":"LF","tons /day":540.79,"access":"Highway, Rail","longitude":-121.686773,"facility name":"Kirby Canyon Sanitary Landfill","id":"a62vyhx7rkjz","map label":"CA-88","group":"LF","state":"CA","location":"910 Scheller Avenue"},"type":"Feature","geometry":{"type":"Point","coordinates":[-121.686773,37.185942]}},{"properties":{"close date":45657,"remaining capacity (tons)":9420000,"city":"Beaumont","start date":33801,"$/ ton":34.33,"acres":788,"latitude":33.842145,"code":"CA0103","county":"Riverside","volume-weighted tip fee":"59085.363","waste shed":"County/Metro. Exclusive","type":"LF","tons /day":1721.1,"access":"Highway","longitude":-116.861864,"facility name":"Lamb Canyon Disposal Site Landfill","id":"a62vyhzok6zm","map label":"CA-92","group":"LF","state":"CA","location":"16411 Lambs Canyon Rd"},"type":"Feature","geometry":{"type":"Point","coordinates":[-116.861864,33.842145]}},{"properties":{"close date":null,"remaining capacity (tons)":8650000,"city":"Lancaster","start date":null,"$/ ton":50.0,"acres":209,"latitude":34.75096,"code":"CA0054","county":"Los Angeles","volume-weighted tip fee":"42839","waste shed":"County/Metro.","type":"LF","tons /day":856.78,"access":"Highway, Rail","longitude":-118.12093,"facility name":"Lancaster Landfill &amp; Recycling Center","id":"a62vyhtqmt1s","map label":"CA-93","group":"LF","state":"CA","location":"600 E Avenue F"},"type":"Feature","geometry":{"type":"Point","coordinates":[-118.12093,34.75096]}},{"properties":{"close date":null,"remaining capacity (tons)":1110000,"city":"Landers","start date":29035,"$/ ton":41.47,"acres":637,"latitude":34.266667,"code":"CA0136","county":"San Bernardino","volume-weighted tip fee":"6136.3159","waste shed":"County/Metro. Exclusive","type":"LF","tons /day":147.97,"access":"Highway","longitude":-116.4,"facility name":"Landers Disposal Site Landfill","id":"a62vyhn2qq1g","map label":"CA-94","group":"LF","state":"CA","location":"59200 Winters Road, 1/2 mile east of Avalon Road"},"type":"Feature","geometry":{"type":"Point","coordinates":[-116.4,34.266667]}},{"properties":{"close date":null,"remaining capacity (tons)":50700,"city":"Watsonville","start date":28494,"$/ ton":43.0,"acres":124,"latitude":36.9,"code":"CA0084","county":"Santa Cruz","volume-weighted tip fee":"537.5","waste shed":"County/Metro. Exclusive","type":"LF","tons /day":12.5,"access":"Highway","longitude":-121.766667,"facility name":"Lewis Road Sanitary Landfill (Inactive)","id":"a62vyhzgfcb5","map label":"CA-96","group":"LF","state":"CA","location":"Lewis Rd; 2 mi W Watsonville"},"type":"Feature","geometry":{"type":"Point","coordinates":[-121.766667,36.9]}},{"properties":{"close date":null,"remaining capacity (tons)":24100,"city":"Lone Pine","start date":28888,"$/ ton":27.0,"acres":61,"latitude":36.6,"code":"CA0303","county":"Inyo","volume-weighted tip fee":"419.58","waste shed":"County/Metro. Exclusive","type":"LF","tons /day":15.54,"access":"Highway","longitude":-118.05,"facility name":"Lone Pine Disposal Site Landfill","id":"a62vyhq5ufss","map label":"CA-97","group":"LF","state":"CA","location":"Cemetary Road; East Of Town"},"type":"Feature","geometry":{"type":"Point","coordinates":[-118.05,36.6]}},{"properties":{"close date":52232,"remaining capacity (tons)":47100,"city":"Lost Hills","start date":28909,"$/ ton":39.5,"acres":537,"latitude":35.63711,"code":"CA0270","county":"Kern","volume-weighted tip fee":"355.5","waste shed":"County/Metro.","type":"LF","tons /day":9.0,"access":"Highway","longitude":-119.75422,"facility name":"Lost Hills Sanitary Landfill","id":"a62vyhv1sbsa","map label":"CA-98","group":"LF","state":"CA","location":"14251 Holloway Road, 4 mi East of Lost Hills"},"type":"Feature","geometry":{"type":"Point","coordinates":[-119.75422,35.63711]}},{"properties":{"close date":null,"remaining capacity (tons)":76000,"city":"Loyalton","start date":28788,"$/ ton":31.77,"acres":29,"latitude":39.666667,"code":"CA0506","county":"Sierra","volume-weighted tip fee":"974.3859","waste shed":"County/Metro. Exclusive","type":"LF","tons /day":30.67,"access":"Highway","longitude":-120.233334,"facility name":"Loyalton Landfill","id":"a62vyhmeo9d8","map label":"CA-99","group":"LF","state":"CA","location":"1 mi E Loyalton"},"type":"Feature","geometry":{"type":"Point","coordinates":[-120.233334,39.666667]}},{"properties":{"close date":51943,"remaining capacity (tons)":430000,"city":"Mariposa","start date":33518,"$/ ton":64.0,"acres":59,"latitude":37.483334,"code":"CA0070","county":"Mariposa","volume-weighted tip fee":"1754.24","waste shed":"County/Metro. Exclusive","type":"LF","tons /day":27.41,"access":"Highway","longitude":-119.966667,"facility name":"Mariposa County Sanitary Landfill","id":"a62vyhyln0dv","map label":"CA-100","group":"LF","state":"CA","location":"5593 Hwy 49N, 2.2 Mi N of Mariposa"},"type":"Feature","geometry":{"type":"Point","coordinates":[-119.966667,37.483334]}},{"properties":{"close date":46753,"remaining capacity (tons)":36700,"city":"Mecca","start date":30265,"$/ ton":31.91,"acres":80,"latitude":33.569322,"code":"CA0113","county":"Riverside","volume-weighted tip fee":"983.1471","waste shed":"County/Metro. Exclusive","type":"LF","tons /day":30.81,"access":"Highway","longitude":-116.068042,"facility name":"Mecca Landfill II","id":"a62vyhm524t1","map label":"CA-102","group":"LF","state":"CA","location":"95250 66th Avenue"},"type":"Feature","geometry":{"type":"Point","coordinates":[-116.068042,33.569322]}},{"properties":{"close date":51136,"remaining capacity (tons)":20400000,"city":"Rialto","start date":28769,"$/ ton":41.47,"acres":142,"latitude":34.134655,"code":"CA0135","county":"San Bernardino","volume-weighted tip fee":"66467.2866","waste shed":"County/Metro. Exclusive","type":"LF","tons /day":1602.78,"access":"Highway","longitude":-117.4185,"facility name":"Mid-Valley Landfill","id":"a62vyhnqxods","map label":"CA-103","group":"LF","state":"CA","location":"2390 N. Alder Avenue, 1/2 mile N of Highland Avenue"},"type":"Feature","geometry":{"type":"Point","coordinates":[-117.4185,34.134655]}},{"properties":{"close date":41639,"remaining capacity (tons)":4810000,"city":"San Diego","start date":30161,"$/ ton":48.0,"acres":468,"latitude":32.836204,"code":"CA0147","county":"San Diego","volume-weighted tip fee":"126785.28","waste shed":"County/Metro.","type":"LF","tons /day":2641.36,"access":"Highway","longitude":-117.152314,"facility name":"Miramar Sanitary Landfill","id":"a62vyhnvbi5u","map label":"CA-105","group":"LF","state":"CA","location":"5180 Convoy Street North"},"type":"Feature","geometry":{"type":"Point","coordinates":[-117.152314,32.836204]}},{"properties":{"close date":40909,"remaining capacity (tons)":12600,"city":"Mojave","start date":26665,"$/ ton":39.5,"acres":40,"latitude":34.996174,"code":"CA0286","county":"Kern","volume-weighted tip fee":"1348.53","waste shed":"County/Metro. Exclusive","type":"LF","tons /day":34.14,"access":"Highway","longitude":-118.132305,"facility name":"Mojave - Rosamond Sanitary Landfill","id":"a62vyhw98hg2","map label":"CA-106","group":"LF","state":"CA","location":"400 Silver Queen Road, 5 mi S of Mojave, 1 mi E of Hwy. 14"},"type":"Feature","geometry":{"type":"Point","coordinates":[-118.132305,34.996174]}},{"properties":{"close date":69763,"remaining capacity (tons)":18400000,"city":"Marina","start date":24210,"$/ ton":46.25,"acres":320,"latitude":36.69875,"code":"CA0088","county":"Monterey","volume-weighted tip fee":"26728.8","waste shed":"Regional Waste District","type":"LF","tons /day":577.92,"access":"Highway","longitude":-121.792529,"facility name":"Monterey Peninsula Landfill","id":"a62vyhyamb4y","map label":"CA-108","group":"LF","state":"CA","location":"14201 Del Monte Blvd, 2 mi N of Marina"},"type":"Feature","geometry":{"type":"Point","coordinates":[-121.792529,36.69875]}},{"properties":{"close date":42369,"remaining capacity (tons)":916000,"city":"Paradise","start date":23962,"$/ ton":32.0,"acres":100,"latitude":39.683463,"code":"CA0299","county":"Butte","volume-weighted tip fee":"11999.68","waste shed":"County/Metro. Exclusive","type":"LF","tons /day":374.99,"access":"Highway, Rail","longitude":-121.715939,"facility name":"Neal Road Landfill","id":"a62vyhoq0xxu","map label":"CA-109","group":"LF","state":"CA","location":"1023 Neal Road"},"type":"Feature","geometry":{"type":"Point","coordinates":[-121.715939,39.683463]}},{"properties":{"close date":42812,"remaining capacity (tons)":4890000,"city":"Milpitas","start date":32546,"$/ ton":66.0,"acres":400,"latitude":37.453638,"code":"CA0171","county":"Santa Clara","volume-weighted tip fee":"104070.78","waste shed":"County/Metro.","type":"LF","tons /day":1576.83,"access":"Highway","longitude":-121.923269,"facility name":"Newby Island Sanitary Landfill","id":"a62vyhym1xtw","map label":"CA-111","group":"LF","state":"CA","location":"1601 Dixon Landing Road"},"type":"Feature","geometry":{"type":"Point","coordinates":[-121.923269,37.453638]}},{"properties":{"close date":51866,"remaining capacity (tons)":20300,"city":"Niland","start date":31301,"$/ ton":25.0,"acres":100,"latitude":33.233334,"code":"CA0451","county":"Imperial","volume-weighted tip fee":"254.75","waste shed":"County/Metro.","type":"LF","tons /day":10.19,"access":"Highway","longitude":-115.516667,"facility name":"Niland Cut and Fill Site","id":"a62vyhu4pdog","map label":"CA-112","group":"LF","state":"CA","location":"8450 Cuff Road, 4 mi NE Niland"},"type":"Feature","geometry":{"type":"Point","coordinates":[-115.516667,33.233334]}},{"properties":{"close date":46388,"remaining capacity (tons)":2380000,"city":"Lodi","start date":33291,"$/ ton":38.2,"acres":320,"latitude":38.103406,"code":"CA0153","county":"San Joaquin","volume-weighted tip fee":"15524.862","waste shed":"County/Metro.","type":"LF","tons /day":406.41,"access":"Highway","longitude":-121.102794,"facility name":"North County Landfill","id":"a62vyhv042g7","map label":"CA-113","group":"LF","state":"CA","location":"17900 E Harney Lane, 1/4 Mi E of Jack Tone Rd"},"type":"Feature","geometry":{"type":"Point","coordinates":[-121.102794,38.103406]}},{"properties":{"close date":104462,"remaining capacity (tons)":165000,"city":"Riverside","start date":29056,"$/ ton":31.91,"acres":160,"latitude":33.466667,"code":"CA0109","county":"Riverside","volume-weighted tip fee":"155.4017","waste shed":"County/Metro. Exclusive","type":"LF","tons /day":4.87,"access":"Highway","longitude":-116.1,"facility name":"Oasis Disposal Site Landfill","id":"a62vyhr1rupp","map label":"CA-116","group":"LF","state":"CA","location":"84-505 84th Avenue"},"type":"Feature","geometry":{"type":"Point","coordinates":[-116.1,33.466667]}},{"properties":{"close date":55885,"remaining capacity (tons)":18100,"city":"Ocotillo","start date":29279,"$/ ton":25.0,"acres":40,"latitude":32.733334,"code":"CA0450","county":"Imperial","volume-weighted tip fee":"126","waste shed":"County/Metro. Exclusive","type":"LF","tons /day":5.04,"access":"Highway","longitude":-116.0,"facility name":"Ocotillo Disposal Site","id":"a62vyhtdyus3","map label":"CA-117","group":"LF","state":"CA","location":"1802 Shell Canyon Road, 3 mi NW Ocotillo"},"type":"Feature","geometry":{"type":"Point","coordinates":[-116.0,32.733334]}},{"properties":{"close date":44561,"remaining capacity (tons)":19600000,"city":"Brea","start date":21916,"$/ ton":46.0,"acres":677,"latitude":33.937115,"code":"CA0096","county":"Orange","volume-weighted tip fee":"251482.46","waste shed":"County/Metro.","type":"LF","tons /day":5467.01,"access":"Highway","longitude":-117.936696,"facility name":"Olinda Alpha Sanitary Landfill","id":"a62vyhn5n2ux","map label":"CA-118","group":"LF","state":"CA","location":"1942 Valencia Avenue"},"type":"Feature","geometry":{"type":"Point","coordinates":[-117.936696,33.937115]}},{"properties":{"close date":46022,"remaining capacity (tons)":3490000,"city":"Wheatland","start date":34880,"$/ ton":46.0,"acres":261,"latitude":39.076538,"code":"CA4238","county":"Yuba","volume-weighted tip fee":"32859.18","waste shed":"County/Metro.","type":"LF","tons /day":714.33,"access":"Highway, Rail","longitude":-121.375511,"facility name":"Ostrom Road Landfill","id":"a62vyhlmm539","map label":"CA-119","group":"LF","state":"CA","location":"5900 Ostrom Road, (5 mi E. Of Hwy. 65)"},"type":"Feature","geometry":{"type":"Point","coordinates":[-121.375511,39.076538]}},{"properties":{"close date":40543,"remaining capacity (tons)":1900000,"city":"Chula Vista","start date":23167,"$/ ton":63.0,"acres":516,"latitude":32.597911,"code":"CA0146","county":"San Diego","volume-weighted tip fee":"221143.86","waste shed":"County/Metro. Exclusive","type":"LF","tons /day":3510.22,"access":"Highway","longitude":-117.018332,"facility name":"Otay Sanitary Landfill &amp; MRF","id":"a62vyhom3m9j","map label":"CA-120","group":"LF","state":"CA","location":"1700 Maxwell Road"},"type":"Feature","geometry":{"type":"Point","coordinates":[-117.018332,32.597911]}},{"properties":{"close date":41274,"remaining capacity (tons)":2260000,"city":"Half Moon Bay","start date":28491,"$/ ton":57.82,"acres":173,"latitude":37.491858,"code":"CA0161","county":"San Mateo","volume-weighted tip fee":"104872.1814","waste shed":"County/Metro. Exclusive","type":"LF","tons /day":1813.77,"access":"Highway","longitude":-122.386905,"facility name":"Ox Mountain Sanitary Landfill","id":"a62vyhuy9fv4","map label":"CA-121","group":"LF","state":"CA","location":"12310 San Mateo Road"},"type":"Feature","geometry":{"type":"Point","coordinates":[-122.386905,37.491858]}},{"properties":{"close date":42368,"remaining capacity (tons)":72800,"city":"Palo Alto","start date":28482,"$/ ton":75.0,"acres":137,"latitude":37.45,"code":"CA0170","county":"Santa Clara","volume-weighted tip fee":"1103.25","waste shed":"Exclusive or Captive","type":"LF","tons /day":14.71,"access":"Highway","longitude":-122.133334,"facility name":"Palo Alto Landfill &amp; Recycling Center","id":"a62vyhozxrzr","map label":"CA-122","group":"LF","state":"CA","location":"2380 Embargadero Road"},"type":"Feature","geometry":{"type":"Point","coordinates":[-122.133334,37.45]}},{"properties":{"close date":66842,"remaining capacity (tons)":30600,"city":"Palo Verde","start date":29279,"$/ ton":25.0,"acres":40,"latitude":33.433334,"code":"CA0023","county":"Imperial","volume-weighted tip fee":"146.25","waste shed":"County/Metro. Exclusive","type":"LF","tons /day":5.85,"access":"Highway","longitude":-114.75,"facility name":"Palo Verde Disposal Site","id":"a62vyhyo6zev","map label":"CA-123","group":"LF","state":"CA","location":"589 Stallard Road, 3 mi S Palo Verde"},"type":"Feature","geometry":{"type":"Point","coordinates":[-114.75,33.433334]}},{"properties":{"close date":42005,"remaining capacity (tons)":2310,"city":"Bard","start date":29279,"$/ ton":25.0,"acres":50,"latitude":32.733334,"code":"CA0026","county":"Imperial","volume-weighted tip fee":"334.5","waste shed":"County/Metro.","type":"LF","tons /day":13.38,"access":"Highway","longitude":-114.633334,"facility name":"Picacho Disposal Site","id":"a62vyhpj2dxd","map label":"CA-127","group":"LF","state":"CA","location":"1409 Picacho Road, 1.5 mi N of All American Canal Rd"},"type":"Feature","geometry":{"type":"Point","coordinates":[-114.633334,32.733334]}},{"properties":{"close date":null,"remaining capacity (tons)":3550,"city":"Portola","start date":null,"$/ ton":39.0,"acres":22,"latitude":39.8,"code":"CA2633","county":"Plumas","volume-weighted tip fee":"95.94","waste shed":"Exclusive or Captive","type":"LF","tons /day":2.46,"access":"Highway","longitude":-120.466667,"facility name":"Portola Landfill","id":"a62vyhsa6ymp","map label":"CA-128","group":"LF","state":"CA","location":"Off Hwy 70; 1.5 mi Ne Portola"},"type":"Feature","geometry":{"type":"Point","coordinates":[-120.466667,39.8]}},{"properties":{"close date":55884,"remaining capacity (tons)":42600000,"city":"Fairfield","start date":32857,"$/ ton":55.0,"acres":320,"latitude":38.233334,"code":"CA0190","county":"Solano","volume-weighted tip fee":"92637.6","waste shed":"County/Metro. Exclusive","type":"LF","tons /day":1684.32,"access":"Highway, Rail","longitude":-122.033334,"facility name":"Potrero Hills Sanitary Landfill","id":"a62vyhr9i5jq","map label":"CA-129","group":"LF","state":"CA","location":"3675 Portero Hills Lane"},"type":"Feature","geometry":{"type":"Point","coordinates":[-122.033334,38.233334]}},{"properties":{"close date":53327,"remaining capacity (tons)":20500000,"city":"San Juan Capistrano","start date":29076,"$/ ton":46.0,"acres":800,"latitude":33.5,"code":"CA0095","county":"Orange","volume-weighted tip fee":"60781.18","waste shed":"County/Metro.","type":"LF","tons /day":1321.33,"access":"Highway","longitude":-117.65,"facility name":"Prima Deshecha Sanitary Landfill","id":"a62vyhnvozx4","map label":"CA-130","group":"LF","state":"CA","location":"32250 La Pata Avenue"},"type":"Feature","geometry":{"type":"Point","coordinates":[-117.65,33.5]}},{"properties":{"close date":41579,"remaining capacity (tons)":13600000,"city":"Industry","start date":19984,"$/ ton":33.86,"acres":1365,"latitude":34.029809,"code":"CA0056","county":"Los Angeles","volume-weighted tip fee":"271211.4894","waste shed":"County/Metro. Exclusive","type":"LF","tons /day":8009.79,"access":"Highway, Rail","longitude":-118.013638,"facility name":"Puente Hills Landfill","id":"a62vyhv1eb49","map label":"CA-131","group":"LF","state":"CA","location":"13130 Crossroads Parkway South"},"type":"Feature","geometry":{"type":"Point","coordinates":[-118.013638,34.029809]}},{"properties":{"close date":null,"remaining capacity (tons)":20100,"city":"June Lake","start date":null,"$/ ton":24.0,"acres":40,"latitude":37.966667,"code":"CA2304","county":"Mono","volume-weighted tip fee":"93.12","waste shed":"County/Metro.","type":"LF","tons /day":3.88,"access":"Highway","longitude":-119.116667,"facility name":"Pumice Valley Landfill","id":"a62vyhw0i9n7","map label":"CA-132","group":"LF","state":"CA","location":"Hwy 120; 4 mi S Mono Lake"},"type":"Feature","geometry":{"type":"Point","coordinates":[-119.116667,37.966667]}},{"properties":{"close date":null,"remaining capacity (tons)":1530000,"city":"Ramona","start date":25503,"$/ ton":58.0,"acres":160,"latitude":33.033334,"code":"CA0458","county":"San Diego","volume-weighted tip fee":"16488.82","waste shed":"County/Metro. Exclusive","type":"LF","tons /day":284.29,"access":"Highway","longitude":-116.866667,"facility name":"Ramona Landfill &amp; MRF","id":"a62vyhsdylz3","map label":"CA-133","group":"LF","state":"CA","location":"20630 Palma (Pamel Road), 2.5 miles North of Ramona"},"type":"Feature","geometry":{"type":"Point","coordinates":[-116.866667,33.033334]}},{"properties":{"close date":40909,"remaining capacity (tons)":104000,"city":"Red Bluff","start date":32549,"$/ ton":33.75,"acres":159,"latitude":40.183334,"code":"CA0197","county":"Tehama","volume-weighted tip fee":"5604.525","waste shed":"County/Metro. Exclusive","type":"LF","tons /day":166.06,"access":"Highway","longitude":-122.233334,"facility name":"Red Bluff Sanitary Landfill","id":"a62vyhw3s0ny","map label":"CA-134","group":"LF","state":"CA","location":"19995 Plymire Road, 2.5 mi NW Red Bluff"},"type":"Feature","geometry":{"type":"Point","coordinates":[-122.233334,40.183334]}},{"properties":{"close date":48579,"remaining capacity (tons)":7770000,"city":"Novato","start date":28635,"$/ ton":114.0,"acres":400,"latitude":38.168753,"code":"CA0068","county":"Marin","volume-weighted tip fee":"131318.88","waste shed":"County/Metro. Exclusive","type":"LF","tons /day":1151.92,"access":"Highway","longitude":-122.583246,"facility name":"Redwood Sanitary Landfill","id":"a62vyhs548ml","map label":"CA-135","group":"LF","state":"CA","location":"8950 Redwood Highway, off 101 4 mi NE Novato"},"type":"Feature","geometry":{"type":"Point","coordinates":[-122.583246,38.168753]}},{"properties":{"close date":47849,"remaining capacity (tons)":960000,"city":"Ridgecrest","start date":25204,"$/ ton":39.5,"acres":200,"latitude":35.616667,"code":"CA0037","county":"Kern","volume-weighted tip fee":"5321.835","waste shed":"County/Metro. Exclusive","type":"LF","tons /day":134.73,"access":"Highway","longitude":-117.666667,"facility name":"Ridgecrest Sanitary Landfill","id":"a62vyhpvtp9b","map label":"CA-136","group":"LF","state":"CA","location":"5m southwest of Ridgecrest on Bowman Rd, 3301 Bowman Road"},"type":"Feature","geometry":{"type":"Point","coordinates":[-117.666667,35.616667]}},{"properties":{"close date":51943,"remaining capacity (tons)":9440,"city":"Salton City","start date":29279,"$/ ton":25.0,"acres":320,"latitude":33.316667,"code":"CA0012","county":"Imperial","volume-weighted tip fee":"264.5","waste shed":"County/Metro. Exclusive","type":"LF","tons /day":10.58,"access":"Highway","longitude":-115.983334,"facility name":"Salton City Cut and Fill Site","id":"a62vyhwvjhg1","map label":"CA-138","group":"LF","state":"CA","location":"935 W Highway 86, S of S22 and West of Hwy 86"},"type":"Feature","geometry":{"type":"Point","coordinates":[-115.983334,33.316667]}},{"properties":{"close date":47848,"remaining capacity (tons)":2540000,"city":"Redlands","start date":29546,"$/ ton":41.47,"acres":366,"latitude":34.016838,"code":"CA0142","county":"San Bernardino","volume-weighted tip fee":"16452.3931","waste shed":"County/Metro. Exclusive","type":"LF","tons /day":396.73,"access":"Highway","longitude":-117.214645,"facility name":"San Timoteo Solid Waste Disposal Site (Redlands)","id":"a62vyhydmsjg","map label":"CA-139","group":"LF","state":"CA","location":"31 Refuse Road, 2 miles S of Barton, Off San Timoteo Canyon Road"},"type":"Feature","geometry":{"type":"Point","coordinates":[-117.214645,34.016838]}},{"properties":{"close date":43100,"remaining capacity (tons)":373000,"city":"Santa Cruz","start date":14853,"$/ ton":74.56,"acres":100,"latitude":36.985558,"code":"CA0176","county":"Santa Cruz","volume-weighted tip fee":"10313.8848","waste shed":"County/Metro. Exclusive","type":"LF","tons /day":138.33,"access":"Highway","longitude":-122.102148,"facility name":"Santa Cruz City Sanitary Landfill","id":"a62vyhv7psk6","map label":"CA-140","group":"LF","state":"CA","location":"605 Dimeo Lane, 3 mi NW of Santa Cruz"},"type":"Feature","geometry":{"type":"Point","coordinates":[-122.102148,36.985558]}},{"properties":{"close date":43464,"remaining capacity (tons)":966000,"city":"Santa Maria","start date":28601,"$/ ton":69.9,"acres":290,"latitude":34.952577,"code":"CA0165","county":"Santa Barbara","volume-weighted tip fee":"17414.886","waste shed":"Regional Waste District","type":"LF","tons /day":249.14,"access":"Highway","longitude":-120.392455,"facility name":"Santa Maria Refuse Disposal Site","id":"a62vyhuezadn","map label":"CA-141","group":"LF","state":"CA","location":"2065 East Main Street"},"type":"Feature","geometry":{"type":"Point","coordinates":[-120.392455,34.952577]}},{"properties":{"close date":50040,"remaining capacity (tons)":2240000,"city":"Whittier","start date":28940,"$/ ton":38.0,"acres":132,"latitude":33.974635,"code":"CA0062","county":"Los Angeles","volume-weighted tip fee":"9036.02","waste shed":"County/Metro. Exclusive","type":"LF","tons /day":237.79,"access":"Highway","longitude":-118.023499,"facility name":"Savage Canyon Landfill","id":"a62vyhlks1q6","map label":"CA-142","group":"LF","state":"CA","location":"13919 Penn Street"},"type":"Feature","geometry":{"type":"Point","coordinates":[-118.023499,33.974635]}},{"properties":{"close date":42812,"remaining capacity (tons)":2540000,"city":"Glendale","start date":22544,"$/ ton":44.83,"acres":440,"latitude":34.149118,"code":"CA0050","county":"Los Angeles","volume-weighted tip fee":"35937.0729","waste shed":"County/Metro. Exclusive","type":"LF","tons /day":801.63,"access":"Highway","longitude":-118.19061,"facility name":"Scholl Canyon Landfill","id":"a62vyhxz8pxl","map label":"CA-143","group":"LF","state":"CA","location":"Scholl Canyon Road"},"type":"Feature","geometry":{"type":"Point","coordinates":[-118.19061,34.149118]}},{"properties":{"close date":41639,"remaining capacity (tons)":13000,"city":"Avalon","start date":31373,"$/ ton":86.18,"acres":6,"latitude":33.35,"code":"CA0058","county":"Los Angeles","volume-weighted tip fee":"881.6214","waste shed":"Exclusive or Captive","type":"LF","tons /day":10.23,"access":"Highway","longitude":-118.316667,"facility name":"Seagull Sanitation Pebbly Beach Landfill","id":"a62vyhp2iy4c","map label":"CA-144","group":"LF","state":"CA","location":"1 Dump Road"},"type":"Feature","geometry":{"type":"Point","coordinates":[-118.316667,33.35]}},{"properties":{"close date":43862,"remaining capacity (tons)":1340000,"city":"Shafter","start date":26299,"$/ ton":39.5,"acres":161,"latitude":35.513808,"code":"CA0036","county":"Kern","volume-weighted tip fee":"13504.655","waste shed":"County/Metro. Exclusive","type":"LF","tons /day":341.89,"access":"Highway","longitude":-119.403376,"facility name":"Shafter - Wasco Sanitary Landfill","id":"a62vyhoo0r6u","map label":"CA-145","group":"LF","state":"CA","location":"17621 Scofield Ave., 8 mi W of Shafter off Lerdo Hwy"},"type":"Feature","geometry":{"type":"Point","coordinates":[-119.403376,35.513808]}},{"properties":{"close date":41274,"remaining capacity (tons)":2580000,"city":"Simi Valley","start date":33064,"$/ ton":46.5,"acres":136,"latitude":34.266667,"code":"CA0206","county":"Ventura","volume-weighted tip fee":"103629.435","waste shed":"County/Metro.","type":"LF","tons /day":2228.59,"access":"Highway, Rail","longitude":-118.766667,"facility name":"Simi Valley Landfill","id":"a62vyhug0dav","map label":"CA-148","group":"LF","state":"CA","location":"2801 Madiera Road"},"type":"Feature","geometry":{"type":"Point","coordinates":[-118.766667,34.266667]}},{"properties":{"close date":59902,"remaining capacity (tons)":28400,"city":"Stonyford","start date":28685,"$/ ton":9.5,"acres":49,"latitude":39.366667,"code":"CA0004","county":"Colusa","volume-weighted tip fee":"146.11","waste shed":"County/Metro. Exclusive","type":"LF","tons /day":15.38,"access":"Highway","longitude":-122.533334,"facility name":"Stonyford Disposal Site Landfill","id":"a62vyhl7p50a","map label":"CA-149","group":"LF","state":"CA","location":"Lodoga/Stonford Rd, 1 mi S of town"},"type":"Feature","geometry":{"type":"Point","coordinates":[-122.533334,39.366667]}},{"properties":{"close date":53692,"remaining capacity (tons)":70400000,"city":"Sylmar","start date":21504,"$/ ton":65.0,"acres":1100,"latitude":34.323748,"code":"CA0063","county":"Los Angeles","volume-weighted tip fee":"485486.95","waste shed":"County/Metro.","type":"LF","tons /day":7469.03,"access":"Highway","longitude":-118.503241,"facility name":"Sunshine Canyon-North Valley Landfill","id":"a62vyhkzbaoc","map label":"CA-151","group":"LF","state":"CA","location":"14747 San Fernando Road"},"type":"Feature","geometry":{"type":"Point","coordinates":[-118.503241,34.323748]}},{"properties":{"close date":53692,"remaining capacity (tons)":31900000,"city":"Santee","start date":23027,"$/ ton":58.0,"acres":491,"latitude":32.847725,"code":"CA0148","county":"San Diego","volume-weighted tip fee":"160914.04","waste shed":"County/Metro.","type":"LF","tons /day":2774.38,"access":"Highway","longitude":-117.021091,"facility name":"Sycamore Sanitary Landfill &amp; MRF","id":"a62vyhq1u731","map label":"CA-152","group":"LF","state":"CA","location":"8514 Mast Blvd, 7297 Ronson Rd.Ste G, San Diego,CA 92111"},"type":"Feature","geometry":{"type":"Point","coordinates":[-117.021091,32.847725]}},{"properties":{"close date":92043,"remaining capacity (tons)":4340000,"city":"Taft","start date":26299,"$/ ton":39.5,"acres":103,"latitude":35.133334,"code":"CA0038","county":"Kern","volume-weighted tip fee":"4462.315","waste shed":"County/Metro. Exclusive","type":"LF","tons /day":112.97,"access":"Highway","longitude":-119.45,"facility name":"Taft Sanitary Landfill","id":"a62vyhqcoqi5","map label":"CA-153","group":"LF","state":"CA","location":"4 mi. north of Taft on Elk Hills Road, 13351 Elk Hills Road"},"type":"Feature","geometry":{"type":"Point","coordinates":[-119.45,35.133334]}},{"properties":{"close date":null,"remaining capacity (tons)":4780000,"city":"Gaviota","start date":28531,"$/ ton":67.5,"acres":75,"latitude":34.471327,"code":"CA0164","county":"Santa Barbara","volume-weighted tip fee":"40694.4","waste shed":"County/Metro. Exclusive","type":"LF","tons /day":602.88,"access":"Highway","longitude":-120.115045,"facility name":"Tajiguas Sanitary Landfill","id":"a62vyhl34bve","map label":"CA-154","group":"LF","state":"CA","location":"14470 Calle Real"},"type":"Feature","geometry":{"type":"Point","coordinates":[-120.115045,34.471327]}},{"properties":{"close date":null,"remaining capacity (tons)":1350000,"city":"Porterville","start date":29081,"$/ ton":31.0,"acres":126,"latitude":36.019253,"code":"CA0201","county":"Tulare","volume-weighted tip fee":"5110.97","waste shed":"County/Metro. Exclusive","type":"LF","tons /day":164.87,"access":"Highway","longitude":-119.102439,"facility name":"Teapot Dome Landfill","id":"a62vyhta6ut7","map label":"CA-155","group":"LF","state":"CA","location":"21063 Ave 128 (Teapot Dome) E of Rd 208, 5 mi SW of Porterville"},"type":"Feature","geometry":{"type":"Point","coordinates":[-119.102439,36.019253]}},{"properties":{"close date":null,"remaining capacity (tons)":1400000,"city":"Tehachapi","start date":26665,"$/ ton":39.5,"acres":40,"latitude":35.133334,"code":"CA0039","county":"Kern","volume-weighted tip fee":"9215.745","waste shed":"County/Metro. Exclusive","type":"LF","tons /day":233.31,"access":"Highway","longitude":-118.45,"facility name":"Tehachapi Sanitary Landfill","id":"a62vyhs0dghr","map label":"CA-157","group":"LF","state":"CA","location":"5m E Tehachapi on Hwy 58, 12001 Tehachapi Blvd"},"type":"Feature","geometry":{"type":"Point","coordinates":[-118.45,35.133334]}},{"properties":{"close date":51136,"remaining capacity (tons)":10600000,"city":"Santa Paula","start date":33673,"$/ ton":35.99,"acres":214,"latitude":34.401897,"code":"CA0205","county":"Ventura","volume-weighted tip fee":"46265.8648","waste shed":"County/Metro. Exclusive","type":"LF","tons /day":1285.52,"access":"Highway","longitude":-118.996562,"facility name":"Toland Road Sanitary Landfill","id":"a62vyhmrclb4","map label":"CA-158","group":"LF","state":"CA","location":"3500 North Toland Road"},"type":"Feature","geometry":{"type":"Point","coordinates":[-118.996562,34.401897]}},{"properties":{"close date":null,"remaining capacity (tons)":5110000,"city":"Fremont","start date":33815,"$/ ton":75.0,"acres":378,"latitude":37.49564,"code":"CA0001","county":"Alameda","volume-weighted tip fee":"41826","waste shed":"County/Metro. Exclusive","type":"LF","tons /day":557.68,"access":"Highway, Rail","longitude":-121.988526,"facility name":"Tri-Cities Recycling and Disposal Facility (TCRDF)","id":"a62vyhvve10c","map label":"CA-160","group":"LF","state":"CA","location":"7010 Auto Mall Parkway"},"type":"Feature","geometry":{"type":"Point","coordinates":[-121.988526,37.49564]}},{"properties":{"close date":41274,"remaining capacity (tons)":27700,"city":"Twentynine Palms","start date":29007,"$/ ton":41.47,"acres":71,"latitude":34.125085,"code":"CA0138","county":"San Bernardino","volume-weighted tip fee":"1907.62","waste shed":"County/Metro. Exclusive","type":"LF","tons /day":46.0,"access":"Highway","longitude":-115.966823,"facility name":"Twentynine Palms Disposal Site Landfill","id":"a62vyhz1muu7","map label":"CA-161","group":"LF","state":"CA","location":"7501 Pinto Mountain Rd, 5 mi E of 29 Palms, 2 Miles S of Palm Hw"},"type":"Feature","geometry":{"type":"Point","coordinates":[-115.966823,34.125085]}},{"properties":{"close date":41274,"remaining capacity (tons)":5530,"city":"El Dorado","start date":28685,"$/ ton":31.0,"acres":322,"latitude":38.655728,"code":"CA0301","county":"El Dorado","volume-weighted tip fee":"336.97","waste shed":"County/Metro. Exclusive","type":"LF","tons /day":10.87,"access":"Highway","longitude":-120.834377,"facility name":"Union Mine Disposal Site","id":"a62vyhto5acx","map label":"CA-162","group":"LF","state":"CA","location":"5600 Union Mine Road, 5 mi S of El Dorado"},"type":"Feature","geometry":{"type":"Point","coordinates":[-120.834377,38.655728]}},{"properties":{"close date":48213,"remaining capacity (tons)":781000,"city":"Calistoga","start date":null,"$/ ton":62.5,"acres":78,"latitude":38.584078,"code":"CA0090","county":"Napa","volume-weighted tip fee":"5028.125","waste shed":"County/Metro. Exclusive","type":"LF","tons /day":80.45,"access":"Highway","longitude":-122.533135,"facility name":"Upper Valley Disposal &amp; Recycling Landfill","id":"a62vyhvzl8sb","map label":"CA-164","group":"LF","state":"CA","location":"4380 Clover Flat Road"},"type":"Feature","geometry":{"type":"Point","coordinates":[-122.533135,38.584078]}},{"properties":{"close date":42369,"remaining capacity (tons)":2160000,"city":"Livermore","start date":32554,"$/ ton":46.38,"acres":323,"latitude":37.746328,"code":"CA0002","county":"Alameda","volume-weighted tip fee":"39034.7994","waste shed":"Regional Waste District","type":"LF","tons /day":841.63,"access":"Highway","longitude":-121.725363,"facility name":"Vasco Road Sanitary Landfill","id":"a62vyhw5f5av","map label":"CA-171","group":"LF","state":"CA","location":"4001 North Vasco Road"},"type":"Feature","geometry":{"type":"Point","coordinates":[-121.725363,37.746328]}},{"properties":{"close date":null,"remaining capacity (tons)":6190000,"city":"Victorville","start date":28992,"$/ ton":41.47,"acres":80,"latitude":34.55469,"code":"CA0128","county":"San Bernardino","volume-weighted tip fee":"29002.0445","waste shed":"County/Metro. Exclusive","type":"LF","tons /day":699.35,"access":"Highway","longitude":-117.289762,"facility name":"Victorville Sanitary Landfill","id":"a62vyhps348v","map label":"CA-172","group":"LF","state":"CA","location":"18600 Stoddard Wells Road, 5 mi N of Victorville,W of I-15"},"type":"Feature","geometry":{"type":"Point","coordinates":[-117.289762,34.55469]}},{"properties":{"close date":null,"remaining capacity (tons)":1400000,"city":"Visalia","start date":29081,"$/ ton":31.0,"acres":440,"latitude":36.333334,"code":"CA0203","county":"Tulare","volume-weighted tip fee":"5243.65","waste shed":"County/Metro. Exclusive","type":"LF","tons /day":169.15,"access":"Highway","longitude":-119.3,"facility name":"Visalia Landfill","id":"a62vyhy8o7fz","map label":"CA-173","group":"LF","state":"CA","location":"Road 80 (Plaza or Alta Dr) N of Ave 328, (10 mi S of Dinuba &amp; 4 mi NW of Visalia)"},"type":"Feature","geometry":{"type":"Point","coordinates":[-119.3,36.333334]}},{"properties":{"close date":null,"remaining capacity (tons)":1010,"city":"Coleville","start date":null,"$/ ton":24.0,"acres":43,"latitude":38.516667,"code":"CA2302","county":"Mono","volume-weighted tip fee":"5.52","waste shed":"County/Metro.","type":"LF","tons /day":0.23,"access":"Highway","longitude":-119.45,"facility name":"Walker Sanitary Landfill","id":"a62vyhvbz7t9","map label":"CA-174","group":"LF","state":"CA","location":"Eastside Lane"},"type":"Feature","geometry":{"type":"Point","coordinates":[-119.45,38.516667]}},{"properties":{"close date":52595,"remaining capacity (tons)":403000,"city":"Watsonville","start date":28629,"$/ ton":18.0,"acres":103,"latitude":36.908952,"code":"CA0177","county":"Santa Cruz","volume-weighted tip fee":"1046.16","waste shed":"Exclusive or Captive","type":"LF","tons /day":58.12,"access":"Highway","longitude":-121.828764,"facility name":"Watsonville Solid Waste Disposal Site","id":"a62vyhm8i9ar","map label":"CA-175","group":"LF","state":"CA","location":"730 San Andreas Rd"},"type":"Feature","geometry":{"type":"Point","coordinates":[-121.828764,36.908952]}},{"properties":{"close date":45658,"remaining capacity (tons)":101000,"city":"Weaverville","start date":30089,"$/ ton":40.5,"acres":40,"latitude":40.733334,"code":"CA0198","county":"Trinity","volume-weighted tip fee":"1417.5","waste shed":"County/Metro.","type":"LF","tons /day":35.0,"access":"Highway, Rail","longitude":-122.933334,"facility name":"Weaverville Transfer Station &amp; Landfill","id":"a62vyhnyubah","map label":"CA-176","group":"LF","state":"CA","location":"City Dump Rd, 1.5 miles N Weaverville off Hwy 3"},"type":"Feature","geometry":{"type":"Point","coordinates":[-122.933334,40.733334]}},{"properties":{"close date":45658,"remaining capacity (tons)":1930000,"city":"Anderson","start date":33896,"$/ ton":39.5,"acres":1058,"latitude":40.484592,"code":"CA0182","county":"Shasta","volume-weighted tip fee":"19021.225","waste shed":"County/Metro. Exclusive","type":"LF","tons /day":481.55,"access":"Highway","longitude":-122.536376,"facility name":"West Central Landfill","id":"a62vyhqs29ga","map label":"CA-177","group":"LF","state":"CA","location":"14095 Clear Creek Road"},"type":"Feature","geometry":{"type":"Point","coordinates":[-122.536376,40.484592]}},{"properties":{"close date":42735,"remaining capacity (tons)":1660000,"city":"Lincoln","start date":null,"$/ ton":68.0,"acres":318,"latitude":38.837467,"code":"CA0098","county":"Placer","volume-weighted tip fee":"39205.4","waste shed":"County/Metro. Exclusive","type":"LF","tons /day":576.55,"access":"Highway","longitude":-121.344037,"facility name":"Western Regional Landfill","id":"a62vyhva9a0j","map label":"CA-179","group":"LF","state":"CA","location":"3195 Athens Road, Off Hwy 65 betw Lincoln &amp; Roseville"},"type":"Feature","geometry":{"type":"Point","coordinates":[-121.344037,38.837467]}},{"properties":{"close date":52308,"remaining capacity (tons)":1180,"city":"Westwood","start date":28972,"$/ ton":22.5,"acres":40,"latitude":40.3,"code":"CA0045","county":"Plumas","volume-weighted tip fee":"192.15","waste shed":"County/Metro.","type":"LF","tons /day":8.54,"access":"Highway","longitude":-121.0,"facility name":"Westwood Landfill","id":"a62vyhx7qpag","map label":"CA-180","group":"LF","state":"CA","location":"N Side Hwy 36, 1m W of Westwood"},"type":"Feature","geometry":{"type":"Point","coordinates":[-121.0,40.3]}},{"properties":{"close date":42370,"remaining capacity (tons)":321000,"city":"Visalia","start date":29081,"$/ ton":31.0,"acres":323,"latitude":36.155891,"code":"CA0202","county":"Tulare","volume-weighted tip fee":"7307.01","waste shed":"County/Metro. Exclusive","type":"LF","tons /day":235.71,"access":"Highway","longitude":-119.232805,"facility name":"Woodville Landfill","id":"a62vyhpby7mt","map label":"CA-181","group":"LF","state":"CA","location":"19800 Road 152, 5 mi S of SR 137, 7 mi SE of Tulare"},"type":"Feature","geometry":{"type":"Point","coordinates":[-119.232805,36.155891]}},{"properties":{"close date":47848,"remaining capacity (tons)":3960000,"city":"Davis","start date":28775,"$/ ton":36.0,"acres":729,"latitude":38.55,"code":"CA0208","county":"Yolo","volume-weighted tip fee":"20125.8","waste shed":"County/Metro.","type":"LF","tons /day":559.05,"access":"Highway","longitude":-121.733334,"facility name":"Yolo County Central Landfill","id":"a62vyhtzffjh","map label":"CA-183","group":"LF","state":"CA","location":"44090 County Rd 28H"},"type":"Feature","geometry":{"type":"Point","coordinates":[-121.733334,38.55]}},{"properties":{"close date":46023,"remaining capacity (tons)":8270,"city":"Yreka","start date":28867,"$/ ton":20.0,"acres":161,"latitude":41.711528,"code":"CA0184","county":"Siskiyou","volume-weighted tip fee":"83","waste shed":"County/Metro. Exclusive","type":"LF","tons /day":4.15,"access":"Highway","longitude":-122.59835,"facility name":"Yreka Solid Waste Landfill","id":"a62vyhlfgzv2","map label":"CA-184","group":"LF","state":"CA","location":"2420 Oberlin Rd."},"type":"Feature","geometry":{"type":"Point","coordinates":[-122.59835,41.711528]}},{"properties":{"close date":null,"remaining capacity (tons)":152000,"city":"San Jose","start date":36326,"$/ ton":54.0,"acres":88,"latitude":37.43491,"code":"CA3581","county":"Santa Clara","volume-weighted tip fee":"1357.02","waste shed":"Exclusive or Captive","type":"LF","tons /day":25.13,"access":"Highway","longitude":-121.947484,"facility name":"Zanker Road Landfill","id":"a62vyi00jfiz","map label":"CA-186","group":"LF","state":"CA","location":"675 Los Esteros Rd"},"type":"Feature","geometry":{"type":"Point","coordinates":[-121.947484,37.43491]}}],"is_temporal":false,"author":{"url":"","metadata":"","contact_name":"","contact_address":"","source":"","contact_phone":""},"source":"","pagination":{"sort":null,"start":0,"total":129,"limit":1000000},"state":"complete","tags":"","published":"2014-08-13T04:16:53-04:00","id":114959}