{"type":"FeatureCollection","data_type":"Dataset","url_type":null,"permissions":[{"permissions":{"download":true,"view":true},"group_id":"everyone"}],"classification":null,"title":"Senior Survey Spreadsheet V2","count":370,"stream_id":115589,"contributor":{"url":"http://geocommons.com/users/25562","name":"smeharbinger"},"data_attributes":null,"calculation_params":null,"icon_link":null,"link":"http://geocommons.com/overlays/115589.json","extent":[-170.833,-14.3217,-69.4331,58.2564],"geometry_types":["point"],"unique_name":null,"name":"Senior Survey Spreadsheet V2","feature_count":370,"description":"","next_feature":null,"is_raster":false,"short_classification":"Y","stats":{},"features":[{"properties":{"city":"Athens","univesity":"University Georgia","id":"a665wsxbvr32","student":null,"state":"GA"},"type":"Feature","geometry":{"type":"Point","coordinates":[-93.976862,34.314552]}},{"properties":{"city":"Atlanta","univesity":"Clark Atlanta University","id":"a665wsxddh7n","student":null,"state":"GA"},"type":"Feature","geometry":{"type":"Point","coordinates":[-84.387982,33.748995]}},{"properties":{"city":"Austin","univesity":"University of Texas","id":"a665wsnr7g4v","student":null,"state":"TX"},"type":"Feature","geometry":{"type":"Point","coordinates":[-97.743061,30.267153]}},{"properties":{"city":"Baldwin","univesity":"Baker University","id":"a665wskxy6uc","student":null,"state":"KS"},"type":"Feature","geometry":{"type":"Point","coordinates":[-94.096869,36.048413]}},{"properties":{"city":"Bloomington","univesity":"Indiana University","id":"a665wsoqoqca","student":null,"state":"IN"},"type":"Feature","geometry":{"type":"Point","coordinates":[-77.011365,38.916778]}},{"properties":{"city":"Boston","univesity":"Tufts University","id":"a665wskkcyn1","student":null,"state":"MA"},"type":"Feature","geometry":{"type":"Point","coordinates":[-71.059773,42.358431]}},{"properties":{"city":"Boulder","univesity":"University of Colorado","id":"a665wsjs8gyf","student":null,"state":"CO"},"type":"Feature","geometry":{"type":"Point","coordinates":[-89.225627,38.696715]}},{"properties":{"city":"Brooklyn","univesity":"Pratt Institute","id":"a665wsjbhr34","student":null,"state":"NY"},"type":"Feature","geometry":{"type":"Point","coordinates":[-86.615271,34.22593]}},{"properties":{"city":"Buena Vista","univesity":"Southern Virginia University","id":"a665wsw6x3x2","student":null,"state":"VA"},"type":"Feature","geometry":{"type":"Point","coordinates":[-92.476268,35.256192]}},{"properties":{"city":"Charlottesville","univesity":"University of Virginia","id":"a665wsjtt77n","student":null,"state":"VA"},"type":"Feature","geometry":{"type":"Point","coordinates":[-79.237822,42.304503]}},{"properties":{"city":"Chicago","univesity":"DePaul University","id":"a665wsw5yt0l","student":null,"state":"IL"},"type":"Feature","geometry":{"type":"Point","coordinates":[-87.650052,41.850033]}},{"properties":{"city":"Chicago","univesity":"Colombia College","id":"a665wsucb1ox","student":null,"state":"IL"},"type":"Feature","geometry":{"type":"Point","coordinates":[-87.650052,41.850033]}},{"properties":{"city":"Chicago","univesity":"SAIC","id":"a665wsrz26yz","student":null,"state":"IL"},"type":"Feature","geometry":{"type":"Point","coordinates":[-87.650052,41.850033]}},{"properties":{"city":"Chicago","univesity":"DePaul University","id":"a665wsu40t4l","student":null,"state":"IL"},"type":"Feature","geometry":{"type":"Point","coordinates":[-87.650052,41.850033]}},{"properties":{"city":"Chicago","univesity":"Chicago School of Violin Making","id":"a665wshq5qao","student":null,"state":"IL"},"type":"Feature","geometry":{"type":"Point","coordinates":[-87.650052,41.850033]}},{"properties":{"city":"Columbia","univesity":"University of Missouri","id":"a665wsolmz90","student":null,"state":"MO"},"type":"Feature","geometry":{"type":"Point","coordinates":[-92.334072,38.951705]}},{"properties":{"city":"Columbia","univesity":"Stephens College","id":"a665wsucn4vk","student":null,"state":"MO"},"type":"Feature","geometry":{"type":"Point","coordinates":[-92.334072,38.951705]}},{"properties":{"city":"Conway","univesity":"Coastal Carolina University","id":"a665wsjzt6fp","student":null,"state":"SC"},"type":"Feature","geometry":{"type":"Point","coordinates":[-81.330625,28.502781]}},{"properties":{"city":"Crete","univesity":"Doane College","id":"a665wsxhmd6g","student":null,"state":"NE"},"type":"Feature","geometry":{"type":"Point","coordinates":[-91.596793,33.843715]}},{"properties":{"city":"Dallas","univesity":"Southern Methodist University","id":"a665wss7ocor","student":null,"state":"TX"},"type":"Feature","geometry":{"type":"Point","coordinates":[-95.992775,36.153982]}},{"properties":{"city":"Dayton","univesity":"University of Dayton","id":"a665wsv7xeyq","student":null,"state":"OH"},"type":"Feature","geometry":{"type":"Point","coordinates":[-84.191607,39.758948]}},{"properties":{"city":"Denver","univesity":"Colorado Christian University","id":"a665wsonjam8","student":null,"state":"CO"},"type":"Feature","geometry":{"type":"Point","coordinates":[-104.984703,39.739154]}},{"properties":{"city":"Edmund","univesity":"Oklahoma Christian University","id":"a665wskezy7s","student":null,"state":"OK"},"type":"Feature","geometry":{"type":"Point","coordinates":[-97.478095,35.652832]}},{"properties":{"city":"Emporia","univesity":"Emporia State University","id":"a665wslb1hbh","student":null,"state":"KS"},"type":"Feature","geometry":{"type":"Point","coordinates":[-91.435395,33.122067]}},{"properties":{"city":"Eugene","univesity":"University of Oregon","id":"a665wsj7czn9","student":null,"state":"OR"},"type":"Feature","geometry":{"type":"Point","coordinates":[-123.086754,44.052069]}},{"properties":{"city":"Evanston","univesity":"Northwestern University","id":"a665wsvplkn0","student":null,"state":"IL"},"type":"Feature","geometry":{"type":"Point","coordinates":[-104.938588,40.106928]}},{"properties":{"city":"Fayetteville","univesity":"University of Arkansas","id":"a665wsut03qq","student":"Logan Weckbaugh","state":"AR"},"type":"Feature","geometry":{"type":"Point","coordinates":[-78.878359,35.052664]}},{"properties":{"city":"Fort Collins","univesity":"Colorado State University","id":"a665wso0cno1","student":null,"state":"CO"},"type":"Feature","geometry":{"type":"Point","coordinates":[-91.954583,34.458984]}},{"properties":{"city":"Fort Scott","univesity":"Fort Scott Community College","id":"a665wsruyecx","student":null,"state":"KS"},"type":"Feature","geometry":{"type":"Point","coordinates":[-91.954583,34.458984]}},{"properties":{"city":"Fort Worth","univesity":"Texas Christian University","id":"a665wstj27pc","student":null,"state":"TX"},"type":"Feature","geometry":{"type":"Point","coordinates":[-91.954583,34.458984]}},{"properties":{"city":"Fulton","univesity":"William Woods College","id":"a665wswsrcwd","student":null,"state":"MO"},"type":"Feature","geometry":{"type":"Point","coordinates":[-90.796223,34.804263]}},{"properties":{"city":"Goshen","univesity":"Goshen College","id":"a665wsx2612o","student":null,"state":"IN"},"type":"Feature","geometry":{"type":"Point","coordinates":[-112.083304,43.309639]}},{"properties":{"city":"Granville","univesity":"Denison","id":"a665wsw52d86","student":null,"state":"OH"},"type":"Feature","geometry":{"type":"Point","coordinates":[-90.712612,35.632301]}},{"properties":{"city":"Greenville","univesity":"Furman University","id":"a665wsqslg74","student":null,"state":"SC"},"type":"Feature","geometry":{"type":"Point","coordinates":[-90.712612,35.632301]}},{"properties":{"city":"Greystone","univesity":"Culinary Institute of America","id":"a665wsw7n489","student":null,"state":"CA"},"type":"Feature","geometry":{"type":"Point","coordinates":[-86.508321,33.92621]}},{"properties":{"city":"Grinnell","univesity":"Grinnell College","id":"a665wssd3d8r","student":null,"state":"IA"},"type":"Feature","geometry":{"type":"Point","coordinates":[-118.777868,34.11445]}},{"properties":{"city":"Hanover","univesity":"Dartmouth College","id":"a665wsmjxkdv","student":null,"state":"NH"},"type":"Feature","geometry":{"type":"Point","coordinates":[-86.202472,33.004843]}},{"properties":{"city":"Hastings","univesity":"Hastings College","id":"a665wswc3q56","student":null,"state":"NE"},"type":"Feature","geometry":{"type":"Point","coordinates":[-85.92944,41.383658]}},{"properties":{"city":"Hays","univesity":"Fort Hays State University","id":"a665wsuqzl7i","student":null,"state":"KS"},"type":"Feature","geometry":{"type":"Point","coordinates":[-111.684405,43.641858]}},{"properties":{"city":"Ithaca","univesity":"Cornell University","id":"a665wsmdbf9h","student":null,"state":"NY"},"type":"Feature","geometry":{"type":"Point","coordinates":[-84.553286,39.937273]}},{"properties":{"city":"Overland Park","univesity":"JCCC","id":"a665wsjp81fh","student":null,"state":"KS"},"type":"Feature","geometry":{"type":"Point","coordinates":[-94.670792,38.982228]}},{"properties":{"city":"Kalamazoo","univesity":"Kalamazoo College","id":"a665wsqh0ydx","student":null,"state":"MI"},"type":"Feature","geometry":{"type":"Point","coordinates":[-115.071916,32.997542]}},{"properties":{"city":"Kansas City","univesity":"Kansas City Art Institute","id":"a665wsicpytz","student":null,"state":"MO"},"type":"Feature","geometry":{"type":"Point","coordinates":[-94.627457,39.114171]}},{"properties":{"city":"Kansas City","univesity":"Rockhurst University","id":"a665wsh9wje5","student":null,"state":"MO"},"type":"Feature","geometry":{"type":"Point","coordinates":[-94.627457,39.114171]}},{"properties":{"city":"Kansas City","univesity":"Working","id":"a665wsxc3i7o","student":null,"state":"KS"},"type":"Feature","geometry":{"type":"Point","coordinates":[-94.627457,39.114171]}},{"properties":{"city":"Kansas City","univesity":"Will return to Sweden for highschool","id":"a665wsmmwzeh","student":null,"state":"KS"},"type":"Feature","geometry":{"type":"Point","coordinates":[-94.627457,39.114171]}},{"properties":{"city":"Kansas City","univesity":"UMKC","id":"a665wsr2yszu","student":null,"state":"MO"},"type":"Feature","geometry":{"type":"Point","coordinates":[-94.627457,39.114171]}},{"properties":{"city":"Kansas City","univesity":"UMKC","id":"a665wsokp5gs","student":null,"state":"MO"},"type":"Feature","geometry":{"type":"Point","coordinates":[-94.627457,39.114171]}},{"properties":{"city":"Kansas City","univesity":"UMKC","id":"a665wsuiiqst","student":null,"state":"MO"},"type":"Feature","geometry":{"type":"Point","coordinates":[-94.627457,39.114171]}},{"properties":{"city":"Kansas City","univesity":"Undecided","id":"a665wsivwszu","student":null,"state":"KS"},"type":"Feature","geometry":{"type":"Point","coordinates":[-94.627457,39.114171]}},{"properties":{"city":"Kansas City","univesity":"Will return to Denmark for highschool","id":"a665wsj6xwyg","student":null,"state":"KS"},"type":"Feature","geometry":{"type":"Point","coordinates":[-94.627457,39.114171]}},{"properties":{"city":"Kansas City","univesity":"Undecided","id":"a665wsk6djvl","student":null,"state":"KS"},"type":"Feature","geometry":{"type":"Point","coordinates":[-94.627457,39.114171]}},{"properties":{"city":"Kansas City","univesity":"Undecided","id":"a665wske3vpx","student":null,"state":"KS"},"type":"Feature","geometry":{"type":"Point","coordinates":[-94.627457,39.114171]}},{"properties":{"city":"Kansas City","univesity":"Military","id":"a665wsmz5hfz","student":null,"state":"KS"},"type":"Feature","geometry":{"type":"Point","coordinates":[-94.627457,39.114171]}},{"properties":{"city":"Kansas City","univesity":"Will return to Denmark to study","id":"a665wsuu9n8y","student":null,"state":"KS"},"type":"Feature","geometry":{"type":"Point","coordinates":[-94.627457,39.114171]}},{"properties":{"city":"Kansas City","univesity":"Undecided","id":"a665wsuxyo82","student":null,"state":"KS"},"type":"Feature","geometry":{"type":"Point","coordinates":[-94.627457,39.114171]}},{"properties":{"city":"Kansas City","univesity":"Military","id":"a665wsu0elcl","student":null,"state":"KS"},"type":"Feature","geometry":{"type":"Point","coordinates":[-94.627457,39.114171]}},{"properties":{"city":"Kansas City","univesity":"UMKC","id":"a665wsvurjes","student":null,"state":"MO"},"type":"Feature","geometry":{"type":"Point","coordinates":[-94.627457,39.114171]}},{"properties":{"city":"Kansas City","univesity":"Will return to Belgium for university","id":"a665wsr8acms","student":null,"state":"KS"},"type":"Feature","geometry":{"type":"Point","coordinates":[-94.627457,39.114171]}},{"properties":{"city":"Kansas City","univesity":"Kansas City Art Institute","id":"a665wsx6mtf3","student":null,"state":"MO"},"type":"Feature","geometry":{"type":"Point","coordinates":[-94.627457,39.114171]}},{"properties":{"city":"Kirksville","univesity":"Truman State University","id":"a665wswc77j0","student":null,"state":"MO"},"type":"Feature","geometry":{"type":"Point","coordinates":[-88.668398,39.570591]}},{"properties":{"city":"Kirksville","univesity":"Truman State University","id":"a665wspw3h45","student":null,"state":"MO"},"type":"Feature","geometry":{"type":"Point","coordinates":[-88.668398,39.570591]}},{"properties":{"city":"Kirksville","univesity":"Truman State University","id":"a665wswx18yn","student":null,"state":"MO"},"type":"Feature","geometry":{"type":"Point","coordinates":[-88.668398,39.570591]}},{"properties":{"city":"Kirksville","univesity":"Truman State University","id":"a665wsq4kena","student":null,"state":"MO"},"type":"Feature","geometry":{"type":"Point","coordinates":[-88.668398,39.570591]}},{"properties":{"city":"LA","univesity":"FIDM or Regis College","id":"a665wshrbaec","student":null,"state":"CA"},"type":"Feature","geometry":{"type":"Point","coordinates":[-107.882021,40.526636]}},{"properties":{"city":"Lamoni","univesity":"Graceland University","id":"a665wsr9hci6","student":null,"state":"IA"},"type":"Feature","geometry":{"type":"Point","coordinates":[-82.303981,27.945578]}},{"properties":{"city":"Langston","univesity":"Langston University","id":"a665wsu8c2qq","student":null,"state":"OK"},"type":"Feature","geometry":{"type":"Point","coordinates":[-118.136739,34.698041]}},{"properties":{"city":"Laramie","univesity":"University of Wyoming","id":"a665wshyztcu","student":null,"state":"WY"},"type":"Feature","geometry":{"type":"Point","coordinates":[-88.443173,47.237426]}},{"properties":{"city":"Las Cruces","univesity":"New Mexico State","id":"a665wssz5llq","student":null,"state":"NM"},"type":"Feature","geometry":{"type":"Point","coordinates":[-106.778337,32.312316]}},{"properties":{"city":"Lawrence","univesity":"University of Kansas","id":"a665wsu3t1sp","student":null,"state":"KS"},"type":"Feature","geometry":{"type":"Point","coordinates":[-85.531072,34.232316]}},{"properties":{"city":"Lawrence","univesity":"University of Kansas","id":"a665wsnepk70","student":null,"state":"KS"},"type":"Feature","geometry":{"type":"Point","coordinates":[-85.531072,34.232316]}},{"properties":{"city":"Lawrence","univesity":"University of Kansas","id":"a665wswp95eb","student":null,"state":"KS"},"type":"Feature","geometry":{"type":"Point","coordinates":[-85.531072,34.232316]}},{"properties":{"city":"Lawrence","univesity":"University of Kansas","id":"a665wsl5s38r","student":null,"state":"KS"},"type":"Feature","geometry":{"type":"Point","coordinates":[-85.531072,34.232316]}},{"properties":{"city":"Lawrence","univesity":"University of Kansas","id":"a665wsvi1ucu","student":null,"state":"KS"},"type":"Feature","geometry":{"type":"Point","coordinates":[-85.531072,34.232316]}},{"properties":{"city":"Lawrence","univesity":"University of Kansas","id":"a665wskgcdin","student":null,"state":"KS"},"type":"Feature","geometry":{"type":"Point","coordinates":[-85.531072,34.232316]}},{"properties":{"city":"Lawrence","univesity":"University of Kansas","id":"a665wsiwhl1j","student":null,"state":"KS"},"type":"Feature","geometry":{"type":"Point","coordinates":[-85.531072,34.232316]}},{"properties":{"city":"Lawrence","univesity":"University of Kansas","id":"a665wspbpn38","student":null,"state":"KS"},"type":"Feature","geometry":{"type":"Point","coordinates":[-85.531072,34.232316]}},{"properties":{"city":"Lawrence","univesity":"University of Kansas","id":"a665wsidb7rh","student":null,"state":"KS"},"type":"Feature","geometry":{"type":"Point","coordinates":[-85.531072,34.232316]}},{"properties":{"city":"Lawrence","univesity":"University of Kansas","id":"a665wssh65qc","student":null,"state":"KS"},"type":"Feature","geometry":{"type":"Point","coordinates":[-85.531072,34.232316]}},{"properties":{"city":"Lawrence","univesity":"University of Kansas","id":"a665wsi7mgge","student":null,"state":"KS"},"type":"Feature","geometry":{"type":"Point","coordinates":[-85.531072,34.232316]}},{"properties":{"city":"Lawrence","univesity":"University of Kansas","id":"a665wsxpffdd","student":null,"state":"KS"},"type":"Feature","geometry":{"type":"Point","coordinates":[-85.531072,34.232316]}},{"properties":{"city":"Lawrence","univesity":"University of Kansas","id":"a665wsj17pai","student":null,"state":"KS"},"type":"Feature","geometry":{"type":"Point","coordinates":[-85.531072,34.232316]}},{"properties":{"city":"Lawrence","univesity":"University of Kansas","id":"a665wsxiog1d","student":null,"state":"KS"},"type":"Feature","geometry":{"type":"Point","coordinates":[-85.531072,34.232316]}},{"properties":{"city":"Lawrence","univesity":"University of Kansas","id":"a665wsotypf5","student":null,"state":"KS"},"type":"Feature","geometry":{"type":"Point","coordinates":[-85.531072,34.232316]}},{"properties":{"city":"Lawrence","univesity":"University of Kansas","id":"a665wsob8ilw","student":null,"state":"KS"},"type":"Feature","geometry":{"type":"Point","coordinates":[-85.531072,34.232316]}},{"properties":{"city":"Lawrence","univesity":"University of Kansas","id":"a665wspaqeus","student":null,"state":"KS"},"type":"Feature","geometry":{"type":"Point","coordinates":[-85.531072,34.232316]}},{"properties":{"city":"Lawrence","univesity":"University of Kansas","id":"a665wswy9p0q","student":null,"state":"KS"},"type":"Feature","geometry":{"type":"Point","coordinates":[-85.531072,34.232316]}},{"properties":{"city":"Lawrence","univesity":"University of Kansas","id":"a665wsx169fw","student":null,"state":"KS"},"type":"Feature","geometry":{"type":"Point","coordinates":[-85.531072,34.232316]}},{"properties":{"city":"Lawrence","univesity":"University of Kansas","id":"a665wsl1k1sl","student":null,"state":"KS"},"type":"Feature","geometry":{"type":"Point","coordinates":[-85.531072,34.232316]}},{"properties":{"city":"Lawrence","univesity":"University of Kansas","id":"a665wspgui0h","student":null,"state":"KS"},"type":"Feature","geometry":{"type":"Point","coordinates":[-85.531072,34.232316]}},{"properties":{"city":"Lawrence","univesity":"University of Kansas","id":"a665wskdoqhm","student":null,"state":"KS"},"type":"Feature","geometry":{"type":"Point","coordinates":[-85.531072,34.232316]}},{"properties":{"city":"Lawrence","univesity":"University of Kansas","id":"a665wstrdofv","student":null,"state":"KS"},"type":"Feature","geometry":{"type":"Point","coordinates":[-85.531072,34.232316]}},{"properties":{"city":"Lawrence","univesity":"University of Kansas","id":"a665wsomzrzf","student":null,"state":"KS"},"type":"Feature","geometry":{"type":"Point","coordinates":[-85.531072,34.232316]}},{"properties":{"city":"Lawrence","univesity":"University of Kansas","id":"a665wsobfz45","student":null,"state":"KS"},"type":"Feature","geometry":{"type":"Point","coordinates":[-85.531072,34.232316]}},{"properties":{"city":"Lawrence","univesity":"University of Kansas","id":"a665wskbe42w","student":null,"state":"KS"},"type":"Feature","geometry":{"type":"Point","coordinates":[-85.531072,34.232316]}},{"properties":{"city":"Lawrence","univesity":"University of Kansas","id":"a665wskxdn5t","student":null,"state":"KS"},"type":"Feature","geometry":{"type":"Point","coordinates":[-85.531072,34.232316]}},{"properties":{"city":"Lawrence","univesity":"University of Kansas","id":"a665wswa27ip","student":null,"state":"KS"},"type":"Feature","geometry":{"type":"Point","coordinates":[-85.531072,34.232316]}},{"properties":{"city":"Lawrence","univesity":"University of Kansas","id":"a665wst310mn","student":null,"state":"KS"},"type":"Feature","geometry":{"type":"Point","coordinates":[-85.531072,34.232316]}},{"properties":{"city":"Lawrence","univesity":"University of Kansas","id":"a665wsiknwbl","student":null,"state":"KS"},"type":"Feature","geometry":{"type":"Point","coordinates":[-85.531072,34.232316]}},{"properties":{"city":"Lawrence","univesity":"University of Kansas","id":"a665wswt63m5","student":null,"state":"KS"},"type":"Feature","geometry":{"type":"Point","coordinates":[-85.531072,34.232316]}},{"properties":{"city":"Lawrence","univesity":"University of Kansas","id":"a665wskiin4k","student":null,"state":"KS"},"type":"Feature","geometry":{"type":"Point","coordinates":[-85.531072,34.232316]}},{"properties":{"city":"Lawrence","univesity":"University of Kansas","id":"a665wsi7gn3z","student":null,"state":"KS"},"type":"Feature","geometry":{"type":"Point","coordinates":[-85.531072,34.232316]}},{"properties":{"city":"Lawrence","univesity":"University of Kansas","id":"a665wsvq17x7","student":null,"state":"KS"},"type":"Feature","geometry":{"type":"Point","coordinates":[-85.531072,34.232316]}},{"properties":{"city":"Lawrence","univesity":"University of Kansas","id":"a665wssuimfm","student":null,"state":"KS"},"type":"Feature","geometry":{"type":"Point","coordinates":[-85.531072,34.232316]}},{"properties":{"city":"Lawrence","univesity":"University of Kansas","id":"a665wskkiv09","student":null,"state":"KS"},"type":"Feature","geometry":{"type":"Point","coordinates":[-85.531072,34.232316]}},{"properties":{"city":"Lawrence","univesity":"University of Kansas","id":"a665wsp1o5gr","student":null,"state":"KS"},"type":"Feature","geometry":{"type":"Point","coordinates":[-85.531072,34.232316]}},{"properties":{"city":"Lawrence","univesity":"University of Kansas","id":"a665wsqgogvi","student":null,"state":"KS"},"type":"Feature","geometry":{"type":"Point","coordinates":[-85.531072,34.232316]}},{"properties":{"city":"Lawrence","univesity":"University of Kansas","id":"a665wsj4t6xe","student":null,"state":"KS"},"type":"Feature","geometry":{"type":"Point","coordinates":[-85.531072,34.232316]}},{"properties":{"city":"Lawrence","univesity":"University of Kansas","id":"a665wss06um4","student":null,"state":"KS"},"type":"Feature","geometry":{"type":"Point","coordinates":[-85.531072,34.232316]}},{"properties":{"city":"Lawrence","univesity":"University of Kansas","id":"a665wsq0cj2b","student":null,"state":"KS"},"type":"Feature","geometry":{"type":"Point","coordinates":[-85.531072,34.232316]}},{"properties":{"city":"Lawrence","univesity":"University of Kansas","id":"a665wshodsx2","student":null,"state":"KS"},"type":"Feature","geometry":{"type":"Point","coordinates":[-85.531072,34.232316]}},{"properties":{"city":"Lawrence","univesity":"University of Kansas","id":"a665wsq003aj","student":null,"state":"KS"},"type":"Feature","geometry":{"type":"Point","coordinates":[-85.531072,34.232316]}},{"properties":{"city":"Lawrence","univesity":"University of Kansas","id":"a665wsueqxrx","student":null,"state":"KS"},"type":"Feature","geometry":{"type":"Point","coordinates":[-85.531072,34.232316]}},{"properties":{"city":"Lawrence","univesity":"University of Kansas","id":"a665wsk1lw5o","student":null,"state":"KS"},"type":"Feature","geometry":{"type":"Point","coordinates":[-85.531072,34.232316]}},{"properties":{"city":"Lawrence","univesity":"University of Kansas","id":"a665wsnac9ko","student":null,"state":"KS"},"type":"Feature","geometry":{"type":"Point","coordinates":[-85.531072,34.232316]}},{"properties":{"city":"Lawrence","univesity":"University of Kansas","id":"a665wsvpxma7","student":null,"state":"KS"},"type":"Feature","geometry":{"type":"Point","coordinates":[-85.531072,34.232316]}},{"properties":{"city":"Lawrence","univesity":"University of Kansas","id":"a665wsozgqpu","student":null,"state":"KS"},"type":"Feature","geometry":{"type":"Point","coordinates":[-85.531072,34.232316]}},{"properties":{"city":"Lawrence","univesity":"University of Kansas","id":"a665wshe1onf","student":null,"state":"KS"},"type":"Feature","geometry":{"type":"Point","coordinates":[-85.531072,34.232316]}},{"properties":{"city":"Lawrence","univesity":"University of Kansas","id":"a665wspby3wo","student":null,"state":"KS"},"type":"Feature","geometry":{"type":"Point","coordinates":[-85.531072,34.232316]}},{"properties":{"city":"Lawrence","univesity":"University of Kansas","id":"a665wsmfiojk","student":null,"state":"KS"},"type":"Feature","geometry":{"type":"Point","coordinates":[-85.531072,34.232316]}},{"properties":{"city":"Lawrence","univesity":"University of Kansas","id":"a665wsun1pm4","student":null,"state":"KS"},"type":"Feature","geometry":{"type":"Point","coordinates":[-85.531072,34.232316]}},{"properties":{"city":"Lawrence","univesity":"University of Kansas","id":"a665wsonb4in","student":null,"state":"KS"},"type":"Feature","geometry":{"type":"Point","coordinates":[-85.531072,34.232316]}},{"properties":{"city":"Lawrence","univesity":"University of Kansas","id":"a665wstx23dn","student":null,"state":"KS"},"type":"Feature","geometry":{"type":"Point","coordinates":[-85.531072,34.232316]}},{"properties":{"city":"Lawrence","univesity":"University of Kansas","id":"a665wsw8humb","student":null,"state":"KS"},"type":"Feature","geometry":{"type":"Point","coordinates":[-85.531072,34.232316]}},{"properties":{"city":"Lawrence","univesity":"University of Kansas","id":"a665wsqyy729","student":null,"state":"KS"},"type":"Feature","geometry":{"type":"Point","coordinates":[-85.531072,34.232316]}},{"properties":{"city":"Lawrence","univesity":"University of Kansas","id":"a665wsmhfdt4","student":null,"state":"KS"},"type":"Feature","geometry":{"type":"Point","coordinates":[-85.531072,34.232316]}},{"properties":{"city":"Lawrence","univesity":"University of Kansas","id":"a665wsn0hpml","student":null,"state":"KS"},"type":"Feature","geometry":{"type":"Point","coordinates":[-85.531072,34.232316]}},{"properties":{"city":"Lawrence","univesity":"University of Kansas","id":"a665wskdqcs3","student":null,"state":"KS"},"type":"Feature","geometry":{"type":"Point","coordinates":[-85.531072,34.232316]}},{"properties":{"city":"Lawrence","univesity":"University of Kansas","id":"a665wsqawq3u","student":null,"state":"KS"},"type":"Feature","geometry":{"type":"Point","coordinates":[-85.531072,34.232316]}},{"properties":{"city":"Lawrence","univesity":"University of Kansas","id":"a665wsr1wbkr","student":null,"state":"KS"},"type":"Feature","geometry":{"type":"Point","coordinates":[-85.531072,34.232316]}},{"properties":{"city":"Lawrence","univesity":"University of Kansas","id":"a665wspt0yxd","student":null,"state":"KS"},"type":"Feature","geometry":{"type":"Point","coordinates":[-85.531072,34.232316]}},{"properties":{"city":"Lawrence","univesity":"University of Kansas","id":"a665wspoe423","student":null,"state":"KS"},"type":"Feature","geometry":{"type":"Point","coordinates":[-85.531072,34.232316]}},{"properties":{"city":"Lawrence","univesity":"University of Kansas","id":"a665wsocg9ts","student":null,"state":"KS"},"type":"Feature","geometry":{"type":"Point","coordinates":[-85.531072,34.232316]}},{"properties":{"city":"Lawrence","univesity":"University of Kansas","id":"a665wstvrzy7","student":null,"state":"KS"},"type":"Feature","geometry":{"type":"Point","coordinates":[-85.531072,34.232316]}},{"properties":{"city":"Lawrence","univesity":"University of Kansas","id":"a665wspl1ymu","student":null,"state":"KS"},"type":"Feature","geometry":{"type":"Point","coordinates":[-85.531072,34.232316]}},{"properties":{"city":"Lawrence","univesity":"University of Kansas","id":"a665wsp9zwod","student":null,"state":"KS"},"type":"Feature","geometry":{"type":"Point","coordinates":[-85.531072,34.232316]}},{"properties":{"city":"Lawrence","univesity":"University of Kansas","id":"a665wsmslx4h","student":null,"state":"KS"},"type":"Feature","geometry":{"type":"Point","coordinates":[-85.531072,34.232316]}},{"properties":{"city":"Lawrence","univesity":"University of Kansas","id":"a665wstaytn5","student":null,"state":"KS"},"type":"Feature","geometry":{"type":"Point","coordinates":[-85.531072,34.232316]}},{"properties":{"city":"Lawrence","univesity":"University of Kansas","id":"a665wsusjfrc","student":null,"state":"KS"},"type":"Feature","geometry":{"type":"Point","coordinates":[-85.531072,34.232316]}},{"properties":{"city":"Lawrence","univesity":"University of Kansas","id":"a665wskb10ij","student":null,"state":"KS"},"type":"Feature","geometry":{"type":"Point","coordinates":[-85.531072,34.232316]}},{"properties":{"city":"Lawrence","univesity":"University of Kansas","id":"a665wsm8ym3e","student":null,"state":"KS"},"type":"Feature","geometry":{"type":"Point","coordinates":[-85.531072,34.232316]}},{"properties":{"city":"Lawrence","univesity":"University of Kansas","id":"a665wsnf4jo0","student":null,"state":"KS"},"type":"Feature","geometry":{"type":"Point","coordinates":[-85.531072,34.232316]}},{"properties":{"city":"Lawrence","univesity":"University of Kansas","id":"a665wswe4t51","student":null,"state":"KS"},"type":"Feature","geometry":{"type":"Point","coordinates":[-85.531072,34.232316]}},{"properties":{"city":"Lawrence","univesity":"University of Kansas","id":"a665wsro8xl0","student":null,"state":"KS"},"type":"Feature","geometry":{"type":"Point","coordinates":[-85.531072,34.232316]}},{"properties":{"city":"Lawrence","univesity":"University of Kansas","id":"a665wsmd63nq","student":null,"state":"KS"},"type":"Feature","geometry":{"type":"Point","coordinates":[-85.531072,34.232316]}},{"properties":{"city":"Lawrence","univesity":"University of Kansas","id":"a665wshqi4rc","student":null,"state":"KS"},"type":"Feature","geometry":{"type":"Point","coordinates":[-85.531072,34.232316]}},{"properties":{"city":"Lawrence","univesity":"University of Kansas","id":"a665wsu75mpn","student":null,"state":"KS"},"type":"Feature","geometry":{"type":"Point","coordinates":[-85.531072,34.232316]}},{"properties":{"city":"Lawrence","univesity":"University of Kansas","id":"a665wsr81wmw","student":null,"state":"KS"},"type":"Feature","geometry":{"type":"Point","coordinates":[-85.531072,34.232316]}},{"properties":{"city":"Lawrence","univesity":"University of Kansas","id":"a665wsmx0az4","student":null,"state":"KS"},"type":"Feature","geometry":{"type":"Point","coordinates":[-85.531072,34.232316]}},{"properties":{"city":"Lawrence","univesity":"University of Kansas","id":"a665wsrhn94b","student":null,"state":"KS"},"type":"Feature","geometry":{"type":"Point","coordinates":[-85.531072,34.232316]}},{"properties":{"city":"Lawrence","univesity":"University of Kansas","id":"a665wsokhzyt","student":null,"state":"KS"},"type":"Feature","geometry":{"type":"Point","coordinates":[-85.531072,34.232316]}},{"properties":{"city":"Lawrence","univesity":"University of Kansas","id":"a665wswo0mft","student":null,"state":"KS"},"type":"Feature","geometry":{"type":"Point","coordinates":[-85.531072,34.232316]}},{"properties":{"city":"Lawrence","univesity":"University of Kansas","id":"a665wsu9juqz","student":null,"state":"KS"},"type":"Feature","geometry":{"type":"Point","coordinates":[-85.531072,34.232316]}},{"properties":{"city":"Lawrence","univesity":"University of Kansas","id":"a665wsox9dxt","student":null,"state":"KS"},"type":"Feature","geometry":{"type":"Point","coordinates":[-85.531072,34.232316]}},{"properties":{"city":"Lawrence","univesity":"University of Kansas","id":"a665wsileibt","student":null,"state":"KS"},"type":"Feature","geometry":{"type":"Point","coordinates":[-85.531072,34.232316]}},{"properties":{"city":"Lawrence","univesity":"University of Kansas","id":"a665wsoimdv9","student":null,"state":"KS"},"type":"Feature","geometry":{"type":"Point","coordinates":[-85.531072,34.232316]}},{"properties":{"city":"Lawrence","univesity":"University of Kansas","id":"a665wsvkf6uw","student":null,"state":"KS"},"type":"Feature","geometry":{"type":"Point","coordinates":[-85.531072,34.232316]}},{"properties":{"city":"Lawrence","univesity":"University of Kansas","id":"a665wsm2mwsx","student":null,"state":"KS"},"type":"Feature","geometry":{"type":"Point","coordinates":[-85.531072,34.232316]}},{"properties":{"city":"Lawrence","univesity":"University of Kansas","id":"a665wsmklftj","student":null,"state":"KS"},"type":"Feature","geometry":{"type":"Point","coordinates":[-85.531072,34.232316]}},{"properties":{"city":"Lawrence","univesity":"University of Kansas","id":"a665wsoounni","student":null,"state":"KS"},"type":"Feature","geometry":{"type":"Point","coordinates":[-85.531072,34.232316]}},{"properties":{"city":"Lawrence","univesity":"University of Kansas","id":"a665wsuz8gur","student":null,"state":"KS"},"type":"Feature","geometry":{"type":"Point","coordinates":[-85.531072,34.232316]}},{"properties":{"city":"Lawrence","univesity":"University of Kansas","id":"a665wsl9l4pg","student":null,"state":"KS"},"type":"Feature","geometry":{"type":"Point","coordinates":[-85.531072,34.232316]}},{"properties":{"city":"Lawrence","univesity":"University of Kansas","id":"a665wsmh1v1g","student":null,"state":"KS"},"type":"Feature","geometry":{"type":"Point","coordinates":[-85.531072,34.232316]}},{"properties":{"city":"Lawrence","univesity":"University of Kansas","id":"a665wskxnu5h","student":null,"state":"KS"},"type":"Feature","geometry":{"type":"Point","coordinates":[-85.531072,34.232316]}},{"properties":{"city":"Lawrence","univesity":"University of Kansas","id":"a665wst3hk3q","student":null,"state":"KS"},"type":"Feature","geometry":{"type":"Point","coordinates":[-85.531072,34.232316]}},{"properties":{"city":"Lawrence","univesity":"University of Kansas","id":"a665wsu059hx","student":null,"state":"KS"},"type":"Feature","geometry":{"type":"Point","coordinates":[-85.531072,34.232316]}},{"properties":{"city":"Lawrence","univesity":"University of Kansas","id":"a665wsp0n551","student":null,"state":"KS"},"type":"Feature","geometry":{"type":"Point","coordinates":[-85.531072,34.232316]}},{"properties":{"city":"Lawrence","univesity":"University of Kansas","id":"a665wskuapp4","student":null,"state":"KS"},"type":"Feature","geometry":{"type":"Point","coordinates":[-85.531072,34.232316]}},{"properties":{"city":"Lawrence","univesity":"University of Kansas","id":"a665wsqpk34u","student":null,"state":"KS"},"type":"Feature","geometry":{"type":"Point","coordinates":[-85.531072,34.232316]}},{"properties":{"city":"Lawrence","univesity":"University of Kansas","id":"a665wsrni26k","student":null,"state":"KS"},"type":"Feature","geometry":{"type":"Point","coordinates":[-85.531072,34.232316]}},{"properties":{"city":"Lawrence","univesity":"University of Kansas","id":"a665wswbo6cg","student":null,"state":"KS"},"type":"Feature","geometry":{"type":"Point","coordinates":[-85.531072,34.232316]}},{"properties":{"city":"Lawrence","univesity":"University of Kansas","id":"a665wsi673fv","student":null,"state":"KS"},"type":"Feature","geometry":{"type":"Point","coordinates":[-85.531072,34.232316]}},{"properties":{"city":"Lexington","univesity":"Washington and Lee University","id":"a665wsjulnke","student":null,"state":"VA"},"type":"Feature","geometry":{"type":"Point","coordinates":[-84.477715,37.988689]}},{"properties":{"city":"Lincoln","univesity":"University of Nebraska","id":"a665wsnl3m1w","student":null,"state":"NE"},"type":"Feature","geometry":{"type":"Point","coordinates":[-96.66696,40.800001]}},{"properties":{"city":"Lincoln","univesity":"University of Nebraska","id":"a665wskb5s97","student":null,"state":"NE"},"type":"Feature","geometry":{"type":"Point","coordinates":[-96.66696,40.800001]}},{"properties":{"city":"Longmont","univesity":"Front Range Community College","id":"a665wslv0vri","student":null,"state":"CO"},"type":"Feature","geometry":{"type":"Point","coordinates":[-105.1633,40.165634]}},{"properties":{"city":"Los Angeles","univesity":"University of Southern California","id":"a665wsr74wsm","student":null,"state":"CA"},"type":"Feature","geometry":{"type":"Point","coordinates":[-118.243685,34.052234]}},{"properties":{"city":"Los Angeles","univesity":"University of Southern California","id":"a665wswfj7cc","student":null,"state":"CA"},"type":"Feature","geometry":{"type":"Point","coordinates":[-118.243685,34.052234]}},{"properties":{"city":"Madison","univesity":"University of Wisconsin","id":"a665wssf645y","student":null,"state":"WI"},"type":"Feature","geometry":{"type":"Point","coordinates":[-89.40123,43.073052]}},{"properties":{"city":"Madison","univesity":"University of Wisconsin","id":"a665wsxsk8qo","student":null,"state":"WI"},"type":"Feature","geometry":{"type":"Point","coordinates":[-89.40123,43.073052]}},{"properties":{"city":"Manhattan","univesity":"Kansas State University","id":"a665wsjsleb1","student":null,"state":"KS"},"type":"Feature","geometry":{"type":"Point","coordinates":[-86.927511,39.555044]}},{"properties":{"city":"Manhattan","univesity":"Kansas State University","id":"a665wss1xlpd","student":null,"state":"KS"},"type":"Feature","geometry":{"type":"Point","coordinates":[-86.927511,39.555044]}},{"properties":{"city":"Manhattan","univesity":"Kansas State University","id":"a665wsskqlns","student":null,"state":"KS"},"type":"Feature","geometry":{"type":"Point","coordinates":[-86.927511,39.555044]}},{"properties":{"city":"Manhattan","univesity":"Kansas State University","id":"a665wstw4vmk","student":null,"state":"KS"},"type":"Feature","geometry":{"type":"Point","coordinates":[-86.927511,39.555044]}},{"properties":{"city":"Manhattan","univesity":"Kansas State University","id":"a665wsvklnew","student":null,"state":"KS"},"type":"Feature","geometry":{"type":"Point","coordinates":[-86.927511,39.555044]}},{"properties":{"city":"Manhattan","univesity":"Kansas State University","id":"a665wsurhatx","student":null,"state":"KS"},"type":"Feature","geometry":{"type":"Point","coordinates":[-86.927511,39.555044]}},{"properties":{"city":"Manhattan","univesity":"Kansas State University","id":"a665wstve9bb","student":null,"state":"KS"},"type":"Feature","geometry":{"type":"Point","coordinates":[-86.927511,39.555044]}},{"properties":{"city":"Manhattan","univesity":"Kansas State University","id":"a665wsqiv3ej","student":null,"state":"KS"},"type":"Feature","geometry":{"type":"Point","coordinates":[-86.927511,39.555044]}},{"properties":{"city":"Manhattan","univesity":"Kansas State University","id":"a665wsqh6st8","student":null,"state":"KS"},"type":"Feature","geometry":{"type":"Point","coordinates":[-86.927511,39.555044]}},{"properties":{"city":"Manhattan","univesity":"Kansas State University","id":"a665wsw5eao1","student":null,"state":"KS"},"type":"Feature","geometry":{"type":"Point","coordinates":[-86.927511,39.555044]}},{"properties":{"city":"Manhattan","univesity":"Kansas State University","id":"a665wsw4j2wp","student":null,"state":"KS"},"type":"Feature","geometry":{"type":"Point","coordinates":[-86.927511,39.555044]}},{"properties":{"city":"Manhattan","univesity":"Kansas State University","id":"a665wsk2h88l","student":null,"state":"KS"},"type":"Feature","geometry":{"type":"Point","coordinates":[-86.927511,39.555044]}},{"properties":{"city":"Manhattan","univesity":"Kansas State University","id":"a665wswudm0h","student":null,"state":"KS"},"type":"Feature","geometry":{"type":"Point","coordinates":[-86.927511,39.555044]}},{"properties":{"city":"Manhattan","univesity":"Kansas State University","id":"a665wssccdyx","student":null,"state":"KS"},"type":"Feature","geometry":{"type":"Point","coordinates":[-86.927511,39.555044]}},{"properties":{"city":"Manhattan","univesity":"Kansas State University","id":"a665wsk9pzo7","student":null,"state":"KS"},"type":"Feature","geometry":{"type":"Point","coordinates":[-86.927511,39.555044]}},{"properties":{"city":"Manhattan","univesity":"Kansas State University","id":"a665wsjhk25u","student":null,"state":"KS"},"type":"Feature","geometry":{"type":"Point","coordinates":[-86.927511,39.555044]}},{"properties":{"city":"Manhattan","univesity":"Kansas State University","id":"a665wsozhzpc","student":null,"state":"KS"},"type":"Feature","geometry":{"type":"Point","coordinates":[-86.927511,39.555044]}},{"properties":{"city":"Manhattan","univesity":"Kansas State University","id":"a665wsmdt6z7","student":null,"state":"KS"},"type":"Feature","geometry":{"type":"Point","coordinates":[-86.927511,39.555044]}},{"properties":{"city":"Manhattan","univesity":"Kansas State University","id":"a665wssywkec","student":null,"state":"KS"},"type":"Feature","geometry":{"type":"Point","coordinates":[-86.927511,39.555044]}},{"properties":{"city":"Manhattan","univesity":"Kansas State University","id":"a665wsjqmklv","student":null,"state":"KS"},"type":"Feature","geometry":{"type":"Point","coordinates":[-86.927511,39.555044]}},{"properties":{"city":"Manhattan","univesity":"Kansas State University","id":"a665wstkx55z","student":null,"state":"KS"},"type":"Feature","geometry":{"type":"Point","coordinates":[-86.927511,39.555044]}},{"properties":{"city":"Manhattan","univesity":"Kansas State University","id":"a665wsq2ooqz","student":null,"state":"KS"},"type":"Feature","geometry":{"type":"Point","coordinates":[-86.927511,39.555044]}},{"properties":{"city":"Manhattan","univesity":"Kansas State University","id":"a665wstl3knd","student":null,"state":"KS"},"type":"Feature","geometry":{"type":"Point","coordinates":[-86.927511,39.555044]}},{"properties":{"city":"Manhattan","univesity":"Kansas State University","id":"a665wsrlqb6o","student":null,"state":"KS"},"type":"Feature","geometry":{"type":"Point","coordinates":[-86.927511,39.555044]}},{"properties":{"city":"Manhattan","univesity":"Kansas State University","id":"a665wsi37gsw","student":null,"state":"KS"},"type":"Feature","geometry":{"type":"Point","coordinates":[-86.927511,39.555044]}},{"properties":{"city":"Manhattan","univesity":"Kansas State University","id":"a665wstz1xg5","student":null,"state":"KS"},"type":"Feature","geometry":{"type":"Point","coordinates":[-86.927511,39.555044]}},{"properties":{"city":"Manhattan","univesity":"Kansas State University","id":"a665wslvo7pn","student":null,"state":"KS"},"type":"Feature","geometry":{"type":"Point","coordinates":[-86.927511,39.555044]}},{"properties":{"city":"Manhattan","univesity":"Kansas State University","id":"a665wsrmw42g","student":null,"state":"KS"},"type":"Feature","geometry":{"type":"Point","coordinates":[-86.927511,39.555044]}},{"properties":{"city":"Manhattan","univesity":"Kansas State University","id":"a665wspv99zp","student":null,"state":"KS"},"type":"Feature","geometry":{"type":"Point","coordinates":[-86.927511,39.555044]}},{"properties":{"city":"Manhattan","univesity":"Kansas State University","id":"a665wsnd2jl7","student":null,"state":"KS"},"type":"Feature","geometry":{"type":"Point","coordinates":[-86.927511,39.555044]}},{"properties":{"city":"Manhattan","univesity":"Kansas State University","id":"a665wss2983u","student":null,"state":"KS"},"type":"Feature","geometry":{"type":"Point","coordinates":[-86.927511,39.555044]}},{"properties":{"city":"Manhattan","univesity":"Kansas State University","id":"a665wss9wpta","student":null,"state":"KS"},"type":"Feature","geometry":{"type":"Point","coordinates":[-86.927511,39.555044]}},{"properties":{"city":"Manhattan","univesity":"Kansas State University","id":"a665wsxnke5a","student":null,"state":"KS"},"type":"Feature","geometry":{"type":"Point","coordinates":[-86.927511,39.555044]}},{"properties":{"city":"Manhattan","univesity":"Kansas State University","id":"a665wskncgqt","student":null,"state":"KS"},"type":"Feature","geometry":{"type":"Point","coordinates":[-86.927511,39.555044]}},{"properties":{"city":"Manhattan","univesity":"Kansas State University","id":"a665wsu66lob","student":null,"state":"KS"},"type":"Feature","geometry":{"type":"Point","coordinates":[-86.927511,39.555044]}},{"properties":{"city":"Manhattan","univesity":"Kansas State University","id":"a665wsq01en8","student":null,"state":"KS"},"type":"Feature","geometry":{"type":"Point","coordinates":[-86.927511,39.555044]}},{"properties":{"city":"Manhattan","univesity":"Kansas State University","id":"a665wstitd4q","student":null,"state":"KS"},"type":"Feature","geometry":{"type":"Point","coordinates":[-86.927511,39.555044]}},{"properties":{"city":"Manhattan","univesity":"Kansas State University","id":"a665wso2k748","student":null,"state":"KS"},"type":"Feature","geometry":{"type":"Point","coordinates":[-86.927511,39.555044]}},{"properties":{"city":"Manhattan","univesity":"Kansas State University","id":"a665wsu9ux44","student":null,"state":"KS"},"type":"Feature","geometry":{"type":"Point","coordinates":[-86.927511,39.555044]}},{"properties":{"city":"Memphis","univesity":"Rhodes College","id":"a665wsjrb8g3","student":null,"state":"TN"},"type":"Feature","geometry":{"type":"Point","coordinates":[-90.04898,35.149534]}},{"properties":{"city":"Memphis","univesity":"Rhodes College","id":"a665wsx56gx2","student":null,"state":"TN"},"type":"Feature","geometry":{"type":"Point","coordinates":[-90.04898,35.149534]}},{"properties":{"city":"Memphis","univesity":"Memphis College of Art","id":"a665wsifwalr","student":null,"state":"TN"},"type":"Feature","geometry":{"type":"Point","coordinates":[-90.04898,35.149534]}},{"properties":{"city":"Memphis","univesity":"Rhodes College","id":"a665wsky63uv","student":null,"state":"TN"},"type":"Feature","geometry":{"type":"Point","coordinates":[-90.04898,35.149534]}},{"properties":{"city":"Montreal","univesity":"HEC Montreal","id":"a665wskuxnme","student":null,"state":"Canada"},"type":"Feature","geometry":{"type":"Point","coordinates":[-94.348548,35.117596]}},{"properties":{"city":"Mount Vernon","univesity":"Cornell College","id":"a665wswvbh0j","student":null,"state":"IA"},"type":"Feature","geometry":{"type":"Point","coordinates":[-72.47953,41.81871]}},{"properties":{"city":"Muncie","univesity":"Ball State University","id":"a665wsvnuv9q","student":null,"state":"IN"},"type":"Feature","geometry":{"type":"Point","coordinates":[-73.591236,41.043986]}},{"properties":{"city":"Nashville","univesity":"Belmont University","id":"a665wslf3lbt","student":null,"state":"TN"},"type":"Feature","geometry":{"type":"Point","coordinates":[-86.784443,36.16589]}},{"properties":{"city":"Nashville","univesity":"Belmont University","id":"a665wsnxo9tr","student":null,"state":"TN"},"type":"Feature","geometry":{"type":"Point","coordinates":[-86.784443,36.16589]}},{"properties":{"city":"Nashville","univesity":"Vanderbilt University","id":"a665wstukofp","student":null,"state":"TN"},"type":"Feature","geometry":{"type":"Point","coordinates":[-86.784443,36.16589]}},{"properties":{"city":"Nashville","univesity":"Vanderbilt University","id":"a665wsu01f3i","student":null,"state":"TN"},"type":"Feature","geometry":{"type":"Point","coordinates":[-86.784443,36.16589]}},{"properties":{"city":"Nashville","univesity":"Vanderbilt University","id":"a665wst9xuxo","student":null,"state":"TN"},"type":"Feature","geometry":{"type":"Point","coordinates":[-86.784443,36.16589]}},{"properties":{"city":"New Haven","univesity":"Yale University","id":"a665wsqr3do0","student":null,"state":"CT"},"type":"Feature","geometry":{"type":"Point","coordinates":[-72.928158,41.308153]}},{"properties":{"city":"New York","univesity":"Columbia University","id":"a665wsqgwrp6","student":null,"state":"NY"},"type":"Feature","geometry":{"type":"Point","coordinates":[-74.005973,40.714269]}},{"properties":{"city":"New York","univesity":"NYU","id":"a665wsv7mzno","student":null,"state":"NY"},"type":"Feature","geometry":{"type":"Point","coordinates":[-74.005973,40.714269]}},{"properties":{"city":"New York","univesity":"Arrojo Cosmetology School","id":"a665wsjo1eqy","student":null,"state":"NY"},"type":"Feature","geometry":{"type":"Point","coordinates":[-74.005973,40.714269]}},{"properties":{"city":"Northfield","univesity":"St. Olaf College","id":"a665wsvc3djl","student":null,"state":"MN"},"type":"Feature","geometry":{"type":"Point","coordinates":[-118.933433,34.406664]}},{"properties":{"city":"Olathe","univesity":"Mid-America Nazarine","id":"a665wsx43szw","student":null,"state":"KS"},"type":"Feature","geometry":{"type":"Point","coordinates":[-94.819129,38.881396]}},{"properties":{"city":"Omaha","univesity":"Creighton University","id":"a665wssn3n9y","student":null,"state":"NE"},"type":"Feature","geometry":{"type":"Point","coordinates":[-95.937792,41.25861]}},{"properties":{"city":"Overland Park","univesity":"JCCC","id":"a665wsn3aj5b","student":null,"state":"KS"},"type":"Feature","geometry":{"type":"Point","coordinates":[-92.280706,34.286764]}},{"properties":{"city":"Overland Park","univesity":"JCCC","id":"a665wslzh39z","student":null,"state":"KS"},"type":"Feature","geometry":{"type":"Point","coordinates":[-92.280706,34.286764]}},{"properties":{"city":"Overland Park","univesity":"JCCC","id":"a665wsqwrmgt","student":null,"state":"KS"},"type":"Feature","geometry":{"type":"Point","coordinates":[-92.280706,34.286764]}},{"properties":{"city":"Overland Park","univesity":"JCCC","id":"a665wsp921r5","student":null,"state":"KS"},"type":"Feature","geometry":{"type":"Point","coordinates":[-92.280706,34.286764]}},{"properties":{"city":"Overland Park","univesity":"JCCC","id":"a665wsugg6bt","student":null,"state":"KS"},"type":"Feature","geometry":{"type":"Point","coordinates":[-92.280706,34.286764]}},{"properties":{"city":"Overland Park","univesity":"JCCC","id":"a665wsppgwi0","student":null,"state":"KS"},"type":"Feature","geometry":{"type":"Point","coordinates":[-92.280706,34.286764]}},{"properties":{"city":"Overland Park","univesity":"JCCC","id":"a665wsscu209","student":null,"state":"KS"},"type":"Feature","geometry":{"type":"Point","coordinates":[-92.280706,34.286764]}},{"properties":{"city":"Overland Park","univesity":"JCCC","id":"a665wsulfiu4","student":null,"state":"KS"},"type":"Feature","geometry":{"type":"Point","coordinates":[-92.280706,34.286764]}},{"properties":{"city":"Overland Park","univesity":"JCCC","id":"a665wso7leq5","student":null,"state":"KS"},"type":"Feature","geometry":{"type":"Point","coordinates":[-92.280706,34.286764]}},{"properties":{"city":"Overland Park","univesity":"JCCC","id":"a665wsnwmqnp","student":null,"state":"KS"},"type":"Feature","geometry":{"type":"Point","coordinates":[-92.280706,34.286764]}},{"properties":{"city":"Overland Park","univesity":"JCCC","id":"a665wsqcttmg","student":null,"state":"KS"},"type":"Feature","geometry":{"type":"Point","coordinates":[-92.280706,34.286764]}},{"properties":{"city":"Overland Park","univesity":"JCCC","id":"a665wsrubuif","student":null,"state":"KS"},"type":"Feature","geometry":{"type":"Point","coordinates":[-92.280706,34.286764]}},{"properties":{"city":"Overland Park","univesity":"JCCC","id":"a665wsqs4hpb","student":null,"state":"KS"},"type":"Feature","geometry":{"type":"Point","coordinates":[-92.280706,34.286764]}},{"properties":{"city":"Overland Park","univesity":"JCCC","id":"a665wskibqhc","student":null,"state":"KS"},"type":"Feature","geometry":{"type":"Point","coordinates":[-92.280706,34.286764]}},{"properties":{"city":"Overland Park","univesity":"JCCC","id":"a665wswcxxpx","student":null,"state":"KS"},"type":"Feature","geometry":{"type":"Point","coordinates":[-92.280706,34.286764]}},{"properties":{"city":"Overland Park","univesity":"JCCC","id":"a665wsinztwa","student":null,"state":"KS"},"type":"Feature","geometry":{"type":"Point","coordinates":[-92.280706,34.286764]}},{"properties":{"city":"Overland Park","univesity":"JCCC","id":"a665wspumbez","student":null,"state":"KS"},"type":"Feature","geometry":{"type":"Point","coordinates":[-92.280706,34.286764]}},{"properties":{"city":"Overland Park","univesity":"JCCC","id":"a665wstpa9sh","student":null,"state":"KS"},"type":"Feature","geometry":{"type":"Point","coordinates":[-92.280706,34.286764]}},{"properties":{"city":"Overland Park","univesity":"JCCC","id":"a665wsq9bcjk","student":null,"state":"KS"},"type":"Feature","geometry":{"type":"Point","coordinates":[-92.280706,34.286764]}},{"properties":{"city":"Overland Park","univesity":"JCCC","id":"a665wswbjb3q","student":null,"state":"KS"},"type":"Feature","geometry":{"type":"Point","coordinates":[-92.280706,34.286764]}},{"properties":{"city":"Overland Park","univesity":"JCCC","id":"a665wsqfe1hi","student":null,"state":"KS"},"type":"Feature","geometry":{"type":"Point","coordinates":[-92.280706,34.286764]}},{"properties":{"city":"Overland Park","univesity":"JCCC","id":"a665wswqx2ic","student":null,"state":"KS"},"type":"Feature","geometry":{"type":"Point","coordinates":[-92.280706,34.286764]}},{"properties":{"city":"Overland Park","univesity":"JCCC","id":"a665wssadcur","student":null,"state":"KS"},"type":"Feature","geometry":{"type":"Point","coordinates":[-92.280706,34.286764]}},{"properties":{"city":"Overland Park","univesity":"JCCC","id":"a665wsqhf2hr","student":null,"state":"KS"},"type":"Feature","geometry":{"type":"Point","coordinates":[-92.280706,34.286764]}},{"properties":{"city":"Overland Park","univesity":"JCCC","id":"a665wsixng7j","student":null,"state":"KS"},"type":"Feature","geometry":{"type":"Point","coordinates":[-92.280706,34.286764]}},{"properties":{"city":"Overland Park","univesity":"JCCC","id":"a665wsqnrin9","student":null,"state":"KS"},"type":"Feature","geometry":{"type":"Point","coordinates":[-92.280706,34.286764]}},{"properties":{"city":"Overland Park","univesity":"JCCC","id":"a665wstdb8b7","student":null,"state":"KS"},"type":"Feature","geometry":{"type":"Point","coordinates":[-92.280706,34.286764]}},{"properties":{"city":"Overland Park","univesity":"JCCC","id":"a665wsu3kn5x","student":null,"state":"KS"},"type":"Feature","geometry":{"type":"Point","coordinates":[-92.280706,34.286764]}},{"properties":{"city":"Overland Park","univesity":"JCCC","id":"a665wss1y2u1","student":null,"state":"KS"},"type":"Feature","geometry":{"type":"Point","coordinates":[-92.280706,34.286764]}},{"properties":{"city":"Overland Park","univesity":"JCCC","id":"a665wsu6tuim","student":null,"state":"KS"},"type":"Feature","geometry":{"type":"Point","coordinates":[-92.280706,34.286764]}},{"properties":{"city":"Overland Park","univesity":"JCCC","id":"a665wspochzi","student":null,"state":"KS"},"type":"Feature","geometry":{"type":"Point","coordinates":[-92.280706,34.286764]}},{"properties":{"city":"Overland Park","univesity":"JCCC","id":"a665wswly4fe","student":null,"state":"KS"},"type":"Feature","geometry":{"type":"Point","coordinates":[-92.280706,34.286764]}},{"properties":{"city":"Overland Park","univesity":"JCCC","id":"a665wsu1231g","student":null,"state":"KS"},"type":"Feature","geometry":{"type":"Point","coordinates":[-92.280706,34.286764]}},{"properties":{"city":"Overland Park","univesity":"JCCC","id":"a665wsp0jkc1","student":null,"state":"KS"},"type":"Feature","geometry":{"type":"Point","coordinates":[-92.280706,34.286764]}},{"properties":{"city":"Overland Park","univesity":"JCCC","id":"a665wspn79t7","student":null,"state":"KS"},"type":"Feature","geometry":{"type":"Point","coordinates":[-92.280706,34.286764]}},{"properties":{"city":"Overland Park","univesity":"JCCC","id":"a665wsnu9fff","student":null,"state":"KS"},"type":"Feature","geometry":{"type":"Point","coordinates":[-92.280706,34.286764]}},{"properties":{"city":"Overland Park","univesity":"JCCC","id":"a665wspdi6iu","student":null,"state":"KS"},"type":"Feature","geometry":{"type":"Point","coordinates":[-92.280706,34.286764]}},{"properties":{"city":"Overland Park","univesity":"JCCC","id":"a665wsliuifq","student":null,"state":"KS"},"type":"Feature","geometry":{"type":"Point","coordinates":[-92.280706,34.286764]}},{"properties":{"city":"Overland Park","univesity":"JCCC","id":"a665wsqlwcel","student":null,"state":"KS"},"type":"Feature","geometry":{"type":"Point","coordinates":[-92.280706,34.286764]}},{"properties":{"city":"Overland Park","univesity":"JCCC","id":"a665wsjfrrq4","student":null,"state":"KS"},"type":"Feature","geometry":{"type":"Point","coordinates":[-92.280706,34.286764]}},{"properties":{"city":"Overland Park","univesity":"JCCC","id":"a665wssw6e9f","student":null,"state":"KS"},"type":"Feature","geometry":{"type":"Point","coordinates":[-92.280706,34.286764]}},{"properties":{"city":"Overland Park","univesity":"JCCC","id":"a665wsl4frwm","student":null,"state":"KS"},"type":"Feature","geometry":{"type":"Point","coordinates":[-92.280706,34.286764]}},{"properties":{"city":"Overland Park","univesity":"JCCC","id":"a665wsqlp5ei","student":null,"state":"KS"},"type":"Feature","geometry":{"type":"Point","coordinates":[-92.280706,34.286764]}},{"properties":{"city":"Overland Park","univesity":"JCCC","id":"a665wsqsjlzr","student":null,"state":"KS"},"type":"Feature","geometry":{"type":"Point","coordinates":[-92.280706,34.286764]}},{"properties":{"city":"Overland Park","univesity":"JCCC","id":"a665wssfvo6c","student":null,"state":"KS"},"type":"Feature","geometry":{"type":"Point","coordinates":[-92.280706,34.286764]}},{"properties":{"city":"Overland Park","univesity":"JCCC","id":"a665wsrbg3xa","student":null,"state":"KS"},"type":"Feature","geometry":{"type":"Point","coordinates":[-92.280706,34.286764]}},{"properties":{"city":"Overland Park","univesity":"JCCC","id":"a665wsxbhqzt","student":null,"state":"KS"},"type":"Feature","geometry":{"type":"Point","coordinates":[-92.280706,34.286764]}},{"properties":{"city":"Overland Park","univesity":"JCCC","id":"a665wskms9x3","student":null,"state":"KS"},"type":"Feature","geometry":{"type":"Point","coordinates":[-92.280706,34.286764]}},{"properties":{"city":"Overland Park","univesity":"JCCC","id":"a665wsmp70xy","student":null,"state":"KS"},"type":"Feature","geometry":{"type":"Point","coordinates":[-92.280706,34.286764]}},{"properties":{"city":"Overland Park","univesity":"JCCC","id":"a665wspcum74","student":null,"state":"KS"},"type":"Feature","geometry":{"type":"Point","coordinates":[-92.280706,34.286764]}},{"properties":{"city":"Overland Park","univesity":"JCCC","id":"a665wsplbccw","student":null,"state":"KS"},"type":"Feature","geometry":{"type":"Point","coordinates":[-92.280706,34.286764]}},{"properties":{"city":"Overland Park","univesity":"JCCC","id":"a665wss1056i","student":null,"state":"KS"},"type":"Feature","geometry":{"type":"Point","coordinates":[-92.280706,34.286764]}},{"properties":{"city":"Overland Park","univesity":"JCCC","id":"a665wsmckfr0","student":null,"state":"KS"},"type":"Feature","geometry":{"type":"Point","coordinates":[-92.280706,34.286764]}},{"properties":{"city":"Overland Park","univesity":"JCCC","id":"a665wsxhbwuk","student":null,"state":"KS"},"type":"Feature","geometry":{"type":"Point","coordinates":[-92.280706,34.286764]}},{"properties":{"city":"Overland Park","univesity":"JCCC","id":"a665wsmdvmba","student":null,"state":"KS"},"type":"Feature","geometry":{"type":"Point","coordinates":[-92.280706,34.286764]}},{"properties":{"city":"Overland Park/Lawrence","univesity":"JCCC/KU","id":"a665wsslfa7o","student":null,"state":"KS"},"type":"Feature","geometry":{"type":"Point","coordinates":[-94.670792,38.982228]}},{"properties":{"city":"Overland Park/Lawrence","univesity":"JCCC/KU","id":"a665wss057a3","student":null,"state":"KS"},"type":"Feature","geometry":{"type":"Point","coordinates":[-94.670792,38.982228]}},{"properties":{"city":"Overland Park/Lawrence","univesity":"JCCC/KU","id":"a665wsn38eee","student":null,"state":"KS"},"type":"Feature","geometry":{"type":"Point","coordinates":[-94.670792,38.982228]}},{"properties":{"city":"Overland Park/Lawrence","univesity":"JCCC/KU","id":"a665wswyvnr1","student":null,"state":"KS"},"type":"Feature","geometry":{"type":"Point","coordinates":[-94.670792,38.982228]}},{"properties":{"city":"Overland Park/Lawrence","univesity":"JCCC/KU","id":"a665wshup2nt","student":null,"state":"KS"},"type":"Feature","geometry":{"type":"Point","coordinates":[-94.670792,38.982228]}},{"properties":{"city":"Overland Park/Manhattan","univesity":"JCCC/Kansas State University","id":"a665wsqmk8pi","student":null,"state":"KS"},"type":"Feature","geometry":{"type":"Point","coordinates":[-69.433104,45.133665]}},{"properties":{"city":"Oxford","univesity":"University of Mississippi (Ole Miss)","id":"a665wsvat3s4","student":null,"state":"MS"},"type":"Feature","geometry":{"type":"Point","coordinates":[-107.714228,37.168892]}},{"properties":{"city":"Oxford","univesity":"Miami University of Ohio","id":"a665wsl9nbaj","student":null,"state":"OH"},"type":"Feature","geometry":{"type":"Point","coordinates":[-107.714228,37.168892]}},{"properties":{"city":"Oxford","univesity":"Miami University of Ohio","id":"a665wsih8vij","student":null,"state":"OH"},"type":"Feature","geometry":{"type":"Point","coordinates":[-107.714228,37.168892]}},{"properties":{"city":"Oxford","univesity":"Miami University of Ohio","id":"a665wswopanr","student":null,"state":"OH"},"type":"Feature","geometry":{"type":"Point","coordinates":[-107.714228,37.168892]}},{"properties":{"city":"Palo Alto","univesity":"Stanford University","id":"a665wsoeidtc","student":null,"state":"CA"},"type":"Feature","geometry":{"type":"Point","coordinates":[-122.14302,37.441883]}},{"properties":{"city":"Pittsburg","univesity":"Pittsburg State University","id":"a665wsknoy2q","student":null,"state":"KS"},"type":"Feature","geometry":{"type":"Point","coordinates":[-79.995886,40.440625]}},{"properties":{"city":"Pittsburg","univesity":"Pittsburg State University","id":"a665wso25trz","student":null,"state":"KS"},"type":"Feature","geometry":{"type":"Point","coordinates":[-79.995886,40.440625]}},{"properties":{"city":"Pittsburg","univesity":"Pittsburg State University","id":"a665wsuuwte4","student":null,"state":"KS"},"type":"Feature","geometry":{"type":"Point","coordinates":[-79.995886,40.440625]}},{"properties":{"city":"Pittsburg","univesity":"Pittsburg State University","id":"a665wsqkdt5q","student":null,"state":"KS"},"type":"Feature","geometry":{"type":"Point","coordinates":[-79.995886,40.440625]}},{"properties":{"city":"Pittsburg","univesity":"Pittsburg State University","id":"a665wsthq9k1","student":null,"state":"KS"},"type":"Feature","geometry":{"type":"Point","coordinates":[-79.995886,40.440625]}},{"properties":{"city":"Pittsburg","univesity":"Pittsburg State University","id":"a665wstr74lr","student":null,"state":"KS"},"type":"Feature","geometry":{"type":"Point","coordinates":[-79.995886,40.440625]}},{"properties":{"city":"Pittsburg","univesity":"Pittsburg State University","id":"a665wshc7i83","student":null,"state":"KS"},"type":"Feature","geometry":{"type":"Point","coordinates":[-79.995886,40.440625]}},{"properties":{"city":"Pittsburg","univesity":"Pittsburg State University","id":"a665wsw0z72m","student":null,"state":"KS"},"type":"Feature","geometry":{"type":"Point","coordinates":[-79.995886,40.440625]}},{"properties":{"city":"Pittsburg","univesity":"Pittsburg State University","id":"a665wsvba5n7","student":null,"state":"KS"},"type":"Feature","geometry":{"type":"Point","coordinates":[-79.995886,40.440625]}},{"properties":{"city":"Pittsburg","univesity":"Pittsburg State University","id":"a665wslp8nf0","student":null,"state":"KS"},"type":"Feature","geometry":{"type":"Point","coordinates":[-79.995886,40.440625]}},{"properties":{"city":"Pittsburg","univesity":"Pittsburg State University","id":"a665wsjccbgz","student":null,"state":"KS"},"type":"Feature","geometry":{"type":"Point","coordinates":[-79.995886,40.440625]}},{"properties":{"city":"Pittsburg","univesity":"Pittsburg State University","id":"a665wsok3h56","student":null,"state":"KS"},"type":"Feature","geometry":{"type":"Point","coordinates":[-79.995886,40.440625]}},{"properties":{"city":"Pittsburg","univesity":"Pittsburg State University","id":"a665wsjj21eh","student":null,"state":"KS"},"type":"Feature","geometry":{"type":"Point","coordinates":[-79.995886,40.440625]}},{"properties":{"city":"Pittsburg","univesity":"Pittsburg State University","id":"a665wsoh9ik1","student":null,"state":"KS"},"type":"Feature","geometry":{"type":"Point","coordinates":[-79.995886,40.440625]}},{"properties":{"city":"Providence","univesity":"Rhode Island School of Design","id":"a665wsvmabz0","student":null,"state":"RI"},"type":"Feature","geometry":{"type":"Point","coordinates":[-71.412834,41.823989]}},{"properties":{"city":"Rapid City","univesity":"South Dakota School of Mines and Technology","id":"a665wsu5idjk","student":null,"state":"SD"},"type":"Feature","geometry":{"type":"Point","coordinates":[-103.231015,44.080543]}},{"properties":{"city":"San Angelo","univesity":"Angelo State University","id":"a665wsmuxhh0","student":null,"state":"TX"},"type":"Feature","geometry":{"type":"Point","coordinates":[-100.437038,31.463772]}},{"properties":{"city":"San Diego","univesity":"University of San Diego","id":"a665wsj182v4","student":null,"state":"CA"},"type":"Feature","geometry":{"type":"Point","coordinates":[-117.157255,32.715329]}},{"properties":{"city":"Santa Clara","univesity":"Santa Clara University","id":"a665wsm11kkf","student":null,"state":"CA"},"type":"Feature","geometry":{"type":"Point","coordinates":[-111.85254,40.569992]}},{"properties":{"city":"Santa Clara","univesity":"Santa Clara University","id":"a665wsndzuut","student":null,"state":"CA"},"type":"Feature","geometry":{"type":"Point","coordinates":[-111.85254,40.569992]}},{"properties":{"city":"Savannah","univesity":"Savannah College of Art and Design","id":"a665wshpqig1","student":null,"state":"GA"},"type":"Feature","geometry":{"type":"Point","coordinates":[-81.099834,32.083541]}},{"properties":{"city":"Savannah","univesity":"Savannah College of Art and Design","id":"a665wss5j171","student":null,"state":"GA"},"type":"Feature","geometry":{"type":"Point","coordinates":[-81.099834,32.083541]}},{"properties":{"city":"Seattle","univesity":"University of Washington","id":"a665wsvw8stx","student":null,"state":"WA"},"type":"Feature","geometry":{"type":"Point","coordinates":[-122.332071,47.60621]}},{"properties":{"city":"Sewanee","univesity":"Sewanee: The University of the South","id":"a665wsu17zwq","student":null,"state":"TN"},"type":"Feature","geometry":{"type":"Point","coordinates":[-93.339902,35.849246]}},{"properties":{"city":"Shawnee Mission","univesity":"Gap year","id":"a665wsiwf5tq","student":null,"state":"KS"},"type":"Feature","geometry":{"type":"Point","coordinates":[-94.655791,39.027783]}},{"properties":{"city":"Shawnee Mission","univesity":"Gap year","id":"a665wsn0z6rg","student":null,"state":"KS"},"type":"Feature","geometry":{"type":"Point","coordinates":[-94.655791,39.027783]}},{"properties":{"city":"Shawnee Mission","univesity":"Gap year","id":"a665wstpv89b","student":null,"state":"KS"},"type":"Feature","geometry":{"type":"Point","coordinates":[-94.655791,39.027783]}},{"properties":{"city":"Shawnee Mission","univesity":"Gap year","id":"a665wspwy1lj","student":null,"state":"KS"},"type":"Feature","geometry":{"type":"Point","coordinates":[-94.655791,39.027783]}},{"properties":{"city":"Shawnee Mission","univesity":"Gap Year","id":"a665wso136ww","student":null,"state":"KS"},"type":"Feature","geometry":{"type":"Point","coordinates":[-94.655791,39.027783]}},{"properties":{"city":"Shawnee Mission","univesity":"Gap year","id":"a665wsvy7qqw","student":null,"state":"KS"},"type":"Feature","geometry":{"type":"Point","coordinates":[-94.655791,39.027783]}},{"properties":{"city":"Soccorro","univesity":"New Mexico Tech","id":"a665wswv966k","student":null,"state":"NM"},"type":"Feature","geometry":{"type":"Point","coordinates":[-74.381835,44.767831]}},{"properties":{"city":"Soccorro","univesity":"New Mexico Tech","id":"a665wsij47ta","student":null,"state":"NM"},"type":"Feature","geometry":{"type":"Point","coordinates":[-74.381835,44.767831]}},{"properties":{"city":"Socorro","univesity":"New Mexico Tech","id":"a665wsrsioxv","student":null,"state":"NM"},"type":"Feature","geometry":{"type":"Point","coordinates":[-74.381835,44.767831]}},{"properties":{"city":"Springfield","univesity":"Missouri State University","id":"a665wskho0qu","student":null,"state":"MO"},"type":"Feature","geometry":{"type":"Point","coordinates":[-72.589811,42.101483]}},{"properties":{"city":"Springfield","univesity":"Missouri State University","id":"a665wsx0lmlw","student":null,"state":"MO"},"type":"Feature","geometry":{"type":"Point","coordinates":[-72.589811,42.101483]}},{"properties":{"city":"St. Louis","univesity":"Washington University","id":"a665wsjyt2ar","student":null,"state":"MO"},"type":"Feature","geometry":{"type":"Point","coordinates":[-91.846798,33.455113]}},{"properties":{"city":"St. Louis","univesity":"Saint Louis University","id":"a665wsk77nzo","student":null,"state":"MO"},"type":"Feature","geometry":{"type":"Point","coordinates":[-91.846798,33.455113]}},{"properties":{"city":"St. Louis","univesity":"Washington University","id":"a665wsq1cdav","student":null,"state":"MO"},"type":"Feature","geometry":{"type":"Point","coordinates":[-91.846798,33.455113]}},{"properties":{"city":"St. Louis","univesity":"Saint Louis University","id":"a665wstf3qp7","student":null,"state":"MO"},"type":"Feature","geometry":{"type":"Point","coordinates":[-91.846798,33.455113]}},{"properties":{"city":"St. Paul","univesity":"University of St. Thomas","id":"a665wskcwok7","student":null,"state":"MN"},"type":"Feature","geometry":{"type":"Point","coordinates":[-170.832778,-14.321667]}},{"properties":{"city":"St. Paul","univesity":"Macalester College","id":"a665wsw3lc1b","student":null,"state":"MN"},"type":"Feature","geometry":{"type":"Point","coordinates":[-170.832778,-14.321667]}},{"properties":{"city":"Stillwater","univesity":"Oklahoma State University","id":"a665wsvuimg3","student":null,"state":"OK"},"type":"Feature","geometry":{"type":"Point","coordinates":[-87.784714,30.715745]}},{"properties":{"city":"Swarthmore","univesity":"Swarthmore College","id":"a665wsr68t3m","student":null,"state":"PA"},"type":"Feature","geometry":{"type":"Point","coordinates":[-75.344083,39.897162]}},{"properties":{"city":"Syracuse","univesity":"Syracuse University","id":"a665wsk595px","student":null,"state":"NY"},"type":"Feature","geometry":{"type":"Point","coordinates":[-76.147424,43.048122]}},{"properties":{"city":"Tempe","univesity":"Arizona State University","id":"a665wsx77vxk","student":null,"state":"AZ"},"type":"Feature","geometry":{"type":"Point","coordinates":[-111.90931,33.414768]}},{"properties":{"city":"Tempe","univesity":"Barrett Honors College of Arizona State University","id":"a665wsi1hhpz","student":null,"state":"AZ"},"type":"Feature","geometry":{"type":"Point","coordinates":[-111.90931,33.414768]}},{"properties":{"city":"Tulsa","univesity":"University of Tulsa","id":"a665wst8vkbx","student":null,"state":"OK"},"type":"Feature","geometry":{"type":"Point","coordinates":[-95.992775,36.153982]}},{"properties":{"city":"Upland","univesity":"Taylor University","id":"a665wsl7m5xc","student":null,"state":"IN"},"type":"Feature","geometry":{"type":"Point","coordinates":[-97.019181,39.088886]}},{"properties":{"city":"Upland","univesity":"Taylor University","id":"a665wsp7cbrs","student":null,"state":"IN"},"type":"Feature","geometry":{"type":"Point","coordinates":[-97.019181,39.088886]}},{"properties":{"city":"Urbana-Champaign","univesity":"University of Illinois","id":"a665wsvh7vzm","student":null,"state":"IL"},"type":"Feature","geometry":null},{"properties":{"city":"Valencia","univesity":"California Institute of the Art","id":"a665wsvd8a0i","student":null,"state":"CA"},"type":"Feature","geometry":{"type":"Point","coordinates":[-112.584054,33.379486]}},{"properties":{"city":"Valparaiso","univesity":"Valparaiso University","id":"a665wsou8fmx","student":null,"state":"ID"},"type":"Feature","geometry":{"type":"Point","coordinates":[-86.49706,30.50821]}},{"properties":{"city":"Ventura","univesity":"Ventura College","id":"a665wsmvj3j0","student":null,"state":"CA"},"type":"Feature","geometry":{"type":"Point","coordinates":[-134.895833,58.256389]}},{"properties":{"city":"Ventura","univesity":"Ventura College","id":"a665wsp4jo3x","student":null,"state":"CA"},"type":"Feature","geometry":{"type":"Point","coordinates":[-134.895833,58.256389]}},{"properties":{"city":"Warrensburg","univesity":"Central Missouri University","id":"a665wskp8f4a","student":null,"state":"MO"},"type":"Feature","geometry":{"type":"Point","coordinates":[-83.168525,40.305894]}},{"properties":{"city":"Washington DC","univesity":"Gallaudet University","id":"a665wsrkw8qg","student":null,"state":null},"type":"Feature","geometry":null},{"properties":{"city":"Wellesley","univesity":"Wellesley College","id":"a665wsxle7e5","student":null,"state":"MA"},"type":"Feature","geometry":{"type":"Point","coordinates":[-78.892524,40.265631]}},{"properties":{"city":"Wooster","univesity":"Wooster","id":"a665wspsrkx9","student":null,"state":"OH"},"type":"Feature","geometry":{"type":"Point","coordinates":[-90.863726,34.840929]}},{"properties":{"city":"Worcester","univesity":"Worcester Polytechnic Institute","id":"a665wsp4hckk","student":null,"state":"MA"},"type":"Feature","geometry":{"type":"Point","coordinates":[-71.802293,42.262593]}},{"properties":{"city":"Worcester","univesity":"College of the Holy Cross","id":"a665wskgqdre","student":null,"state":"MA"},"type":"Feature","geometry":{"type":"Point","coordinates":[-71.802293,42.262593]}},{"properties":{"city":null,"univesity":"Broadmoor Transition Services","id":"a665wsi2k66o","student":null,"state":null},"type":"Feature","geometry":null},{"properties":{"city":null,"univesity":"Broadmoor Transition Services","id":"a665wso1ecs0","student":null,"state":null},"type":"Feature","geometry":null},{"properties":{"city":"St. Ann Arbor","univesity":"Gap year. year after next: University of Michigan","id":"a665wskcw76q","student":null,"state":"MI"},"type":"Feature","geometry":{"type":"Point","coordinates":[-86.176715,42.96502]}},{"properties":{"city":"Shawnee Mission","univesity":"Broadmoor Transition Services","id":"a665wswlv0ai","student":null,"state":"KS"},"type":"Feature","geometry":{"type":"Point","coordinates":[-94.655791,39.027783]}},{"properties":{"city":"Shawnee Mission","univesity":"Broadmoor Transition Services","id":"a665wsxj4nz3","student":null,"state":"KS"},"type":"Feature","geometry":{"type":"Point","coordinates":[-94.655791,39.027783]}},{"properties":{"city":"Shawnee Mission","univesity":"Broadmoor Transition Services","id":"a665wstkdmwh","student":null,"state":"KS"},"type":"Feature","geometry":{"type":"Point","coordinates":[-94.655791,39.027783]}}],"is_temporal":false,"author":{"url":"","metadata":"","contact_name":"","contact_address":"","source":"","contact_phone":""},"source":"","pagination":{"sort":null,"start":0,"total":370,"limit":1000000},"state":"complete","tags":"","published":"2014-08-13T05:26:58-04:00","id":115589}