{"type":"FeatureCollection","data_type":"Dataset","url_type":null,"permissions":[{"permissions":{"download":true,"view":true},"group_id":"everyone"}],"classification":null,"title":"Senior Survey Spreadsheet V2","count":370,"stream_id":115588,"contributor":{"url":"http://geocommons.com/users/25562","name":"smeharbinger"},"data_attributes":null,"calculation_params":null,"icon_link":null,"link":"http://geocommons.com/overlays/115588.json","extent":[-170.833,-14.3217,-69.4331,58.2564],"geometry_types":["point"],"unique_name":null,"name":"Senior Survey Spreadsheet V2","feature_count":370,"description":"","next_feature":null,"is_raster":false,"short_classification":"Y","stats":{},"features":[{"properties":{"city":"Athens","univesity":"University Georgia","id":"a62xlx4t3xfx","student":null,"state":"GA"},"type":"Feature","geometry":{"type":"Point","coordinates":[-93.976862,34.314552]}},{"properties":{"city":"Atlanta","univesity":"Clark Atlanta University","id":"a62xlxdue3oj","student":null,"state":"GA"},"type":"Feature","geometry":{"type":"Point","coordinates":[-84.387982,33.748995]}},{"properties":{"city":"Austin","univesity":"University of Texas","id":"a62xlx5l55ps","student":null,"state":"TX"},"type":"Feature","geometry":{"type":"Point","coordinates":[-97.743061,30.267153]}},{"properties":{"city":"Baldwin","univesity":"Baker University","id":"a62xlxdbd1sn","student":null,"state":"KS"},"type":"Feature","geometry":{"type":"Point","coordinates":[-94.096869,36.048413]}},{"properties":{"city":"Bloomington","univesity":"Indiana University","id":"a62xlwym7v0d","student":null,"state":"IN"},"type":"Feature","geometry":{"type":"Point","coordinates":[-77.011365,38.916778]}},{"properties":{"city":"Boston","univesity":"Tufts University","id":"a62xlx18m00m","student":null,"state":"MA"},"type":"Feature","geometry":{"type":"Point","coordinates":[-71.059773,42.358431]}},{"properties":{"city":"Boulder","univesity":"University of Colorado","id":"a62xlxeaiuo1","student":null,"state":"CO"},"type":"Feature","geometry":{"type":"Point","coordinates":[-89.225627,38.696715]}},{"properties":{"city":"Brooklyn","univesity":"Pratt Institute","id":"a62xlx3m7oxp","student":null,"state":"NY"},"type":"Feature","geometry":{"type":"Point","coordinates":[-86.615271,34.22593]}},{"properties":{"city":"Buena Vista","univesity":"Southern Virginia University","id":"a62xlx8bslm6","student":null,"state":"VA"},"type":"Feature","geometry":{"type":"Point","coordinates":[-92.476268,35.256192]}},{"properties":{"city":"Charlottesville","univesity":"University of Virginia","id":"a62xlx1ta3ye","student":null,"state":"VA"},"type":"Feature","geometry":{"type":"Point","coordinates":[-79.237822,42.304503]}},{"properties":{"city":"Chicago","univesity":"DePaul University","id":"a62xlx3f0fab","student":null,"state":"IL"},"type":"Feature","geometry":{"type":"Point","coordinates":[-87.650052,41.850033]}},{"properties":{"city":"Chicago","univesity":"Colombia College","id":"a62xlxcwkk4w","student":null,"state":"IL"},"type":"Feature","geometry":{"type":"Point","coordinates":[-87.650052,41.850033]}},{"properties":{"city":"Chicago","univesity":"SAIC","id":"a62xlxdptxmy","student":null,"state":"IL"},"type":"Feature","geometry":{"type":"Point","coordinates":[-87.650052,41.850033]}},{"properties":{"city":"Chicago","univesity":"DePaul University","id":"a62xlwzl2671","student":null,"state":"IL"},"type":"Feature","geometry":{"type":"Point","coordinates":[-87.650052,41.850033]}},{"properties":{"city":"Chicago","univesity":"Chicago School of Violin Making","id":"a62xlx4ztmc5","student":null,"state":"IL"},"type":"Feature","geometry":{"type":"Point","coordinates":[-87.650052,41.850033]}},{"properties":{"city":"Columbia","univesity":"University of Missouri","id":"a62xlx1iu2di","student":null,"state":"MO"},"type":"Feature","geometry":{"type":"Point","coordinates":[-92.334072,38.951705]}},{"properties":{"city":"Columbia","univesity":"Stephens College","id":"a62xlx0hvk68","student":null,"state":"MO"},"type":"Feature","geometry":{"type":"Point","coordinates":[-92.334072,38.951705]}},{"properties":{"city":"Conway","univesity":"Coastal Carolina University","id":"a62xlx7dmeio","student":null,"state":"SC"},"type":"Feature","geometry":{"type":"Point","coordinates":[-81.330625,28.502781]}},{"properties":{"city":"Crete","univesity":"Doane College","id":"a62xlxcp3kn7","student":null,"state":"NE"},"type":"Feature","geometry":{"type":"Point","coordinates":[-91.596793,33.843715]}},{"properties":{"city":"Dallas","univesity":"Southern Methodist University","id":"a62xlx05urle","student":null,"state":"TX"},"type":"Feature","geometry":{"type":"Point","coordinates":[-95.992775,36.153982]}},{"properties":{"city":"Dayton","univesity":"University of Dayton","id":"a62xlx1r0lsk","student":null,"state":"OH"},"type":"Feature","geometry":{"type":"Point","coordinates":[-84.191607,39.758948]}},{"properties":{"city":"Denver","univesity":"Colorado Christian University","id":"a62xlx7po7e8","student":null,"state":"CO"},"type":"Feature","geometry":{"type":"Point","coordinates":[-104.984703,39.739154]}},{"properties":{"city":"Edmund","univesity":"Oklahoma Christian University","id":"a62xlwzp4cpo","student":null,"state":"OK"},"type":"Feature","geometry":{"type":"Point","coordinates":[-97.478095,35.652832]}},{"properties":{"city":"Emporia","univesity":"Emporia State University","id":"a62xlxdgnfpv","student":null,"state":"KS"},"type":"Feature","geometry":{"type":"Point","coordinates":[-91.435395,33.122067]}},{"properties":{"city":"Eugene","univesity":"University of Oregon","id":"a62xlx0kclsd","student":null,"state":"OR"},"type":"Feature","geometry":{"type":"Point","coordinates":[-123.086754,44.052069]}},{"properties":{"city":"Evanston","univesity":"Northwestern University","id":"a62xlx4vtv1x","student":null,"state":"IL"},"type":"Feature","geometry":{"type":"Point","coordinates":[-104.938588,40.106928]}},{"properties":{"city":"Fayetteville","univesity":"University of Arkansas","id":"a62xlx5osfvd","student":"Logan Weckbaugh","state":"AR"},"type":"Feature","geometry":{"type":"Point","coordinates":[-78.878359,35.052664]}},{"properties":{"city":"Fort Collins","univesity":"Colorado State University","id":"a62xlx4i8w7r","student":null,"state":"CO"},"type":"Feature","geometry":{"type":"Point","coordinates":[-91.954583,34.458984]}},{"properties":{"city":"Fort Scott","univesity":"Fort Scott Community College","id":"a62xlxagsy83","student":null,"state":"KS"},"type":"Feature","geometry":{"type":"Point","coordinates":[-91.954583,34.458984]}},{"properties":{"city":"Fort Worth","univesity":"Texas Christian University","id":"a62xlxer0ikm","student":null,"state":"TX"},"type":"Feature","geometry":{"type":"Point","coordinates":[-91.954583,34.458984]}},{"properties":{"city":"Fulton","univesity":"William Woods College","id":"a62xlxf217dv","student":null,"state":"MO"},"type":"Feature","geometry":{"type":"Point","coordinates":[-90.796223,34.804263]}},{"properties":{"city":"Goshen","univesity":"Goshen College","id":"a62xlx9vtspg","student":null,"state":"IN"},"type":"Feature","geometry":{"type":"Point","coordinates":[-112.083304,43.309639]}},{"properties":{"city":"Granville","univesity":"Denison","id":"a62xlx6jhcwy","student":null,"state":"OH"},"type":"Feature","geometry":{"type":"Point","coordinates":[-90.712612,35.632301]}},{"properties":{"city":"Greenville","univesity":"Furman University","id":"a62xlwzm43t9","student":null,"state":"SC"},"type":"Feature","geometry":{"type":"Point","coordinates":[-90.712612,35.632301]}},{"properties":{"city":"Greystone","univesity":"Culinary Institute of America","id":"a62xlxb9sudc","student":null,"state":"CA"},"type":"Feature","geometry":{"type":"Point","coordinates":[-86.508321,33.92621]}},{"properties":{"city":"Grinnell","univesity":"Grinnell College","id":"a62xlx0dg7gm","student":null,"state":"IA"},"type":"Feature","geometry":{"type":"Point","coordinates":[-118.777868,34.11445]}},{"properties":{"city":"Hanover","univesity":"Dartmouth College","id":"a62xlx2rku18","student":null,"state":"NH"},"type":"Feature","geometry":{"type":"Point","coordinates":[-86.202472,33.004843]}},{"properties":{"city":"Hastings","univesity":"Hastings College","id":"a62xlx986hio","student":null,"state":"NE"},"type":"Feature","geometry":{"type":"Point","coordinates":[-85.92944,41.383658]}},{"properties":{"city":"Hays","univesity":"Fort Hays State University","id":"a62xlx9yqwzv","student":null,"state":"KS"},"type":"Feature","geometry":{"type":"Point","coordinates":[-111.684405,43.641858]}},{"properties":{"city":"Ithaca","univesity":"Cornell University","id":"a62xlx3l1xff","student":null,"state":"NY"},"type":"Feature","geometry":{"type":"Point","coordinates":[-84.553286,39.937273]}},{"properties":{"city":"Overland Park","univesity":"JCCC","id":"a62xlx7juelv","student":null,"state":"KS"},"type":"Feature","geometry":{"type":"Point","coordinates":[-94.670792,38.982228]}},{"properties":{"city":"Kalamazoo","univesity":"Kalamazoo College","id":"a62xlx54l8dn","student":null,"state":"MI"},"type":"Feature","geometry":{"type":"Point","coordinates":[-115.071916,32.997542]}},{"properties":{"city":"Kansas City","univesity":"Kansas City Art Institute","id":"a62xlx8bbe9z","student":null,"state":"MO"},"type":"Feature","geometry":{"type":"Point","coordinates":[-94.627457,39.114171]}},{"properties":{"city":"Kansas City","univesity":"Rockhurst University","id":"a62xlx1ffomd","student":null,"state":"MO"},"type":"Feature","geometry":{"type":"Point","coordinates":[-94.627457,39.114171]}},{"properties":{"city":"Kansas City","univesity":"Working","id":"a62xlx45t8ll","student":null,"state":"KS"},"type":"Feature","geometry":{"type":"Point","coordinates":[-94.627457,39.114171]}},{"properties":{"city":"Kansas City","univesity":"Will return to Sweden for highschool","id":"a62xlwz0n0rj","student":null,"state":"KS"},"type":"Feature","geometry":{"type":"Point","coordinates":[-94.627457,39.114171]}},{"properties":{"city":"Kansas City","univesity":"UMKC","id":"a62xlx92zv5u","student":null,"state":"MO"},"type":"Feature","geometry":{"type":"Point","coordinates":[-94.627457,39.114171]}},{"properties":{"city":"Kansas City","univesity":"UMKC","id":"a62xlx4odgz9","student":null,"state":"MO"},"type":"Feature","geometry":{"type":"Point","coordinates":[-94.627457,39.114171]}},{"properties":{"city":"Kansas City","univesity":"UMKC","id":"a62xlwz5hc3c","student":null,"state":"MO"},"type":"Feature","geometry":{"type":"Point","coordinates":[-94.627457,39.114171]}},{"properties":{"city":"Kansas City","univesity":"Undecided","id":"a62xlxet8fdb","student":null,"state":"KS"},"type":"Feature","geometry":{"type":"Point","coordinates":[-94.627457,39.114171]}},{"properties":{"city":"Kansas City","univesity":"Will return to Denmark for highschool","id":"a62xlx0n3n8u","student":null,"state":"KS"},"type":"Feature","geometry":{"type":"Point","coordinates":[-94.627457,39.114171]}},{"properties":{"city":"Kansas City","univesity":"Undecided","id":"a62xlx95vluz","student":null,"state":"KS"},"type":"Feature","geometry":{"type":"Point","coordinates":[-94.627457,39.114171]}},{"properties":{"city":"Kansas City","univesity":"Undecided","id":"a62xlx68grie","student":null,"state":"KS"},"type":"Feature","geometry":{"type":"Point","coordinates":[-94.627457,39.114171]}},{"properties":{"city":"Kansas City","univesity":"Military","id":"a62xlxbnarbx","student":null,"state":"KS"},"type":"Feature","geometry":{"type":"Point","coordinates":[-94.627457,39.114171]}},{"properties":{"city":"Kansas City","univesity":"Will return to Denmark to study","id":"a62xlx4lccsp","student":null,"state":"KS"},"type":"Feature","geometry":{"type":"Point","coordinates":[-94.627457,39.114171]}},{"properties":{"city":"Kansas City","univesity":"Undecided","id":"a62xlx60gkm9","student":null,"state":"KS"},"type":"Feature","geometry":{"type":"Point","coordinates":[-94.627457,39.114171]}},{"properties":{"city":"Kansas City","univesity":"Military","id":"a62xlxdkohpn","student":null,"state":"KS"},"type":"Feature","geometry":{"type":"Point","coordinates":[-94.627457,39.114171]}},{"properties":{"city":"Kansas City","univesity":"UMKC","id":"a62xlxd8b7v9","student":null,"state":"MO"},"type":"Feature","geometry":{"type":"Point","coordinates":[-94.627457,39.114171]}},{"properties":{"city":"Kansas City","univesity":"Will return to Belgium for university","id":"a62xlx6mityz","student":null,"state":"KS"},"type":"Feature","geometry":{"type":"Point","coordinates":[-94.627457,39.114171]}},{"properties":{"city":"Kansas City","univesity":"Kansas City Art Institute","id":"a62xlxekh2fe","student":null,"state":"MO"},"type":"Feature","geometry":{"type":"Point","coordinates":[-94.627457,39.114171]}},{"properties":{"city":"Kirksville","univesity":"Truman State University","id":"a62xlx4pkp9b","student":null,"state":"MO"},"type":"Feature","geometry":{"type":"Point","coordinates":[-88.668398,39.570591]}},{"properties":{"city":"Kirksville","univesity":"Truman State University","id":"a62xlxbb9qwj","student":null,"state":"MO"},"type":"Feature","geometry":{"type":"Point","coordinates":[-88.668398,39.570591]}},{"properties":{"city":"Kirksville","univesity":"Truman State University","id":"a62xlx0aakf3","student":null,"state":"MO"},"type":"Feature","geometry":{"type":"Point","coordinates":[-88.668398,39.570591]}},{"properties":{"city":"Kirksville","univesity":"Truman State University","id":"a62xlx8mznra","student":null,"state":"MO"},"type":"Feature","geometry":{"type":"Point","coordinates":[-88.668398,39.570591]}},{"properties":{"city":"LA","univesity":"FIDM or Regis College","id":"a62xlxerizpw","student":null,"state":"CA"},"type":"Feature","geometry":{"type":"Point","coordinates":[-107.882021,40.526636]}},{"properties":{"city":"Lamoni","univesity":"Graceland University","id":"a62xlx2i05dc","student":null,"state":"IA"},"type":"Feature","geometry":{"type":"Point","coordinates":[-82.303981,27.945578]}},{"properties":{"city":"Langston","univesity":"Langston University","id":"a62xlxeelppn","student":null,"state":"OK"},"type":"Feature","geometry":{"type":"Point","coordinates":[-118.136739,34.698041]}},{"properties":{"city":"Laramie","univesity":"University of Wyoming","id":"a62xlxa0xb5r","student":null,"state":"WY"},"type":"Feature","geometry":{"type":"Point","coordinates":[-88.443173,47.237426]}},{"properties":{"city":"Las Cruces","univesity":"New Mexico State","id":"a62xlx97kghy","student":null,"state":"NM"},"type":"Feature","geometry":{"type":"Point","coordinates":[-106.778337,32.312316]}},{"properties":{"city":"Lawrence","univesity":"University of Kansas","id":"a62xlx644tym","student":null,"state":"KS"},"type":"Feature","geometry":{"type":"Point","coordinates":[-85.531072,34.232316]}},{"properties":{"city":"Lawrence","univesity":"University of Kansas","id":"a62xlxf4z47q","student":null,"state":"KS"},"type":"Feature","geometry":{"type":"Point","coordinates":[-85.531072,34.232316]}},{"properties":{"city":"Lawrence","univesity":"University of Kansas","id":"a62xlxdniuw9","student":null,"state":"KS"},"type":"Feature","geometry":{"type":"Point","coordinates":[-85.531072,34.232316]}},{"properties":{"city":"Lawrence","univesity":"University of Kansas","id":"a62xlxdnvt90","student":null,"state":"KS"},"type":"Feature","geometry":{"type":"Point","coordinates":[-85.531072,34.232316]}},{"properties":{"city":"Lawrence","univesity":"University of Kansas","id":"a62xlx86wvm8","student":null,"state":"KS"},"type":"Feature","geometry":{"type":"Point","coordinates":[-85.531072,34.232316]}},{"properties":{"city":"Lawrence","univesity":"University of Kansas","id":"a62xlx19o40s","student":null,"state":"KS"},"type":"Feature","geometry":{"type":"Point","coordinates":[-85.531072,34.232316]}},{"properties":{"city":"Lawrence","univesity":"University of Kansas","id":"a62xlxe9fjxj","student":null,"state":"KS"},"type":"Feature","geometry":{"type":"Point","coordinates":[-85.531072,34.232316]}},{"properties":{"city":"Lawrence","univesity":"University of Kansas","id":"a62xlx7iqhnj","student":null,"state":"KS"},"type":"Feature","geometry":{"type":"Point","coordinates":[-85.531072,34.232316]}},{"properties":{"city":"Lawrence","univesity":"University of Kansas","id":"a62xlx6zcddj","student":null,"state":"KS"},"type":"Feature","geometry":{"type":"Point","coordinates":[-85.531072,34.232316]}},{"properties":{"city":"Lawrence","univesity":"University of Kansas","id":"a62xlx1m1ao8","student":null,"state":"KS"},"type":"Feature","geometry":{"type":"Point","coordinates":[-85.531072,34.232316]}},{"properties":{"city":"Lawrence","univesity":"University of Kansas","id":"a62xlxbjvqes","student":null,"state":"KS"},"type":"Feature","geometry":{"type":"Point","coordinates":[-85.531072,34.232316]}},{"properties":{"city":"Lawrence","univesity":"University of Kansas","id":"a62xlwzddws6","student":null,"state":"KS"},"type":"Feature","geometry":{"type":"Point","coordinates":[-85.531072,34.232316]}},{"properties":{"city":"Lawrence","univesity":"University of Kansas","id":"a62xlx7nlaxx","student":null,"state":"KS"},"type":"Feature","geometry":{"type":"Point","coordinates":[-85.531072,34.232316]}},{"properties":{"city":"Lawrence","univesity":"University of Kansas","id":"a62xlxcqduu1","student":null,"state":"KS"},"type":"Feature","geometry":{"type":"Point","coordinates":[-85.531072,34.232316]}},{"properties":{"city":"Lawrence","univesity":"University of Kansas","id":"a62xlx07mdh7","student":null,"state":"KS"},"type":"Feature","geometry":{"type":"Point","coordinates":[-85.531072,34.232316]}},{"properties":{"city":"Lawrence","univesity":"University of Kansas","id":"a62xlxcwvvec","student":null,"state":"KS"},"type":"Feature","geometry":{"type":"Point","coordinates":[-85.531072,34.232316]}},{"properties":{"city":"Lawrence","univesity":"University of Kansas","id":"a62xlx3q1edo","student":null,"state":"KS"},"type":"Feature","geometry":{"type":"Point","coordinates":[-85.531072,34.232316]}},{"properties":{"city":"Lawrence","univesity":"University of Kansas","id":"a62xlxb8kqbv","student":null,"state":"KS"},"type":"Feature","geometry":{"type":"Point","coordinates":[-85.531072,34.232316]}},{"properties":{"city":"Lawrence","univesity":"University of Kansas","id":"a62xlxbphbg6","student":null,"state":"KS"},"type":"Feature","geometry":{"type":"Point","coordinates":[-85.531072,34.232316]}},{"properties":{"city":"Lawrence","univesity":"University of Kansas","id":"a62xlx4wweot","student":null,"state":"KS"},"type":"Feature","geometry":{"type":"Point","coordinates":[-85.531072,34.232316]}},{"properties":{"city":"Lawrence","univesity":"University of Kansas","id":"a62xlxe4fica","student":null,"state":"KS"},"type":"Feature","geometry":{"type":"Point","coordinates":[-85.531072,34.232316]}},{"properties":{"city":"Lawrence","univesity":"University of Kansas","id":"a62xlx5f4cae","student":null,"state":"KS"},"type":"Feature","geometry":{"type":"Point","coordinates":[-85.531072,34.232316]}},{"properties":{"city":"Lawrence","univesity":"University of Kansas","id":"a62xlx6wjuoa","student":null,"state":"KS"},"type":"Feature","geometry":{"type":"Point","coordinates":[-85.531072,34.232316]}},{"properties":{"city":"Lawrence","univesity":"University of Kansas","id":"a62xlxcmhcj6","student":null,"state":"KS"},"type":"Feature","geometry":{"type":"Point","coordinates":[-85.531072,34.232316]}},{"properties":{"city":"Lawrence","univesity":"University of Kansas","id":"a62xlx8ex8dk","student":null,"state":"KS"},"type":"Feature","geometry":{"type":"Point","coordinates":[-85.531072,34.232316]}},{"properties":{"city":"Lawrence","univesity":"University of Kansas","id":"a62xlxdxes5y","student":null,"state":"KS"},"type":"Feature","geometry":{"type":"Point","coordinates":[-85.531072,34.232316]}},{"properties":{"city":"Lawrence","univesity":"University of Kansas","id":"a62xlx5nwd1w","student":null,"state":"KS"},"type":"Feature","geometry":{"type":"Point","coordinates":[-85.531072,34.232316]}},{"properties":{"city":"Lawrence","univesity":"University of Kansas","id":"a62xlx63ycks","student":null,"state":"KS"},"type":"Feature","geometry":{"type":"Point","coordinates":[-85.531072,34.232316]}},{"properties":{"city":"Lawrence","univesity":"University of Kansas","id":"a62xlwz90w9y","student":null,"state":"KS"},"type":"Feature","geometry":{"type":"Point","coordinates":[-85.531072,34.232316]}},{"properties":{"city":"Lawrence","univesity":"University of Kansas","id":"a62xlx2hm19d","student":null,"state":"KS"},"type":"Feature","geometry":{"type":"Point","coordinates":[-85.531072,34.232316]}},{"properties":{"city":"Lawrence","univesity":"University of Kansas","id":"a62xlx598apl","student":null,"state":"KS"},"type":"Feature","geometry":{"type":"Point","coordinates":[-85.531072,34.232316]}},{"properties":{"city":"Lawrence","univesity":"University of Kansas","id":"a62xlx5h09wc","student":null,"state":"KS"},"type":"Feature","geometry":{"type":"Point","coordinates":[-85.531072,34.232316]}},{"properties":{"city":"Lawrence","univesity":"University of Kansas","id":"a62xlxc3056m","student":null,"state":"KS"},"type":"Feature","geometry":{"type":"Point","coordinates":[-85.531072,34.232316]}},{"properties":{"city":"Lawrence","univesity":"University of Kansas","id":"a62xlwzd5czf","student":null,"state":"KS"},"type":"Feature","geometry":{"type":"Point","coordinates":[-85.531072,34.232316]}},{"properties":{"city":"Lawrence","univesity":"University of Kansas","id":"a62xlx11bndo","student":null,"state":"KS"},"type":"Feature","geometry":{"type":"Point","coordinates":[-85.531072,34.232316]}},{"properties":{"city":"Lawrence","univesity":"University of Kansas","id":"a62xlx20zni6","student":null,"state":"KS"},"type":"Feature","geometry":{"type":"Point","coordinates":[-85.531072,34.232316]}},{"properties":{"city":"Lawrence","univesity":"University of Kansas","id":"a62xlxc7cwrd","student":null,"state":"KS"},"type":"Feature","geometry":{"type":"Point","coordinates":[-85.531072,34.232316]}},{"properties":{"city":"Lawrence","univesity":"University of Kansas","id":"a62xlxbbocfh","student":null,"state":"KS"},"type":"Feature","geometry":{"type":"Point","coordinates":[-85.531072,34.232316]}},{"properties":{"city":"Lawrence","univesity":"University of Kansas","id":"a62xlx5f9ke9","student":null,"state":"KS"},"type":"Feature","geometry":{"type":"Point","coordinates":[-85.531072,34.232316]}},{"properties":{"city":"Lawrence","univesity":"University of Kansas","id":"a62xlx5opn9s","student":null,"state":"KS"},"type":"Feature","geometry":{"type":"Point","coordinates":[-85.531072,34.232316]}},{"properties":{"city":"Lawrence","univesity":"University of Kansas","id":"a62xlx2ubc1s","student":null,"state":"KS"},"type":"Feature","geometry":{"type":"Point","coordinates":[-85.531072,34.232316]}},{"properties":{"city":"Lawrence","univesity":"University of Kansas","id":"a62xlwyt79kg","student":null,"state":"KS"},"type":"Feature","geometry":{"type":"Point","coordinates":[-85.531072,34.232316]}},{"properties":{"city":"Lawrence","univesity":"University of Kansas","id":"a62xlx5t7hhr","student":null,"state":"KS"},"type":"Feature","geometry":{"type":"Point","coordinates":[-85.531072,34.232316]}},{"properties":{"city":"Lawrence","univesity":"University of Kansas","id":"a62xlwzfqkhn","student":null,"state":"KS"},"type":"Feature","geometry":{"type":"Point","coordinates":[-85.531072,34.232316]}},{"properties":{"city":"Lawrence","univesity":"University of Kansas","id":"a62xlxeby5os","student":null,"state":"KS"},"type":"Feature","geometry":{"type":"Point","coordinates":[-85.531072,34.232316]}},{"properties":{"city":"Lawrence","univesity":"University of Kansas","id":"a62xlwzg2yee","student":null,"state":"KS"},"type":"Feature","geometry":{"type":"Point","coordinates":[-85.531072,34.232316]}},{"properties":{"city":"Lawrence","univesity":"University of Kansas","id":"a62xlxf3a8sn","student":null,"state":"KS"},"type":"Feature","geometry":{"type":"Point","coordinates":[-85.531072,34.232316]}},{"properties":{"city":"Lawrence","univesity":"University of Kansas","id":"a62xlx2pp584","student":null,"state":"KS"},"type":"Feature","geometry":{"type":"Point","coordinates":[-85.531072,34.232316]}},{"properties":{"city":"Lawrence","univesity":"University of Kansas","id":"a62xlx2hresl","student":null,"state":"KS"},"type":"Feature","geometry":{"type":"Point","coordinates":[-85.531072,34.232316]}},{"properties":{"city":"Lawrence","univesity":"University of Kansas","id":"a62xlx7j7904","student":null,"state":"KS"},"type":"Feature","geometry":{"type":"Point","coordinates":[-85.531072,34.232316]}},{"properties":{"city":"Lawrence","univesity":"University of Kansas","id":"a62xlx5yggap","student":null,"state":"KS"},"type":"Feature","geometry":{"type":"Point","coordinates":[-85.531072,34.232316]}},{"properties":{"city":"Lawrence","univesity":"University of Kansas","id":"a62xlxbdzrqh","student":null,"state":"KS"},"type":"Feature","geometry":{"type":"Point","coordinates":[-85.531072,34.232316]}},{"properties":{"city":"Lawrence","univesity":"University of Kansas","id":"a62xlwyn3b21","student":null,"state":"KS"},"type":"Feature","geometry":{"type":"Point","coordinates":[-85.531072,34.232316]}},{"properties":{"city":"Lawrence","univesity":"University of Kansas","id":"a62xlx3h7w3f","student":null,"state":"KS"},"type":"Feature","geometry":{"type":"Point","coordinates":[-85.531072,34.232316]}},{"properties":{"city":"Lawrence","univesity":"University of Kansas","id":"a62xlxe4p3kv","student":null,"state":"KS"},"type":"Feature","geometry":{"type":"Point","coordinates":[-85.531072,34.232316]}},{"properties":{"city":"Lawrence","univesity":"University of Kansas","id":"a62xlx1gc5vj","student":null,"state":"KS"},"type":"Feature","geometry":{"type":"Point","coordinates":[-85.531072,34.232316]}},{"properties":{"city":"Lawrence","univesity":"University of Kansas","id":"a62xlx9b1cf3","student":null,"state":"KS"},"type":"Feature","geometry":{"type":"Point","coordinates":[-85.531072,34.232316]}},{"properties":{"city":"Lawrence","univesity":"University of Kansas","id":"a62xlx0i49qy","student":null,"state":"KS"},"type":"Feature","geometry":{"type":"Point","coordinates":[-85.531072,34.232316]}},{"properties":{"city":"Lawrence","univesity":"University of Kansas","id":"a62xlx7n9aw5","student":null,"state":"KS"},"type":"Feature","geometry":{"type":"Point","coordinates":[-85.531072,34.232316]}},{"properties":{"city":"Lawrence","univesity":"University of Kansas","id":"a62xlx280zhb","student":null,"state":"KS"},"type":"Feature","geometry":{"type":"Point","coordinates":[-85.531072,34.232316]}},{"properties":{"city":"Lawrence","univesity":"University of Kansas","id":"a62xlxb8bwzh","student":null,"state":"KS"},"type":"Feature","geometry":{"type":"Point","coordinates":[-85.531072,34.232316]}},{"properties":{"city":"Lawrence","univesity":"University of Kansas","id":"a62xlx7j3589","student":null,"state":"KS"},"type":"Feature","geometry":{"type":"Point","coordinates":[-85.531072,34.232316]}},{"properties":{"city":"Lawrence","univesity":"University of Kansas","id":"a62xlx355zl9","student":null,"state":"KS"},"type":"Feature","geometry":{"type":"Point","coordinates":[-85.531072,34.232316]}},{"properties":{"city":"Lawrence","univesity":"University of Kansas","id":"a62xlx0ajg3j","student":null,"state":"KS"},"type":"Feature","geometry":{"type":"Point","coordinates":[-85.531072,34.232316]}},{"properties":{"city":"Lawrence","univesity":"University of Kansas","id":"a62xlx2hgrw4","student":null,"state":"KS"},"type":"Feature","geometry":{"type":"Point","coordinates":[-85.531072,34.232316]}},{"properties":{"city":"Lawrence","univesity":"University of Kansas","id":"a62xlx2tguet","student":null,"state":"KS"},"type":"Feature","geometry":{"type":"Point","coordinates":[-85.531072,34.232316]}},{"properties":{"city":"Lawrence","univesity":"University of Kansas","id":"a62xlx4krvqe","student":null,"state":"KS"},"type":"Feature","geometry":{"type":"Point","coordinates":[-85.531072,34.232316]}},{"properties":{"city":"Lawrence","univesity":"University of Kansas","id":"a62xlx9xmrc7","student":null,"state":"KS"},"type":"Feature","geometry":{"type":"Point","coordinates":[-85.531072,34.232316]}},{"properties":{"city":"Lawrence","univesity":"University of Kansas","id":"a62xlxcg1yd1","student":null,"state":"KS"},"type":"Feature","geometry":{"type":"Point","coordinates":[-85.531072,34.232316]}},{"properties":{"city":"Lawrence","univesity":"University of Kansas","id":"a62xlxab39uz","student":null,"state":"KS"},"type":"Feature","geometry":{"type":"Point","coordinates":[-85.531072,34.232316]}},{"properties":{"city":"Lawrence","univesity":"University of Kansas","id":"a62xlx4zts7k","student":null,"state":"KS"},"type":"Feature","geometry":{"type":"Point","coordinates":[-85.531072,34.232316]}},{"properties":{"city":"Lawrence","univesity":"University of Kansas","id":"a62xlwz5pst4","student":null,"state":"KS"},"type":"Feature","geometry":{"type":"Point","coordinates":[-85.531072,34.232316]}},{"properties":{"city":"Lawrence","univesity":"University of Kansas","id":"a62xlx9svkzk","student":null,"state":"KS"},"type":"Feature","geometry":{"type":"Point","coordinates":[-85.531072,34.232316]}},{"properties":{"city":"Lawrence","univesity":"University of Kansas","id":"a62xlwznpfxu","student":null,"state":"KS"},"type":"Feature","geometry":{"type":"Point","coordinates":[-85.531072,34.232316]}},{"properties":{"city":"Lawrence","univesity":"University of Kansas","id":"a62xlx3n4kn6","student":null,"state":"KS"},"type":"Feature","geometry":{"type":"Point","coordinates":[-85.531072,34.232316]}},{"properties":{"city":"Lawrence","univesity":"University of Kansas","id":"a62xlx8xcy9g","student":null,"state":"KS"},"type":"Feature","geometry":{"type":"Point","coordinates":[-85.531072,34.232316]}},{"properties":{"city":"Lawrence","univesity":"University of Kansas","id":"a62xlx8wudn5","student":null,"state":"KS"},"type":"Feature","geometry":{"type":"Point","coordinates":[-85.531072,34.232316]}},{"properties":{"city":"Lawrence","univesity":"University of Kansas","id":"a62xlwzoqfbx","student":null,"state":"KS"},"type":"Feature","geometry":{"type":"Point","coordinates":[-85.531072,34.232316]}},{"properties":{"city":"Lawrence","univesity":"University of Kansas","id":"a62xlx8d9scm","student":null,"state":"KS"},"type":"Feature","geometry":{"type":"Point","coordinates":[-85.531072,34.232316]}},{"properties":{"city":"Lawrence","univesity":"University of Kansas","id":"a62xlx744kmw","student":null,"state":"KS"},"type":"Feature","geometry":{"type":"Point","coordinates":[-85.531072,34.232316]}},{"properties":{"city":"Lawrence","univesity":"University of Kansas","id":"a62xlx3qm8hf","student":null,"state":"KS"},"type":"Feature","geometry":{"type":"Point","coordinates":[-85.531072,34.232316]}},{"properties":{"city":"Lawrence","univesity":"University of Kansas","id":"a62xlx68nttl","student":null,"state":"KS"},"type":"Feature","geometry":{"type":"Point","coordinates":[-85.531072,34.232316]}},{"properties":{"city":"Lawrence","univesity":"University of Kansas","id":"a62xlxdfgzp6","student":null,"state":"KS"},"type":"Feature","geometry":{"type":"Point","coordinates":[-85.531072,34.232316]}},{"properties":{"city":"Lawrence","univesity":"University of Kansas","id":"a62xlx2435m7","student":null,"state":"KS"},"type":"Feature","geometry":{"type":"Point","coordinates":[-85.531072,34.232316]}},{"properties":{"city":"Lawrence","univesity":"University of Kansas","id":"a62xlxac4eu5","student":null,"state":"KS"},"type":"Feature","geometry":{"type":"Point","coordinates":[-85.531072,34.232316]}},{"properties":{"city":"Lawrence","univesity":"University of Kansas","id":"a62xlxcih5r0","student":null,"state":"KS"},"type":"Feature","geometry":{"type":"Point","coordinates":[-85.531072,34.232316]}},{"properties":{"city":"Lawrence","univesity":"University of Kansas","id":"a62xlxa7m53f","student":null,"state":"KS"},"type":"Feature","geometry":{"type":"Point","coordinates":[-85.531072,34.232316]}},{"properties":{"city":"Lawrence","univesity":"University of Kansas","id":"a62xlx0s0z0l","student":null,"state":"KS"},"type":"Feature","geometry":{"type":"Point","coordinates":[-85.531072,34.232316]}},{"properties":{"city":"Lawrence","univesity":"University of Kansas","id":"a62xlx4dntjt","student":null,"state":"KS"},"type":"Feature","geometry":{"type":"Point","coordinates":[-85.531072,34.232316]}},{"properties":{"city":"Lawrence","univesity":"University of Kansas","id":"a62xlx5hsbno","student":null,"state":"KS"},"type":"Feature","geometry":{"type":"Point","coordinates":[-85.531072,34.232316]}},{"properties":{"city":"Lawrence","univesity":"University of Kansas","id":"a62xlxar6ui0","student":null,"state":"KS"},"type":"Feature","geometry":{"type":"Point","coordinates":[-85.531072,34.232316]}},{"properties":{"city":"Lawrence","univesity":"University of Kansas","id":"a62xlx6j0aln","student":null,"state":"KS"},"type":"Feature","geometry":{"type":"Point","coordinates":[-85.531072,34.232316]}},{"properties":{"city":"Lawrence","univesity":"University of Kansas","id":"a62xlxat3whm","student":null,"state":"KS"},"type":"Feature","geometry":{"type":"Point","coordinates":[-85.531072,34.232316]}},{"properties":{"city":"Lawrence","univesity":"University of Kansas","id":"a62xlx6ord32","student":null,"state":"KS"},"type":"Feature","geometry":{"type":"Point","coordinates":[-85.531072,34.232316]}},{"properties":{"city":"Lawrence","univesity":"University of Kansas","id":"a62xlxb3yfp7","student":null,"state":"KS"},"type":"Feature","geometry":{"type":"Point","coordinates":[-85.531072,34.232316]}},{"properties":{"city":"Lawrence","univesity":"University of Kansas","id":"a62xlxa37v1g","student":null,"state":"KS"},"type":"Feature","geometry":{"type":"Point","coordinates":[-85.531072,34.232316]}},{"properties":{"city":"Lawrence","univesity":"University of Kansas","id":"a62xlxf3bcie","student":null,"state":"KS"},"type":"Feature","geometry":{"type":"Point","coordinates":[-85.531072,34.232316]}},{"properties":{"city":"Lawrence","univesity":"University of Kansas","id":"a62xlxckljlj","student":null,"state":"KS"},"type":"Feature","geometry":{"type":"Point","coordinates":[-85.531072,34.232316]}},{"properties":{"city":"Lawrence","univesity":"University of Kansas","id":"a62xlxehvrd6","student":null,"state":"KS"},"type":"Feature","geometry":{"type":"Point","coordinates":[-85.531072,34.232316]}},{"properties":{"city":"Lawrence","univesity":"University of Kansas","id":"a62xlwzaivy5","student":null,"state":"KS"},"type":"Feature","geometry":{"type":"Point","coordinates":[-85.531072,34.232316]}},{"properties":{"city":"Lawrence","univesity":"University of Kansas","id":"a62xlx1lo4sc","student":null,"state":"KS"},"type":"Feature","geometry":{"type":"Point","coordinates":[-85.531072,34.232316]}},{"properties":{"city":"Lawrence","univesity":"University of Kansas","id":"a62xlxcsjagn","student":null,"state":"KS"},"type":"Feature","geometry":{"type":"Point","coordinates":[-85.531072,34.232316]}},{"properties":{"city":"Lawrence","univesity":"University of Kansas","id":"a62xlxcnf4u7","student":null,"state":"KS"},"type":"Feature","geometry":{"type":"Point","coordinates":[-85.531072,34.232316]}},{"properties":{"city":"Lexington","univesity":"Washington and Lee University","id":"a62xlxahp70y","student":null,"state":"VA"},"type":"Feature","geometry":{"type":"Point","coordinates":[-84.477715,37.988689]}},{"properties":{"city":"Lincoln","univesity":"University of Nebraska","id":"a62xlx0jgy87","student":null,"state":"NE"},"type":"Feature","geometry":{"type":"Point","coordinates":[-96.66696,40.800001]}},{"properties":{"city":"Lincoln","univesity":"University of Nebraska","id":"a62xlxbqa7zr","student":null,"state":"NE"},"type":"Feature","geometry":{"type":"Point","coordinates":[-96.66696,40.800001]}},{"properties":{"city":"Longmont","univesity":"Front Range Community College","id":"a62xlxdq7wzo","student":null,"state":"CO"},"type":"Feature","geometry":{"type":"Point","coordinates":[-105.1633,40.165634]}},{"properties":{"city":"Los Angeles","univesity":"University of Southern California","id":"a62xlwzpod97","student":null,"state":"CA"},"type":"Feature","geometry":{"type":"Point","coordinates":[-118.243685,34.052234]}},{"properties":{"city":"Los Angeles","univesity":"University of Southern California","id":"a62xlx83t0dr","student":null,"state":"CA"},"type":"Feature","geometry":{"type":"Point","coordinates":[-118.243685,34.052234]}},{"properties":{"city":"Madison","univesity":"University of Wisconsin","id":"a62xlx9etu44","student":null,"state":"WI"},"type":"Feature","geometry":{"type":"Point","coordinates":[-89.40123,43.073052]}},{"properties":{"city":"Madison","univesity":"University of Wisconsin","id":"a62xlxdr7cv7","student":null,"state":"WI"},"type":"Feature","geometry":{"type":"Point","coordinates":[-89.40123,43.073052]}},{"properties":{"city":"Manhattan","univesity":"Kansas State University","id":"a62xlxew7zoi","student":null,"state":"KS"},"type":"Feature","geometry":{"type":"Point","coordinates":[-86.927511,39.555044]}},{"properties":{"city":"Manhattan","univesity":"Kansas State University","id":"a62xlx265w96","student":null,"state":"KS"},"type":"Feature","geometry":{"type":"Point","coordinates":[-86.927511,39.555044]}},{"properties":{"city":"Manhattan","univesity":"Kansas State University","id":"a62xlx28xkuk","student":null,"state":"KS"},"type":"Feature","geometry":{"type":"Point","coordinates":[-86.927511,39.555044]}},{"properties":{"city":"Manhattan","univesity":"Kansas State University","id":"a62xlx7a0v2u","student":null,"state":"KS"},"type":"Feature","geometry":{"type":"Point","coordinates":[-86.927511,39.555044]}},{"properties":{"city":"Manhattan","univesity":"Kansas State University","id":"a62xlxf2tpu2","student":null,"state":"KS"},"type":"Feature","geometry":{"type":"Point","coordinates":[-86.927511,39.555044]}},{"properties":{"city":"Manhattan","univesity":"Kansas State University","id":"a62xlxebs4w8","student":null,"state":"KS"},"type":"Feature","geometry":{"type":"Point","coordinates":[-86.927511,39.555044]}},{"properties":{"city":"Manhattan","univesity":"Kansas State University","id":"a62xlx0rfwtj","student":null,"state":"KS"},"type":"Feature","geometry":{"type":"Point","coordinates":[-86.927511,39.555044]}},{"properties":{"city":"Manhattan","univesity":"Kansas State University","id":"a62xlxe922gw","student":null,"state":"KS"},"type":"Feature","geometry":{"type":"Point","coordinates":[-86.927511,39.555044]}},{"properties":{"city":"Manhattan","univesity":"Kansas State University","id":"a62xlwz86p84","student":null,"state":"KS"},"type":"Feature","geometry":{"type":"Point","coordinates":[-86.927511,39.555044]}},{"properties":{"city":"Manhattan","univesity":"Kansas State University","id":"a62xlwzgj3d2","student":null,"state":"KS"},"type":"Feature","geometry":{"type":"Point","coordinates":[-86.927511,39.555044]}},{"properties":{"city":"Manhattan","univesity":"Kansas State University","id":"a62xlx9eizhp","student":null,"state":"KS"},"type":"Feature","geometry":{"type":"Point","coordinates":[-86.927511,39.555044]}},{"properties":{"city":"Manhattan","univesity":"Kansas State University","id":"a62xlx6hu3ft","student":null,"state":"KS"},"type":"Feature","geometry":{"type":"Point","coordinates":[-86.927511,39.555044]}},{"properties":{"city":"Manhattan","univesity":"Kansas State University","id":"a62xlx36h5ug","student":null,"state":"KS"},"type":"Feature","geometry":{"type":"Point","coordinates":[-86.927511,39.555044]}},{"properties":{"city":"Manhattan","univesity":"Kansas State University","id":"a62xlx1zjuwi","student":null,"state":"KS"},"type":"Feature","geometry":{"type":"Point","coordinates":[-86.927511,39.555044]}},{"properties":{"city":"Manhattan","univesity":"Kansas State University","id":"a62xlx8q322i","student":null,"state":"KS"},"type":"Feature","geometry":{"type":"Point","coordinates":[-86.927511,39.555044]}},{"properties":{"city":"Manhattan","univesity":"Kansas State University","id":"a62xlx4w0w86","student":null,"state":"KS"},"type":"Feature","geometry":{"type":"Point","coordinates":[-86.927511,39.555044]}},{"properties":{"city":"Manhattan","univesity":"Kansas State University","id":"a62xlx7geyoo","student":null,"state":"KS"},"type":"Feature","geometry":{"type":"Point","coordinates":[-86.927511,39.555044]}},{"properties":{"city":"Manhattan","univesity":"Kansas State University","id":"a62xlx1jgkr8","student":null,"state":"KS"},"type":"Feature","geometry":{"type":"Point","coordinates":[-86.927511,39.555044]}},{"properties":{"city":"Manhattan","univesity":"Kansas State University","id":"a62xlx0664ii","student":null,"state":"KS"},"type":"Feature","geometry":{"type":"Point","coordinates":[-86.927511,39.555044]}},{"properties":{"city":"Manhattan","univesity":"Kansas State University","id":"a62xlx2ouw9n","student":null,"state":"KS"},"type":"Feature","geometry":{"type":"Point","coordinates":[-86.927511,39.555044]}},{"properties":{"city":"Manhattan","univesity":"Kansas State University","id":"a62xlx7gbit6","student":null,"state":"KS"},"type":"Feature","geometry":{"type":"Point","coordinates":[-86.927511,39.555044]}},{"properties":{"city":"Manhattan","univesity":"Kansas State University","id":"a62xlxa8r5ot","student":null,"state":"KS"},"type":"Feature","geometry":{"type":"Point","coordinates":[-86.927511,39.555044]}},{"properties":{"city":"Manhattan","univesity":"Kansas State University","id":"a62xlxdsrmsn","student":null,"state":"KS"},"type":"Feature","geometry":{"type":"Point","coordinates":[-86.927511,39.555044]}},{"properties":{"city":"Manhattan","univesity":"Kansas State University","id":"a62xlxa77qqc","student":null,"state":"KS"},"type":"Feature","geometry":{"type":"Point","coordinates":[-86.927511,39.555044]}},{"properties":{"city":"Manhattan","univesity":"Kansas State University","id":"a62xlx1wahra","student":null,"state":"KS"},"type":"Feature","geometry":{"type":"Point","coordinates":[-86.927511,39.555044]}},{"properties":{"city":"Manhattan","univesity":"Kansas State University","id":"a62xlwzjlimz","student":null,"state":"KS"},"type":"Feature","geometry":{"type":"Point","coordinates":[-86.927511,39.555044]}},{"properties":{"city":"Manhattan","univesity":"Kansas State University","id":"a62xlx6iljt6","student":null,"state":"KS"},"type":"Feature","geometry":{"type":"Point","coordinates":[-86.927511,39.555044]}},{"properties":{"city":"Manhattan","univesity":"Kansas State University","id":"a62xlx1udlhz","student":null,"state":"KS"},"type":"Feature","geometry":{"type":"Point","coordinates":[-86.927511,39.555044]}},{"properties":{"city":"Manhattan","univesity":"Kansas State University","id":"a62xlx61cj20","student":null,"state":"KS"},"type":"Feature","geometry":{"type":"Point","coordinates":[-86.927511,39.555044]}},{"properties":{"city":"Manhattan","univesity":"Kansas State University","id":"a62xlx531jq3","student":null,"state":"KS"},"type":"Feature","geometry":{"type":"Point","coordinates":[-86.927511,39.555044]}},{"properties":{"city":"Manhattan","univesity":"Kansas State University","id":"a62xlx30tkhc","student":null,"state":"KS"},"type":"Feature","geometry":{"type":"Point","coordinates":[-86.927511,39.555044]}},{"properties":{"city":"Manhattan","univesity":"Kansas State University","id":"a62xlx44d2o4","student":null,"state":"KS"},"type":"Feature","geometry":{"type":"Point","coordinates":[-86.927511,39.555044]}},{"properties":{"city":"Manhattan","univesity":"Kansas State University","id":"a62xlx447h7z","student":null,"state":"KS"},"type":"Feature","geometry":{"type":"Point","coordinates":[-86.927511,39.555044]}},{"properties":{"city":"Manhattan","univesity":"Kansas State University","id":"a62xlx6jhmt7","student":null,"state":"KS"},"type":"Feature","geometry":{"type":"Point","coordinates":[-86.927511,39.555044]}},{"properties":{"city":"Manhattan","univesity":"Kansas State University","id":"a62xlx86fhxa","student":null,"state":"KS"},"type":"Feature","geometry":{"type":"Point","coordinates":[-86.927511,39.555044]}},{"properties":{"city":"Manhattan","univesity":"Kansas State University","id":"a62xlwzqe4xn","student":null,"state":"KS"},"type":"Feature","geometry":{"type":"Point","coordinates":[-86.927511,39.555044]}},{"properties":{"city":"Manhattan","univesity":"Kansas State University","id":"a62xlwzz6rxc","student":null,"state":"KS"},"type":"Feature","geometry":{"type":"Point","coordinates":[-86.927511,39.555044]}},{"properties":{"city":"Manhattan","univesity":"Kansas State University","id":"a62xlwyz78ju","student":null,"state":"KS"},"type":"Feature","geometry":{"type":"Point","coordinates":[-86.927511,39.555044]}},{"properties":{"city":"Manhattan","univesity":"Kansas State University","id":"a62xlx4r3n3v","student":null,"state":"KS"},"type":"Feature","geometry":{"type":"Point","coordinates":[-86.927511,39.555044]}},{"properties":{"city":"Memphis","univesity":"Rhodes College","id":"a62xlx0rspol","student":null,"state":"TN"},"type":"Feature","geometry":{"type":"Point","coordinates":[-90.04898,35.149534]}},{"properties":{"city":"Memphis","univesity":"Rhodes College","id":"a62xlx29d24k","student":null,"state":"TN"},"type":"Feature","geometry":{"type":"Point","coordinates":[-90.04898,35.149534]}},{"properties":{"city":"Memphis","univesity":"Memphis College of Art","id":"a62xlxa3nfl3","student":null,"state":"TN"},"type":"Feature","geometry":{"type":"Point","coordinates":[-90.04898,35.149534]}},{"properties":{"city":"Memphis","univesity":"Rhodes College","id":"a62xlxdklbun","student":null,"state":"TN"},"type":"Feature","geometry":{"type":"Point","coordinates":[-90.04898,35.149534]}},{"properties":{"city":"Montreal","univesity":"HEC Montreal","id":"a62xlx0vnyg0","student":null,"state":"Canada"},"type":"Feature","geometry":{"type":"Point","coordinates":[-94.348548,35.117596]}},{"properties":{"city":"Mount Vernon","univesity":"Cornell College","id":"a62xlxe6iqdk","student":null,"state":"IA"},"type":"Feature","geometry":{"type":"Point","coordinates":[-72.47953,41.81871]}},{"properties":{"city":"Muncie","univesity":"Ball State University","id":"a62xlxb8lh4k","student":null,"state":"IN"},"type":"Feature","geometry":{"type":"Point","coordinates":[-73.591236,41.043986]}},{"properties":{"city":"Nashville","univesity":"Belmont University","id":"a62xlx8mxzff","student":null,"state":"TN"},"type":"Feature","geometry":{"type":"Point","coordinates":[-86.784443,36.16589]}},{"properties":{"city":"Nashville","univesity":"Belmont University","id":"a62xlx7rv16k","student":null,"state":"TN"},"type":"Feature","geometry":{"type":"Point","coordinates":[-86.784443,36.16589]}},{"properties":{"city":"Nashville","univesity":"Vanderbilt University","id":"a62xlx57x2tz","student":null,"state":"TN"},"type":"Feature","geometry":{"type":"Point","coordinates":[-86.784443,36.16589]}},{"properties":{"city":"Nashville","univesity":"Vanderbilt University","id":"a62xlx9kcrcv","student":null,"state":"TN"},"type":"Feature","geometry":{"type":"Point","coordinates":[-86.784443,36.16589]}},{"properties":{"city":"Nashville","univesity":"Vanderbilt University","id":"a62xlxch3ytf","student":null,"state":"TN"},"type":"Feature","geometry":{"type":"Point","coordinates":[-86.784443,36.16589]}},{"properties":{"city":"New Haven","univesity":"Yale University","id":"a62xlxdora83","student":null,"state":"CT"},"type":"Feature","geometry":{"type":"Point","coordinates":[-72.928158,41.308153]}},{"properties":{"city":"New York","univesity":"Columbia University","id":"a62xlx06uajl","student":null,"state":"NY"},"type":"Feature","geometry":{"type":"Point","coordinates":[-74.005973,40.714269]}},{"properties":{"city":"New York","univesity":"NYU","id":"a62xlx4i8be5","student":null,"state":"NY"},"type":"Feature","geometry":{"type":"Point","coordinates":[-74.005973,40.714269]}},{"properties":{"city":"New York","univesity":"Arrojo Cosmetology School","id":"a62xlx43gtd9","student":null,"state":"NY"},"type":"Feature","geometry":{"type":"Point","coordinates":[-74.005973,40.714269]}},{"properties":{"city":"Northfield","univesity":"St. Olaf College","id":"a62xlx4zbl7r","student":null,"state":"MN"},"type":"Feature","geometry":{"type":"Point","coordinates":[-118.933433,34.406664]}},{"properties":{"city":"Olathe","univesity":"Mid-America Nazarine","id":"a62xlx1x4gq8","student":null,"state":"KS"},"type":"Feature","geometry":{"type":"Point","coordinates":[-94.819129,38.881396]}},{"properties":{"city":"Omaha","univesity":"Creighton University","id":"a62xlx6i8e2n","student":null,"state":"NE"},"type":"Feature","geometry":{"type":"Point","coordinates":[-95.937792,41.25861]}},{"properties":{"city":"Overland Park","univesity":"JCCC","id":"a62xlxcvo8ao","student":null,"state":"KS"},"type":"Feature","geometry":{"type":"Point","coordinates":[-92.280706,34.286764]}},{"properties":{"city":"Overland Park","univesity":"JCCC","id":"a62xlx680tyx","student":null,"state":"KS"},"type":"Feature","geometry":{"type":"Point","coordinates":[-92.280706,34.286764]}},{"properties":{"city":"Overland Park","univesity":"JCCC","id":"a62xlxc2uckf","student":null,"state":"KS"},"type":"Feature","geometry":{"type":"Point","coordinates":[-92.280706,34.286764]}},{"properties":{"city":"Overland Park","univesity":"JCCC","id":"a62xlx1pbi7n","student":null,"state":"KS"},"type":"Feature","geometry":{"type":"Point","coordinates":[-92.280706,34.286764]}},{"properties":{"city":"Overland Park","univesity":"JCCC","id":"a62xlxd3dgc4","student":null,"state":"KS"},"type":"Feature","geometry":{"type":"Point","coordinates":[-92.280706,34.286764]}},{"properties":{"city":"Overland Park","univesity":"JCCC","id":"a62xlx5fqz8r","student":null,"state":"KS"},"type":"Feature","geometry":{"type":"Point","coordinates":[-92.280706,34.286764]}},{"properties":{"city":"Overland Park","univesity":"JCCC","id":"a62xlx9alk5r","student":null,"state":"KS"},"type":"Feature","geometry":{"type":"Point","coordinates":[-92.280706,34.286764]}},{"properties":{"city":"Overland Park","univesity":"JCCC","id":"a62xlx1oxhsl","student":null,"state":"KS"},"type":"Feature","geometry":{"type":"Point","coordinates":[-92.280706,34.286764]}},{"properties":{"city":"Overland Park","univesity":"JCCC","id":"a62xlx3t2rwl","student":null,"state":"KS"},"type":"Feature","geometry":{"type":"Point","coordinates":[-92.280706,34.286764]}},{"properties":{"city":"Overland Park","univesity":"JCCC","id":"a62xlxcc0ije","student":null,"state":"KS"},"type":"Feature","geometry":{"type":"Point","coordinates":[-92.280706,34.286764]}},{"properties":{"city":"Overland Park","univesity":"JCCC","id":"a62xlx307s9x","student":null,"state":"KS"},"type":"Feature","geometry":{"type":"Point","coordinates":[-92.280706,34.286764]}},{"properties":{"city":"Overland Park","univesity":"JCCC","id":"a62xlx4o85sb","student":null,"state":"KS"},"type":"Feature","geometry":{"type":"Point","coordinates":[-92.280706,34.286764]}},{"properties":{"city":"Overland Park","univesity":"JCCC","id":"a62xlx6yj5rw","student":null,"state":"KS"},"type":"Feature","geometry":{"type":"Point","coordinates":[-92.280706,34.286764]}},{"properties":{"city":"Overland Park","univesity":"JCCC","id":"a62xlxc82iue","student":null,"state":"KS"},"type":"Feature","geometry":{"type":"Point","coordinates":[-92.280706,34.286764]}},{"properties":{"city":"Overland Park","univesity":"JCCC","id":"a62xlx8osesa","student":null,"state":"KS"},"type":"Feature","geometry":{"type":"Point","coordinates":[-92.280706,34.286764]}},{"properties":{"city":"Overland Park","univesity":"JCCC","id":"a62xlxcialf0","student":null,"state":"KS"},"type":"Feature","geometry":{"type":"Point","coordinates":[-92.280706,34.286764]}},{"properties":{"city":"Overland Park","univesity":"JCCC","id":"a62xlx5onyqy","student":null,"state":"KS"},"type":"Feature","geometry":{"type":"Point","coordinates":[-92.280706,34.286764]}},{"properties":{"city":"Overland Park","univesity":"JCCC","id":"a62xlx119v3c","student":null,"state":"KS"},"type":"Feature","geometry":{"type":"Point","coordinates":[-92.280706,34.286764]}},{"properties":{"city":"Overland Park","univesity":"JCCC","id":"a62xlx43ou4z","student":null,"state":"KS"},"type":"Feature","geometry":{"type":"Point","coordinates":[-92.280706,34.286764]}},{"properties":{"city":"Overland Park","univesity":"JCCC","id":"a62xlx4i464h","student":null,"state":"KS"},"type":"Feature","geometry":{"type":"Point","coordinates":[-92.280706,34.286764]}},{"properties":{"city":"Overland Park","univesity":"JCCC","id":"a62xlxezzaj0","student":null,"state":"KS"},"type":"Feature","geometry":{"type":"Point","coordinates":[-92.280706,34.286764]}},{"properties":{"city":"Overland Park","univesity":"JCCC","id":"a62xlx8utirn","student":null,"state":"KS"},"type":"Feature","geometry":{"type":"Point","coordinates":[-92.280706,34.286764]}},{"properties":{"city":"Overland Park","univesity":"JCCC","id":"a62xlxe48zcz","student":null,"state":"KS"},"type":"Feature","geometry":{"type":"Point","coordinates":[-92.280706,34.286764]}},{"properties":{"city":"Overland Park","univesity":"JCCC","id":"a62xlwzrymld","student":null,"state":"KS"},"type":"Feature","geometry":{"type":"Point","coordinates":[-92.280706,34.286764]}},{"properties":{"city":"Overland Park","univesity":"JCCC","id":"a62xlwzvidpb","student":null,"state":"KS"},"type":"Feature","geometry":{"type":"Point","coordinates":[-92.280706,34.286764]}},{"properties":{"city":"Overland Park","univesity":"JCCC","id":"a62xlxbae4jz","student":null,"state":"KS"},"type":"Feature","geometry":{"type":"Point","coordinates":[-92.280706,34.286764]}},{"properties":{"city":"Overland Park","univesity":"JCCC","id":"a62xlx1zd0yw","student":null,"state":"KS"},"type":"Feature","geometry":{"type":"Point","coordinates":[-92.280706,34.286764]}},{"properties":{"city":"Overland Park","univesity":"JCCC","id":"a62xlx9ujv3y","student":null,"state":"KS"},"type":"Feature","geometry":{"type":"Point","coordinates":[-92.280706,34.286764]}},{"properties":{"city":"Overland Park","univesity":"JCCC","id":"a62xlxb2f1iq","student":null,"state":"KS"},"type":"Feature","geometry":{"type":"Point","coordinates":[-92.280706,34.286764]}},{"properties":{"city":"Overland Park","univesity":"JCCC","id":"a62xlx1v4r5s","student":null,"state":"KS"},"type":"Feature","geometry":{"type":"Point","coordinates":[-92.280706,34.286764]}},{"properties":{"city":"Overland Park","univesity":"JCCC","id":"a62xlxel6t78","student":null,"state":"KS"},"type":"Feature","geometry":{"type":"Point","coordinates":[-92.280706,34.286764]}},{"properties":{"city":"Overland Park","univesity":"JCCC","id":"a62xlxezphl4","student":null,"state":"KS"},"type":"Feature","geometry":{"type":"Point","coordinates":[-92.280706,34.286764]}},{"properties":{"city":"Overland Park","univesity":"JCCC","id":"a62xlx8o471h","student":null,"state":"KS"},"type":"Feature","geometry":{"type":"Point","coordinates":[-92.280706,34.286764]}},{"properties":{"city":"Overland Park","univesity":"JCCC","id":"a62xlxa2hfl5","student":null,"state":"KS"},"type":"Feature","geometry":{"type":"Point","coordinates":[-92.280706,34.286764]}},{"properties":{"city":"Overland Park","univesity":"JCCC","id":"a62xlx3eg8o7","student":null,"state":"KS"},"type":"Feature","geometry":{"type":"Point","coordinates":[-92.280706,34.286764]}},{"properties":{"city":"Overland Park","univesity":"JCCC","id":"a62xlx86k5b9","student":null,"state":"KS"},"type":"Feature","geometry":{"type":"Point","coordinates":[-92.280706,34.286764]}},{"properties":{"city":"Overland Park","univesity":"JCCC","id":"a62xlxee9j00","student":null,"state":"KS"},"type":"Feature","geometry":{"type":"Point","coordinates":[-92.280706,34.286764]}},{"properties":{"city":"Overland Park","univesity":"JCCC","id":"a62xlx4xgjf1","student":null,"state":"KS"},"type":"Feature","geometry":{"type":"Point","coordinates":[-92.280706,34.286764]}},{"properties":{"city":"Overland Park","univesity":"JCCC","id":"a62xlxd2u6gh","student":null,"state":"KS"},"type":"Feature","geometry":{"type":"Point","coordinates":[-92.280706,34.286764]}},{"properties":{"city":"Overland Park","univesity":"JCCC","id":"a62xlxe0nbq2","student":null,"state":"KS"},"type":"Feature","geometry":{"type":"Point","coordinates":[-92.280706,34.286764]}},{"properties":{"city":"Overland Park","univesity":"JCCC","id":"a62xlwzyuh49","student":null,"state":"KS"},"type":"Feature","geometry":{"type":"Point","coordinates":[-92.280706,34.286764]}},{"properties":{"city":"Overland Park","univesity":"JCCC","id":"a62xlxb0kvvs","student":null,"state":"KS"},"type":"Feature","geometry":{"type":"Point","coordinates":[-92.280706,34.286764]}},{"properties":{"city":"Overland Park","univesity":"JCCC","id":"a62xlx7g1vsh","student":null,"state":"KS"},"type":"Feature","geometry":{"type":"Point","coordinates":[-92.280706,34.286764]}},{"properties":{"city":"Overland Park","univesity":"JCCC","id":"a62xlxa4nwdf","student":null,"state":"KS"},"type":"Feature","geometry":{"type":"Point","coordinates":[-92.280706,34.286764]}},{"properties":{"city":"Overland Park","univesity":"JCCC","id":"a62xlx5gp589","student":null,"state":"KS"},"type":"Feature","geometry":{"type":"Point","coordinates":[-92.280706,34.286764]}},{"properties":{"city":"Overland Park","univesity":"JCCC","id":"a62xlxebopox","student":null,"state":"KS"},"type":"Feature","geometry":{"type":"Point","coordinates":[-92.280706,34.286764]}},{"properties":{"city":"Overland Park","univesity":"JCCC","id":"a62xlx5t9ymw","student":null,"state":"KS"},"type":"Feature","geometry":{"type":"Point","coordinates":[-92.280706,34.286764]}},{"properties":{"city":"Overland Park","univesity":"JCCC","id":"a62xlx3cch4q","student":null,"state":"KS"},"type":"Feature","geometry":{"type":"Point","coordinates":[-92.280706,34.286764]}},{"properties":{"city":"Overland Park","univesity":"JCCC","id":"a62xlx8mf2d1","student":null,"state":"KS"},"type":"Feature","geometry":{"type":"Point","coordinates":[-92.280706,34.286764]}},{"properties":{"city":"Overland Park","univesity":"JCCC","id":"a62xlx2k2fds","student":null,"state":"KS"},"type":"Feature","geometry":{"type":"Point","coordinates":[-92.280706,34.286764]}},{"properties":{"city":"Overland Park","univesity":"JCCC","id":"a62xlx5520jl","student":null,"state":"KS"},"type":"Feature","geometry":{"type":"Point","coordinates":[-92.280706,34.286764]}},{"properties":{"city":"Overland Park","univesity":"JCCC","id":"a62xlx3nwewr","student":null,"state":"KS"},"type":"Feature","geometry":{"type":"Point","coordinates":[-92.280706,34.286764]}},{"properties":{"city":"Overland Park","univesity":"JCCC","id":"a62xlx5uu518","student":null,"state":"KS"},"type":"Feature","geometry":{"type":"Point","coordinates":[-92.280706,34.286764]}},{"properties":{"city":"Overland Park","univesity":"JCCC","id":"a62xlxd4b0oz","student":null,"state":"KS"},"type":"Feature","geometry":{"type":"Point","coordinates":[-92.280706,34.286764]}},{"properties":{"city":"Overland Park","univesity":"JCCC","id":"a62xlwypf8u9","student":null,"state":"KS"},"type":"Feature","geometry":{"type":"Point","coordinates":[-92.280706,34.286764]}},{"properties":{"city":"Overland Park/Lawrence","univesity":"JCCC/KU","id":"a62xlx2ix6b6","student":null,"state":"KS"},"type":"Feature","geometry":{"type":"Point","coordinates":[-94.670792,38.982228]}},{"properties":{"city":"Overland Park/Lawrence","univesity":"JCCC/KU","id":"a62xlxe9urn4","student":null,"state":"KS"},"type":"Feature","geometry":{"type":"Point","coordinates":[-94.670792,38.982228]}},{"properties":{"city":"Overland Park/Lawrence","univesity":"JCCC/KU","id":"a62xlx6d4h4p","student":null,"state":"KS"},"type":"Feature","geometry":{"type":"Point","coordinates":[-94.670792,38.982228]}},{"properties":{"city":"Overland Park/Lawrence","univesity":"JCCC/KU","id":"a62xlx7wdxvu","student":null,"state":"KS"},"type":"Feature","geometry":{"type":"Point","coordinates":[-94.670792,38.982228]}},{"properties":{"city":"Overland Park/Lawrence","univesity":"JCCC/KU","id":"a62xlx6u1n07","student":null,"state":"KS"},"type":"Feature","geometry":{"type":"Point","coordinates":[-94.670792,38.982228]}},{"properties":{"city":"Overland Park/Manhattan","univesity":"JCCC/Kansas State University","id":"a62xlxdk3n7o","student":null,"state":"KS"},"type":"Feature","geometry":{"type":"Point","coordinates":[-69.433104,45.133665]}},{"properties":{"city":"Oxford","univesity":"University of Mississippi (Ole Miss)","id":"a62xlx0b6lj2","student":null,"state":"MS"},"type":"Feature","geometry":{"type":"Point","coordinates":[-107.714228,37.168892]}},{"properties":{"city":"Oxford","univesity":"Miami University of Ohio","id":"a62xlwzwo1up","student":null,"state":"OH"},"type":"Feature","geometry":{"type":"Point","coordinates":[-107.714228,37.168892]}},{"properties":{"city":"Oxford","univesity":"Miami University of Ohio","id":"a62xlwzlza86","student":null,"state":"OH"},"type":"Feature","geometry":{"type":"Point","coordinates":[-107.714228,37.168892]}},{"properties":{"city":"Oxford","univesity":"Miami University of Ohio","id":"a62xlx5yea9j","student":null,"state":"OH"},"type":"Feature","geometry":{"type":"Point","coordinates":[-107.714228,37.168892]}},{"properties":{"city":"Palo Alto","univesity":"Stanford University","id":"a62xlwzsb6fc","student":null,"state":"CA"},"type":"Feature","geometry":{"type":"Point","coordinates":[-122.14302,37.441883]}},{"properties":{"city":"Pittsburg","univesity":"Pittsburg State University","id":"a62xlxcqnenu","student":null,"state":"KS"},"type":"Feature","geometry":{"type":"Point","coordinates":[-79.995886,40.440625]}},{"properties":{"city":"Pittsburg","univesity":"Pittsburg State University","id":"a62xlxbf8j7x","student":null,"state":"KS"},"type":"Feature","geometry":{"type":"Point","coordinates":[-79.995886,40.440625]}},{"properties":{"city":"Pittsburg","univesity":"Pittsburg State University","id":"a62xlxbwb980","student":null,"state":"KS"},"type":"Feature","geometry":{"type":"Point","coordinates":[-79.995886,40.440625]}},{"properties":{"city":"Pittsburg","univesity":"Pittsburg State University","id":"a62xlx9eeezv","student":null,"state":"KS"},"type":"Feature","geometry":{"type":"Point","coordinates":[-79.995886,40.440625]}},{"properties":{"city":"Pittsburg","univesity":"Pittsburg State University","id":"a62xlx5p01hn","student":null,"state":"KS"},"type":"Feature","geometry":{"type":"Point","coordinates":[-79.995886,40.440625]}},{"properties":{"city":"Pittsburg","univesity":"Pittsburg State University","id":"a62xlx4v61om","student":null,"state":"KS"},"type":"Feature","geometry":{"type":"Point","coordinates":[-79.995886,40.440625]}},{"properties":{"city":"Pittsburg","univesity":"Pittsburg State University","id":"a62xlxaqxb1s","student":null,"state":"KS"},"type":"Feature","geometry":{"type":"Point","coordinates":[-79.995886,40.440625]}},{"properties":{"city":"Pittsburg","univesity":"Pittsburg State University","id":"a62xlx7e46eu","student":null,"state":"KS"},"type":"Feature","geometry":{"type":"Point","coordinates":[-79.995886,40.440625]}},{"properties":{"city":"Pittsburg","univesity":"Pittsburg State University","id":"a62xlx3c04oa","student":null,"state":"KS"},"type":"Feature","geometry":{"type":"Point","coordinates":[-79.995886,40.440625]}},{"properties":{"city":"Pittsburg","univesity":"Pittsburg State University","id":"a62xlxejrcjn","student":null,"state":"KS"},"type":"Feature","geometry":{"type":"Point","coordinates":[-79.995886,40.440625]}},{"properties":{"city":"Pittsburg","univesity":"Pittsburg State University","id":"a62xlxb8l6d0","student":null,"state":"KS"},"type":"Feature","geometry":{"type":"Point","coordinates":[-79.995886,40.440625]}},{"properties":{"city":"Pittsburg","univesity":"Pittsburg State University","id":"a62xlxc8m2vd","student":null,"state":"KS"},"type":"Feature","geometry":{"type":"Point","coordinates":[-79.995886,40.440625]}},{"properties":{"city":"Pittsburg","univesity":"Pittsburg State University","id":"a62xlxcapnid","student":null,"state":"KS"},"type":"Feature","geometry":{"type":"Point","coordinates":[-79.995886,40.440625]}},{"properties":{"city":"Pittsburg","univesity":"Pittsburg State University","id":"a62xlx5etxjo","student":null,"state":"KS"},"type":"Feature","geometry":{"type":"Point","coordinates":[-79.995886,40.440625]}},{"properties":{"city":"Providence","univesity":"Rhode Island School of Design","id":"a62xlx34l7kz","student":null,"state":"RI"},"type":"Feature","geometry":{"type":"Point","coordinates":[-71.412834,41.823989]}},{"properties":{"city":"Rapid City","univesity":"South Dakota School of Mines and Technology","id":"a62xlx82zrse","student":null,"state":"SD"},"type":"Feature","geometry":{"type":"Point","coordinates":[-103.231015,44.080543]}},{"properties":{"city":"San Angelo","univesity":"Angelo State University","id":"a62xlxctyimc","student":null,"state":"TX"},"type":"Feature","geometry":{"type":"Point","coordinates":[-100.437038,31.463772]}},{"properties":{"city":"San Diego","univesity":"University of San Diego","id":"a62xlx6z1pod","student":null,"state":"CA"},"type":"Feature","geometry":{"type":"Point","coordinates":[-117.157255,32.715329]}},{"properties":{"city":"Santa Clara","univesity":"Santa Clara University","id":"a62xlx06thr8","student":null,"state":"CA"},"type":"Feature","geometry":{"type":"Point","coordinates":[-111.85254,40.569992]}},{"properties":{"city":"Santa Clara","univesity":"Santa Clara University","id":"a62xlx5h8alc","student":null,"state":"CA"},"type":"Feature","geometry":{"type":"Point","coordinates":[-111.85254,40.569992]}},{"properties":{"city":"Savannah","univesity":"Savannah College of Art and Design","id":"a62xlx651dr3","student":null,"state":"GA"},"type":"Feature","geometry":{"type":"Point","coordinates":[-81.099834,32.083541]}},{"properties":{"city":"Savannah","univesity":"Savannah College of Art and Design","id":"a62xlxch0xaa","student":null,"state":"GA"},"type":"Feature","geometry":{"type":"Point","coordinates":[-81.099834,32.083541]}},{"properties":{"city":"Seattle","univesity":"University of Washington","id":"a62xlxeyaybs","student":null,"state":"WA"},"type":"Feature","geometry":{"type":"Point","coordinates":[-122.332071,47.60621]}},{"properties":{"city":"Sewanee","univesity":"Sewanee: The University of the South","id":"a62xlx4mry4u","student":null,"state":"TN"},"type":"Feature","geometry":{"type":"Point","coordinates":[-93.339902,35.849246]}},{"properties":{"city":"Shawnee Mission","univesity":"Gap year","id":"a62xlx4y0te9","student":null,"state":"KS"},"type":"Feature","geometry":{"type":"Point","coordinates":[-94.655791,39.027783]}},{"properties":{"city":"Shawnee Mission","univesity":"Gap year","id":"a62xlx2lmjwb","student":null,"state":"KS"},"type":"Feature","geometry":{"type":"Point","coordinates":[-94.655791,39.027783]}},{"properties":{"city":"Shawnee Mission","univesity":"Gap year","id":"a62xlx3diuk6","student":null,"state":"KS"},"type":"Feature","geometry":{"type":"Point","coordinates":[-94.655791,39.027783]}},{"properties":{"city":"Shawnee Mission","univesity":"Gap year","id":"a62xlxemhuk5","student":null,"state":"KS"},"type":"Feature","geometry":{"type":"Point","coordinates":[-94.655791,39.027783]}},{"properties":{"city":"Shawnee Mission","univesity":"Gap Year","id":"a62xlxd9cpz6","student":null,"state":"KS"},"type":"Feature","geometry":{"type":"Point","coordinates":[-94.655791,39.027783]}},{"properties":{"city":"Shawnee Mission","univesity":"Gap year","id":"a62xlx00zc7r","student":null,"state":"KS"},"type":"Feature","geometry":{"type":"Point","coordinates":[-94.655791,39.027783]}},{"properties":{"city":"Soccorro","univesity":"New Mexico Tech","id":"a62xlx82x75h","student":null,"state":"NM"},"type":"Feature","geometry":{"type":"Point","coordinates":[-74.381835,44.767831]}},{"properties":{"city":"Soccorro","univesity":"New Mexico Tech","id":"a62xlx8j52ej","student":null,"state":"NM"},"type":"Feature","geometry":{"type":"Point","coordinates":[-74.381835,44.767831]}},{"properties":{"city":"Socorro","univesity":"New Mexico Tech","id":"a62xlxeyxgt3","student":null,"state":"NM"},"type":"Feature","geometry":{"type":"Point","coordinates":[-74.381835,44.767831]}},{"properties":{"city":"Springfield","univesity":"Missouri State University","id":"a62xlxa5jh8x","student":null,"state":"MO"},"type":"Feature","geometry":{"type":"Point","coordinates":[-72.589811,42.101483]}},{"properties":{"city":"Springfield","univesity":"Missouri State University","id":"a62xlxel14rs","student":null,"state":"MO"},"type":"Feature","geometry":{"type":"Point","coordinates":[-72.589811,42.101483]}},{"properties":{"city":"St. Louis","univesity":"Washington University","id":"a62xlxbu1yau","student":null,"state":"MO"},"type":"Feature","geometry":{"type":"Point","coordinates":[-91.846798,33.455113]}},{"properties":{"city":"St. Louis","univesity":"Saint Louis University","id":"a62xlx1ox1g5","student":null,"state":"MO"},"type":"Feature","geometry":{"type":"Point","coordinates":[-91.846798,33.455113]}},{"properties":{"city":"St. Louis","univesity":"Washington University","id":"a62xlx6rkgoj","student":null,"state":"MO"},"type":"Feature","geometry":{"type":"Point","coordinates":[-91.846798,33.455113]}},{"properties":{"city":"St. Louis","univesity":"Saint Louis University","id":"a62xlx3sho72","student":null,"state":"MO"},"type":"Feature","geometry":{"type":"Point","coordinates":[-91.846798,33.455113]}},{"properties":{"city":"St. Paul","univesity":"University of St. Thomas","id":"a62xlx84wbrs","student":null,"state":"MN"},"type":"Feature","geometry":{"type":"Point","coordinates":[-170.832778,-14.321667]}},{"properties":{"city":"St. Paul","univesity":"Macalester College","id":"a62xlx89jx74","student":null,"state":"MN"},"type":"Feature","geometry":{"type":"Point","coordinates":[-170.832778,-14.321667]}},{"properties":{"city":"Stillwater","univesity":"Oklahoma State University","id":"a62xlx05dkbm","student":null,"state":"OK"},"type":"Feature","geometry":{"type":"Point","coordinates":[-87.784714,30.715745]}},{"properties":{"city":"Swarthmore","univesity":"Swarthmore College","id":"a62xlx78o01v","student":null,"state":"PA"},"type":"Feature","geometry":{"type":"Point","coordinates":[-75.344083,39.897162]}},{"properties":{"city":"Syracuse","univesity":"Syracuse University","id":"a62xlx42r0va","student":null,"state":"NY"},"type":"Feature","geometry":{"type":"Point","coordinates":[-76.147424,43.048122]}},{"properties":{"city":"Tempe","univesity":"Arizona State University","id":"a62xlx5l4ogj","student":null,"state":"AZ"},"type":"Feature","geometry":{"type":"Point","coordinates":[-111.90931,33.414768]}},{"properties":{"city":"Tempe","univesity":"Barrett Honors College of Arizona State University","id":"a62xlwyyryxt","student":null,"state":"AZ"},"type":"Feature","geometry":{"type":"Point","coordinates":[-111.90931,33.414768]}},{"properties":{"city":"Tulsa","univesity":"University of Tulsa","id":"a62xlx1deny1","student":null,"state":"OK"},"type":"Feature","geometry":{"type":"Point","coordinates":[-95.992775,36.153982]}},{"properties":{"city":"Upland","univesity":"Taylor University","id":"a62xlxbmrgun","student":null,"state":"IN"},"type":"Feature","geometry":{"type":"Point","coordinates":[-97.019181,39.088886]}},{"properties":{"city":"Upland","univesity":"Taylor University","id":"a62xlxb02ney","student":null,"state":"IN"},"type":"Feature","geometry":{"type":"Point","coordinates":[-97.019181,39.088886]}},{"properties":{"city":"Urbana-Champaign","univesity":"University of Illinois","id":"a62xlxcq1m9x","student":null,"state":"IL"},"type":"Feature","geometry":null},{"properties":{"city":"Valencia","univesity":"California Institute of the Art","id":"a62xlxadyy3d","student":null,"state":"CA"},"type":"Feature","geometry":{"type":"Point","coordinates":[-112.584054,33.379486]}},{"properties":{"city":"Valparaiso","univesity":"Valparaiso University","id":"a62xlx0ffe5n","student":null,"state":"ID"},"type":"Feature","geometry":{"type":"Point","coordinates":[-86.49706,30.50821]}},{"properties":{"city":"Ventura","univesity":"Ventura College","id":"a62xlx3jvnlf","student":null,"state":"CA"},"type":"Feature","geometry":{"type":"Point","coordinates":[-134.895833,58.256389]}},{"properties":{"city":"Ventura","univesity":"Ventura College","id":"a62xlx7rei15","student":null,"state":"CA"},"type":"Feature","geometry":{"type":"Point","coordinates":[-134.895833,58.256389]}},{"properties":{"city":"Warrensburg","univesity":"Central Missouri University","id":"a62xlx35iboj","student":null,"state":"MO"},"type":"Feature","geometry":{"type":"Point","coordinates":[-83.168525,40.305894]}},{"properties":{"city":"Washington DC","univesity":"Gallaudet University","id":"a62xlxanhqsy","student":null,"state":null},"type":"Feature","geometry":null},{"properties":{"city":"Wellesley","univesity":"Wellesley College","id":"a62xlxeia82k","student":null,"state":"MA"},"type":"Feature","geometry":{"type":"Point","coordinates":[-78.892524,40.265631]}},{"properties":{"city":"Wooster","univesity":"Wooster","id":"a62xlx59bli8","student":null,"state":"OH"},"type":"Feature","geometry":{"type":"Point","coordinates":[-90.863726,34.840929]}},{"properties":{"city":"Worcester","univesity":"Worcester Polytechnic Institute","id":"a62xlx7gegju","student":null,"state":"MA"},"type":"Feature","geometry":{"type":"Point","coordinates":[-71.802293,42.262593]}},{"properties":{"city":"Worcester","univesity":"College of the Holy Cross","id":"a62xlxasaq1d","student":null,"state":"MA"},"type":"Feature","geometry":{"type":"Point","coordinates":[-71.802293,42.262593]}},{"properties":{"city":null,"univesity":"Broadmoor Transition Services","id":"a62xlx0jhbmg","student":null,"state":null},"type":"Feature","geometry":null},{"properties":{"city":null,"univesity":"Broadmoor Transition Services","id":"a62xlxdck8r2","student":null,"state":null},"type":"Feature","geometry":null},{"properties":{"city":"St. Ann Arbor","univesity":"Gap year. year after next: University of Michigan","id":"a62xlx4yq45f","student":null,"state":"MI"},"type":"Feature","geometry":{"type":"Point","coordinates":[-86.176715,42.96502]}},{"properties":{"city":"Shawnee Mission","univesity":"Broadmoor Transition Services","id":"a62xlx9allfb","student":null,"state":"KS"},"type":"Feature","geometry":{"type":"Point","coordinates":[-94.655791,39.027783]}},{"properties":{"city":"Shawnee Mission","univesity":"Broadmoor Transition Services","id":"a62xlx7fr8wz","student":null,"state":"KS"},"type":"Feature","geometry":{"type":"Point","coordinates":[-94.655791,39.027783]}},{"properties":{"city":"Shawnee Mission","univesity":"Broadmoor Transition Services","id":"a62xlx248ou6","student":null,"state":"KS"},"type":"Feature","geometry":{"type":"Point","coordinates":[-94.655791,39.027783]}}],"is_temporal":false,"author":{"url":"","metadata":"","contact_name":"","contact_address":"","source":"","contact_phone":""},"source":"","pagination":{"sort":null,"start":0,"total":370,"limit":1000000},"state":"complete","tags":"","published":"2014-08-13T05:26:54-04:00","id":115588}