{"type":"FeatureCollection","data_type":"Dataset","url_type":null,"permissions":[{"permissions":{"download":true,"view":true},"group_id":"everyone"}],"classification":null,"title":"Alley Cassitty II","count":11,"stream_id":11561,"contributor":{"url":"http://geocommons.com/users/3995","name":"amazon"},"data_attributes":null,"calculation_params":null,"icon_link":null,"link":"http://geocommons.com/overlays/11561.json","extent":[-87.3499,33.564,-83.8218,36.9972],"geometry_types":["point"],"unique_name":null,"name":"Alley Cassitty II","feature_count":11,"description":"http://www.alley-cassetty.com/commercial.aspx","next_feature":null,"is_raster":false,"short_classification":"Y","stats":{"zip":{"max":42101,"mean":34517.3636363636,"variance":19512027.8545455,"stdev":4417.24210956853,"min":30011,"median":37040},"lat":{"max":36.997227,"mean":35.1983685454545,"variance":1.61153253584888,"stdev":1.26946151412671,"min":33.563972,"median":35.62572},"long":{"max":-83.821794,"mean":-85.6220518181818,"variance":1.81712313954097,"stdev":1.34800709921757,"min":-87.349894,"median":-86.408332}},"features":[{"properties":{"city":"Cumming","zip":30041,"id":"a665wqiqp7jz","address":"4745 Hammond Industrial Drive","lat":34.253947,"location":"Alley-Cassetty - Cumming","state":"GA","long":-84.065424},"type":"Feature","geometry":{"type":"Point","coordinates":[-84.065424,34.253947]}},{"properties":{"city":"Gallatin","zip":37066,"id":"a665wqawnrmh","address":"240 Lower Station Camp Creek Rd.","lat":36.350389,"location":"Alley-Cassetty Brick &amp; Block - Gallatin","state":"TN","long":-86.529999},"type":"Feature","geometry":{"type":"Point","coordinates":[-86.529999,36.350389]}},{"properties":{"city":"Murfreesboro","zip":37133,"id":"a665wqbt8flo","address":"415 New Salem Hwy.","lat":35.840271,"location":"Alley-Cassetty Brick &amp; Block - Murfreesboro","state":"TN","long":-86.408332},"type":"Feature","geometry":{"type":"Point","coordinates":[-86.408332,35.840271]}},{"properties":{"city":"Acworth","zip":30101,"id":"a665wq6ujoiu","address":"5368 N. Main Street","lat":34.075343,"location":"Alley-Cassetty Brick - Acworth","state":"GA","long":-84.69047},"type":"Feature","geometry":{"type":"Point","coordinates":[-84.69047,34.075343]}},{"properties":{"city":"Auburn","zip":30011,"id":"a665wq8ksq6t","address":"1399 Duncan Lane","lat":33.967755,"location":"Alley-Cassetty Brick - Auburn","state":"GA","long":-83.821794},"type":"Feature","geometry":{"type":"Point","coordinates":[-83.821794,33.967755]}},{"properties":{"city":"Bowling Green","zip":42101,"id":"a665wqi11nh9","address":"50 E. Main Street","lat":36.997227,"location":"Alley-Cassetty Brick - Bowling Green","state":"KY","long":-86.44477},"type":"Feature","geometry":{"type":"Point","coordinates":[-86.44477,36.997227]}},{"properties":{"city":"Clarksville","zip":37040,"id":"a665wq78e5vp","address":"814 Crossland Avenue","lat":36.519943,"location":"Alley-Cassetty Brick - Clarksville","state":"TN","long":-87.349894},"type":"Feature","geometry":{"type":"Point","coordinates":[-87.349894,36.519943]}},{"properties":{"city":"Columbia","zip":38401,"id":"a665wqhcgl6d","address":"100 Hill Street","lat":35.62572,"location":"Alley-Cassetty Brick - Columbia","state":"TN","long":-87.038478},"type":"Feature","geometry":{"type":"Point","coordinates":[-87.038478,35.62572]}},{"properties":{"city":"Atlanta","zip":30324,"id":"a665wqmhvyyi","address":"800 Lambert Drive NE","lat":33.812953,"location":"Alley-Cassetty Brick - Midtown Showroom","state":"GA","long":-84.363179},"type":"Feature","geometry":{"type":"Point","coordinates":[-84.363179,33.812953]}},{"properties":{"city":"Morrow","zip":30260,"id":"a665wqimn846","address":"1115 Southern Road","lat":33.563972,"location":"Alley-Cassetty Brick - Morrow","state":"GA","long":-84.353308},"type":"Feature","geometry":{"type":"Point","coordinates":[-84.353308,33.563972]}},{"properties":{"city":"Nashville","zip":37213,"id":"a665wqchrp61","address":"#2 Oldham Street","lat":36.174534,"location":"Alley-Cassetty Brick - Nashville","state":"TN","long":-86.776922},"type":"Feature","geometry":{"type":"Point","coordinates":[-86.776922,36.174534]}}],"is_temporal":false,"author":{"url":"","metadata":"","contact_name":"","contact_address":"","source":"","contact_phone":""},"source":"","pagination":{"sort":null,"start":0,"total":11,"limit":1000000},"state":"complete","tags":"alley,cassitty","published":"2009-04-05T19:58:20Z","id":11561}