{"type":"FeatureCollection","data_type":"Dataset","url_type":null,"permissions":[{"permissions":{"download":true,"view":true},"group_id":"everyone"}],"classification":null,"title":"farms","count":262,"stream_id":115651,"contributor":{"url":"http://geocommons.com/users/26725","name":"tfmalm2"},"data_attributes":null,"calculation_params":null,"icon_link":null,"link":"http://geocommons.com/overlays/115651.json","extent":[-103.8,29.1788,-82.3397,41.5529],"geometry_types":["point"],"unique_name":null,"name":"farms","feature_count":262,"description":"farms in KY","next_feature":null,"is_raster":false,"short_classification":"Y","stats":{},"features":[{"properties":{"city":"Paris","zip":"40362","geo_score":0.805,"id":"a68720ctk2sw","geo_precision":"range","address":"701 Cane Ridge Road","state":"KY"},"type":"Feature","geometry":{"type":"Point","coordinates":[-84.178741,38.223269]}},{"properties":{"city":"Paris","zip":"40362","geo_score":0.805,"id":"a68720cke28o","geo_precision":"range","address":"701 Cane Ridge Road","state":"KY"},"type":"Feature","geometry":{"type":"Point","coordinates":[-84.178741,38.223269]}},{"properties":{"city":"Paris","zip":"40362","geo_score":0.805,"id":"a687204m7qkc","geo_precision":"range","address":"701 Cane Ridge Road","state":"KY"},"type":"Feature","geometry":{"type":"Point","coordinates":[-84.178741,38.223269]}},{"properties":{"city":"Paris","zip":"40362","geo_score":0.805,"id":"a68720amo123","geo_precision":"range","address":"701 Cane Ridge Road","state":"KY"},"type":"Feature","geometry":{"type":"Point","coordinates":[-84.178741,38.223269]}},{"properties":{"city":"Georgetown","zip":"40324","geo_score":0.286,"id":"a6871zz73dpq","geo_precision":"street","address":"PO Box 345","state":"KY"},"type":"Feature","geometry":{"type":"Point","coordinates":[-84.758738,38.490631]}},{"properties":{"city":"Versailles","zip":"40383","geo_score":0.79,"id":"a68720czpd5l","geo_precision":"range","address":"5095 Frankfort Rd","state":"KY"},"type":"Feature","geometry":{"type":"Point","coordinates":[-84.767801,38.109555]}},{"properties":{"city":"Versailles","zip":"40383","geo_score":0.79,"id":"a68720a6h7w6","geo_precision":"range","address":"5095 Frankfort Rd","state":"KY"},"type":"Feature","geometry":{"type":"Point","coordinates":[-84.767801,38.109555]}},{"properties":{"city":"Versailles","zip":"40383","geo_score":0.79,"id":"a6871zy8edcm","geo_precision":"range","address":"5095 Frankfort Rd","state":"KY"},"type":"Feature","geometry":{"type":"Point","coordinates":[-84.767801,38.109555]}},{"properties":{"city":"Nicholasville","zip":"40356","geo_score":0.795,"id":"a6871zzpq2d5","geo_precision":"range","address":"3555 Keene Road","state":"KY"},"type":"Feature","geometry":{"type":"Point","coordinates":[-84.633105,37.938556]}},{"properties":{"city":"Lexington","zip":"40511","geo_score":0.625,"id":"a687207dty4r","geo_precision":"street","address":"4001 Mt. Horeb Pike","state":"KY"},"type":"Feature","geometry":{"type":"Point","coordinates":[-84.53826,38.108677]}},{"properties":{"city":"Paris","zip":"40362","geo_score":0.805,"id":"a687200z6j5w","geo_precision":"range","address":"1649 Jackstown Road","state":"KY"},"type":"Feature","geometry":{"type":"Point","coordinates":[-84.135889,38.250803]}},{"properties":{"city":"Georgetown","zip":"40324","geo_score":0.796,"id":"a6871zwkfckn","geo_precision":"range","address":"487 Carrick Pike","state":"KY"},"type":"Feature","geometry":{"type":"Point","coordinates":[-84.452749,38.206632]}},{"properties":{"city":"Georgetown","zip":"40324","geo_score":0.796,"id":"a6871zxrjzfi","geo_precision":"range","address":"487 Carrick Pike","state":"KY"},"type":"Feature","geometry":{"type":"Point","coordinates":[-84.452749,38.206632]}},{"properties":{"city":"Midway?","zip":null,"geo_score":0.857,"id":"a68720b8pw7c","geo_precision":"city","address":null,"state":"KY"},"type":"Feature","geometry":{"type":"Point","coordinates":[-86.238583,37.952012]}},{"properties":{"city":"Paris","zip":"40361","geo_score":0.915,"id":"a687200v7hwc","geo_precision":"range","address":"704 Redmon Road","state":"KY"},"type":"Feature","geometry":{"type":"Point","coordinates":[-84.20288,38.291755]}},{"properties":{"city":"Paris","zip":"40361","geo_score":0.915,"id":"a6872003bluw","geo_precision":"range","address":"704 Redmon Road","state":"KY"},"type":"Feature","geometry":{"type":"Point","coordinates":[-84.20288,38.291755]}},{"properties":{"city":"Paris","zip":"40361","geo_score":0.915,"id":"a687207cwut8","geo_precision":"range","address":"704 Redmon Road","state":"KY"},"type":"Feature","geometry":{"type":"Point","coordinates":[-84.20288,38.291755]}},{"properties":{"city":"Versailles","zip":"40383","geo_score":0.795,"id":"a687209yauso","geo_precision":"range","address":"1580 Pisgah Rd","state":"KY"},"type":"Feature","geometry":{"type":"Point","coordinates":[-84.65819,38.066234]}},{"properties":{"city":"Versailles","zip":"40383","geo_score":0.912,"id":"a687202c9lc1","geo_precision":"range","address":"759 McCracken Pike","state":"KY"},"type":"Feature","geometry":{"type":"Point","coordinates":[-84.749668,38.066034]}},{"properties":{"city":"Versailles","zip":"40383","geo_score":0.912,"id":"a687205bqkgn","geo_precision":"range","address":"759 McCracken Pike","state":"KY"},"type":"Feature","geometry":{"type":"Point","coordinates":[-84.749668,38.066034]}},{"properties":{"city":"Versailles","zip":"40383","geo_score":0.912,"id":"a68720c4v7h8","geo_precision":"range","address":"905 Pinckard Pike","state":"KY"},"type":"Feature","geometry":{"type":"Point","coordinates":[-84.70825,38.000495]}},{"properties":{"city":"Versailles","zip":"40383","geo_score":0.912,"id":"a687206wfwcp","geo_precision":"range","address":"905 Pinckard Pike","state":"KY"},"type":"Feature","geometry":{"type":"Point","coordinates":[-84.70825,38.000495]}},{"properties":{"city":"Versailles","zip":"40383","geo_score":0.912,"id":"a687203n1wwk","geo_precision":"range","address":"905 Pinckard Pike","state":"KY"},"type":"Feature","geometry":{"type":"Point","coordinates":[-84.70825,38.000495]}},{"properties":{"city":"Versailles","zip":"40383","geo_score":0.912,"id":"a6871zwlwsvl","geo_precision":"range","address":"905 Pinckard Pike","state":"KY"},"type":"Feature","geometry":{"type":"Point","coordinates":[-84.70825,38.000495]}},{"properties":{"city":"Versailles","zip":"40383","geo_score":0.912,"id":"a687202oa4bs","geo_precision":"range","address":"905 Pinckard Pike","state":"KY"},"type":"Feature","geometry":{"type":"Point","coordinates":[-84.70825,38.000495]}},{"properties":{"city":"Lexington","zip":"38351","geo_score":0.911,"id":"a687202hna8j","geo_precision":"range","address":"565 Candy Meadow Farm Rd","state":"TN"},"type":"Feature","geometry":{"type":"Point","coordinates":[-88.335998,35.576799]}},{"properties":{"city":"Georgetown","zip":"40324","geo_score":0.902,"id":"a687200vfeg9","geo_precision":"range","address":"1210 Stamping Ground Rd","state":"KY"},"type":"Feature","geometry":{"type":"Point","coordinates":[-84.608564,38.218023]}},{"properties":{"city":"Paris","zip":"40361","geo_score":0.915,"id":"a687203ocjdc","geo_precision":"range","address":"2903 Winchester Rd","state":"KY"},"type":"Feature","geometry":{"type":"Point","coordinates":[-84.185091,38.107665]}},{"properties":{"city":"Paris","zip":"40361","geo_score":0.915,"id":"a6871zxnlkd7","geo_precision":"range","address":"2903 Winchester Rd","state":"KY"},"type":"Feature","geometry":{"type":"Point","coordinates":[-84.185091,38.107665]}},{"properties":{"city":"Lexington","zip":"40515","geo_score":1.0,"id":"a68720csfzxo","geo_precision":"range","address":"1455 Walnut Hill Rd","state":"KY"},"type":"Feature","geometry":{"type":"Point","coordinates":[-84.432771,37.955087]}},{"properties":{"city":"Paris","zip":"40361","geo_score":0.915,"id":"a6871zx5qdmi","geo_precision":"range","address":"2323 Clintonville Road","state":"KY"},"type":"Feature","geometry":{"type":"Point","coordinates":[-84.263156,38.107074]}},{"properties":{"city":"Paris","zip":"40362","geo_score":0.805,"id":"a68720bwy3mr","geo_precision":"range","address":"703 Winchester Rd","state":"KY"},"type":"Feature","geometry":{"type":"Point","coordinates":[-84.246118,38.187337]}},{"properties":{"city":"Paris","zip":"40362","geo_score":0.805,"id":"a68720120v9j","geo_precision":"range","address":"703 Winchester Rd","state":"KY"},"type":"Feature","geometry":{"type":"Point","coordinates":[-84.246118,38.187337]}},{"properties":{"city":"Lexington","zip":"40511","geo_score":1.0,"id":"a68720bks6uv","geo_precision":"range","address":"3030 Newtown Pike","state":"KY"},"type":"Feature","geometry":{"type":"Point","coordinates":[-84.485954,38.125878]}},{"properties":{"city":"Lexington","zip":"40511","geo_score":1.0,"id":"a687207nvj0t","geo_precision":"range","address":"1901 Ferguson Road","state":"KY"},"type":"Feature","geometry":{"type":"Point","coordinates":[-84.373672,38.176981]}},{"properties":{"city":"Lexington","zip":"40511","geo_score":1.0,"id":"a687205d0dsg","geo_precision":"range","address":"1901 Ferguson Road","state":"KY"},"type":"Feature","geometry":{"type":"Point","coordinates":[-84.373672,38.176981]}},{"properties":{"city":"Paris","zip":"40361","geo_score":0.915,"id":"a68720armutn","geo_precision":"range","address":"1581 North Middletown Rd","state":"KY"},"type":"Feature","geometry":{"type":"Point","coordinates":[-84.176681,38.190539]}},{"properties":{"city":"Lexington","zip":"40511","geo_score":0.878,"id":"a6872074m5jx","geo_precision":"range","address":"3933 Spurr Road","state":"KY"},"type":"Feature","geometry":{"type":"Point","coordinates":[-84.569379,38.120292]}},{"properties":{"city":"Lexington","zip":"40511","geo_score":0.878,"id":"a6872091ltfq","geo_precision":"range","address":"3933 Spurr Road","state":"KY"},"type":"Feature","geometry":{"type":"Point","coordinates":[-84.569379,38.120292]}},{"properties":{"city":"Lexington","zip":"40511","geo_score":0.878,"id":"a6871zzz3ixx","geo_precision":"range","address":"3933 Spurr Road","state":"KY"},"type":"Feature","geometry":{"type":"Point","coordinates":[-84.569379,38.120292]}},{"properties":{"city":"Paris","zip":"40361","geo_score":0.915,"id":"a6871zx9bm8s","geo_precision":"range","address":"1094 Clay Kiser Rd","state":"KY"},"type":"Feature","geometry":{"type":"Point","coordinates":[-84.315741,38.260567]}},{"properties":{"city":"Lexington","zip":"40510","geo_score":1.0,"id":"a687209a8xa0","geo_precision":"range","address":"3225 Old Frankfort Pike","state":"KY"},"type":"Feature","geometry":{"type":"Point","coordinates":[-84.576302,38.081894]}},{"properties":{"city":"Lexington","zip":"40510","geo_score":1.0,"id":"a68720bjbhfc","geo_precision":"range","address":"3225 Old Frankfort Pike","state":"KY"},"type":"Feature","geometry":{"type":"Point","coordinates":[-84.576302,38.081894]}},{"properties":{"city":"Lexington","zip":"40510","geo_score":1.0,"id":"a687209ikylf","geo_precision":"range","address":"3225 Old Frankfort Pike","state":"KY"},"type":"Feature","geometry":{"type":"Point","coordinates":[-84.576302,38.081894]}},{"properties":{"city":"Lexington","zip":"40510","geo_score":1.0,"id":"a687208nowtr","geo_precision":"range","address":"3225 Old Frankfort Pike","state":"KY"},"type":"Feature","geometry":{"type":"Point","coordinates":[-84.576302,38.081894]}},{"properties":{"city":"Versailles","zip":"40383","geo_score":0.912,"id":"a687207uax09","geo_precision":"range","address":"7200 Steele Rd","state":"KY"},"type":"Feature","geometry":{"type":"Point","coordinates":[-84.760606,38.145237]}},{"properties":{"city":"Versailles","zip":"40383","geo_score":0.912,"id":"a68720ctd8dr","geo_precision":"range","address":"7200 Steele Rd","state":"KY"},"type":"Feature","geometry":{"type":"Point","coordinates":[-84.760606,38.145237]}},{"properties":{"city":"Lexington","zip":"40513","geo_score":0.464,"id":"a687207gdpgt","geo_precision":"street","address":"3333 Bowman Mill Rd","state":"KY"},"type":"Feature","geometry":{"type":"Point","coordinates":[-84.50068,38.011148]}},{"properties":{"city":"Lexington","zip":"40513","geo_score":0.464,"id":"a6871zyeyab7","geo_precision":"street","address":"3333 Bowman Mill Rd","state":"KY"},"type":"Feature","geometry":{"type":"Point","coordinates":[-84.50068,38.011148]}},{"properties":{"city":"Lexington","zip":"40513","geo_score":0.464,"id":"a68720cvgcmz","geo_precision":"street","address":"3333 Bowman Mill Rd","state":"KY"},"type":"Feature","geometry":{"type":"Point","coordinates":[-84.50068,38.011148]}},{"properties":{"city":"Lexington","zip":"40513","geo_score":0.464,"id":"a687205gsozt","geo_precision":"street","address":"3333 Bowman Mill Rd","state":"KY"},"type":"Feature","geometry":{"type":"Point","coordinates":[-84.50068,38.011148]}},{"properties":{"city":"Lexington","zip":"40513","geo_score":0.464,"id":"a6871zxpzans","geo_precision":"street","address":"3333 Bowman Mill Rd","state":"KY"},"type":"Feature","geometry":{"type":"Point","coordinates":[-84.50068,38.011148]}},{"properties":{"city":"Lexington","zip":"40513","geo_score":0.464,"id":"a68720a4hm09","geo_precision":"street","address":"3333 Bowman Mill Rd","state":"KY"},"type":"Feature","geometry":{"type":"Point","coordinates":[-84.50068,38.011148]}},{"properties":{"city":"Lexington","zip":"40513","geo_score":0.464,"id":"a6872019tfhw","geo_precision":"street","address":"3333 Bowman Mill Rd","state":"KY"},"type":"Feature","geometry":{"type":"Point","coordinates":[-84.50068,38.011148]}},{"properties":{"city":"Lexington","zip":"40513","geo_score":0.464,"id":"a6871zwwudir","geo_precision":"street","address":"3333 Bowman Mill Rd","state":"KY"},"type":"Feature","geometry":{"type":"Point","coordinates":[-84.50068,38.011148]}},{"properties":{"city":"Lexington","zip":"40513","geo_score":0.464,"id":"a687208gmmhe","geo_precision":"street","address":"3333 Bowman Mill Rd","state":"KY"},"type":"Feature","geometry":{"type":"Point","coordinates":[-84.50068,38.011148]}},{"properties":{"city":"Lexington","zip":"40513","geo_score":0.464,"id":"a6871zzrkr01","geo_precision":"street","address":"3333 Bowman Mill Rd","state":"KY"},"type":"Feature","geometry":{"type":"Point","coordinates":[-84.50068,38.011148]}},{"properties":{"city":"Paris","zip":"40361","geo_score":0.915,"id":"a6872037p8xy","geo_precision":"range","address":"1200 North Middletown Rd","state":"KY"},"type":"Feature","geometry":{"type":"Point","coordinates":[-84.196216,38.198771]}},{"properties":{"city":"Paris","zip":"40361","geo_score":0.915,"id":"a687208m9hz2","geo_precision":"range","address":"1200 North Middletown Rd","state":"KY"},"type":"Feature","geometry":{"type":"Point","coordinates":[-84.196216,38.198771]}},{"properties":{"city":"Paris","zip":"40361","geo_score":0.915,"id":"a6872076vhn2","geo_precision":"range","address":"1700 Georgetown Rd","state":"KY"},"type":"Feature","geometry":{"type":"Point","coordinates":[-84.335424,38.220924]}},{"properties":{"city":"Paris","zip":"40361","geo_score":0.915,"id":"a6872025amqr","geo_precision":"range","address":"1700 Georgetown Rd","state":"KY"},"type":"Feature","geometry":{"type":"Point","coordinates":[-84.335424,38.220924]}},{"properties":{"city":"Lexington","zip":"40511","geo_score":0.619,"id":"a6872029cg5e","geo_precision":"street","address":"1301 Dixiana/Domino Rd","state":"KY"},"type":"Feature","geometry":{"type":"Point","coordinates":[-84.482963,37.988755]}},{"properties":{"city":"Lexington","zip":"40511","geo_score":0.902,"id":"a68720709mtg","geo_precision":"street","address":"3601 Spurr Road","state":"KY"},"type":"Feature","geometry":{"type":"Point","coordinates":[-84.551786,38.111362]}},{"properties":{"city":"Lexington","zip":"40511","geo_score":0.902,"id":"a6871zyh3m60","geo_precision":"street","address":"3601 Spurr Road","state":"KY"},"type":"Feature","geometry":{"type":"Point","coordinates":[-84.551786,38.111362]}},{"properties":{"city":"Lexington","zip":"40511","geo_score":0.902,"id":"a6871zx4j8cq","geo_precision":"street","address":"3601 Spurr Road","state":"KY"},"type":"Feature","geometry":{"type":"Point","coordinates":[-84.551786,38.111362]}},{"properties":{"city":"Lexington","zip":"40511","geo_score":0.902,"id":"a6872011jtut","geo_precision":"street","address":"3601 Spurr Road","state":"KY"},"type":"Feature","geometry":{"type":"Point","coordinates":[-84.551786,38.111362]}},{"properties":{"city":"Lexington","zip":"40511","geo_score":0.902,"id":"a687200fgs6c","geo_precision":"street","address":"3601 Spurr Road","state":"KY"},"type":"Feature","geometry":{"type":"Point","coordinates":[-84.551786,38.111362]}},{"properties":{"city":"Lexington","zip":"40511","geo_score":0.902,"id":"a6872044rphy","geo_precision":"street","address":"3601 Spurr Road","state":"KY"},"type":"Feature","geometry":{"type":"Point","coordinates":[-84.551786,38.111362]}},{"properties":{"city":"Lexington","zip":"40511","geo_score":0.902,"id":"a68720chcuje","geo_precision":"street","address":"3601 Spurr Road","state":"KY"},"type":"Feature","geometry":{"type":"Point","coordinates":[-84.551786,38.111362]}},{"properties":{"city":"Versailles","zip":"40383","geo_score":0.912,"id":"a6872005o09h","geo_precision":"range","address":"730 Oregon Rd","state":"KY"},"type":"Feature","geometry":{"type":"Point","coordinates":[-84.769991,37.931763]}},{"properties":{"city":"Versailles","zip":"40383","geo_score":0.912,"id":"a6872010oirj","geo_precision":"range","address":"730 Oregon Rd","state":"KY"},"type":"Feature","geometry":{"type":"Point","coordinates":[-84.769991,37.931763]}},{"properties":{"city":"Nicholasville","zip":"40356","geo_score":0.917,"id":"a6871zz73pq4","geo_precision":"range","address":"1435 Clear Creek Rd","state":"KY"},"type":"Feature","geometry":{"type":"Point","coordinates":[-84.649878,37.902425]}},{"properties":{"city":"Versailles","zip":"40383","geo_score":0.912,"id":"a687209dvbg5","geo_precision":"range","address":"545 Sugar Hill Rd","state":"KY"},"type":"Feature","geometry":{"type":"Point","coordinates":[-84.644824,38.087472]}},{"properties":{"city":"Lexington","zip":"40511","geo_score":1.0,"id":"a687205rqspb","geo_precision":"range","address":"2490 Paris Pike","state":"KY"},"type":"Feature","geometry":{"type":"Point","coordinates":[-84.444696,38.082861]}},{"properties":{"city":"Versailles","zip":"40383","geo_score":0.912,"id":"a687205jg4dj","geo_precision":"range","address":"2130 Clifton Road","state":"KY"},"type":"Feature","geometry":{"type":"Point","coordinates":[-84.769035,38.060441]}},{"properties":{"city":"Versailles","zip":"40383","geo_score":0.912,"id":"a6872040ln0e","geo_precision":"range","address":"2130 Clifton Road","state":"KY"},"type":"Feature","geometry":{"type":"Point","coordinates":[-84.769035,38.060441]}},{"properties":{"city":"Lexington","zip":"40510","geo_score":1.0,"id":"a6871zwpdcxr","geo_precision":"range","address":"3675 Van Meter Rd","state":"KY"},"type":"Feature","geometry":{"type":"Point","coordinates":[-84.596154,38.059403]}},{"properties":{"city":"Paris","zip":null,"geo_score":0.771,"id":"a687201qmat5","geo_precision":"city","address":null,"state":"KY"},"type":"Feature","geometry":{"type":"Point","coordinates":[-83.271565,37.527592]}},{"properties":{"city":"Midway","zip":"40347","geo_score":0.915,"id":"a687207e83mj","geo_precision":"range","address":"5539 Midway Road","state":"KY"},"type":"Feature","geometry":{"type":"Point","coordinates":[-84.693635,38.134128]}},{"properties":{"city":"Midway","zip":"40347","geo_score":0.915,"id":"a687208kdwno","geo_precision":"range","address":"5539 Midway Road","state":"KY"},"type":"Feature","geometry":{"type":"Point","coordinates":[-84.693635,38.134128]}},{"properties":{"city":"Harrisburg","zip":"69345","geo_score":0.854,"id":"a687201jltve","geo_precision":"range","address":"2310 Rt 18","state":"NE"},"type":"Feature","geometry":{"type":"Point","coordinates":[-103.799758,41.55294]}},{"properties":{"city":"Nicholasville","zip":"40356","geo_score":0.917,"id":"a6871zyzbn4n","geo_precision":"range","address":"1691 Keene Road","state":"KY"},"type":"Feature","geometry":{"type":"Point","coordinates":[-84.588935,37.906873]}},{"properties":{"city":"Nicholasville","zip":"40356","geo_score":0.917,"id":"a6871zyunuli","geo_precision":"range","address":"1691 Keene Road","state":"KY"},"type":"Feature","geometry":{"type":"Point","coordinates":[-84.588935,37.906873]}},{"properties":{"city":"Harrodsburg","zip":"40330","geo_score":0.92,"id":"a6871zypwb35","geo_precision":"range","address":"672 Jackson Pike","state":"KY"},"type":"Feature","geometry":{"type":"Point","coordinates":[-84.872735,37.825046]}},{"properties":{"city":"Frankfort","zip":"40601","geo_score":0.902,"id":"a687207zvf7c","geo_precision":"range","address":"407 Country Lane","state":"KY"},"type":"Feature","geometry":{"type":"Point","coordinates":[-84.81993,38.197505]}},{"properties":{"city":"Versailles","zip":"40383","geo_score":0.912,"id":"a68720061lo2","geo_precision":"range","address":"714 Rose Lane","state":"KY"},"type":"Feature","geometry":{"type":"Point","coordinates":[-84.809934,38.094313]}},{"properties":{"city":"Versailles","zip":"40383","geo_score":0.912,"id":"a68720a6jiru","geo_precision":"range","address":"714 Rose Lane","state":"KY"},"type":"Feature","geometry":{"type":"Point","coordinates":[-84.809934,38.094313]}},{"properties":{"city":"Versailles","zip":"40383","geo_score":0.912,"id":"a6872062ugkj","geo_precision":"range","address":"714 Rose Lane","state":"KY"},"type":"Feature","geometry":{"type":"Point","coordinates":[-84.809934,38.094313]}},{"properties":{"city":"Versailles","zip":"40383","geo_score":0.912,"id":"a687208zgsy9","geo_precision":"range","address":"714 Rose Lane","state":"KY"},"type":"Feature","geometry":{"type":"Point","coordinates":[-84.809934,38.094313]}},{"properties":{"city":"Paris","zip":"40361","geo_score":0.915,"id":"a6872020owhp","geo_precision":"range","address":"493 Levy Rd","state":"KY"},"type":"Feature","geometry":{"type":"Point","coordinates":[-84.08587,38.156848]}},{"properties":{"city":"Lexington","zip":"40511","geo_score":1.0,"id":"a6871zx3uamx","geo_precision":"range","address":"6902 Russell Cave Rd","state":"KY"},"type":"Feature","geometry":{"type":"Point","coordinates":[-84.397357,38.196126]}},{"properties":{"city":"Paris","zip":"40361","geo_score":0.286,"id":"a687207l4muv","geo_precision":"street","address":"P.O. Box 90","state":"KY"},"type":"Feature","geometry":{"type":"Point","coordinates":[-84.758738,38.490631]}},{"properties":{"city":"Paris","zip":"40361","geo_score":0.875,"id":"a687200vb60d","geo_precision":"zip","address":null,"state":"KY"},"type":"Feature","geometry":{"type":"Point","coordinates":[-84.276044,38.27702]}},{"properties":{"city":"Lexington","zip":"40511","geo_score":1.0,"id":"a6871zyegnf4","geo_precision":"range","address":"2900 Russell Cave Rd","state":"KY"},"type":"Feature","geometry":{"type":"Point","coordinates":[-84.454976,38.108138]}},{"properties":{"city":"Lexington","zip":"40511","geo_score":1.0,"id":"a687207zab7x","geo_precision":"range","address":"4915 Paris Pike","state":"KY"},"type":"Feature","geometry":{"type":"Point","coordinates":[-84.38199,38.124546]}},{"properties":{"city":"Lexington","zip":"40511","geo_score":1.0,"id":"a687203ck3ax","geo_precision":"range","address":"4915 Paris Pike","state":"KY"},"type":"Feature","geometry":{"type":"Point","coordinates":[-84.38199,38.124546]}},{"properties":{"city":"Lexington","zip":"40511","geo_score":1.0,"id":"a687200my0oj","geo_precision":"range","address":"4915 Paris Pike","state":"KY"},"type":"Feature","geometry":{"type":"Point","coordinates":[-84.38199,38.124546]}},{"properties":{"city":"Lexington","zip":"40511","geo_score":1.0,"id":"a687209wldge","geo_precision":"range","address":"4915 Paris Pike","state":"KY"},"type":"Feature","geometry":{"type":"Point","coordinates":[-84.38199,38.124546]}},{"properties":{"city":"Lexington","zip":"40511","geo_score":1.0,"id":"a68720atiegc","geo_precision":"range","address":"4915 Paris Pike","state":"KY"},"type":"Feature","geometry":{"type":"Point","coordinates":[-84.38199,38.124546]}},{"properties":{"city":"Lexington","zip":"40511","geo_score":1.0,"id":"a687202jhirw","geo_precision":"range","address":"4915 Paris Pike","state":"KY"},"type":"Feature","geometry":{"type":"Point","coordinates":[-84.38199,38.124546]}},{"properties":{"city":"Lexington","zip":"40511","geo_score":1.0,"id":"a68720c7z3fz","geo_precision":"range","address":"4915 Paris Pike","state":"KY"},"type":"Feature","geometry":{"type":"Point","coordinates":[-84.38199,38.124546]}},{"properties":{"city":"Lexington","zip":"40511","geo_score":1.0,"id":"a6871zy1wusx","geo_precision":"range","address":"4915 Paris Pike","state":"KY"},"type":"Feature","geometry":{"type":"Point","coordinates":[-84.38199,38.124546]}},{"properties":{"city":"Hardyville","zip":"42746","geo_score":0.951,"id":"a6871zz6k0ih","geo_precision":"range","address":"874 Liberty Lawson Rd","state":"KY"},"type":"Feature","geometry":{"type":"Point","coordinates":[-85.656907,37.185528]}},{"properties":{"city":"Hardyville","zip":"42746","geo_score":0.951,"id":"a687204suojy","geo_precision":"range","address":"874 Liberty Lawson Rd","state":"KY"},"type":"Feature","geometry":{"type":"Point","coordinates":[-85.656907,37.185528]}},{"properties":{"city":"Winchester","zip":"40391","geo_score":0.919,"id":"a687200e1bmi","geo_precision":"range","address":"1080 Combs Ferry Rd","state":"KY"},"type":"Feature","geometry":{"type":"Point","coordinates":[-84.304356,37.991886]}},{"properties":{"city":"Winchester","zip":"40391","geo_score":0.919,"id":"a68720296n6x","geo_precision":"range","address":"1080 Combs Ferry Rd","state":"KY"},"type":"Feature","geometry":{"type":"Point","coordinates":[-84.304356,37.991886]}},{"properties":{"city":"Lexington","zip":"40510","geo_score":0.916,"id":"a6871zz5958x","geo_precision":"range","address":"2714 Elkchester Pike","state":"KY"},"type":"Feature","geometry":{"type":"Point","coordinates":[-84.628413,38.0667]}},{"properties":{"city":"Lexington","zip":"40510","geo_score":0.916,"id":"a687200i4nvg","geo_precision":"range","address":"2714 Elkchester Pike","state":"KY"},"type":"Feature","geometry":{"type":"Point","coordinates":[-84.628413,38.0667]}},{"properties":{"city":"Lexington","zip":"40510","geo_score":0.916,"id":"a6871zzun122","geo_precision":"range","address":"2714 Elkchester Pike","state":"KY"},"type":"Feature","geometry":{"type":"Point","coordinates":[-84.628413,38.0667]}},{"properties":{"city":"Lexington","zip":"40510","geo_score":0.916,"id":"a687205lx4jk","geo_precision":"range","address":"2714 Elkchester Pike","state":"KY"},"type":"Feature","geometry":{"type":"Point","coordinates":[-84.628413,38.0667]}},{"properties":{"city":"Lexington","zip":"40510","geo_score":0.916,"id":"a6871zxnaxmi","geo_precision":"range","address":"2714 Elkchester Pike","state":"KY"},"type":"Feature","geometry":{"type":"Point","coordinates":[-84.628413,38.0667]}},{"properties":{"city":"Lexington","zip":"40510","geo_score":0.916,"id":"a6872004ofdz","geo_precision":"range","address":"2714 Elkchester Pike","state":"KY"},"type":"Feature","geometry":{"type":"Point","coordinates":[-84.628413,38.0667]}},{"properties":{"city":"Goshen","zip":"40026","geo_score":1.0,"id":"a687208jtlnp","geo_precision":"range","address":"10500 W Highway 42","state":"KY"},"type":"Feature","geometry":{"type":"Point","coordinates":[-85.537105,38.424566]}},{"properties":{"city":"Lexington","zip":"40511","geo_score":1.0,"id":"a687204ed8qr","geo_precision":"range","address":"4252 Spurr Rd","state":"KY"},"type":"Feature","geometry":{"type":"Point","coordinates":[-84.571385,38.121593]}},{"properties":{"city":"Paris","zip":"40362","geo_score":0.805,"id":"a6872070kzwe","geo_precision":"range","address":"395 North Middletown Rd","state":"KY"},"type":"Feature","geometry":{"type":"Point","coordinates":[-84.226714,38.216965]}},{"properties":{"city":"Lexington","zip":"40515","geo_score":1.0,"id":"a6871zxjd3kq","geo_precision":"range","address":"1140 McCalls Mill Rd","state":"KY"},"type":"Feature","geometry":{"type":"Point","coordinates":[-84.355425,37.916938]}},{"properties":{"city":"Midway","zip":"40347","geo_score":0.72,"id":"a68720a4kd1i","geo_precision":"street","address":"484 Spring Station Rd","state":"KY"},"type":"Feature","geometry":{"type":"Point","coordinates":[-84.735785,38.154404]}},{"properties":{"city":"Midway","zip":"40347","geo_score":0.72,"id":"a6872030yqsb","geo_precision":"street","address":"484 Spring Station Rd","state":"KY"},"type":"Feature","geometry":{"type":"Point","coordinates":[-84.735785,38.154404]}},{"properties":{"city":"Paris","zip":"40362","geo_score":0.805,"id":"a687202h6z18","geo_precision":"range","address":"893 Redmon Rd","state":"KY"},"type":"Feature","geometry":{"type":"Point","coordinates":[-84.205784,38.286912]}},{"properties":{"city":"Simpsonville","zip":"40067-6623","geo_score":0.919,"id":"a68720bjgysh","geo_precision":"range","address":"89 Buckcreek Rd","state":"KY"},"type":"Feature","geometry":{"type":"Point","coordinates":[-85.34876,38.202967]}},{"properties":{"city":"Lexington","zip":"40515","geo_score":0.878,"id":"a687201nii0l","geo_precision":"street","address":"3082 Walnut Hill Rd","state":"KY"},"type":"Feature","geometry":{"type":"Point","coordinates":[-84.444888,37.928706]}},{"properties":{"city":"Lexington","zip":"40510","geo_score":1.0,"id":"a6871zwuoa4y","geo_precision":"range","address":"4630 Bosworth Lane","state":"KY"},"type":"Feature","geometry":{"type":"Point","coordinates":[-84.626309,38.058945]}},{"properties":{"city":"Lexington","zip":"40510","geo_score":1.0,"id":"a687202ddj8f","geo_precision":"range","address":"4630 Bosworth Lane","state":"KY"},"type":"Feature","geometry":{"type":"Point","coordinates":[-84.626309,38.058945]}},{"properties":{"city":"Lexington","zip":"40511","geo_score":0.902,"id":"a68720655gsa","geo_precision":"street","address":"4701 Georgetown Rd","state":"KY"},"type":"Feature","geometry":{"type":"Point","coordinates":[-84.544536,38.153031]}},{"properties":{"city":"Lexington","zip":"40511","geo_score":0.902,"id":"a687202uosyh","geo_precision":"street","address":"4701 Georgetown Rd","state":"KY"},"type":"Feature","geometry":{"type":"Point","coordinates":[-84.544536,38.153031]}},{"properties":{"city":"Lexington","zip":"40511","geo_score":0.902,"id":"a687202ne6ww","geo_precision":"street","address":"4701 Georgetown Rd","state":"KY"},"type":"Feature","geometry":{"type":"Point","coordinates":[-84.544536,38.153031]}},{"properties":{"city":"Paris","zip":"40361","geo_score":0.915,"id":"a68720bfl83h","geo_precision":"range","address":"1342 Georgetown Rd","state":"KY"},"type":"Feature","geometry":{"type":"Point","coordinates":[-84.314906,38.21919]}},{"properties":{"city":"Lexington","zip":null,"geo_score":0.857,"id":"a687202epjpj","geo_precision":"city","address":null,"state":"KY"},"type":"Feature","geometry":{"type":"Point","coordinates":[-84.477715,37.988689]}},{"properties":{"city":"Versailles","zip":"40383","geo_score":0.912,"id":"a687202scsgh","geo_precision":"range","address":"1425 Paynes Mill Road","state":"KY"},"type":"Feature","geometry":{"type":"Point","coordinates":[-84.681305,38.060018]}},{"properties":{"city":"Versailles","zip":"40383","geo_score":0.912,"id":"a687205ji3su","geo_precision":"range","address":"1425 Paynes Mill Road","state":"KY"},"type":"Feature","geometry":{"type":"Point","coordinates":[-84.681305,38.060018]}},{"properties":{"city":"Versailles","zip":"40383","geo_score":0.795,"id":"a68720bc2jur","geo_precision":"range","address":"1500 Midway Pike","state":"KY"},"type":"Feature","geometry":{"type":"Point","coordinates":[-84.723624,38.088636]}},{"properties":{"city":"Versailles","zip":"40383","geo_score":0.795,"id":"a68720b6grhm","geo_precision":"range","address":"1500 Midway Pike","state":"KY"},"type":"Feature","geometry":{"type":"Point","coordinates":[-84.723624,38.088636]}},{"properties":{"city":"Versailles","zip":"40383","geo_score":0.795,"id":"a687203dj3t3","geo_precision":"range","address":"1500 Midway Pike","state":"KY"},"type":"Feature","geometry":{"type":"Point","coordinates":[-84.723624,38.088636]}},{"properties":{"city":"Versailles","zip":"40383","geo_score":0.795,"id":"a687209pzozb","geo_precision":"range","address":"1500 Midway Pike","state":"KY"},"type":"Feature","geometry":{"type":"Point","coordinates":[-84.723624,38.088636]}},{"properties":{"city":"Lexington","zip":"40511","geo_score":0.625,"id":"a687200srj88","geo_precision":"street","address":"6100 Mt. Horeb Pike","state":"KY"},"type":"Feature","geometry":{"type":"Point","coordinates":[-84.53826,38.108677]}},{"properties":{"city":"Midway","zip":"40347","geo_score":0.915,"id":"a687201qpw0t","geo_precision":"range","address":"1150 East Leestown Road","state":"KY"},"type":"Feature","geometry":{"type":"Point","coordinates":[-84.661699,38.149982]}},{"properties":{"city":"Midway","zip":"40347","geo_score":0.915,"id":"a687206htftp","geo_precision":"range","address":"1150 East Leestown Road","state":"KY"},"type":"Feature","geometry":{"type":"Point","coordinates":[-84.661699,38.149982]}},{"properties":{"city":"Midway","zip":"40347","geo_score":0.915,"id":"a687204kd68n","geo_precision":"range","address":"1150 East Leestown Road","state":"KY"},"type":"Feature","geometry":{"type":"Point","coordinates":[-84.661699,38.149982]}},{"properties":{"city":"Midway","zip":"40347","geo_score":0.915,"id":"a6871zyp6a3m","geo_precision":"range","address":"1675 Spring Station Rd","state":"KY"},"type":"Feature","geometry":{"type":"Point","coordinates":[-84.705268,38.149898]}},{"properties":{"city":"Ocala","zip":"34481","geo_score":0.638,"id":"a687204run3d","geo_precision":"street","address":"9275 SW 9th St","state":"FL"},"type":"Feature","geometry":{"type":"Point","coordinates":[-82.339683,29.178848]}},{"properties":{"city":"Goshen","zip":"40026","geo_score":1.0,"id":"a68720688cyl","geo_precision":"range","address":"9500 West Highway 42","state":"KY"},"type":"Feature","geometry":{"type":"Point","coordinates":[-85.537061,38.424572]}},{"properties":{"city":"Paris","zip":"40361","geo_score":0.915,"id":"a68720c2y7vy","geo_precision":"range","address":"2311 Winchester Road","state":"KY"},"type":"Feature","geometry":{"type":"Point","coordinates":[-84.198743,38.129587]}},{"properties":{"city":"Paris","zip":"40361","geo_score":0.915,"id":"a68720607am6","geo_precision":"range","address":"2311 Winchester Road","state":"KY"},"type":"Feature","geometry":{"type":"Point","coordinates":[-84.198743,38.129587]}},{"properties":{"city":"Paris","zip":"40361","geo_score":0.915,"id":"a6871zzq342a","geo_precision":"range","address":"2311 Winchester Road","state":"KY"},"type":"Feature","geometry":{"type":"Point","coordinates":[-84.198743,38.129587]}},{"properties":{"city":"Paris","zip":"40361","geo_score":0.915,"id":"a68720ckbd76","geo_precision":"range","address":"2311 Winchester Road","state":"KY"},"type":"Feature","geometry":{"type":"Point","coordinates":[-84.198743,38.129587]}},{"properties":{"city":"Paris","zip":"40361","geo_score":0.915,"id":"a6872031t7si","geo_precision":"range","address":"2311 Winchester Road","state":"KY"},"type":"Feature","geometry":{"type":"Point","coordinates":[-84.198743,38.129587]}},{"properties":{"city":"Paris","zip":"40361","geo_score":0.915,"id":"a6871zyxs3w2","geo_precision":"range","address":"2311 Winchester Road","state":"KY"},"type":"Feature","geometry":{"type":"Point","coordinates":[-84.198743,38.129587]}},{"properties":{"city":"Paris","zip":"40361","geo_score":0.915,"id":"a6871zx1wwji","geo_precision":"range","address":"2311 Winchester Road","state":"KY"},"type":"Feature","geometry":{"type":"Point","coordinates":[-84.198743,38.129587]}},{"properties":{"city":"Lexington","zip":"40511","geo_score":0.878,"id":"a687204sxre9","geo_precision":"range","address":"2815 Newtown Pike","state":"KY"},"type":"Feature","geometry":{"type":"Point","coordinates":[-84.484701,38.120819]}},{"properties":{"city":"Lexington","zip":"40511","geo_score":0.878,"id":"a6872018kctt","geo_precision":"range","address":"2815 Newtown Pike","state":"KY"},"type":"Feature","geometry":{"type":"Point","coordinates":[-84.484701,38.120819]}},{"properties":{"city":"Lexington","zip":"40511","geo_score":0.878,"id":"a687209vonii","geo_precision":"range","address":"2815 Newtown Pike","state":"KY"},"type":"Feature","geometry":{"type":"Point","coordinates":[-84.484701,38.120819]}},{"properties":{"city":"Lexington","zip":"40511","geo_score":0.878,"id":"a6872097a0wy","geo_precision":"range","address":"2815 Newtown Pike","state":"KY"},"type":"Feature","geometry":{"type":"Point","coordinates":[-84.484701,38.120819]}},{"properties":{"city":"Lexington","zip":"40511","geo_score":1.0,"id":"a6871zx8mp6s","geo_precision":"range","address":"1335 Harp-Innis Road","state":"KY"},"type":"Feature","geometry":{"type":"Point","coordinates":[-84.39754,38.149576]}},{"properties":{"city":"Lexington","zip":"40511","geo_score":1.0,"id":"a687207bi0s9","geo_precision":"range","address":"1335 Harp-Innis Road","state":"KY"},"type":"Feature","geometry":{"type":"Point","coordinates":[-84.39754,38.149576]}},{"properties":{"city":"Lexington","zip":"40511","geo_score":1.0,"id":"a687204gsg32","geo_precision":"range","address":"1335 Harp-Innis Road","state":"KY"},"type":"Feature","geometry":{"type":"Point","coordinates":[-84.39754,38.149576]}},{"properties":{"city":"Midway","zip":"40347","geo_score":0.817,"id":"a6872019ax14","geo_precision":"range","address":"596 Moores Mill Road","state":"KY"},"type":"Feature","geometry":{"type":"Point","coordinates":[-84.63625,38.158946]}},{"properties":{"city":"Midway","zip":"40347","geo_score":0.817,"id":"a6872033yz47","geo_precision":"range","address":"596 Moores Mill Road","state":"KY"},"type":"Feature","geometry":{"type":"Point","coordinates":[-84.63625,38.158946]}},{"properties":{"city":"Midway","zip":"40347","geo_score":0.817,"id":"a6871zypxgk5","geo_precision":"range","address":"596 Moores Mill Road","state":"KY"},"type":"Feature","geometry":{"type":"Point","coordinates":[-84.63625,38.158946]}},{"properties":{"city":"Midway","zip":"40347","geo_score":0.817,"id":"a68720527ear","geo_precision":"range","address":"596 Moores Mill Road","state":"KY"},"type":"Feature","geometry":{"type":"Point","coordinates":[-84.63625,38.158946]}},{"properties":{"city":"Midway","zip":"40347","geo_score":0.817,"id":"a687200723ni","geo_precision":"range","address":"596 Moores Mill Road","state":"KY"},"type":"Feature","geometry":{"type":"Point","coordinates":[-84.63625,38.158946]}},{"properties":{"city":"Georgetown","zip":"40324","geo_score":0.429,"id":"a6872064xmfg","geo_precision":"street","address":"121 Mt. Horeb Rd","state":"KY"},"type":"Feature","geometry":{"type":"Point","coordinates":[-84.586152,37.905229]}},{"properties":{"city":"Lexington","zip":"40513","geo_score":0.464,"id":"a6871zztvour","geo_precision":"street","address":"2800 Bowman Mill Rd","state":"KY"},"type":"Feature","geometry":{"type":"Point","coordinates":[-84.50068,38.011148]}},{"properties":{"city":"Lexington","zip":"40582","geo_score":0.805,"id":"a687205nnpjs","geo_precision":"range","address":"5275 Paris Pike","state":"KY"},"type":"Feature","geometry":{"type":"Point","coordinates":[-84.373712,38.130078]}},{"properties":{"city":"Georgetown","zip":"40324","geo_score":0.902,"id":"a687204p4spf","geo_precision":"range","address":"307 Stone Rd","state":"KY"},"type":"Feature","geometry":{"type":"Point","coordinates":[-84.47314,38.205763]}},{"properties":{"city":"Lexington","zip":"40511","geo_score":0.922,"id":"a6872046qmtd","geo_precision":"range","address":"3314 Huffman Mill Rd","state":"KY"},"type":"Feature","geometry":{"type":"Point","coordinates":[-84.445757,38.126308]}},{"properties":{"city":"Georgetown","zip":"40324","geo_score":0.812,"id":"a687200j21b8","geo_precision":"range","address":"381 Crumbaugh Pike","state":"KY"},"type":"Feature","geometry":{"type":"Point","coordinates":[-84.514626,38.210244]}},{"properties":{"city":"Midway","zip":"40347","geo_score":0.651,"id":"a6872039c0ff","geo_precision":"street","address":"810 Spring Station Pike","state":"KY"},"type":"Feature","geometry":{"type":"Point","coordinates":[-84.735785,38.154404]}},{"properties":{"city":"Midway","zip":"40347","geo_score":0.651,"id":"a687201vv79u","geo_precision":"street","address":"810 Spring Station Pike","state":"KY"},"type":"Feature","geometry":{"type":"Point","coordinates":[-84.735785,38.154404]}},{"properties":{"city":"Midway","zip":"40347","geo_score":0.915,"id":"a6872032cgd4","geo_precision":"range","address":"2150 East Leestown Road","state":"KY"},"type":"Feature","geometry":{"type":"Point","coordinates":[-84.650435,38.144226]}},{"properties":{"city":"Frankfort","zip":"40601","geo_score":0.78,"id":"a68720134stv","geo_precision":"range","address":"360 Watts Ferry Rd","state":"KY"},"type":"Feature","geometry":{"type":"Point","coordinates":[-84.832367,38.120133]}},{"properties":{"city":"Lexington","zip":"40511","geo_score":1.0,"id":"a68720bmmv0q","geo_precision":"range","address":"6575 Russell Cave Road","state":"KY"},"type":"Feature","geometry":{"type":"Point","coordinates":[-84.401123,38.188863]}},{"properties":{"city":"Versailles","zip":"40383","geo_score":0.542,"id":"a687206cqvus","geo_precision":"street","address":"830 Grassy Springs Rd","state":"KY"},"type":"Feature","geometry":{"type":"Point","coordinates":[-84.73896,38.056014]}},{"properties":{"city":"Versailles","zip":"40383","geo_score":0.542,"id":"a687206ynfx7","geo_precision":"street","address":"830 Grassy Springs Rd","state":"KY"},"type":"Feature","geometry":{"type":"Point","coordinates":[-84.73896,38.056014]}},{"properties":{"city":"Nicholasville","zip":"40356","geo_score":0.917,"id":"a68720359edt","geo_precision":"range","address":"6915 Harrodsburg Rd","state":"KY"},"type":"Feature","geometry":{"type":"Point","coordinates":[-84.613848,37.924169]}},{"properties":{"city":"Nicholasville","zip":"40356","geo_score":0.917,"id":"a68720bmeeen","geo_precision":"range","address":"6915 Harrodsburg Rd","state":"KY"},"type":"Feature","geometry":{"type":"Point","coordinates":[-84.613848,37.924169]}},{"properties":{"city":"Paris","zip":"40361","geo_score":0.915,"id":"a6871zwvxs3h","geo_precision":"range","address":"893 Ardery Road","state":"KY"},"type":"Feature","geometry":{"type":"Point","coordinates":[-84.205575,38.286892]}},{"properties":{"city":"Versailles","zip":"40383","geo_score":0.912,"id":"a687205mrsw8","geo_precision":"range","address":"3045 Pinckard Pike","state":"KY"},"type":"Feature","geometry":{"type":"Point","coordinates":[-84.683083,37.980826]}},{"properties":{"city":"Lexington","zip":"40510","geo_score":1.0,"id":"a6871zxrivet","geo_precision":"range","address":"2675 Rice Road","state":"KY"},"type":"Feature","geometry":{"type":"Point","coordinates":[-84.604386,38.061281]}},{"properties":{"city":"Paris","zip":"40361","geo_score":0.915,"id":"a68720cfkls4","geo_precision":"range","address":"600 Cynthiana Road","state":"KY"},"type":"Feature","geometry":{"type":"Point","coordinates":[-84.287121,38.2476]}},{"properties":{"city":"Lexington","zip":"40513","geo_score":0.898,"id":"a68720cv8t0z","geo_precision":"range","address":"4600 Fort Springs Road","state":"KY"},"type":"Feature","geometry":{"type":"Point","coordinates":[-84.633459,38.030908]}},{"properties":{"city":"Lexington","zip":"40513","geo_score":0.898,"id":"a687200es4cm","geo_precision":"range","address":"4600 Fort Springs Road","state":"KY"},"type":"Feature","geometry":{"type":"Point","coordinates":[-84.633459,38.030908]}},{"properties":{"city":"Nicholasville","zip":"40356","geo_score":0.917,"id":"a6871zzpzfd6","geo_precision":"range","address":"801 Delaney Woods","state":"KY"},"type":"Feature","geometry":{"type":"Point","coordinates":[-84.630491,37.982264]}},{"properties":{"city":"Harrodsburg","zip":"40330","geo_score":0.616,"id":"a687203u3ayn","geo_precision":"street","address":"751 Curry Road","state":"KY"},"type":"Feature","geometry":{"type":"Point","coordinates":[-84.845733,37.761368]}},{"properties":{"city":"Paris","zip":"40361","geo_score":0.915,"id":"a687205vmn5q","geo_precision":"range","address":"1651 Winchester Rd","state":"KY"},"type":"Feature","geometry":{"type":"Point","coordinates":[-84.220557,38.152499]}},{"properties":{"city":"Lexington","zip":"40511","geo_score":1.0,"id":"a6872053iwam","geo_precision":"range","address":"5505 Greenwich Pike","state":"KY"},"type":"Feature","geometry":{"type":"Point","coordinates":[-84.399747,38.155726]}},{"properties":{"city":"Lexington","zip":"40511","geo_score":0.805,"id":"a6871zzvla0m","geo_precision":"street","address":"884 Iron Works Pike","state":"KY"},"type":"Feature","geometry":{"type":"Point","coordinates":[-84.538328,38.150653]}},{"properties":{"city":"Lexington","zip":"40511","geo_score":0.805,"id":"a687208xh36h","geo_precision":"street","address":"884 Iron Works Pike","state":"KY"},"type":"Feature","geometry":{"type":"Point","coordinates":[-84.538328,38.150653]}},{"properties":{"city":"Lexington","zip":"40511","geo_score":0.805,"id":"a6872018r66i","geo_precision":"street","address":"884 Iron Works Pike","state":"KY"},"type":"Feature","geometry":{"type":"Point","coordinates":[-84.538328,38.150653]}},{"properties":{"city":"Paris","zip":"40361","geo_score":0.915,"id":"a687209kq5v5","geo_precision":"range","address":"1856 Clintonville Road","state":"KY"},"type":"Feature","geometry":{"type":"Point","coordinates":[-84.259219,38.129245]}},{"properties":{"city":"Lexington","zip":"40511","geo_score":0.902,"id":"a6872061y083","geo_precision":"range","address":"455 Paynes Depot Road","state":"KY"},"type":"Feature","geometry":{"type":"Point","coordinates":[-84.622411,38.143649]}},{"properties":{"city":"Versailles","zip":"40383","geo_score":0.815,"id":"a687200xjyy0","geo_precision":"range","address":"701 James Lane","state":"KY"},"type":"Feature","geometry":{"type":"Point","coordinates":[-84.655399,37.990362]}},{"properties":{"city":"Versailles","zip":"40383","geo_score":0.815,"id":"a68720c9mf8z","geo_precision":"range","address":"701 James Lane","state":"KY"},"type":"Feature","geometry":{"type":"Point","coordinates":[-84.655399,37.990362]}},{"properties":{"city":"Versailles","zip":"40383","geo_score":0.815,"id":"a68720boiq87","geo_precision":"range","address":"701 James Lane","state":"KY"},"type":"Feature","geometry":{"type":"Point","coordinates":[-84.655399,37.990362]}},{"properties":{"city":"Versailles","zip":"40383","geo_score":0.815,"id":"a6871zxgwyo5","geo_precision":"range","address":"701 James Lane","state":"KY"},"type":"Feature","geometry":{"type":"Point","coordinates":[-84.655399,37.990362]}},{"properties":{"city":"Paris","zip":"40361","geo_score":0.847,"id":"a6872051y9vr","geo_precision":"range","address":"200 Stoney Point Rd","state":"KY"},"type":"Feature","geometry":{"type":"Point","coordinates":[-84.189845,38.123099]}},{"properties":{"city":"Danville","zip":null,"geo_score":0.8,"id":"a68720bws0gh","geo_precision":"city","address":null,"state":"KY"},"type":"Feature","geometry":{"type":"Point","coordinates":[-85.796072,37.609506]}},{"properties":{"city":"Lexington","zip":"40510","geo_score":1.0,"id":"a687202fcad9","geo_precision":"range","address":"3530 Old Frankfort Pike","state":"KY"},"type":"Feature","geometry":{"type":"Point","coordinates":[-84.584691,38.085438]}},{"properties":{"city":"Lexington","zip":"40510","geo_score":1.0,"id":"a6871zyjohu1","geo_precision":"range","address":"3530 Old Frankfort Pike","state":"KY"},"type":"Feature","geometry":{"type":"Point","coordinates":[-84.584691,38.085438]}},{"properties":{"city":"Lexington","zip":"40510","geo_score":1.0,"id":"a687209lvh7v","geo_precision":"range","address":"3530 Old Frankfort Pike","state":"KY"},"type":"Feature","geometry":{"type":"Point","coordinates":[-84.584691,38.085438]}},{"properties":{"city":"Lexington","zip":"40510","geo_score":1.0,"id":"a687202bf9dt","geo_precision":"range","address":"3530 Old Frankfort Pike","state":"KY"},"type":"Feature","geometry":{"type":"Point","coordinates":[-84.584691,38.085438]}},{"properties":{"city":"Versailles","zip":"40383","geo_score":0.912,"id":"a687204op7qa","geo_precision":"range","address":"5876 McCracken Pike","state":"KY"},"type":"Feature","geometry":{"type":"Point","coordinates":[-84.803905,38.115113]}},{"properties":{"city":"Versailles","zip":"40383","geo_score":0.912,"id":"a6871zydfu0j","geo_precision":"range","address":"5876 McCracken Pike","state":"KY"},"type":"Feature","geometry":{"type":"Point","coordinates":[-84.803905,38.115113]}},{"properties":{"city":"Versailles","zip":"40383","geo_score":0.912,"id":"a687200oxuvk","geo_precision":"range","address":"5876 McCracken Pike","state":"KY"},"type":"Feature","geometry":{"type":"Point","coordinates":[-84.803905,38.115113]}},{"properties":{"city":"Seymour","zip":"47274","geo_score":0.508,"id":"a687208c8xs6","geo_precision":"street","address":"351 S. U.S. Hwy 31","state":"IN"},"type":"Feature","geometry":{"type":"Point","coordinates":[-85.818657,38.884606]}},{"properties":{"city":"Seymour","zip":"47274","geo_score":0.508,"id":"a68720b0hi72","geo_precision":"street","address":"351 S. U.S. Hwy 31","state":"IN"},"type":"Feature","geometry":{"type":"Point","coordinates":[-85.818657,38.884606]}},{"properties":{"city":"Seymour","zip":"47274","geo_score":0.508,"id":"a6872058aiax","geo_precision":"street","address":"351 S. U.S. Hwy 31","state":"IN"},"type":"Feature","geometry":{"type":"Point","coordinates":[-85.818657,38.884606]}},{"properties":{"city":"Seymour","zip":"47274","geo_score":0.508,"id":"a6871zy60hz7","geo_precision":"street","address":"351 S. U.S. Hwy 31","state":"IN"},"type":"Feature","geometry":{"type":"Point","coordinates":[-85.818657,38.884606]}},{"properties":{"city":"Seymour","zip":"47274","geo_score":0.508,"id":"a6871zwvcu7w","geo_precision":"street","address":"351 S. U.S. Hwy 31","state":"IN"},"type":"Feature","geometry":{"type":"Point","coordinates":[-85.818657,38.884606]}},{"properties":{"city":"Nicholasville","zip":"40356","geo_score":0.917,"id":"a68720ci25gx","geo_precision":"range","address":"2765 Union Mill Rd","state":"KY"},"type":"Feature","geometry":{"type":"Point","coordinates":[-84.499181,37.887857]}},{"properties":{"city":"Nicholasville","zip":"40356","geo_score":0.917,"id":"a68720bpksn7","geo_precision":"range","address":"2765 Union Mill Rd","state":"KY"},"type":"Feature","geometry":{"type":"Point","coordinates":[-84.499181,37.887857]}},{"properties":{"city":"Nicholasville","zip":"40356","geo_score":0.917,"id":"a68720b0spdl","geo_precision":"range","address":"2765 Union Mill Rd","state":"KY"},"type":"Feature","geometry":{"type":"Point","coordinates":[-84.499181,37.887857]}},{"properties":{"city":"Nicholasville","zip":"40356","geo_score":0.917,"id":"a687209ee1q7","geo_precision":"range","address":"2765 Union Mill Rd","state":"KY"},"type":"Feature","geometry":{"type":"Point","coordinates":[-84.499181,37.887857]}},{"properties":{"city":"Nicholasville","zip":"40356","geo_score":0.917,"id":"a68720au4dv5","geo_precision":"range","address":"2765 Union Mill Rd","state":"KY"},"type":"Feature","geometry":{"type":"Point","coordinates":[-84.499181,37.887857]}},{"properties":{"city":"Nicholasville","zip":"40356","geo_score":0.917,"id":"a6871zwzsl64","geo_precision":"range","address":"2765 Union Mill Rd","state":"KY"},"type":"Feature","geometry":{"type":"Point","coordinates":[-84.499181,37.887857]}},{"properties":{"city":"Nicholasville","zip":"40356","geo_score":0.917,"id":"a6871zxbzyaw","geo_precision":"range","address":"2765 Union Mill Rd","state":"KY"},"type":"Feature","geometry":{"type":"Point","coordinates":[-84.499181,37.887857]}},{"properties":{"city":"Nicholasville","zip":"40356","geo_score":0.917,"id":"a6871zzbh0zw","geo_precision":"range","address":"2765 Union Mill Rd","state":"KY"},"type":"Feature","geometry":{"type":"Point","coordinates":[-84.499181,37.887857]}},{"properties":{"city":"Nicholasville","zip":"40356","geo_score":0.917,"id":"a6872033tgnh","geo_precision":"range","address":"2765 Union Mill Rd","state":"KY"},"type":"Feature","geometry":{"type":"Point","coordinates":[-84.499181,37.887857]}},{"properties":{"city":"Nicholasville","zip":"40356","geo_score":0.917,"id":"a6871zy1jdcm","geo_precision":"range","address":"2765 Union Mill Rd","state":"KY"},"type":"Feature","geometry":{"type":"Point","coordinates":[-84.499181,37.887857]}},{"properties":{"city":"Nicholasville","zip":"40356","geo_score":0.917,"id":"a6872024qjl0","geo_precision":"range","address":"2765 Union Mill Rd","state":"KY"},"type":"Feature","geometry":{"type":"Point","coordinates":[-84.499181,37.887857]}},{"properties":{"city":"Nicholasville","zip":"40356","geo_score":0.917,"id":"a68720bf4ttq","geo_precision":"range","address":"2765 Union Mill Rd","state":"KY"},"type":"Feature","geometry":{"type":"Point","coordinates":[-84.499181,37.887857]}},{"properties":{"city":"Nicholasville","zip":"40356","geo_score":0.917,"id":"a687203btxhn","geo_precision":"range","address":"2765 Union Mill Rd","state":"KY"},"type":"Feature","geometry":{"type":"Point","coordinates":[-84.499181,37.887857]}},{"properties":{"city":"Nicholasville","zip":"40356","geo_score":0.917,"id":"a6871zwo6oj6","geo_precision":"range","address":"2765 Union Mill Rd","state":"KY"},"type":"Feature","geometry":{"type":"Point","coordinates":[-84.499181,37.887857]}},{"properties":{"city":"Nicholasville","zip":"40356","geo_score":0.917,"id":"a6871zzj6z6q","geo_precision":"range","address":"2765 Union Mill Rd","state":"KY"},"type":"Feature","geometry":{"type":"Point","coordinates":[-84.499181,37.887857]}},{"properties":{"city":"Nicholasville","zip":"40356","geo_score":0.917,"id":"a6871zxb0nxo","geo_precision":"range","address":"2765 Union Mill Rd","state":"KY"},"type":"Feature","geometry":{"type":"Point","coordinates":[-84.499181,37.887857]}},{"properties":{"city":"Nicholasville","zip":"40356","geo_score":0.917,"id":"a6872059g8d7","geo_precision":"range","address":"2765 Union Mill Rd","state":"KY"},"type":"Feature","geometry":{"type":"Point","coordinates":[-84.499181,37.887857]}},{"properties":{"city":"Nicholasville","zip":"40356","geo_score":0.917,"id":"a6872069xl5l","geo_precision":"range","address":"2765 Union Mill Rd","state":"KY"},"type":"Feature","geometry":{"type":"Point","coordinates":[-84.499181,37.887857]}},{"properties":{"city":"Nicholasville","zip":"40356","geo_score":0.917,"id":"a68720a0ekz5","geo_precision":"range","address":"2765 Union Mill Rd","state":"KY"},"type":"Feature","geometry":{"type":"Point","coordinates":[-84.499181,37.887857]}},{"properties":{"city":"Nicholasville","zip":"40356","geo_score":0.917,"id":"a687202jm3i8","geo_precision":"range","address":"2765 Union Mill Rd","state":"KY"},"type":"Feature","geometry":{"type":"Point","coordinates":[-84.499181,37.887857]}},{"properties":{"city":"Nicholasville","zip":"40356","geo_score":0.917,"id":"a6872089okym","geo_precision":"range","address":"2765 Union Mill Rd","state":"KY"},"type":"Feature","geometry":{"type":"Point","coordinates":[-84.499181,37.887857]}},{"properties":{"city":"Nicholasville","zip":"40356","geo_score":0.917,"id":"a68720chyppd","geo_precision":"range","address":"2765 Union Mill Rd","state":"KY"},"type":"Feature","geometry":{"type":"Point","coordinates":[-84.499181,37.887857]}},{"properties":{"city":"Nicholasville","zip":"40356","geo_score":0.917,"id":"a687200l5xqk","geo_precision":"range","address":"2765 Union Mill Rd","state":"KY"},"type":"Feature","geometry":{"type":"Point","coordinates":[-84.499181,37.887857]}},{"properties":{"city":"Nicholasville","zip":"40356","geo_score":0.917,"id":"a68720a639cf","geo_precision":"range","address":"2765 Union Mill Rd","state":"KY"},"type":"Feature","geometry":{"type":"Point","coordinates":[-84.499181,37.887857]}},{"properties":{"city":"Nicholasville","zip":"40356","geo_score":0.917,"id":"a68720cesqcs","geo_precision":"range","address":"2765 Union Mill Rd","state":"KY"},"type":"Feature","geometry":{"type":"Point","coordinates":[-84.499181,37.887857]}},{"properties":{"city":"Midway","zip":"40347","geo_score":0.286,"id":"a687205pfjgq","geo_precision":"street","address":"(PO Box 114)","state":"KY"},"type":"Feature","geometry":{"type":"Point","coordinates":[-84.758738,38.490631]}},{"properties":{"city":"Lexington","zip":"40511","geo_score":1.0,"id":"a6872012ma30","geo_precision":"range","address":"4435 Leestown Rd","state":"KY"},"type":"Feature","geometry":{"type":"Point","coordinates":[-84.594876,38.116217]}},{"properties":{"city":"Lexington","zip":"40511","geo_score":1.0,"id":"a68720aguvbw","geo_precision":"range","address":"4435 Leestown Rd","state":"KY"},"type":"Feature","geometry":{"type":"Point","coordinates":[-84.594876,38.116217]}},{"properties":{"city":"Lexington","zip":"40511","geo_score":1.0,"id":"a6872016ugju","geo_precision":"range","address":"4435 Leestown Rd","state":"KY"},"type":"Feature","geometry":{"type":"Point","coordinates":[-84.594876,38.116217]}},{"properties":{"city":"Versailles","zip":"40383","geo_score":0.795,"id":"a68720amjepo","geo_precision":"range","address":"3640 Tyrone Rd","state":"KY"},"type":"Feature","geometry":{"type":"Point","coordinates":[-84.783205,38.038324]}},{"properties":{"city":"Versailles","zip":"40383","geo_score":0.795,"id":"a6872071jmya","geo_precision":"range","address":"3640 Tyrone Rd","state":"KY"},"type":"Feature","geometry":{"type":"Point","coordinates":[-84.783205,38.038324]}},{"properties":{"city":"Versailles","zip":"40383","geo_score":0.795,"id":"a6872056e604","geo_precision":"range","address":"3640 Tyrone Rd","state":"KY"},"type":"Feature","geometry":{"type":"Point","coordinates":[-84.783205,38.038324]}},{"properties":{"city":"Versailles","zip":"40383","geo_score":0.912,"id":"a6872013h1ip","geo_precision":"range","address":"4190 McCowan's Ferry Rd","state":"KY"},"type":"Feature","geometry":{"type":"Point","coordinates":[-84.76558,38.002351]}},{"properties":{"city":"Georgetown","zip":"40324","geo_score":0.805,"id":"a687204vsj5p","geo_precision":"street","address":"2717 Long Lick Pike","state":"KY"},"type":"Feature","geometry":{"type":"Point","coordinates":[-84.622757,38.282878]}},{"properties":{"city":"Georgetown","zip":"40324","geo_score":0.805,"id":"a6871zzdyigw","geo_precision":"street","address":"2717 Long Lick Pike","state":"KY"},"type":"Feature","geometry":{"type":"Point","coordinates":[-84.622757,38.282878]}},{"properties":{"city":"Lexington","zip":"40511","geo_score":0.878,"id":"a687202b0mfr","geo_precision":"range","address":"3719 Newtown Pike","state":"KY"},"type":"Feature","geometry":{"type":"Point","coordinates":[-84.488846,38.143817]}},{"properties":{"city":"Lexington","zip":"40511","geo_score":1.0,"id":"a6872009v3ho","geo_precision":"range","address":"4425 Kearney Rd","state":"KY"},"type":"Feature","geometry":{"type":"Point","coordinates":[-84.562033,38.136373]}},{"properties":{"city":"Lexington","zip":"40511","geo_score":1.0,"id":"a6871zxri8bp","geo_precision":"range","address":"4425 Kearney Rd","state":"KY"},"type":"Feature","geometry":{"type":"Point","coordinates":[-84.562033,38.136373]}},{"properties":{"city":"Lexington","zip":"40511","geo_score":1.0,"id":"a687200qspc3","geo_precision":"range","address":"4425 Kearney Rd","state":"KY"},"type":"Feature","geometry":{"type":"Point","coordinates":[-84.562033,38.136373]}},{"properties":{"city":"Paris","zip":"40361","geo_score":0.915,"id":"a687206ymyzx","geo_precision":"range","address":"1570 Georgetown Road","state":"KY"},"type":"Feature","geometry":{"type":"Point","coordinates":[-84.328067,38.220324]}},{"properties":{"city":"Paris","zip":"40361","geo_score":0.915,"id":"a6871zyy58wr","geo_precision":"range","address":"1570 Georgetown Road","state":"KY"},"type":"Feature","geometry":{"type":"Point","coordinates":[-84.328067,38.220324]}},{"properties":{"city":"Lexington","zip":"40511","geo_score":0.625,"id":"a6871zz0c326","geo_precision":"street","address":"4468 Mt. Horeb Pike","state":"KY"},"type":"Feature","geometry":{"type":"Point","coordinates":[-84.53826,38.108677]}},{"properties":{"city":"Lexington","zip":"40511","geo_score":0.625,"id":"a68720brqfgf","geo_precision":"street","address":"4468 Mt. Horeb Pike","state":"KY"},"type":"Feature","geometry":{"type":"Point","coordinates":[-84.53826,38.108677]}},{"properties":{"city":"Lexington","zip":"40511","geo_score":0.625,"id":"a6871zydjm6m","geo_precision":"street","address":"4468 Mt. Horeb Pike","state":"KY"},"type":"Feature","geometry":{"type":"Point","coordinates":[-84.53826,38.108677]}},{"properties":{"city":"Versailles","zip":"40383","geo_score":0.912,"id":"a6872052qgjl","geo_precision":"range","address":"3001 Pisgah Pike","state":"KY"},"type":"Feature","geometry":{"type":"Point","coordinates":[-84.662626,38.085532]}},{"properties":{"city":"Midway","zip":"40347","geo_score":0.805,"id":"a6871zxfgfyn","geo_precision":"range","address":"166 Muir Lane","state":"KY"},"type":"Feature","geometry":{"type":"Point","coordinates":[-84.057812,38.043765]}},{"properties":{"city":"Midway","zip":"40347","geo_score":0.805,"id":"a68720bw46lm","geo_precision":"range","address":"166 Muir Lane","state":"KY"},"type":"Feature","geometry":{"type":"Point","coordinates":[-84.057812,38.043765]}},{"properties":{"city":"Midway","zip":"40347","geo_score":0.805,"id":"a687207cq0c2","geo_precision":"range","address":"166 Muir Lane","state":"KY"},"type":"Feature","geometry":{"type":"Point","coordinates":[-84.057812,38.043765]}},{"properties":{"city":"Lexington","zip":"40515","geo_score":1.0,"id":"a68720275tk9","geo_precision":"range","address":"4959 Old Richmond Rd","state":"KY"},"type":"Feature","geometry":{"type":"Point","coordinates":[-84.414649,37.956257]}},{"properties":{"city":"Lexington","zip":"40515","geo_score":1.0,"id":"a687202jwy5c","geo_precision":"range","address":"4959 Old Richmond Rd","state":"KY"},"type":"Feature","geometry":{"type":"Point","coordinates":[-84.414649,37.956257]}},{"properties":{"city":"Lexington","zip":"40515","geo_score":1.0,"id":"a68720crffmo","geo_precision":"range","address":"4959 Old Richmond Rd","state":"KY"},"type":"Feature","geometry":{"type":"Point","coordinates":[-84.414649,37.956257]}},{"properties":{"city":"Lexington","zip":"40515","geo_score":1.0,"id":"a68720c2jygw","geo_precision":"range","address":"4959 Old Richmond Rd","state":"KY"},"type":"Feature","geometry":{"type":"Point","coordinates":[-84.414649,37.956257]}},{"properties":{"city":"Lexington","zip":"40515","geo_score":1.0,"id":"a687209t6bx9","geo_precision":"range","address":"4959 Old Richmond Rd","state":"KY"},"type":"Feature","geometry":{"type":"Point","coordinates":[-84.414649,37.956257]}},{"properties":{"city":"Lexington","zip":"40510","geo_score":1.0,"id":"a6871zxbe6bo","geo_precision":"range","address":"5055 Old Frankfort Pike","state":"KY"},"type":"Feature","geometry":{"type":"Point","coordinates":[-84.628542,38.104151]}}],"is_temporal":false,"author":{"url":"","metadata":"","contact_name":"","contact_address":"","source":"","contact_phone":""},"source":"","pagination":{"sort":null,"start":0,"total":262,"limit":1000000},"state":"complete","tags":"","published":"2011-05-16T16:00:00Z","id":115651}