{"type":"FeatureCollection","data_type":"Dataset","url_type":null,"permissions":[{"permissions":{"download":true,"view":true},"group_id":"everyone"}],"classification":null,"title":"Garden Tour participants","count":5,"stream_id":116041,"contributor":{"url":"http://geocommons.com/users/10109","name":"sea_piglet"},"data_attributes":null,"calculation_params":null,"icon_link":null,"link":"http://geocommons.com/overlays/116041.json","extent":[-116.288,43.5574,-116.126,43.6339],"geometry_types":["point"],"unique_name":null,"name":"Garden Tour participants","feature_count":5,"description":"","next_feature":null,"is_raster":false,"short_classification":"Y","stats":{},"features":[{"properties":{"city":"Boise","name":"Jordan St Garden","zip":"83702","geo_score":1.0,"id":"a65759sigcjq","geo_precision":"range","address":"2900 Jordan St","state":"ID"},"type":"Feature","geometry":{"type":"Point","coordinates":[-116.225432,43.630894]}},{"properties":{"city":"Boise","name":"BUGS","zip":"83705","geo_score":0.806,"id":"a65759icrcfh","geo_precision":"street","address":"4821 W Franklin Rd","state":"ID"},"type":"Feature","geometry":{"type":"Point","coordinates":[-116.243483,43.602647]}},{"properties":{"city":"Boise","name":"Hillview","zip":"83704","geo_score":0.699,"id":"a65759r6oyql","geo_precision":"range","address":"8525 W Ustick Rd","state":"ID"},"type":"Feature","geometry":{"type":"Point","coordinates":[-116.288013,43.633919]}},{"properties":{"city":"Boise","name":"IRC Garden","zip":"83704","geo_score":0.821,"id":"a65759hzj5y3","geo_precision":"range","address":"2206 N Cole Rd","state":"ID"},"type":"Feature","geometry":{"type":"Point","coordinates":[-116.274205,43.624968]}},{"properties":{"city":"Boise","name":"Common Ground","zip":"83716","geo_score":0.805,"id":"a65759pcdr73","geo_precision":"street","address":"4750 S Surprise Way","state":"ID"},"type":"Feature","geometry":{"type":"Point","coordinates":[-116.125789,43.557425]}}],"is_temporal":false,"author":{"url":"","metadata":"","contact_name":"","contact_address":"","source":"","contact_phone":""},"source":"","pagination":{"sort":null,"start":0,"total":5,"limit":1000000},"state":"complete","tags":"","published":"2014-08-13T06:01:49-04:00","id":116041}