{"type":"FeatureCollection","data_type":"Dataset","url_type":null,"permissions":[{"permissions":{"download":true,"view":true},"group_id":"everyone"}],"classification":null,"title":"paterson","count":186,"stream_id":116108,"contributor":{"url":"http://geocommons.com/users/26774","name":"jpacailler@rernj.com"},"data_attributes":null,"calculation_params":null,"icon_link":null,"link":"http://geocommons.com/overlays/116108.json","extent":[-74.2312,40.8904,-74.1415,40.9711],"geometry_types":["point"],"unique_name":null,"name":"paterson","feature_count":186,"description":"","next_feature":null,"is_raster":false,"short_classification":"Y","stats":{"dom":{"max":696,"mean":117.677419354839,"variance":18249.3332170881,"stdev":135.090092964244,"min":0,"median":72},"last":{"max":0,"mean":0.0,"variance":0.0,"stdev":0.0,"min":0,"median":0},"baths":{"max":6.0,"mean":2.72150537634409,"variance":0.89639988375472,"stdev":0.946783968894024,"min":1.0,"median":3.0},"units":{"max":4,"mean":2.31720430107527,"variance":0.33667538506248,"stdev":0.580237352350295,"min":2,"median":2},"rooms":{"max":28,"mean":11.258064516129,"variance":12.3654751525719,"stdev":3.51645775640372,"min":0,"median":10},"mlsnum":{"max":2847007,"mean":2790980.53225806,"variance":1535436648.40166,"stdev":39184.6481214475,"min":2590334,"median":2803244},"sale":{"max":0,"mean":0.0,"variance":0.0,"stdev":0.0,"min":0,"median":0},"beds":{"max":18,"mean":5.56989247311828,"variance":5.07887242080791,"stdev":2.25363537885078,"min":0,"median":5},"group":{"max":11,"mean":5.23943661971831,"variance":9.84185110663984,"stdev":3.13717247001816,"min":1,"median":5},"original":{"max":0,"mean":0.0,"variance":0.0,"stdev":0.0,"min":0,"median":0}},"features":[{"properties":{"lotsize":"25X100","close date":"3/3/2011","city":"Paterson","dom":562,"geo_score":0.805,"last":0,"baths":2.1,"units":2,"column_15":null,"rooms":10,"mlsnum":2590334,"sale":0,"beds":4,"id":"a6h4033efkx1","geo_precision":"range","group":null,"address":"119 PUTNAM STREET","original":0,"state":"NJ"},"type":"Feature","geometry":{"type":"Point","coordinates":[-74.158688,40.928185]}},{"properties":{"lotsize":"50x100","close date":"1/24/2011","city":"Paterson","dom":15,"geo_score":0.721,"last":0,"baths":2.0,"units":2,"column_15":null,"rooms":11,"mlsnum":2669331,"sale":0,"beds":5,"id":"a6h4038ed4it","geo_precision":"range","group":null,"address":"104 East 16th Street","original":0,"state":"NJ"},"type":"Feature","geometry":{"type":"Point","coordinates":[-74.152714,40.934403]}},{"properties":{"lotsize":"25X100*","close date":"12/21/2010","city":"Paterson","dom":363,"geo_score":0.805,"last":0,"baths":3.0,"units":2,"column_15":null,"rooms":10,"mlsnum":2676558,"sale":0,"beds":6,"id":"a6h4037dp0pg","geo_precision":"range","group":10,"address":"101 BLOOMFIELD AVE*","original":0,"state":"NJ"},"type":"Feature","geometry":{"type":"Point","coordinates":[-74.162608,40.896895]}},{"properties":{"lotsize":"25X100*","close date":"5/10/2011","city":"Paterson","dom":696,"geo_score":0.805,"last":0,"baths":4.0,"units":2,"column_15":null,"rooms":16,"mlsnum":2677518,"sale":0,"beds":6,"id":"a6h403auzwe0","geo_precision":"range","group":11,"address":"127 KNICKERBOCKER AVE*","original":0,"state":"NJ"},"type":"Feature","geometry":{"type":"Point","coordinates":[-74.154611,40.8904]}},{"properties":{"lotsize":"25X110*","close date":"4/29/2011","city":"Paterson","dom":690,"geo_score":0.805,"last":0,"baths":3.0,"units":3,"column_15":null,"rooms":16,"mlsnum":2683363,"sale":0,"beds":8,"id":"a6h4038ppfiw","geo_precision":"range","group":null,"address":"356 HAMILTON AVE*","original":0,"state":"NJ"},"type":"Feature","geometry":{"type":"Point","coordinates":[-74.156993,40.919872]}},{"properties":{"lotsize":"25X50*","close date":"12/14/2010","city":"Paterson","dom":524,"geo_score":0.805,"last":0,"baths":2.0,"units":2,"column_15":null,"rooms":8,"mlsnum":2693356,"sale":0,"beds":4,"id":"a6h402yiig3s","geo_precision":"range","group":4,"address":"2 ANN PL*","original":0,"state":"NJ"},"type":"Feature","geometry":{"type":"Point","coordinates":[-74.156177,40.93235]}},{"properties":{"lotsize":"32X100*","close date":"1/21/2011","city":"Paterson","dom":456,"geo_score":0.721,"last":0,"baths":4.0,"units":3,"column_15":null,"rooms":17,"mlsnum":2699706,"sale":0,"beds":9,"id":"a6h402x0hty6","geo_precision":"range","group":null,"address":"420-422 E 31ST ST*","original":0,"state":"NJ"},"type":"Feature","geometry":{"type":"Point","coordinates":[-74.145139,40.911493]}},{"properties":{"lotsize":"25 X 100","close date":"4/4/2011","city":"Paterson","dom":511,"geo_score":0.805,"last":0,"baths":3.0,"units":2,"column_15":null,"rooms":6,"mlsnum":2706566,"sale":0,"beds":4,"id":"a6h4038dubij","geo_precision":"range","group":null,"address":"356 Dakota St.","original":0,"state":"NJ"},"type":"Feature","geometry":{"type":"Point","coordinates":[-74.161965,40.89274]}},{"properties":{"lotsize":"25X100*","close date":"2/4/2011","city":"Paterson","dom":398,"geo_score":0.805,"last":0,"baths":2.0,"units":2,"column_15":null,"rooms":8,"mlsnum":2712788,"sale":0,"beds":4,"id":"a6h4038hnlbo","geo_precision":"range","group":null,"address":"38 MANCHESTER AVE*","original":0,"state":"NJ"},"type":"Feature","geometry":{"type":"Point","coordinates":[-74.186519,40.918553]}},{"properties":{"lotsize":"25X100*","close date":"12/23/2010","city":"Paterson","dom":434,"geo_score":0.805,"last":0,"baths":3.0,"units":2,"column_15":null,"rooms":12,"mlsnum":2715229,"sale":0,"beds":7,"id":"a6h40342ejpw","geo_precision":"range","group":1,"address":"204 KEARNEY ST*","original":0,"state":"NJ"},"type":"Feature","geometry":{"type":"Point","coordinates":[-74.184164,40.92412]}},{"properties":{"lotsize":"50x75","close date":"3/11/2011","city":"Paterson","dom":226,"geo_score":0.805,"last":0,"baths":4.0,"units":3,"column_15":null,"rooms":14,"mlsnum":2717890,"sale":0,"beds":6,"id":"a6h40331g6y7","geo_precision":"range","group":2,"address":"235 TEMPLE ST","original":0,"state":"NJ"},"type":"Feature","geometry":{"type":"Point","coordinates":[-74.180051,40.929148]}},{"properties":{"lotsize":"37X113*","close date":"12/15/2010","city":"Paterson","dom":0,"geo_score":0.805,"last":0,"baths":2.0,"units":2,"column_15":null,"rooms":10,"mlsnum":2727317,"sale":0,"beds":4,"id":"a6h4038rxx5m","geo_precision":"range","group":11,"address":"121-123 GENESSEE AVE*","original":0,"state":"NJ"},"type":"Feature","geometry":{"type":"Point","coordinates":[-74.154588,40.891134]}},{"properties":{"lotsize":"25X71*","close date":"2/4/2011","city":"Paterson","dom":283,"geo_score":0.721,"last":0,"baths":2.0,"units":2,"column_15":null,"rooms":8,"mlsnum":2728273,"sale":0,"beds":4,"id":"a6h4031fevq2","geo_precision":"range","group":8,"address":"23 17TH AVE*","original":0,"state":"NJ"},"type":"Feature","geometry":{"type":"Point","coordinates":[-74.157707,40.913772]}},{"properties":{"lotsize":"35x100","close date":"2/1/2011","city":"Paterson","dom":322,"geo_score":0.707,"last":0,"baths":2.0,"units":2,"column_15":null,"rooms":11,"mlsnum":2728141,"sale":0,"beds":4,"id":"a6h402xuu1oe","geo_precision":"range","group":null,"address":"254-256 5TH AVE","original":0,"state":"NJ"},"type":"Feature","geometry":{"type":"Point","coordinates":[-74.151291,40.934306]}},{"properties":{"lotsize":"44 X 100*","close date":"1/12/2011","city":"Paterson","dom":324,"geo_score":0.805,"last":0,"baths":2.0,"units":2,"column_15":null,"rooms":10,"mlsnum":2728293,"sale":0,"beds":4,"id":"a6h40302up70","geo_precision":"range","group":null,"address":"441 KEARNEY ST*","original":0,"state":"NJ"},"type":"Feature","geometry":{"type":"Point","coordinates":[-74.191524,40.930205]}},{"properties":{"lotsize":"37 X 100","close date":"12/8/2010","city":"Paterson","dom":245,"geo_score":0.721,"last":0,"baths":2.0,"units":2,"column_15":null,"rooms":10,"mlsnum":2730219,"sale":0,"beds":4,"id":"a6h4033y5m46","geo_precision":"range","group":2,"address":"69 N 10TH ST","original":0,"state":"NJ"},"type":"Feature","geometry":{"type":"Point","coordinates":[-74.180945,40.928971]}},{"properties":{"lotsize":"40 X 100","close date":"3/10/2011","city":"Paterson","dom":89,"geo_score":0.721,"last":0,"baths":3.1,"units":2,"column_15":null,"rooms":12,"mlsnum":2733836,"sale":0,"beds":6,"id":"a6h402yb95pj","geo_precision":"range","group":7,"address":"494 11TH AVE","original":0,"state":"NJ"},"type":"Feature","geometry":{"type":"Point","coordinates":[-74.146545,40.921616]}},{"properties":{"lotsize":"25X100*","close date":"3/18/2011","city":"Paterson","dom":425,"geo_score":0.805,"last":0,"baths":2.0,"units":2,"column_15":null,"rooms":9,"mlsnum":2734908,"sale":0,"beds":4,"id":"a6h4034q3wk6","geo_precision":"range","group":null,"address":"136 CARLISLE AVE*","original":0,"state":"NJ"},"type":"Feature","geometry":{"type":"Point","coordinates":[-74.189581,40.908019]}},{"properties":{"lotsize":"37X100*","close date":"3/23/2011","city":"Paterson","dom":161,"geo_score":0.721,"last":0,"baths":2.1,"units":2,"column_15":null,"rooms":8,"mlsnum":2736157,"sale":0,"beds":3,"id":"a6h40363px71","geo_precision":"range","group":null,"address":"19-21 12TH AVE*","original":0,"state":"NJ"},"type":"Feature","geometry":{"type":"Point","coordinates":[-74.165096,40.921565]}},{"properties":{"lotsize":"25 x 100","close date":"1/14/2011","city":"Paterson","dom":357,"geo_score":0.721,"last":0,"baths":1.0,"units":2,"column_15":null,"rooms":4,"mlsnum":2738222,"sale":0,"beds":2,"id":"a6h4039ocx16","geo_precision":"range","group":9,"address":"148 20TH AVE","original":0,"state":"NJ"},"type":"Feature","geometry":{"type":"Point","coordinates":[-74.164098,40.909025]}},{"properties":{"lotsize":"37X70*","close date":"12/13/2010","city":"Paterson","dom":216,"geo_score":0.805,"last":0,"baths":3.1,"units":2,"column_15":null,"rooms":10,"mlsnum":2738330,"sale":0,"beds":4,"id":"a6h4034nvf2f","geo_precision":"range","group":null,"address":"1 BARNERT PL*","original":0,"state":"NJ"},"type":"Feature","geometry":{"type":"Point","coordinates":[-74.171179,40.92968]}},{"properties":{"lotsize":"25X80*","close date":"12/29/2010","city":"Paterson","dom":41,"geo_score":0.805,"last":0,"baths":2.0,"units":2,"column_15":null,"rooms":9,"mlsnum":2738592,"sale":0,"beds":5,"id":"a6h4036mz1mk","geo_precision":"range","group":4,"address":"7 PARK PL*","original":0,"state":"NJ"},"type":"Feature","geometry":{"type":"Point","coordinates":[-74.156572,40.931261]}},{"properties":{"lotsize":null,"close date":"11/12/2010","city":"Paterson","dom":252,"geo_score":0.707,"last":0,"baths":3.0,"units":3,"column_15":null,"rooms":13,"mlsnum":2740864,"sale":0,"beds":7,"id":"a6h40304arku","geo_precision":"range","group":2,"address":"93-95 N 8TH ST*","original":0,"state":"NJ"},"type":"Feature","geometry":{"type":"Point","coordinates":[-74.178836,40.928472]}},{"properties":{"lotsize":"25X100*","close date":"3/31/2011","city":"Paterson","dom":414,"geo_score":0.805,"last":0,"baths":2.0,"units":2,"column_15":null,"rooms":6,"mlsnum":2741352,"sale":0,"beds":2,"id":"a6h403bhgmt1","geo_precision":"range","group":null,"address":"37 RYERSON AVE*","original":0,"state":"NJ"},"type":"Feature","geometry":{"type":"Point","coordinates":[-74.198465,40.925796]}},{"properties":{"lotsize":"27X100*","close date":"4/19/2011","city":"Paterson","dom":44,"geo_score":0.721,"last":0,"baths":2.0,"units":2,"column_15":null,"rooms":14,"mlsnum":2743386,"sale":0,"beds":6,"id":"a6h4031d1e2f","geo_precision":"range","group":null,"address":"453-455 E 31ST ST*","original":0,"state":"NJ"},"type":"Feature","geometry":{"type":"Point","coordinates":[-74.145382,40.910317]}},{"properties":{"lotsize":"25X100*","close date":"5/1/2011","city":"Paterson","dom":353,"geo_score":0.707,"last":0,"baths":3.0,"units":3,"column_15":null,"rooms":14,"mlsnum":2750735,"sale":0,"beds":5,"id":"a6h40382go9h","geo_precision":"range","group":2,"address":"84 N 6TH ST*","original":0,"state":"NJ"},"type":"Feature","geometry":{"type":"Point","coordinates":[-74.176596,40.928014]}},{"properties":{"lotsize":"40X100*","close date":"4/27/2011","city":"Paterson","dom":245,"geo_score":0.805,"last":0,"baths":6.0,"units":4,"column_15":null,"rooms":20,"mlsnum":2752337,"sale":0,"beds":14,"id":"a6h402zxp4j9","geo_precision":"range","group":6,"address":"209-211 HARRISON ST*","original":0,"state":"NJ"},"type":"Feature","geometry":{"type":"Point","coordinates":[-74.160753,40.922807]}},{"properties":{"lotsize":"25X125*","close date":"2/17/2011","city":"Paterson","dom":16,"geo_score":0.805,"last":0,"baths":4.0,"units":4,"column_15":null,"rooms":20,"mlsnum":2752376,"sale":0,"beds":12,"id":"a6h402vy3mp1","geo_precision":"range","group":null,"address":"209 MILL ST*","original":0,"state":"NJ"},"type":"Feature","geometry":{"type":"Point","coordinates":[-74.173776,40.909803]}},{"properties":{"lotsize":"50x100*","close date":"11/17/2010","city":"Paterson","dom":218,"geo_score":0.805,"last":0,"baths":3.0,"units":2,"column_15":null,"rooms":9,"mlsnum":2754287,"sale":0,"beds":4,"id":"a6h4038ky022","geo_precision":"range","group":1,"address":"233-235 KEARNEY ST","original":0,"state":"NJ"},"type":"Feature","geometry":{"type":"Point","coordinates":[-74.185161,40.924685]}},{"properties":{"lotsize":"25X99*","close date":"2/18/2011","city":"Paterson","dom":143,"geo_score":0.805,"last":0,"baths":2.0,"units":2,"column_15":null,"rooms":12,"mlsnum":2755424,"sale":0,"beds":5,"id":"a6h403a50d68","geo_precision":"range","group":null,"address":"42 HOPPER ST*","original":0,"state":"NJ"},"type":"Feature","geometry":{"type":"Point","coordinates":[-74.171151,40.931099]}},{"properties":{"lotsize":"25X100*","close date":"4/15/2011","city":"Paterson","dom":295,"geo_score":0.721,"last":0,"baths":6.0,"units":2,"column_15":null,"rooms":12,"mlsnum":2756173,"sale":0,"beds":6,"id":"a6h4034rgrcj","geo_precision":"range","group":null,"address":"102 E 16TH ST*","original":0,"state":"NJ"},"type":"Feature","geometry":{"type":"Point","coordinates":[-74.152694,40.934491]}},{"properties":{"lotsize":"75X57*","close date":"11/29/2010","city":"Paterson","dom":208,"geo_score":0.805,"last":0,"baths":4.0,"units":4,"column_15":null,"rooms":17,"mlsnum":2757807,"sale":0,"beds":9,"id":"a6h4039fa071","geo_precision":"range","group":null,"address":"220-224 WARREN ST*","original":0,"state":"NJ"},"type":"Feature","geometry":{"type":"Point","coordinates":[-74.154639,40.927252]}},{"properties":{"lotsize":"25X100*","close date":"3/30/2011","city":"Paterson","dom":337,"geo_score":0.805,"last":0,"baths":4.0,"units":3,"column_15":null,"rooms":10,"mlsnum":2758560,"sale":0,"beds":7,"id":"a6h402ze0qnu","geo_precision":"range","group":null,"address":"60 HOPPER ST*","original":0,"state":"NJ"},"type":"Feature","geometry":{"type":"Point","coordinates":[-74.170086,40.931866]}},{"properties":{"lotsize":"50X100*","close date":"2/4/2011","city":"Paterson","dom":4,"geo_score":0.805,"last":0,"baths":3.0,"units":3,"column_15":null,"rooms":18,"mlsnum":2759363,"sale":0,"beds":9,"id":"a6h4039p93pd","geo_precision":"range","group":null,"address":"76 PENNINGTON ST*","original":0,"state":"NJ"},"type":"Feature","geometry":{"type":"Point","coordinates":[-74.158224,40.912621]}},{"properties":{"lotsize":"40X100*","close date":"12/13/2010","city":"Paterson","dom":200,"geo_score":0.805,"last":0,"baths":5.0,"units":3,"column_15":null,"rooms":13,"mlsnum":2759762,"sale":0,"beds":9,"id":"a6h4033azye3","geo_precision":"range","group":null,"address":"436 ELLISON ST*","original":0,"state":"NJ"},"type":"Feature","geometry":{"type":"Point","coordinates":[-74.158351,40.917093]}},{"properties":{"lotsize":"25X100*","close date":"1/3/2011","city":"Paterson","dom":151,"geo_score":0.805,"last":0,"baths":2.0,"units":2,"column_15":null,"rooms":14,"mlsnum":2761075,"sale":0,"beds":8,"id":"a6h402yj3jyg","geo_precision":"range","group":null,"address":"70 CHADWICK ST*","original":0,"state":"NJ"},"type":"Feature","geometry":{"type":"Point","coordinates":[-74.168786,40.902341]}},{"properties":{"lotsize":"25X100*","close date":"3/21/2011","city":"Paterson","dom":270,"geo_score":0.805,"last":0,"baths":2.0,"units":2,"column_15":null,"rooms":8,"mlsnum":2762900,"sale":0,"beds":4,"id":"a6h4038e1x5h","geo_precision":"range","group":null,"address":"175 Carlisle Ave","original":0,"state":"NJ"},"type":"Feature","geometry":{"type":"Point","coordinates":[-74.187531,40.907541]}},{"properties":{"lotsize":"25X100*","close date":"12/8/2010","city":"Paterson","dom":131,"geo_score":0.707,"last":0,"baths":3.0,"units":2,"column_15":null,"rooms":13,"mlsnum":2764307,"sale":0,"beds":8,"id":"a6h4036hpb48","geo_precision":"range","group":null,"address":"190 N 1ST ST*","original":0,"state":"NJ"},"type":"Feature","geometry":{"type":"Point","coordinates":[-74.167637,40.930078]}},{"properties":{"lotsize":"25X97*","close date":"3/12/2011","city":"Paterson","dom":306,"geo_score":0.805,"last":0,"baths":2.0,"units":2,"column_15":null,"rooms":10,"mlsnum":2766478,"sale":0,"beds":6,"id":"a6h402yu5yeb","geo_precision":"range","group":5,"address":"85 MERCER ST*","original":0,"state":"NJ"},"type":"Feature","geometry":{"type":"Point","coordinates":[-74.160531,40.926093]}},{"properties":{"lotsize":"37X100*","close date":"12/13/2010","city":"Paterson","dom":219,"geo_score":0.721,"last":0,"baths":2.0,"units":2,"column_15":null,"rooms":10,"mlsnum":2767098,"sale":0,"beds":4,"id":"a6h4038a4eon","geo_precision":"range","group":null,"address":"131-133 23RD AVE*","original":0,"state":"NJ"},"type":"Feature","geometry":{"type":"Point","coordinates":[-74.152591,40.902097]}},{"properties":{"lotsize":"25X100*","close date":"1/3/2011","city":"Paterson","dom":161,"geo_score":0.707,"last":0,"baths":2.0,"units":2,"column_15":null,"rooms":14,"mlsnum":2768428,"sale":0,"beds":8,"id":"a6h40395abmf","geo_precision":"range","group":null,"address":"65 3RD AVE*","original":0,"state":"NJ"},"type":"Feature","geometry":{"type":"Point","coordinates":[-74.156903,40.958422]}},{"properties":{"lotsize":"27X100*","close date":"12/26/2010","city":"Paterson","dom":2,"geo_score":0.805,"last":0,"baths":3.0,"units":2,"column_15":null,"rooms":14,"mlsnum":2769420,"sale":0,"beds":7,"id":"a6h40386q3hu","geo_precision":"range","group":1,"address":"128-130 REDWOOD AVE*","original":0,"state":"NJ"},"type":"Feature","geometry":{"type":"Point","coordinates":[-74.185567,40.92309]}},{"properties":{"lotsize":"50X100*","close date":"12/2/2010","city":"Paterson","dom":78,"geo_score":0.721,"last":0,"baths":4.0,"units":4,"column_15":null,"rooms":20,"mlsnum":2769500,"sale":0,"beds":8,"id":"a6h4035n38ul","geo_precision":"range","group":null,"address":"116-118 E 32ND ST*","original":0,"state":"NJ"},"type":"Feature","geometry":{"type":"Point","coordinates":[-74.142313,40.920487]}},{"properties":{"lotsize":"23X100*","close date":"4/13/2011","city":"Paterson","dom":342,"geo_score":0.805,"last":0,"baths":2.0,"units":2,"column_15":null,"rooms":10,"mlsnum":2769697,"sale":0,"beds":6,"id":"a6h4039r50w9","geo_precision":"range","group":null,"address":"113 FAIR ST*","original":0,"state":"NJ"},"type":"Feature","geometry":{"type":"Point","coordinates":[-74.167256,40.919579]}},{"properties":{"lotsize":"25X100*","close date":"2/11/2011","city":"Paterson","dom":238,"geo_score":0.805,"last":0,"baths":4.0,"units":2,"column_15":null,"rooms":12,"mlsnum":2770382,"sale":0,"beds":6,"id":"a6h4032mio6y","geo_precision":"range","group":null,"address":"186 MILL ST*","original":0,"state":"NJ"},"type":"Feature","geometry":{"type":"Point","coordinates":[-74.173907,40.910086]}},{"properties":{"lotsize":"40X100*","close date":"4/8/2011","city":"Paterson","dom":83,"geo_score":0.805,"last":0,"baths":2.0,"units":2,"column_15":null,"rooms":10,"mlsnum":2771739,"sale":0,"beds":5,"id":"a6h4032jb7no","geo_precision":"range","group":4,"address":"36-38 BUTLER ST*","original":0,"state":"NJ"},"type":"Feature","geometry":{"type":"Point","coordinates":[-74.155948,40.932998]}},{"properties":{"lotsize":"25X100*","close date":"1/13/2011","city":"Paterson","dom":133,"geo_score":0.805,"last":0,"baths":4.0,"units":3,"column_15":null,"rooms":15,"mlsnum":2774150,"sale":0,"beds":9,"id":"a6h4036nqxut","geo_precision":"range","group":null,"address":"88 PENNINGTON ST*","original":0,"state":"NJ"},"type":"Feature","geometry":{"type":"Point","coordinates":[-74.158374,40.912217]}},{"properties":{"lotsize":"35X100*","close date":"5/9/2011","city":"Paterson","dom":67,"geo_score":0.721,"last":0,"baths":3.0,"units":2,"column_15":null,"rooms":12,"mlsnum":2775023,"sale":0,"beds":6,"id":"a6h403an5itk","geo_precision":"range","group":null,"address":"377 E 19TH ST*","original":0,"state":"NJ"},"type":"Feature","geometry":{"type":"Point","coordinates":[-74.151743,40.927995]}},{"properties":{"lotsize":"25X126*","close date":"1/6/2011","city":"Paterson","dom":205,"geo_score":0.805,"last":0,"baths":2.0,"units":2,"column_15":null,"rooms":10,"mlsnum":2775543,"sale":0,"beds":6,"id":"a6h403a9aksl","geo_precision":"range","group":null,"address":"34 JEFFERSON ST*","original":0,"state":"NJ"},"type":"Feature","geometry":{"type":"Point","coordinates":[-74.170584,40.925003]}},{"properties":{"lotsize":"50X100*","close date":"1/12/2011","city":"Paterson","dom":149,"geo_score":0.805,"last":0,"baths":2.1,"units":2,"column_15":null,"rooms":10,"mlsnum":2775656,"sale":0,"beds":4,"id":"a6h40361w5b5","geo_precision":"range","group":null,"address":"35-37 QUINN ST*","original":0,"state":"NJ"},"type":"Feature","geometry":{"type":"Point","coordinates":[-74.184149,40.910082]}},{"properties":{"lotsize":"34X100*","close date":"12/30/2010","city":"Paterson","dom":92,"geo_score":0.805,"last":0,"baths":3.0,"units":3,"column_15":null,"rooms":13,"mlsnum":2775870,"sale":0,"beds":6,"id":"a6h403a2smaw","geo_precision":"range","group":1,"address":"143-145 JASPER ST*","original":0,"state":"NJ"},"type":"Feature","geometry":{"type":"Point","coordinates":[-74.184328,40.923054]}},{"properties":{"lotsize":"26 X 100*","close date":"12/31/2010","city":"Paterson","dom":183,"geo_score":0.805,"last":0,"baths":3.0,"units":3,"column_15":null,"rooms":14,"mlsnum":2777314,"sale":0,"beds":7,"id":"a6h4038w4466","geo_precision":"range","group":3,"address":"30 WATSON ST*","original":0,"state":"NJ"},"type":"Feature","geometry":{"type":"Point","coordinates":[-74.166798,40.927352]}},{"properties":{"lotsize":"25x100*","close date":"11/26/2010","city":"Paterson","dom":72,"geo_score":0.805,"last":0,"baths":2.0,"units":2,"column_15":null,"rooms":8,"mlsnum":2777621,"sale":0,"beds":4,"id":"a6h4031g8mo6","geo_precision":"range","group":3,"address":"10 WATSON ST*","original":0,"state":"NJ"},"type":"Feature","geometry":{"type":"Point","coordinates":[-74.165965,40.927497]}},{"properties":{"lotsize":"37X100*","close date":"2/14/2011","city":"Paterson","dom":100,"geo_score":0.721,"last":0,"baths":2.1,"units":2,"column_15":null,"rooms":12,"mlsnum":2779300,"sale":0,"beds":6,"id":"a6h402xez02y","geo_precision":"range","group":null,"address":"865 E 23RD ST*","original":0,"state":"NJ"},"type":"Feature","geometry":{"type":"Point","coordinates":[-74.152863,40.910925]}},{"properties":{"lotsize":"25X100*","close date":"12/9/2010","city":"Paterson","dom":151,"geo_score":0.805,"last":0,"baths":2.0,"units":2,"column_15":null,"rooms":6,"mlsnum":2780140,"sale":0,"beds":2,"id":"a6h4035tjzq2","geo_precision":"range","group":null,"address":"87 SHERMAN AVE*","original":0,"state":"NJ"},"type":"Feature","geometry":{"type":"Point","coordinates":[-74.147147,40.966022]}},{"properties":{"lotsize":"37X100*","close date":"2/9/2011","city":"Paterson","dom":151,"geo_score":0.721,"last":0,"baths":3.0,"units":2,"column_15":null,"rooms":13,"mlsnum":2780461,"sale":0,"beds":6,"id":"a6h4036x6it8","geo_precision":"range","group":null,"address":"280 19TH AVE*","original":0,"state":"NJ"},"type":"Feature","geometry":{"type":"Point","coordinates":[-74.143264,40.908693]}},{"properties":{"lotsize":"50X100*","close date":"4/14/2011","city":"Paterson","dom":10,"geo_score":0.721,"last":0,"baths":2.1,"units":2,"column_15":null,"rooms":8,"mlsnum":2782465,"sale":0,"beds":4,"id":"a6h402z67d7n","geo_precision":"range","group":null,"address":"972-974 E 24TH ST*","original":0,"state":"NJ"},"type":"Feature","geometry":{"type":"Point","coordinates":[-74.152697,40.907093]}},{"properties":{"lotsize":"25X75*","close date":"11/12/2010","city":"Paterson","dom":115,"geo_score":0.805,"last":0,"baths":2.0,"units":2,"column_15":null,"rooms":8,"mlsnum":2782610,"sale":0,"beds":4,"id":"a6h4030dxazr","geo_precision":"range","group":9,"address":"129 MADISON ST*","original":0,"state":"NJ"},"type":"Feature","geometry":{"type":"Point","coordinates":[-74.165421,40.910468]}},{"properties":{"lotsize":"25X100*","close date":"11/16/2010","city":"Paterson","dom":54,"geo_score":0.805,"last":0,"baths":3.0,"units":2,"column_15":null,"rooms":10,"mlsnum":2783709,"sale":0,"beds":4,"id":"a6h403a4bnct","geo_precision":"range","group":10,"address":"134 BLOOMFIELD AVE*","original":0,"state":"NJ"},"type":"Feature","geometry":{"type":"Point","coordinates":[-74.161538,40.897626]}},{"properties":{"lotsize":"37X100*","close date":"12/6/2010","city":"Paterson","dom":101,"geo_score":0.721,"last":0,"baths":5.0,"units":4,"column_15":null,"rooms":16,"mlsnum":2784597,"sale":0,"beds":6,"id":"a6h4039u4sxj","geo_precision":"range","group":null,"address":"733 E 24TH ST*","original":0,"state":"NJ"},"type":"Feature","geometry":{"type":"Point","coordinates":[-74.151013,40.915383]}},{"properties":{"lotsize":"50X90*","close date":"12/8/2010","city":"Paterson","dom":85,"geo_score":0.721,"last":0,"baths":2.0,"units":2,"column_15":null,"rooms":12,"mlsnum":2786215,"sale":0,"beds":5,"id":"a6h402xju9ku","geo_precision":"range","group":7,"address":"482-484 11TH AVE*","original":0,"state":"NJ"},"type":"Feature","geometry":{"type":"Point","coordinates":[-74.147206,40.921685]}},{"properties":{"lotsize":"33X100*","close date":"5/2/2011","city":"Paterson","dom":160,"geo_score":0.721,"last":0,"baths":2.1,"units":2,"column_15":null,"rooms":10,"mlsnum":2786672,"sale":0,"beds":4,"id":"a6h402xiizy2","geo_precision":"range","group":null,"address":"1066-1068 E 25TH ST*","original":0,"state":"NJ"},"type":"Feature","geometry":{"type":"Point","coordinates":[-74.152557,40.903254]}},{"properties":{"lotsize":"26X50*","close date":"1/18/2011","city":"Paterson","dom":32,"geo_score":0.805,"last":0,"baths":2.0,"units":2,"column_15":null,"rooms":8,"mlsnum":2787177,"sale":0,"beds":4,"id":"a6h4032elv4n","geo_precision":"range","group":3,"address":"128 E HOLSMAN ST*","original":0,"state":"NJ"},"type":"Feature","geometry":{"type":"Point","coordinates":[-74.16674,40.928085]}},{"properties":{"lotsize":"25X100*","close date":"1/12/2011","city":"Paterson","dom":72,"geo_score":0.721,"last":0,"baths":3.0,"units":2,"column_15":null,"rooms":8,"mlsnum":2787574,"sale":0,"beds":4,"id":"a6h402zxiirj","geo_precision":"range","group":6,"address":"172 12TH AVE*","original":0,"state":"NJ"},"type":"Feature","geometry":{"type":"Point","coordinates":[-74.15857,40.921327]}},{"properties":{"lotsize":"27 X 76*","close date":"2/23/2011","city":"Paterson","dom":27,"geo_score":0.805,"last":0,"baths":2.0,"units":2,"column_15":null,"rooms":8,"mlsnum":2788607,"sale":0,"beds":4,"id":"a6h4031hv00p","geo_precision":"range","group":null,"address":"519 UNION AVE*","original":0,"state":"NJ"},"type":"Feature","geometry":{"type":"Point","coordinates":[-74.181922,40.923443]}},{"properties":{"lotsize":"25X125*","close date":"1/27/2011","city":"Paterson","dom":187,"geo_score":0.721,"last":0,"baths":2.0,"units":2,"column_15":null,"rooms":8,"mlsnum":2788926,"sale":0,"beds":4,"id":"a6h40312ykin","geo_precision":"range","group":null,"address":"220 E 21ST ST*","original":0,"state":"NJ"},"type":"Feature","geometry":{"type":"Point","coordinates":[-74.154817,40.910744]}},{"properties":{"lotsize":"50X100*","close date":"2/8/2011","city":"Paterson","dom":202,"geo_score":0.805,"last":0,"baths":2.0,"units":2,"column_15":null,"rooms":11,"mlsnum":2789624,"sale":0,"beds":6,"id":"a6h40341ne7f","geo_precision":"range","group":null,"address":"162-164 SHERMAN AVE*","original":0,"state":"NJ"},"type":"Feature","geometry":{"type":"Point","coordinates":[-74.18891,40.922709]}},{"properties":{"lotsize":"25X92*","close date":"3/1/2011","city":"Paterson","dom":183,"geo_score":0.805,"last":0,"baths":2.0,"units":2,"column_15":null,"rooms":12,"mlsnum":2789754,"sale":0,"beds":6,"id":"a6h4035y6je6","geo_precision":"range","group":null,"address":"50 HOLSMAN ST*","original":0,"state":"NJ"},"type":"Feature","geometry":{"type":"Point","coordinates":[-74.169187,40.926108]}},{"properties":{"lotsize":"50 X 100*","close date":"3/3/2011","city":"Paterson","dom":160,"geo_score":0.721,"last":0,"baths":2.0,"units":2,"column_15":null,"rooms":10,"mlsnum":2789899,"sale":0,"beds":6,"id":"a6h4039uptvo","geo_precision":"range","group":null,"address":"1095-1097 E 23RD ST*","original":0,"state":"NJ"},"type":"Feature","geometry":{"type":"Point","coordinates":[-74.154509,40.902804]}},{"properties":{"lotsize":"67X105*","close date":"3/9/2011","city":"Paterson","dom":0,"geo_score":0.805,"last":0,"baths":3.1,"units":2,"column_15":null,"rooms":13,"mlsnum":2789956,"sale":0,"beds":7,"id":"a6h40319q7f0","geo_precision":"range","group":null,"address":"22-24 WALKER ST*","original":0,"state":"NJ"},"type":"Feature","geometry":{"type":"Point","coordinates":[-74.182642,40.911683]}},{"properties":{"lotsize":"25X100*","close date":"3/2/2011","city":"Paterson","dom":170,"geo_score":0.805,"last":0,"baths":2.0,"units":2,"column_15":null,"rooms":8,"mlsnum":2789988,"sale":0,"beds":4,"id":"a6h4031bnqrt","geo_precision":"range","group":null,"address":"116 LAWRENCE ST*","original":0,"state":"NJ"},"type":"Feature","geometry":{"type":"Point","coordinates":[-74.162796,40.924197]}},{"properties":{"lotsize":"25X100*","close date":"3/16/2011","city":"Paterson","dom":203,"geo_score":0.805,"last":0,"baths":2.0,"units":2,"column_15":null,"rooms":8,"mlsnum":2790498,"sale":0,"beds":4,"id":"a6h403ahqyce","geo_precision":"range","group":5,"address":"122 LAFAYETTE ST*","original":0,"state":"NJ"},"type":"Feature","geometry":{"type":"Point","coordinates":[-74.160516,40.925557]}},{"properties":{"lotsize":"25X100*","close date":"3/4/2011","city":"Paterson","dom":162,"geo_score":0.805,"last":0,"baths":3.0,"units":2,"column_15":null,"rooms":13,"mlsnum":2791371,"sale":0,"beds":6,"id":"a6h4033f1p9m","geo_precision":"range","group":11,"address":"341 GETTY AVE*","original":0,"state":"NJ"},"type":"Feature","geometry":{"type":"Point","coordinates":[-74.157295,40.895334]}},{"properties":{"lotsize":"28X100*","close date":"12/2/2010","city":"Paterson","dom":79,"geo_score":0.805,"last":0,"baths":1.0,"units":3,"column_15":null,"rooms":8,"mlsnum":2791413,"sale":0,"beds":5,"id":"a6h4035otvvf","geo_precision":"range","group":null,"address":"11 HILLMAN ST*","original":0,"state":"NJ"},"type":"Feature","geometry":{"type":"Point","coordinates":[-74.166071,40.92959]}},{"properties":{"lotsize":"38X100*","close date":"3/15/2011","city":"Paterson","dom":231,"geo_score":0.721,"last":0,"baths":3.0,"units":2,"column_15":null,"rooms":9,"mlsnum":2791489,"sale":0,"beds":3,"id":"a6h4036g25rj","geo_precision":"range","group":7,"address":"526-528 E 25TH ST*","original":0,"state":"NJ"},"type":"Feature","geometry":{"type":"Point","coordinates":[-74.148773,40.921603]}},{"properties":{"lotsize":"50X100*","close date":"11/19/2010","city":"Paterson","dom":75,"geo_score":0.721,"last":0,"baths":3.0,"units":3,"column_15":null,"rooms":21,"mlsnum":2791614,"sale":0,"beds":10,"id":"a6h402wn9xvt","geo_precision":"range","group":null,"address":"328-330 17TH AVE*","original":0,"state":"NJ"},"type":"Feature","geometry":{"type":"Point","coordinates":[-74.143546,40.912041]}},{"properties":{"lotsize":"25X100*","close date":"3/31/2011","city":"Paterson","dom":218,"geo_score":0.721,"last":0,"baths":1.2,"units":2,"column_15":null,"rooms":8,"mlsnum":2793201,"sale":0,"beds":4,"id":"a6h40302o74j","geo_precision":"range","group":null,"address":"247 21ST AVE*","original":0,"state":"NJ"},"type":"Feature","geometry":{"type":"Point","coordinates":[-74.163326,40.907614]}},{"properties":{"lotsize":"50X100*","close date":"4/18/2011","city":"Paterson","dom":72,"geo_score":0.721,"last":0,"baths":3.0,"units":2,"column_15":null,"rooms":12,"mlsnum":2793382,"sale":0,"beds":7,"id":"a6h402vnygm5","geo_precision":"range","group":null,"address":"542-544 14TH AVE*","original":0,"state":"NJ"},"type":"Feature","geometry":{"type":"Point","coordinates":[-74.152298,40.91714]}},{"properties":{"lotsize":"37.5X100*","close date":"3/24/2011","city":"Paterson","dom":196,"geo_score":0.805,"last":0,"baths":2.0,"units":2,"column_15":null,"rooms":10,"mlsnum":2794071,"sale":0,"beds":6,"id":"a6h40396i7x6","geo_precision":"range","group":null,"address":"396 ELLISON ST*","original":0,"state":"NJ"},"type":"Feature","geometry":{"type":"Point","coordinates":[-74.160376,40.917157]}},{"properties":{"lotsize":"25X100*","close date":"12/28/2010","city":"Paterson","dom":156,"geo_score":0.707,"last":0,"baths":2.0,"units":2,"column_15":null,"rooms":0,"mlsnum":2795911,"sale":0,"beds":0,"id":"a6h4035rj8z5","geo_precision":"range","group":null,"address":"128-130 N 4TH ST*","original":0,"state":"NJ"},"type":"Feature","geometry":{"type":"Point","coordinates":[-74.170016,40.931047]}},{"properties":{"lotsize":"29X30*","close date":"1/30/2011","city":"Paterson","dom":208,"geo_score":0.805,"last":0,"baths":2.1,"units":2,"column_15":null,"rooms":10,"mlsnum":2795921,"sale":0,"beds":6,"id":"a6h402ypjehc","geo_precision":"range","group":null,"address":"113 E MAIN ST*","original":0,"state":"NJ"},"type":"Feature","geometry":{"type":"Point","coordinates":[-74.16835,40.929805]}},{"properties":{"lotsize":"39X82*","close date":"11/19/2010","city":"Paterson","dom":3,"geo_score":0.805,"last":0,"baths":4.0,"units":3,"column_15":null,"rooms":14,"mlsnum":2795956,"sale":0,"beds":8,"id":"a6h402vlnq57","geo_precision":"range","group":null,"address":"30-32 VREELAND AVE*","original":0,"state":"NJ"},"type":"Feature","geometry":{"type":"Point","coordinates":[-74.231153,40.900107]}},{"properties":{"lotsize":"37.6X100*","close date":"12/7/2010","city":"Paterson","dom":19,"geo_score":0.721,"last":0,"baths":3.0,"units":2,"column_15":null,"rooms":8,"mlsnum":2796065,"sale":0,"beds":4,"id":"a6h402vug4bi","geo_precision":"range","group":null,"address":"545 11TH AVE*","original":0,"state":"NJ"},"type":"Feature","geometry":{"type":"Point","coordinates":[-74.144036,40.921326]}},{"properties":{"lotsize":"25X100*","close date":"4/7/2011","city":"Paterson","dom":209,"geo_score":0.805,"last":0,"baths":3.0,"units":3,"column_15":null,"rooms":14,"mlsnum":2798025,"sale":0,"beds":8,"id":"a6h402yft44p","geo_precision":"range","group":1,"address":"140 ALBION AVE*","original":0,"state":"NJ"},"type":"Feature","geometry":{"type":"Point","coordinates":[-74.187052,40.92315]}},{"properties":{"lotsize":"37X100*","close date":"12/14/2010","city":"Paterson","dom":82,"geo_score":0.707,"last":0,"baths":2.0,"units":2,"column_15":null,"rooms":9,"mlsnum":2798180,"sale":0,"beds":5,"id":"a6h40337w8qv","geo_precision":"range","group":null,"address":"116-118 N 1ST ST CV*","original":0,"state":"NJ"},"type":"Feature","geometry":{"type":"Point","coordinates":[-74.169923,40.928044]}},{"properties":{"lotsize":"50X100*","close date":"2/4/2011","city":"Paterson","dom":105,"geo_score":0.707,"last":0,"baths":3.0,"units":2,"column_15":null,"rooms":8,"mlsnum":2798976,"sale":0,"beds":4,"id":"a6h403aa1zyk","geo_precision":"range","group":null,"address":"151-153 7TH AVE*","original":0,"state":"NJ"},"type":"Feature","geometry":{"type":"Point","coordinates":[-74.150811,40.963384]}},{"properties":{"lotsize":"35.35 X 150*","close date":"2/8/2011","city":"Paterson","dom":80,"geo_score":0.805,"last":0,"baths":4.0,"units":3,"column_15":null,"rooms":15,"mlsnum":2799205,"sale":0,"beds":8,"id":"a6h40344bhho","geo_precision":"range","group":null,"address":"246-248 TRENTON AVE*","original":0,"state":"NJ"},"type":"Feature","geometry":{"type":"Point","coordinates":[-74.146847,40.897882]}},{"properties":{"lotsize":"37X100*","close date":"2/1/2011","city":"Paterson","dom":65,"geo_score":0.805,"last":0,"baths":2.0,"units":2,"column_15":null,"rooms":8,"mlsnum":2799583,"sale":0,"beds":4,"id":"a6h4034n9qu3","geo_precision":"range","group":null,"address":"171-173 CARBON ST*","original":0,"state":"NJ"},"type":"Feature","geometry":{"type":"Point","coordinates":[-74.176415,40.932044]}},{"properties":{"lotsize":"26X100*","close date":"11/17/2010","city":"Paterson","dom":70,"geo_score":0.805,"last":0,"baths":2.0,"units":2,"column_15":null,"rooms":8,"mlsnum":2800444,"sale":0,"beds":4,"id":"a6h4033j6nrg","geo_precision":"range","group":null,"address":"171 PUTNAM ST","original":0,"state":"NJ"},"type":"Feature","geometry":{"type":"Point","coordinates":[-74.15676,40.928068]}},{"properties":{"lotsize":"26.5X93*","close date":"4/5/2011","city":"Paterson","dom":216,"geo_score":0.721,"last":0,"baths":3.0,"units":3,"column_15":null,"rooms":15,"mlsnum":2799891,"sale":0,"beds":9,"id":"a6h4033r4ls2","geo_precision":"range","group":null,"address":"157 16TH AVE*","original":0,"state":"NJ"},"type":"Feature","geometry":{"type":"Point","coordinates":[-74.16079,40.91591]}},{"properties":{"lotsize":"25X75*","close date":"2/10/2011","city":"Paterson","dom":162,"geo_score":0.805,"last":0,"baths":2.0,"units":2,"column_15":null,"rooms":10,"mlsnum":2800028,"sale":0,"beds":4,"id":"a6h403airdpm","geo_precision":"range","group":3,"address":"23 WATSON ST*","original":0,"state":"NJ"},"type":"Feature","geometry":{"type":"Point","coordinates":[-74.166369,40.927399]}},{"properties":{"lotsize":"25X100*","close date":"1/11/2011","city":"Paterson","dom":78,"geo_score":0.707,"last":0,"baths":2.0,"units":2,"column_15":null,"rooms":10,"mlsnum":2800089,"sale":0,"beds":6,"id":"a6h4035fa52x","geo_precision":"range","group":null,"address":"88 N 3RD ST*","original":0,"state":"NJ"},"type":"Feature","geometry":{"type":"Point","coordinates":[-74.17644,40.925399]}},{"properties":{"lotsize":"37X117*","close date":"3/3/2011","city":"Paterson","dom":6,"geo_score":0.721,"last":0,"baths":3.0,"units":3,"column_15":null,"rooms":11,"mlsnum":2801293,"sale":0,"beds":7,"id":"a6h40348xd9y","geo_precision":"range","group":null,"address":"180-182 23RD AVE*","original":0,"state":"NJ"},"type":"Feature","geometry":{"type":"Point","coordinates":[-74.150036,40.9018]}},{"properties":{"lotsize":"37X110*","close date":"1/5/2011","city":"Paterson","dom":111,"geo_score":0.721,"last":0,"baths":4.0,"units":2,"column_15":null,"rooms":8,"mlsnum":2803244,"sale":0,"beds":4,"id":"a6h4030w0cfx","geo_precision":"range","group":null,"address":"104-106 E 33RD ST*","original":0,"state":"NJ"},"type":"Feature","geometry":{"type":"Point","coordinates":[-74.141457,40.919924]}},{"properties":{"lotsize":"35X100*","close date":"12/20/2010","city":"Paterson","dom":33,"geo_score":0.721,"last":0,"baths":2.0,"units":2,"column_15":null,"rooms":11,"mlsnum":2803350,"sale":0,"beds":5,"id":"a6h402y2yl8h","geo_precision":"range","group":null,"address":"750 E 27TH ST*","original":0,"state":"NJ"},"type":"Feature","geometry":{"type":"Point","coordinates":[-74.148805,40.912178]}},{"properties":{"lotsize":"25X100*","close date":"1/14/2011","city":"Paterson","dom":37,"geo_score":0.707,"last":0,"baths":3.0,"units":2,"column_15":null,"rooms":14,"mlsnum":2806679,"sale":0,"beds":8,"id":"a6h402wa7n4f","geo_precision":"range","group":null,"address":"84 N 3RD ST*","original":0,"state":"NJ"},"type":"Feature","geometry":{"type":"Point","coordinates":[-74.176484,40.92536]}},{"properties":{"lotsize":"65 X 100*","close date":"11/17/2010","city":"Paterson","dom":25,"geo_score":0.805,"last":0,"baths":2.0,"units":2,"column_15":null,"rooms":11,"mlsnum":2804160,"sale":0,"beds":5,"id":"a6h40372hbnq","geo_precision":"range","group":null,"address":"307-311 ROSSITER AVE*","original":0,"state":"NJ"},"type":"Feature","geometry":{"type":"Point","coordinates":[-74.198296,40.923356]}},{"properties":{"lotsize":"25X100*","close date":"3/29/2011","city":"Paterson","dom":24,"geo_score":0.805,"last":0,"baths":2.0,"units":2,"column_15":null,"rooms":11,"mlsnum":2804474,"sale":0,"beds":5,"id":"a6h4037t0mbu","geo_precision":"range","group":9,"address":"528 SUMMER ST*","original":0,"state":"NJ"},"type":"Feature","geometry":{"type":"Point","coordinates":[-74.163634,40.909311]}},{"properties":{"lotsize":"25X100*","close date":"1/26/2011","city":"Paterson","dom":16,"geo_score":0.721,"last":0,"baths":1.0,"units":2,"column_15":null,"rooms":8,"mlsnum":2804739,"sale":0,"beds":4,"id":"a6h402yrdww7","geo_precision":"range","group":null,"address":"153 E 18TH ST*","original":0,"state":"NJ"},"type":"Feature","geometry":{"type":"Point","coordinates":[-74.150575,40.934797]}},{"properties":{"lotsize":"25X100*","close date":"11/19/2010","city":"Paterson","dom":30,"geo_score":0.805,"last":0,"baths":2.0,"units":2,"column_15":null,"rooms":8,"mlsnum":2805356,"sale":0,"beds":4,"id":"a6h4038p9h7q","geo_precision":"range","group":null,"address":"305 PREAKNESS AVE*","original":0,"state":"NJ"},"type":"Feature","geometry":{"type":"Point","coordinates":[-74.192582,40.920544]}},{"properties":{"lotsize":"25X100*","close date":"5/2/2011","city":"Paterson","dom":167,"geo_score":0.805,"last":0,"baths":4.0,"units":2,"column_15":null,"rooms":10,"mlsnum":2805344,"sale":0,"beds":6,"id":"a6h4030tlu5f","geo_precision":"range","group":null,"address":"175 PACIFIC ST*","original":0,"state":"NJ"},"type":"Feature","geometry":{"type":"Point","coordinates":[-74.167576,40.898631]}},{"properties":{"lotsize":"75X100*","close date":"1/3/2011","city":"Paterson","dom":73,"geo_score":0.805,"last":0,"baths":6.0,"units":4,"column_15":null,"rooms":13,"mlsnum":2805357,"sale":0,"beds":4,"id":"a6h402xdnqhz","geo_precision":"range","group":1,"address":"267-271 KEARNEY ST*","original":0,"state":"NJ"},"type":"Feature","geometry":{"type":"Point","coordinates":[-74.185786,40.925215]}},{"properties":{"lotsize":"25X59*","close date":"12/31/2010","city":"Paterson","dom":95,"geo_score":0.805,"last":0,"baths":3.0,"units":2,"column_15":null,"rooms":11,"mlsnum":2805457,"sale":0,"beds":11,"id":"a6h403ao63xo","geo_precision":"range","group":2,"address":"185 CLINTON ST*","original":0,"state":"NJ"},"type":"Feature","geometry":{"type":"Point","coordinates":[-74.176828,40.928168]}},{"properties":{"lotsize":"37X100*","close date":"12/7/2010","city":"Paterson","dom":16,"geo_score":0.721,"last":0,"baths":3.1,"units":2,"column_15":null,"rooms":16,"mlsnum":2805981,"sale":0,"beds":6,"id":"a6h403bhc1hh","geo_precision":"range","group":null,"address":"484-486 E 29TH ST*","original":0,"state":"NJ"},"type":"Feature","geometry":{"type":"Point","coordinates":[-74.14549,40.918949]}},{"properties":{"lotsize":"25X100*","close date":"11/22/2010","city":"Paterson","dom":21,"geo_score":0.805,"last":0,"baths":3.0,"units":2,"column_15":null,"rooms":12,"mlsnum":2806297,"sale":0,"beds":6,"id":"a6h402yamfqf","geo_precision":"range","group":null,"address":"314 HAMILTON AVE*","original":0,"state":"NJ"},"type":"Feature","geometry":{"type":"Point","coordinates":[-74.158515,40.919941]}},{"properties":{"lotsize":"25X100*","close date":"12/3/2010","city":"Paterson","dom":39,"geo_score":0.805,"last":0,"baths":3.0,"units":2,"column_15":null,"rooms":11,"mlsnum":2806788,"sale":0,"beds":5,"id":"a6h402wd5anb","geo_precision":"range","group":null,"address":"1015 MADISON AVE*","original":0,"state":"NJ"},"type":"Feature","geometry":{"type":"Point","coordinates":[-74.157467,40.906473]}},{"properties":{"lotsize":"50X100*","close date":"2/9/2011","city":"Paterson","dom":50,"geo_score":0.707,"last":0,"baths":3.0,"units":2,"column_15":null,"rooms":13,"mlsnum":2806812,"sale":0,"beds":8,"id":"a6h40322zzrl","geo_precision":"range","group":2,"address":"75-77 N 9TH ST*","original":0,"state":"NJ"},"type":"Feature","geometry":{"type":"Point","coordinates":[-74.180056,40.928676]}},{"properties":{"lotsize":"25X100*","close date":"12/7/2010","city":"Paterson","dom":5,"geo_score":0.805,"last":0,"baths":2.0,"units":2,"column_15":null,"rooms":8,"mlsnum":2806814,"sale":0,"beds":4,"id":"a6h4032oblq7","geo_precision":"range","group":5,"address":"72 KEEN ST*","original":0,"state":"NJ"},"type":"Feature","geometry":{"type":"Point","coordinates":[-74.162107,40.927027]}},{"properties":{"lotsize":null,"close date":"12/7/2010","city":"Paterson","dom":0,"geo_score":0.805,"last":0,"baths":5.0,"units":2,"column_15":null,"rooms":10,"mlsnum":2807329,"sale":0,"beds":6,"id":"a6h4031trnpc","geo_precision":"range","group":5,"address":"138 LAFAYETTE ST*","original":0,"state":"NJ"},"type":"Feature","geometry":{"type":"Point","coordinates":[-74.159922,40.92553]}},{"properties":{"lotsize":"49X47*","close date":"2/8/2011","city":"Paterson","dom":93,"geo_score":0.805,"last":0,"baths":4.0,"units":4,"column_15":null,"rooms":16,"mlsnum":2809815,"sale":0,"beds":7,"id":"a6h402xdgeoz","geo_precision":"range","group":null,"address":"69-71 BELMONT AVE*","original":0,"state":"NJ"},"type":"Feature","geometry":{"type":"Point","coordinates":[-74.179365,40.926411]}},{"properties":{"lotsize":"50X100*","close date":"12/16/2010","city":"Paterson","dom":40,"geo_score":0.721,"last":0,"baths":4.1,"units":4,"column_15":null,"rooms":21,"mlsnum":2810026,"sale":0,"beds":8,"id":"a6h4030owpyh","geo_precision":"range","group":null,"address":"102-104 E 23RD ST*","original":0,"state":"NJ"},"type":"Feature","geometry":{"type":"Point","coordinates":[-74.146123,40.936635]}},{"properties":{"lotsize":"43X100*","close date":"2/10/2011","city":"Paterson","dom":90,"geo_score":0.721,"last":0,"baths":4.0,"units":4,"column_15":null,"rooms":18,"mlsnum":2810152,"sale":0,"beds":10,"id":"a6h402x23xz7","geo_precision":"range","group":6,"address":"58-60 12TH AVE*","original":0,"state":"NJ"},"type":"Feature","geometry":{"type":"Point","coordinates":[-74.162783,40.921482]}},{"properties":{"lotsize":"25X100*","close date":"11/19/2010","city":"Paterson","dom":0,"geo_score":0.805,"last":0,"baths":3.0,"units":3,"column_15":null,"rooms":13,"mlsnum":2811089,"sale":0,"beds":7,"id":"a6h4031h9iab","geo_precision":"range","group":null,"address":"32 ESSEX ST*","original":0,"state":"NJ"},"type":"Feature","geometry":{"type":"Point","coordinates":[-74.165974,40.912741]}},{"properties":{"lotsize":"23 X 72.5*","close date":"12/28/2010","city":"Paterson","dom":28,"geo_score":0.805,"last":0,"baths":2.0,"units":2,"column_15":null,"rooms":8,"mlsnum":2811067,"sale":0,"beds":4,"id":"a6h403b57u8g","geo_precision":"range","group":null,"address":"16-18 PEARL ST*","original":0,"state":"NJ"},"type":"Feature","geometry":{"type":"Point","coordinates":[-74.165769,40.916698]}},{"properties":{"lotsize":"50X50*","close date":"2/7/2011","city":"Paterson","dom":81,"geo_score":0.721,"last":0,"baths":3.0,"units":2,"column_15":null,"rooms":10,"mlsnum":2810817,"sale":0,"beds":4,"id":"a6h402wtke1r","geo_precision":"range","group":null,"address":"371 E 30TH ST*","original":0,"state":"NJ"},"type":"Feature","geometry":{"type":"Point","coordinates":[-74.145534,40.914099]}},{"properties":{"lotsize":"26X50*","close date":"11/18/2010","city":"Paterson","dom":28,"geo_score":0.805,"last":0,"baths":2.0,"units":2,"column_15":null,"rooms":8,"mlsnum":2811691,"sale":0,"beds":4,"id":"a6h402x2vqxh","geo_precision":"range","group":null,"address":"1 WOODRUFF PL*","original":0,"state":"NJ"},"type":"Feature","geometry":{"type":"Point","coordinates":[-74.180429,40.9216]}},{"properties":{"lotsize":"50X100*","close date":"11/30/2010","city":"Paterson","dom":4,"geo_score":0.805,"last":0,"baths":3.0,"units":2,"column_15":null,"rooms":13,"mlsnum":2812031,"sale":0,"beds":8,"id":"a6h403bjr68e","geo_precision":"range","group":6,"address":"122-124 GODWIN AVE*","original":0,"state":"NJ"},"type":"Feature","geometry":{"type":"Point","coordinates":[-74.160892,40.920727]}},{"properties":{"lotsize":"27X100*","close date":"1/24/2011","city":"Paterson","dom":41,"geo_score":0.721,"last":0,"baths":2.0,"units":2,"column_15":null,"rooms":10,"mlsnum":2812511,"sale":0,"beds":4,"id":"a6h4035r1j61","geo_precision":"range","group":4,"address":"518 RIVER ST*","original":0,"state":"NJ"},"type":"Feature","geometry":{"type":"Point","coordinates":[-74.158469,40.931956]}},{"properties":{"lotsize":"25X100*","close date":"12/29/2010","city":"Paterson","dom":47,"geo_score":0.805,"last":0,"baths":2.0,"units":2,"column_15":null,"rooms":8,"mlsnum":2813392,"sale":0,"beds":4,"id":"a6h4039un9g8","geo_precision":"range","group":null,"address":"16 JANE ST*","original":0,"state":"NJ"},"type":"Feature","geometry":{"type":"Point","coordinates":[-74.182381,40.924008]}},{"properties":{"lotsize":"28X97*","close date":"2/4/2011","city":"Paterson","dom":44,"geo_score":0.805,"last":0,"baths":3.0,"units":3,"column_15":null,"rooms":13,"mlsnum":2814078,"sale":0,"beds":6,"id":"a6h402vpdl2m","geo_precision":"range","group":null,"address":"111 LYON ST*","original":0,"state":"NJ"},"type":"Feature","geometry":{"type":"Point","coordinates":[-74.159758,40.928935]}},{"properties":{"lotsize":"25X100*","close date":"2/1/2011","city":"Paterson","dom":53,"geo_score":0.805,"last":0,"baths":4.0,"units":2,"column_15":null,"rooms":11,"mlsnum":2813703,"sale":0,"beds":4,"id":"a6h40310rq82","geo_precision":"range","group":null,"address":"499 MAIN ST*","original":0,"state":"NJ"},"type":"Feature","geometry":{"type":"Point","coordinates":[-74.171019,40.908747]}},{"properties":{"lotsize":"25X100*","close date":"12/2/2010","city":"Paterson","dom":2,"geo_score":0.805,"last":0,"baths":4.0,"units":2,"column_15":null,"rooms":10,"mlsnum":2814042,"sale":0,"beds":6,"id":"a6h402xjw0ru","geo_precision":"range","group":10,"address":"9 PARK ST*","original":0,"state":"NJ"},"type":"Feature","geometry":{"type":"Point","coordinates":[-74.186928,40.947012]}},{"properties":{"lotsize":"37X100*","close date":"2/28/2011","city":"Paterson","dom":10,"geo_score":0.707,"last":0,"baths":3.0,"units":2,"column_15":null,"rooms":10,"mlsnum":2814071,"sale":0,"beds":6,"id":"a6h402wmvlaj","geo_precision":"range","group":2,"address":"105 N 7TH ST*","original":0,"state":"NJ"},"type":"Feature","geometry":{"type":"Point","coordinates":[-74.177877,40.928236]}},{"properties":{"lotsize":"50X102*","close date":"3/30/2011","city":"Paterson","dom":24,"geo_score":0.707,"last":0,"baths":3.0,"units":2,"column_15":null,"rooms":10,"mlsnum":2815281,"sale":0,"beds":4,"id":"a6h40350f7ez","geo_precision":"range","group":null,"address":"409-411 9TH AVE*","original":0,"state":"NJ"},"type":"Feature","geometry":{"type":"Point","coordinates":[-74.145924,40.926208]}},{"properties":{"lotsize":"25X100*","close date":"2/18/2011","city":"Paterson","dom":0,"geo_score":0.721,"last":0,"baths":2.0,"units":2,"column_15":null,"rooms":10,"mlsnum":2815416,"sale":0,"beds":4,"id":"a6h4031kh19v","geo_precision":"range","group":null,"address":"202 17TH AVE*","original":0,"state":"NJ"},"type":"Feature","geometry":{"type":"Point","coordinates":[-74.149353,40.912736]}},{"properties":{"lotsize":"37.5X100*","close date":"5/2/2011","city":"Paterson","dom":532,"geo_score":0.805,"last":0,"baths":2.0,"units":2,"column_15":null,"rooms":10,"mlsnum":2816136,"sale":0,"beds":4,"id":"a6h4035b5ix5","geo_precision":"range","group":5,"address":"74.5 KEEN ST*","original":0,"state":"NJ"},"type":"Feature","geometry":{"type":"Point","coordinates":[-74.164932,40.927123]}},{"properties":{"lotsize":"50X100*","close date":"12/30/2010","city":"Paterson","dom":19,"geo_score":0.61,"last":0,"baths":2.0,"units":2,"column_15":null,"rooms":10,"mlsnum":2816878,"sale":0,"beds":4,"id":"a6h40354ghar","geo_precision":"street","group":null,"address":"40891 ELIZABETH ST*","original":0,"state":"NJ"},"type":"Feature","geometry":{"type":"Point","coordinates":[-74.161624,40.900208]}},{"properties":{"lotsize":"32X100*","close date":"3/22/2011","city":"Paterson","dom":103,"geo_score":0.721,"last":0,"baths":3.0,"units":2,"column_15":null,"rooms":13,"mlsnum":2816893,"sale":0,"beds":7,"id":"a6h402veryaz","geo_precision":"range","group":7,"address":"511-513 E 26TH ST*","original":0,"state":"NJ"},"type":"Feature","geometry":{"type":"Point","coordinates":[-74.147917,40.921056]}},{"properties":{"lotsize":"50X100  +  50X100*","close date":"4/25/2011","city":"Paterson","dom":136,"geo_score":0.721,"last":0,"baths":3.2,"units":2,"column_15":null,"rooms":16,"mlsnum":2817068,"sale":0,"beds":8,"id":"a6h4037r5kwr","geo_precision":"range","group":null,"address":"772 E 24TH ST*","original":0,"state":"NJ"},"type":"Feature","geometry":{"type":"Point","coordinates":[-74.151263,40.914166]}},{"properties":{"lotsize":"25X123*","close date":"5/6/2011","city":"Paterson","dom":1,"geo_score":0.805,"last":0,"baths":4.0,"units":3,"column_15":null,"rooms":14,"mlsnum":2817210,"sale":0,"beds":6,"id":"a6h40370f1mn","geo_precision":"range","group":null,"address":"125 MARION ST*","original":0,"state":"NJ"},"type":"Feature","geometry":{"type":"Point","coordinates":[-74.181053,40.922319]}},{"properties":{"lotsize":"48X100*","close date":"5/3/2011","city":"Paterson","dom":39,"geo_score":0.721,"last":0,"baths":3.1,"units":2,"column_15":null,"rooms":12,"mlsnum":2822054,"sale":0,"beds":6,"id":"a6h402xuhlct","geo_precision":"range","group":null,"address":"606 E 27TH ST*","original":0,"state":"NJ"},"type":"Feature","geometry":{"type":"Point","coordinates":[-74.147822,40.917026]}},{"properties":{"lotsize":"25X77*","close date":"1/7/2011","city":"Paterson","dom":19,"geo_score":0.805,"last":0,"baths":3.0,"units":2,"column_15":null,"rooms":12,"mlsnum":2817740,"sale":0,"beds":8,"id":"a6h402vw48l6","geo_precision":"range","group":5,"address":"88 MERCER ST*","original":0,"state":"NJ"},"type":"Feature","geometry":{"type":"Point","coordinates":[-74.160541,40.925966]}},{"properties":{"lotsize":"37X100*","close date":"1/6/2011","city":"Paterson","dom":16,"geo_score":0.721,"last":0,"baths":2.0,"units":2,"column_15":null,"rooms":12,"mlsnum":2818359,"sale":0,"beds":4,"id":"a6h4033gx9ua","geo_precision":"range","group":null,"address":"442-444 E 31ST ST*","original":0,"state":"NJ"},"type":"Feature","geometry":{"type":"Point","coordinates":[-74.145327,40.910681]}},{"properties":{"lotsize":"24X100*","close date":"3/9/2011","city":"Paterson","dom":69,"geo_score":0.805,"last":0,"baths":3.0,"units":3,"column_15":null,"rooms":15,"mlsnum":2818696,"sale":0,"beds":6,"id":"a6h403156zke","geo_precision":"range","group":null,"address":"355 STRAIGHT ST*","original":0,"state":"NJ"},"type":"Feature","geometry":{"type":"Point","coordinates":[-74.166322,40.912026]}},{"properties":{"lotsize":"25X75*","close date":"3/10/2011","city":"Paterson","dom":26,"geo_score":0.805,"last":0,"baths":3.0,"units":3,"column_15":null,"rooms":12,"mlsnum":2823250,"sale":0,"beds":6,"id":"a6h403987cci","geo_precision":"range","group":null,"address":"71 MILL ST*","original":0,"state":"NJ"},"type":"Feature","geometry":{"type":"Point","coordinates":[-74.1761,40.913638]}},{"properties":{"lotsize":"37.5X100","close date":"4/1/2011","city":"Paterson","dom":108,"geo_score":0.721,"last":0,"baths":3.0,"units":3,"column_15":null,"rooms":19,"mlsnum":2819069,"sale":0,"beds":8,"id":"a6h4039flqxy","geo_precision":"range","group":null,"address":"11 18TH AVE","original":0,"state":"NJ"},"type":"Feature","geometry":{"type":"Point","coordinates":[-74.155183,40.91199]}},{"properties":{"lotsize":"47X98*","close date":"4/6/2011","city":"Paterson","dom":124,"geo_score":0.721,"last":0,"baths":1.0,"units":2,"column_15":null,"rooms":10,"mlsnum":2819104,"sale":0,"beds":3,"id":"a6h4036sxwsr","geo_precision":"range","group":null,"address":"743-745 14TH AVE*","original":0,"state":"NJ"},"type":"Feature","geometry":{"type":"Point","coordinates":[-74.142926,40.916017]}},{"properties":{"lotsize":"25X75*","close date":"2/1/2011","city":"Paterson","dom":10,"geo_score":0.805,"last":0,"baths":2.0,"units":2,"column_15":null,"rooms":8,"mlsnum":2819169,"sale":0,"beds":4,"id":"a6h4037bx8t7","geo_precision":"range","group":4,"address":"43 BUTLER ST*","original":0,"state":"NJ"},"type":"Feature","geometry":{"type":"Point","coordinates":[-74.155948,40.932998]}},{"properties":{"lotsize":"25X83*","close date":"3/28/2011","city":"Paterson","dom":70,"geo_score":0.721,"last":0,"baths":4.0,"units":3,"column_15":null,"rooms":14,"mlsnum":2819815,"sale":0,"beds":7,"id":"a6h4030u2rds","geo_precision":"range","group":8,"address":"24 17TH AVE*","original":0,"state":"NJ"},"type":"Feature","geometry":{"type":"Point","coordinates":[-74.157529,40.913729]}},{"properties":{"lotsize":"50 X 75*","close date":"4/15/2011","city":"Paterson","dom":11,"geo_score":0.707,"last":0,"baths":2.1,"units":2,"column_15":null,"rooms":10,"mlsnum":2819749,"sale":0,"beds":3,"id":"a6h402vamlvt","geo_precision":"range","group":2,"address":"126-128 N 9TH ST*","original":0,"state":"NJ"},"type":"Feature","geometry":{"type":"Point","coordinates":[-74.178273,40.929779]}},{"properties":{"lotsize":"25X100*","close date":"4/11/2011","city":"Paterson","dom":104,"geo_score":0.805,"last":0,"baths":3.0,"units":3,"column_15":null,"rooms":13,"mlsnum":2819793,"sale":0,"beds":6,"id":"a6h4032am8qg","geo_precision":"range","group":6,"address":"76 GODWIN AVE*","original":0,"state":"NJ"},"type":"Feature","geometry":{"type":"Point","coordinates":[-74.162795,40.920799]}},{"properties":{"lotsize":"50X100*","close date":"1/7/2011","city":"Paterson","dom":7,"geo_score":0.805,"last":0,"baths":2.0,"units":2,"column_15":null,"rooms":10,"mlsnum":2820270,"sale":0,"beds":4,"id":"a6h4031oslnq","geo_precision":"range","group":10,"address":"313-315 PACIFIC ST*","original":0,"state":"NJ"},"type":"Feature","geometry":{"type":"Point","coordinates":[-74.162659,40.895842]}},{"properties":{"lotsize":"75X150*","close date":"5/2/2011","city":"Paterson","dom":104,"geo_score":0.805,"last":0,"baths":3.0,"units":2,"column_15":null,"rooms":9,"mlsnum":2820860,"sale":0,"beds":5,"id":"a6h40395q5xr","geo_precision":"range","group":null,"address":"118-122 VERNON AVE*","original":0,"state":"NJ"},"type":"Feature","geometry":{"type":"Point","coordinates":[-74.14438,40.899211]}},{"properties":{"lotsize":"50X100*","close date":"3/15/2011","city":"Paterson","dom":45,"geo_score":0.805,"last":0,"baths":2.0,"units":2,"column_15":null,"rooms":10,"mlsnum":2821194,"sale":0,"beds":4,"id":"a6h4032hhtip","geo_precision":"range","group":3,"address":"129-131 E HOLSMAN ST*","original":0,"state":"NJ"},"type":"Feature","geometry":{"type":"Point","coordinates":[-74.16674,40.928085]}},{"properties":{"lotsize":"25X90*","close date":"4/26/2011","city":"Paterson","dom":21,"geo_score":0.721,"last":0,"baths":2.0,"units":2,"column_15":null,"rooms":10,"mlsnum":2821557,"sale":0,"beds":4,"id":"a6h403a7pagy","geo_precision":"range","group":8,"address":"44 17TH AVE*","original":0,"state":"NJ"},"type":"Feature","geometry":{"type":"Point","coordinates":[-74.15665,40.913601]}},{"properties":{"lotsize":"25X100*","close date":"4/12/2011","city":"Paterson","dom":41,"geo_score":0.805,"last":0,"baths":2.0,"units":2,"column_15":null,"rooms":11,"mlsnum":2821800,"sale":0,"beds":7,"id":"a6h403amm0uw","geo_precision":"range","group":3,"address":"44 WATSON ST*","original":0,"state":"NJ"},"type":"Feature","geometry":{"type":"Point","coordinates":[-74.167259,40.927241]}},{"properties":{"lotsize":"25X75*","close date":"2/18/2011","city":"Paterson","dom":13,"geo_score":0.805,"last":0,"baths":4.0,"units":3,"column_15":null,"rooms":15,"mlsnum":2821794,"sale":0,"beds":9,"id":"a6h402xngr02","geo_precision":"range","group":1,"address":"147 ALBION AVE*","original":0,"state":"NJ"},"type":"Feature","geometry":{"type":"Point","coordinates":[-74.187186,40.923308]}},{"properties":{"lotsize":"25 X 123*","close date":"4/18/2011","city":"Paterson","dom":113,"geo_score":0.721,"last":0,"baths":2.1,"units":2,"column_15":null,"rooms":10,"mlsnum":2822109,"sale":0,"beds":4,"id":"a6h4033nxdqy","geo_precision":"range","group":null,"address":"293 RIVER ST*","original":0,"state":"NJ"},"type":"Feature","geometry":{"type":"Point","coordinates":[-74.164643,40.926739]}},{"properties":{"lotsize":"25X100*","close date":"3/24/2011","city":"Paterson","dom":82,"geo_score":0.721,"last":0,"baths":2.0,"units":2,"column_15":null,"rooms":8,"mlsnum":2822420,"sale":0,"beds":4,"id":"a6h40361gcet","geo_precision":"range","group":null,"address":"269 E 23RD ST*","original":0,"state":"NJ"},"type":"Feature","geometry":{"type":"Point","coordinates":[-74.147866,40.930905]}},{"properties":{"lotsize":"50X110*","close date":"5/3/2011","city":"Paterson","dom":1,"geo_score":0.611,"last":0,"baths":6.0,"units":4,"column_15":null,"rooms":28,"mlsnum":2822627,"sale":0,"beds":18,"id":"a6h402vhd02g","geo_precision":"street","group":null,"address":"575-577 BROADWAY*","original":0,"state":"NJ"},"type":"Feature","geometry":{"type":"Point","coordinates":[-74.155628,40.918423]}},{"properties":{"lotsize":"25X200*","close date":"4/7/2011","city":"Paterson","dom":65,"geo_score":0.805,"last":0,"baths":3.0,"units":3,"column_15":null,"rooms":11,"mlsnum":2822632,"sale":0,"beds":5,"id":"a6h4038jrg7r","geo_precision":"range","group":null,"address":"74 FRONT ST*","original":0,"state":"NJ"},"type":"Feature","geometry":{"type":"Point","coordinates":[-74.183756,40.914345]}},{"properties":{"lotsize":"25X100*","close date":"4/19/2011","city":"Paterson","dom":11,"geo_score":0.805,"last":0,"baths":2.0,"units":2,"column_15":null,"rooms":4,"mlsnum":2822652,"sale":0,"beds":2,"id":"a6h403372lpv","geo_precision":"range","group":null,"address":"35 BELLE AVE*","original":0,"state":"NJ"},"type":"Feature","geometry":{"type":"Point","coordinates":[-74.169354,40.931566]}},{"properties":{"lotsize":"25X100*","close date":"3/18/2011","city":"Paterson","dom":25,"geo_score":0.805,"last":0,"baths":3.0,"units":3,"column_15":null,"rooms":11,"mlsnum":2822772,"sale":0,"beds":5,"id":"a6h402y89t1n","geo_precision":"range","group":null,"address":"172 JACKSON ST*","original":0,"state":"NJ"},"type":"Feature","geometry":{"type":"Point","coordinates":[-74.169259,40.90695]}},{"properties":{"lotsize":"25X100*","close date":"5/3/2011","city":"Paterson","dom":79,"geo_score":0.805,"last":0,"baths":3.0,"units":3,"column_15":null,"rooms":15,"mlsnum":2822818,"sale":0,"beds":6,"id":"a6h402w3ooru","geo_precision":"range","group":10,"address":"242 SUSSEX ST*","original":0,"state":"NJ"},"type":"Feature","geometry":{"type":"Point","coordinates":[-74.165585,40.896789]}},{"properties":{"lotsize":"37X99*","close date":"4/15/2011","city":"Paterson","dom":95,"geo_score":0.805,"last":0,"baths":3.0,"units":3,"column_15":null,"rooms":14,"mlsnum":2823122,"sale":0,"beds":7,"id":"a6h40369p9ux","geo_precision":"range","group":null,"address":"240-242 SUMMER ST*","original":0,"state":"NJ"},"type":"Feature","geometry":{"type":"Point","coordinates":[-74.163604,40.919312]}},{"properties":{"lotsize":"37X56*","close date":"3/16/2011","city":"Paterson","dom":52,"geo_score":0.805,"last":0,"baths":4.1,"units":2,"column_15":null,"rooms":11,"mlsnum":2823172,"sale":0,"beds":4,"id":"a6h4038keh67","geo_precision":"range","group":6,"address":"256-258 GOVERNOR ST*","original":0,"state":"NJ"},"type":"Feature","geometry":{"type":"Point","coordinates":[-74.158244,40.922033]}},{"properties":{"lotsize":"34X100*","close date":"3/1/2011","city":"Paterson","dom":7,"geo_score":0.805,"last":0,"baths":3.0,"units":3,"column_15":null,"rooms":12,"mlsnum":2823303,"sale":0,"beds":8,"id":"a6h402y95ucj","geo_precision":"range","group":null,"address":"402 VAN HOUTEN ST*","original":0,"state":"NJ"},"type":"Feature","geometry":{"type":"Point","coordinates":[-74.158186,40.917789]}},{"properties":{"lotsize":"25X100*","close date":"3/29/2011","city":"Paterson","dom":63,"geo_score":0.721,"last":0,"baths":3.0,"units":3,"column_15":null,"rooms":15,"mlsnum":2823466,"sale":0,"beds":6,"id":"a6h403ajuaz5","geo_precision":"range","group":null,"address":"249 21ST AVE*","original":0,"state":"NJ"},"type":"Feature","geometry":{"type":"Point","coordinates":[-74.163266,40.90761]}},{"properties":{"lotsize":"25X100*","close date":"3/4/2011","city":"Paterson","dom":24,"geo_score":0.707,"last":0,"baths":2.0,"units":2,"column_15":null,"rooms":10,"mlsnum":2823619,"sale":0,"beds":5,"id":"a6h4032ugx0x","geo_precision":"range","group":null,"address":"161 N 3RD ST*","original":0,"state":"NJ"},"type":"Feature","geometry":{"type":"Point","coordinates":[-74.172002,40.928373]}},{"properties":{"lotsize":"25X100*","close date":"2/18/2011","city":"Paterson","dom":28,"geo_score":0.805,"last":0,"baths":3.1,"units":3,"column_15":null,"rooms":11,"mlsnum":2824005,"sale":0,"beds":5,"id":"a6h4036ddmbh","geo_precision":"range","group":4,"address":"87 BUTLER ST*","original":0,"state":"NJ"},"type":"Feature","geometry":{"type":"Point","coordinates":[-74.157049,40.931908]}},{"properties":{"lotsize":"25X100*","close date":"2/28/2011","city":"Paterson","dom":21,"geo_score":0.707,"last":0,"baths":2.0,"units":2,"column_15":null,"rooms":7,"mlsnum":2824033,"sale":0,"beds":2,"id":"a6h402xxitkv","geo_precision":"range","group":null,"address":"61 N 1ST ST*","original":0,"state":"NJ"},"type":"Feature","geometry":{"type":"Point","coordinates":[-74.171018,40.926472]}},{"properties":{"lotsize":"25X100*","close date":"3/14/2011","city":"Paterson","dom":50,"geo_score":0.721,"last":0,"baths":4.1,"units":2,"column_15":null,"rooms":8,"mlsnum":2824127,"sale":0,"beds":6,"id":"a6h4036pm51j","geo_precision":"range","group":6,"address":"132 12TH AVE*","original":0,"state":"NJ"},"type":"Feature","geometry":{"type":"Point","coordinates":[-74.159999,40.921368]}},{"properties":{"lotsize":"36X71*","close date":"4/26/2011","city":"Paterson","dom":24,"geo_score":0.805,"last":0,"baths":2.0,"units":2,"column_15":null,"rooms":10,"mlsnum":2824300,"sale":0,"beds":4,"id":"a6h4037h1tjv","geo_precision":"range","group":null,"address":"178-180 MANCHESTER AVE*","original":0,"state":"NJ"},"type":"Feature","geometry":{"type":"Point","coordinates":[-74.19112,40.922458]}},{"properties":{"lotsize":"25X56*","close date":"2/28/2011","city":"Paterson","dom":28,"geo_score":0.805,"last":0,"baths":4.0,"units":4,"column_15":null,"rooms":20,"mlsnum":2824924,"sale":0,"beds":12,"id":"a6h402wyeyfo","geo_precision":"range","group":null,"address":"142 MILL ST*","original":0,"state":"NJ"},"type":"Feature","geometry":{"type":"Point","coordinates":[-74.174691,40.9113]}},{"properties":{"lotsize":"26X57*","close date":"2/28/2011","city":"Paterson","dom":29,"geo_score":0.721,"last":0,"baths":2.0,"units":2,"column_15":null,"rooms":10,"mlsnum":2825813,"sale":0,"beds":4,"id":"a6h4036md0fu","geo_precision":"range","group":8,"address":"720 E 18TH ST*","original":0,"state":"NJ"},"type":"Feature","geometry":{"type":"Point","coordinates":[-74.156675,40.915057]}},{"properties":{"lotsize":"25X102*","close date":"2/23/2011","city":"Paterson","dom":13,"geo_score":0.721,"last":0,"baths":2.0,"units":2,"column_15":null,"rooms":10,"mlsnum":2825921,"sale":0,"beds":4,"id":"a6h4036go5pk","geo_precision":"range","group":null,"address":"546 E 18TH ST*","original":0,"state":"NJ"},"type":"Feature","geometry":{"type":"Point","coordinates":[-74.154622,40.921412]}},{"properties":{"lotsize":"50X100*","close date":"3/2/2011","city":"Paterson","dom":25,"geo_score":0.805,"last":0,"baths":2.0,"units":2,"column_15":null,"rooms":8,"mlsnum":2826342,"sale":0,"beds":4,"id":"a6h4039567nz","geo_precision":"range","group":1,"address":"25-27 DOREMUS ST*","original":0,"state":"NJ"},"type":"Feature","geometry":{"type":"Point","coordinates":[-74.186406,40.924963]}},{"properties":{"lotsize":"40 X 94*","close date":"4/19/2011","city":"Paterson","dom":5,"geo_score":0.805,"last":0,"baths":2.0,"units":2,"column_15":null,"rooms":8,"mlsnum":2838800,"sale":0,"beds":4,"id":"a6h4034g4qdb","geo_precision":"range","group":null,"address":"309-311 W BROADWAY*","original":0,"state":"NJ"},"type":"Feature","geometry":{"type":"Point","coordinates":[-74.18326,40.92597]}},{"properties":{"lotsize":"25X100*","close date":"3/11/2011","city":"Paterson","dom":24,"geo_score":0.805,"last":0,"baths":2.0,"units":2,"column_15":null,"rooms":8,"mlsnum":2827060,"sale":0,"beds":4,"id":"a6h402z0mzuc","geo_precision":"range","group":null,"address":"298 ELLISON ST*","original":0,"state":"NJ"},"type":"Feature","geometry":{"type":"Point","coordinates":[-74.1645,40.917325]}},{"properties":{"lotsize":"50x100","close date":"4/25/2011","city":"Paterson","dom":49,"geo_score":0.805,"last":0,"baths":3.0,"units":3,"column_15":null,"rooms":15,"mlsnum":2827231,"sale":0,"beds":6,"id":"a6h4039hz3kq","geo_precision":"range","group":1,"address":"177-179 KEARNEY ST","original":0,"state":"NJ"},"type":"Feature","geometry":{"type":"Point","coordinates":[-74.183591,40.923466]}},{"properties":{"lotsize":"25X100*","close date":"5/1/2011","city":"Paterson","dom":48,"geo_score":0.805,"last":0,"baths":3.0,"units":3,"column_15":null,"rooms":18,"mlsnum":2827387,"sale":0,"beds":12,"id":"a6h403a9icee","geo_precision":"range","group":5,"address":"69 GRAHAM AVE*","original":0,"state":"NJ"},"type":"Feature","geometry":{"type":"Point","coordinates":[-74.189029,40.971129]}},{"properties":{"lotsize":"50X100*","close date":"4/25/2011","city":"Paterson","dom":91,"geo_score":0.805,"last":0,"baths":3.0,"units":3,"column_15":null,"rooms":15,"mlsnum":2827643,"sale":0,"beds":6,"id":"a6h4030ngo0d","geo_precision":"range","group":11,"address":"193-195 KNICKERBOCKER AVE*","original":0,"state":"NJ"},"type":"Feature","geometry":{"type":"Point","coordinates":[-74.153477,40.890667]}},{"properties":{"lotsize":"25X100*","close date":"2/1/2011","city":"Paterson","dom":4,"geo_score":0.805,"last":0,"baths":4.0,"units":2,"column_15":null,"rooms":10,"mlsnum":2829358,"sale":0,"beds":4,"id":"a6h4034x9ufk","geo_precision":"range","group":null,"address":"22 LEWIS ST*","original":0,"state":"NJ"},"type":"Feature","geometry":{"type":"Point","coordinates":[-74.158483,40.910775]}},{"properties":{"lotsize":"37X98*","close date":"2/28/2011","city":"Paterson","dom":29,"geo_score":0.805,"last":0,"baths":2.0,"units":2,"column_15":null,"rooms":10,"mlsnum":2828918,"sale":0,"beds":6,"id":"a6h4039iz6lh","geo_precision":"range","group":5,"address":"87-89 MERCER ST*","original":0,"state":"NJ"},"type":"Feature","geometry":{"type":"Point","coordinates":[-74.160535,40.926034]}},{"properties":{"lotsize":"25X93*","close date":"4/28/2011","city":"Paterson","dom":20,"geo_score":0.805,"last":0,"baths":2.0,"units":2,"column_15":null,"rooms":10,"mlsnum":2829163,"sale":0,"beds":3,"id":"a6h40367njkm","geo_precision":"range","group":null,"address":"150 E MAIN ST*","original":0,"state":"NJ"},"type":"Feature","geometry":{"type":"Point","coordinates":[-74.168531,40.93111]}},{"properties":{"lotsize":"25X100*","close date":"3/17/2011","city":"Paterson","dom":49,"geo_score":0.805,"last":0,"baths":3.0,"units":2,"column_15":null,"rooms":8,"mlsnum":2829290,"sale":0,"beds":3,"id":"a6h4033lpu3t","geo_precision":"range","group":6,"address":"121 GODWIN AVE*","original":0,"state":"NJ"},"type":"Feature","geometry":{"type":"Point","coordinates":[-74.160931,40.920729]}},{"properties":{"lotsize":"25X75*","close date":"2/2/2011","city":"Paterson","dom":4,"geo_score":0.805,"last":0,"baths":2.0,"units":2,"column_15":null,"rooms":11,"mlsnum":2829368,"sale":0,"beds":5,"id":"a6h4036z3kq4","geo_precision":"range","group":9,"address":"19 CHESTNUT ST*","original":0,"state":"NJ"},"type":"Feature","geometry":{"type":"Point","coordinates":[-74.162726,40.910041]}},{"properties":{"lotsize":"45X100*","close date":"3/31/2011","city":"Paterson","dom":32,"geo_score":0.805,"last":0,"baths":3.0,"units":2,"column_15":null,"rooms":10,"mlsnum":2829432,"sale":0,"beds":4,"id":"a6h402xbspjr","geo_precision":"range","group":null,"address":"176-180 LAWRENCE PL*","original":0,"state":"NJ"},"type":"Feature","geometry":{"type":"Point","coordinates":[-74.155164,40.923927]}},{"properties":{"lotsize":"25 X 100*","close date":"4/11/2011","city":"Paterson","dom":4,"geo_score":0.805,"last":0,"baths":3.0,"units":2,"column_15":null,"rooms":10,"mlsnum":2830250,"sale":0,"beds":5,"id":"a6h402vnpixk","geo_precision":"range","group":null,"address":"60 ALBION AVE*","original":0,"state":"NJ"},"type":"Feature","geometry":{"type":"Point","coordinates":[-74.184459,40.921]}},{"properties":{"lotsize":"50X85*","close date":"4/8/2011","city":"Paterson","dom":6,"geo_score":0.721,"last":0,"baths":2.0,"units":2,"column_15":null,"rooms":9,"mlsnum":2830802,"sale":0,"beds":5,"id":"a6h4030d049m","geo_precision":"range","group":8,"address":"788 E 19TH ST*","original":0,"state":"NJ"},"type":"Feature","geometry":{"type":"Point","coordinates":[-74.156101,40.914016]}},{"properties":{"lotsize":"25X100*","close date":"5/9/2011","city":"Paterson","dom":16,"geo_score":0.805,"last":0,"baths":2.0,"units":2,"column_15":null,"rooms":10,"mlsnum":2831430,"sale":0,"beds":6,"id":"a6h402y64lww","geo_precision":"range","group":9,"address":"118 MADISON ST*","original":0,"state":"NJ"},"type":"Feature","geometry":{"type":"Point","coordinates":[-74.16542,40.910735]}},{"properties":{"lotsize":"25X100*","close date":"4/29/2011","city":"Paterson","dom":59,"geo_score":0.707,"last":0,"baths":2.0,"units":2,"column_15":null,"rooms":10,"mlsnum":2831835,"sale":0,"beds":4,"id":"a6h4037bygt8","geo_precision":"range","group":2,"address":"87 N 7TH ST*","original":0,"state":"NJ"},"type":"Feature","geometry":{"type":"Point","coordinates":[-74.166853,40.935389]}},{"properties":{"lotsize":"25X100*","close date":"4/11/2011","city":"Paterson","dom":36,"geo_score":0.805,"last":0,"baths":2.0,"units":2,"column_15":null,"rooms":10,"mlsnum":2833065,"sale":0,"beds":6,"id":"a6h4034jw4ct","geo_precision":"range","group":1,"address":"171 KEARNEY ST*","original":0,"state":"NJ"},"type":"Feature","geometry":{"type":"Point","coordinates":[-74.183469,40.923326]}},{"properties":{"lotsize":"50X92*","close date":"3/23/2011","city":"Paterson","dom":16,"geo_score":0.805,"last":0,"baths":2.0,"units":2,"column_15":null,"rooms":9,"mlsnum":2837549,"sale":0,"beds":4,"id":"a6h402ve136b","geo_precision":"range","group":null,"address":"96-98 ROSSITER AVE*","original":0,"state":"NJ"},"type":"Feature","geometry":{"type":"Point","coordinates":[-74.191887,40.917605]}},{"properties":{"lotsize":"25X100*","close date":"4/14/2011","city":"Paterson","dom":7,"geo_score":0.721,"last":0,"baths":3.0,"units":2,"column_15":null,"rooms":11,"mlsnum":2842959,"sale":0,"beds":5,"id":"a6h4033m8now","geo_precision":"range","group":null,"address":"931 E 19TH ST*","original":0,"state":"NJ"},"type":"Feature","geometry":{"type":"Point","coordinates":[-74.157577,40.909278]}},{"properties":{"lotsize":"25&amp;X82*","close date":"4/27/2011","city":"Paterson","dom":5,"geo_score":0.721,"last":0,"baths":1.0,"units":2,"column_15":null,"rooms":6,"mlsnum":2847007,"sale":0,"beds":3,"id":"a6h4037oo54v","geo_precision":"range","group":7,"address":"574 E 24TH ST*","original":0,"state":"NJ"},"type":"Feature","geometry":{"type":"Point","coordinates":[-74.149858,40.92072]}}],"is_temporal":false,"author":{"url":"","metadata":"","contact_name":"","contact_address":"","source":"","contact_phone":""},"source":"","pagination":{"sort":null,"start":0,"total":186,"limit":1000000},"state":"complete","tags":"","published":"2014-08-13T06:06:37-04:00","id":116108}