{"type":"FeatureCollection","data_type":"Dataset","url_type":null,"permissions":[{"permissions":{"download":true,"view":true},"group_id":"everyone"}],"classification":null,"title":"paterson","count":186,"stream_id":116114,"contributor":{"url":"http://geocommons.com/users/26774","name":"jpacailler@rernj.com"},"data_attributes":null,"calculation_params":null,"icon_link":null,"link":"http://geocommons.com/overlays/116114.json","extent":[-74.2312,40.8904,-74.1415,40.9711],"geometry_types":["point"],"unique_name":null,"name":"paterson","feature_count":186,"description":"","next_feature":null,"is_raster":false,"short_classification":"Y","stats":{"dom":{"max":696,"mean":117.677419354839,"variance":18249.3332170881,"stdev":135.090092964244,"min":0,"median":72},"last":{"max":420000,"mean":147609.005376344,"variance":8806995195.64861,"stdev":93845.5923080494,"min":13900,"median":129000},"baths":{"max":6.0,"mean":2.72150537634409,"variance":0.89639988375472,"stdev":0.946783968894024,"min":1.0,"median":3.0},"units":{"max":4,"mean":2.31720430107527,"variance":0.33667538506248,"stdev":0.580237352350295,"min":2,"median":2},"rooms":{"max":28,"mean":11.258064516129,"variance":12.3654751525719,"stdev":3.51645775640372,"min":0,"median":10},"mlsnum":{"max":2847007,"mean":2790980.53225806,"variance":1535436648.40166,"stdev":39184.6481214475,"min":2590334,"median":2803244},"sale":{"max":365000,"mean":131838.317204301,"variance":6680673859.14749,"stdev":81735.3892701778,"min":12000,"median":120000},"beds":{"max":18,"mean":5.56989247311828,"variance":5.07887242080791,"stdev":2.25363537885078,"min":0,"median":5},"group":{"max":11,"mean":5.23943661971831,"variance":9.84185110663984,"stdev":3.13717247001816,"min":1,"median":5},"original":{"max":499900,"mean":166671.403225806,"variance":10285086723.5392,"stdev":101415.416596981,"min":14900,"median":150000}},"features":[{"properties":{"lotsize":"25X100","close date":"3/3/2011","city":"Paterson","dom":562,"geo_score":0.805,"last":59000,"baths":2.1,"units":2,"column_15":null,"rooms":10,"mlsnum":2590334,"sale":75000,"beds":4,"id":"a6ojiriowyt8","geo_precision":"range","group":null,"address":"119 PUTNAM STREET","original":299000,"state":"NJ"},"type":"Feature","geometry":{"type":"Point","coordinates":[-74.158688,40.928185]}},{"properties":{"lotsize":"50x100","close date":"1/24/2011","city":"Paterson","dom":15,"geo_score":0.721,"last":215000,"baths":2.0,"units":2,"column_15":null,"rooms":11,"mlsnum":2669331,"sale":198000,"beds":5,"id":"a6ojirkfq1ed","geo_precision":"range","group":null,"address":"104 East 16th Street","original":215000,"state":"NJ"},"type":"Feature","geometry":{"type":"Point","coordinates":[-74.152714,40.934403]}},{"properties":{"lotsize":"25X100*","close date":"12/21/2010","city":"Paterson","dom":363,"geo_score":0.805,"last":199900,"baths":3.0,"units":2,"column_15":null,"rooms":10,"mlsnum":2676558,"sale":160000,"beds":6,"id":"a6ojirnbeb3q","geo_precision":"range","group":10,"address":"101 BLOOMFIELD AVE*","original":279900,"state":"NJ"},"type":"Feature","geometry":{"type":"Point","coordinates":[-74.162608,40.896895]}},{"properties":{"lotsize":"25X100*","close date":"5/10/2011","city":"Paterson","dom":696,"geo_score":0.805,"last":239000,"baths":4.0,"units":2,"column_15":null,"rooms":16,"mlsnum":2677518,"sale":150000,"beds":6,"id":"a6ojirl55j51","geo_precision":"range","group":11,"address":"127 KNICKERBOCKER AVE*","original":239000,"state":"NJ"},"type":"Feature","geometry":{"type":"Point","coordinates":[-74.154611,40.8904]}},{"properties":{"lotsize":"25X110*","close date":"4/29/2011","city":"Paterson","dom":690,"geo_score":0.805,"last":120000,"baths":3.0,"units":3,"column_15":null,"rooms":16,"mlsnum":2683363,"sale":105000,"beds":8,"id":"a6ojirbyi0nl","geo_precision":"range","group":null,"address":"356 HAMILTON AVE*","original":189900,"state":"NJ"},"type":"Feature","geometry":{"type":"Point","coordinates":[-74.156993,40.919872]}},{"properties":{"lotsize":"25X50*","close date":"12/14/2010","city":"Paterson","dom":524,"geo_score":0.805,"last":60000,"baths":2.0,"units":2,"column_15":null,"rooms":8,"mlsnum":2693356,"sale":60000,"beds":4,"id":"a6ojirjqdpbq","geo_precision":"range","group":4,"address":"2 ANN PL*","original":150000,"state":"NJ"},"type":"Feature","geometry":{"type":"Point","coordinates":[-74.156177,40.93235]}},{"properties":{"lotsize":"32X100*","close date":"1/21/2011","city":"Paterson","dom":456,"geo_score":0.721,"last":200000,"baths":4.0,"units":3,"column_15":null,"rooms":17,"mlsnum":2699706,"sale":200000,"beds":9,"id":"a6ojirimchbz","geo_precision":"range","group":null,"address":"420-422 E 31ST ST*","original":249000,"state":"NJ"},"type":"Feature","geometry":{"type":"Point","coordinates":[-74.145139,40.911493]}},{"properties":{"lotsize":"25 X 100","close date":"4/4/2011","city":"Paterson","dom":511,"geo_score":0.805,"last":155900,"baths":3.0,"units":2,"column_15":null,"rooms":6,"mlsnum":2706566,"sale":154000,"beds":4,"id":"a6ojiricpupx","geo_precision":"range","group":null,"address":"356 Dakota St.","original":199900,"state":"NJ"},"type":"Feature","geometry":{"type":"Point","coordinates":[-74.161965,40.89274]}},{"properties":{"lotsize":"25X100*","close date":"2/4/2011","city":"Paterson","dom":398,"geo_score":0.805,"last":150000,"baths":2.0,"units":2,"column_15":null,"rooms":8,"mlsnum":2712788,"sale":71000,"beds":4,"id":"a6ojira95jxk","geo_precision":"range","group":null,"address":"38 MANCHESTER AVE*","original":170000,"state":"NJ"},"type":"Feature","geometry":{"type":"Point","coordinates":[-74.186519,40.918553]}},{"properties":{"lotsize":"25X100*","close date":"12/23/2010","city":"Paterson","dom":434,"geo_score":0.805,"last":179900,"baths":3.0,"units":2,"column_15":null,"rooms":12,"mlsnum":2715229,"sale":175000,"beds":7,"id":"a6ojiri3zimo","geo_precision":"range","group":1,"address":"204 KEARNEY ST*","original":214900,"state":"NJ"},"type":"Feature","geometry":{"type":"Point","coordinates":[-74.184164,40.92412]}},{"properties":{"lotsize":"50x75","close date":"3/11/2011","city":"Paterson","dom":226,"geo_score":0.805,"last":210000,"baths":4.0,"units":3,"column_15":null,"rooms":14,"mlsnum":2717890,"sale":210000,"beds":6,"id":"a6ojircyltjv","geo_precision":"range","group":2,"address":"235 TEMPLE ST","original":239900,"state":"NJ"},"type":"Feature","geometry":{"type":"Point","coordinates":[-74.180051,40.929148]}},{"properties":{"lotsize":"37X113*","close date":"12/15/2010","city":"Paterson","dom":0,"geo_score":0.805,"last":219000,"baths":2.0,"units":2,"column_15":null,"rooms":10,"mlsnum":2727317,"sale":195000,"beds":4,"id":"a6ojiro12i4c","geo_precision":"range","group":11,"address":"121-123 GENESSEE AVE*","original":229000,"state":"NJ"},"type":"Feature","geometry":{"type":"Point","coordinates":[-74.154588,40.891134]}},{"properties":{"lotsize":"25X71*","close date":"2/4/2011","city":"Paterson","dom":283,"geo_score":0.721,"last":175000,"baths":2.0,"units":2,"column_15":null,"rooms":8,"mlsnum":2728273,"sale":120000,"beds":4,"id":"a6ojiro61n9c","geo_precision":"range","group":8,"address":"23 17TH AVE*","original":175000,"state":"NJ"},"type":"Feature","geometry":{"type":"Point","coordinates":[-74.157707,40.913772]}},{"properties":{"lotsize":"35x100","close date":"2/1/2011","city":"Paterson","dom":322,"geo_score":0.707,"last":239000,"baths":2.0,"units":2,"column_15":null,"rooms":11,"mlsnum":2728141,"sale":230000,"beds":4,"id":"a6ojirlrstyk","geo_precision":"range","group":null,"address":"254-256 5TH AVE","original":274900,"state":"NJ"},"type":"Feature","geometry":{"type":"Point","coordinates":[-74.151291,40.934306]}},{"properties":{"lotsize":"44 X 100*","close date":"1/12/2011","city":"Paterson","dom":324,"geo_score":0.805,"last":319000,"baths":2.0,"units":2,"column_15":null,"rooms":10,"mlsnum":2728293,"sale":285000,"beds":4,"id":"a6ojirbhcfhl","geo_precision":"range","group":null,"address":"441 KEARNEY ST*","original":379000,"state":"NJ"},"type":"Feature","geometry":{"type":"Point","coordinates":[-74.191524,40.930205]}},{"properties":{"lotsize":"37 X 100","close date":"12/8/2010","city":"Paterson","dom":245,"geo_score":0.721,"last":179900,"baths":2.0,"units":2,"column_15":null,"rooms":10,"mlsnum":2730219,"sale":94000,"beds":4,"id":"a6ojirjpticc","geo_precision":"range","group":2,"address":"69 N 10TH ST","original":179900,"state":"NJ"},"type":"Feature","geometry":{"type":"Point","coordinates":[-74.180945,40.928971]}},{"properties":{"lotsize":"40 X 100","close date":"3/10/2011","city":"Paterson","dom":89,"geo_score":0.721,"last":249000,"baths":3.1,"units":2,"column_15":null,"rooms":12,"mlsnum":2733836,"sale":220000,"beds":6,"id":"a6ojironwibl","geo_precision":"range","group":7,"address":"494 11TH AVE","original":279000,"state":"NJ"},"type":"Feature","geometry":{"type":"Point","coordinates":[-74.146545,40.921616]}},{"properties":{"lotsize":"25X100*","close date":"3/18/2011","city":"Paterson","dom":425,"geo_score":0.805,"last":94900,"baths":2.0,"units":2,"column_15":null,"rooms":9,"mlsnum":2734908,"sale":83900,"beds":4,"id":"a6ojirni6apo","geo_precision":"range","group":null,"address":"136 CARLISLE AVE*","original":229900,"state":"NJ"},"type":"Feature","geometry":{"type":"Point","coordinates":[-74.189581,40.908019]}},{"properties":{"lotsize":"37X100*","close date":"3/23/2011","city":"Paterson","dom":161,"geo_score":0.721,"last":110000,"baths":2.1,"units":2,"column_15":null,"rooms":8,"mlsnum":2736157,"sale":105000,"beds":3,"id":"a6ojiro2qo3i","geo_precision":"range","group":null,"address":"19-21 12TH AVE*","original":110000,"state":"NJ"},"type":"Feature","geometry":{"type":"Point","coordinates":[-74.165096,40.921565]}},{"properties":{"lotsize":"25 x 100","close date":"1/14/2011","city":"Paterson","dom":357,"geo_score":0.721,"last":85000,"baths":1.0,"units":2,"column_15":null,"rooms":4,"mlsnum":2738222,"sale":95000,"beds":2,"id":"a6ojir9zplly","geo_precision":"range","group":9,"address":"148 20TH AVE","original":299000,"state":"NJ"},"type":"Feature","geometry":{"type":"Point","coordinates":[-74.164098,40.909025]}},{"properties":{"lotsize":"37X70*","close date":"12/13/2010","city":"Paterson","dom":216,"geo_score":0.805,"last":189000,"baths":3.1,"units":2,"column_15":null,"rooms":10,"mlsnum":2738330,"sale":120000,"beds":4,"id":"a6ojirji89cq","geo_precision":"range","group":null,"address":"1 BARNERT PL*","original":189000,"state":"NJ"},"type":"Feature","geometry":{"type":"Point","coordinates":[-74.171179,40.92968]}},{"properties":{"lotsize":"25X80*","close date":"12/29/2010","city":"Paterson","dom":41,"geo_score":0.805,"last":109900,"baths":2.0,"units":2,"column_15":null,"rooms":9,"mlsnum":2738592,"sale":95000,"beds":5,"id":"a6ojirh4etj2","geo_precision":"range","group":4,"address":"7 PARK PL*","original":150000,"state":"NJ"},"type":"Feature","geometry":{"type":"Point","coordinates":[-74.156572,40.931261]}},{"properties":{"lotsize":null,"close date":"11/12/2010","city":"Paterson","dom":252,"geo_score":0.707,"last":159000,"baths":3.0,"units":3,"column_15":null,"rooms":13,"mlsnum":2740864,"sale":150000,"beds":7,"id":"a6ojirkn8k2o","geo_precision":"range","group":2,"address":"93-95 N 8TH ST*","original":189000,"state":"NJ"},"type":"Feature","geometry":{"type":"Point","coordinates":[-74.178836,40.928472]}},{"properties":{"lotsize":"25X100*","close date":"3/31/2011","city":"Paterson","dom":414,"geo_score":0.805,"last":99000,"baths":2.0,"units":2,"column_15":null,"rooms":6,"mlsnum":2741352,"sale":137000,"beds":2,"id":"a6ojirl1ydxx","geo_precision":"range","group":null,"address":"37 RYERSON AVE*","original":99000,"state":"NJ"},"type":"Feature","geometry":{"type":"Point","coordinates":[-74.198465,40.925796]}},{"properties":{"lotsize":"27X100*","close date":"4/19/2011","city":"Paterson","dom":44,"geo_score":0.721,"last":229900,"baths":2.0,"units":2,"column_15":null,"rooms":14,"mlsnum":2743386,"sale":170000,"beds":6,"id":"a6ojiriuhyt8","geo_precision":"range","group":null,"address":"453-455 E 31ST ST*","original":275000,"state":"NJ"},"type":"Feature","geometry":{"type":"Point","coordinates":[-74.145382,40.910317]}},{"properties":{"lotsize":"25X100*","close date":"5/1/2011","city":"Paterson","dom":353,"geo_score":0.707,"last":68900,"baths":3.0,"units":3,"column_15":null,"rooms":14,"mlsnum":2750735,"sale":68900,"beds":5,"id":"a6ojirgn6pk1","geo_precision":"range","group":2,"address":"84 N 6TH ST*","original":85000,"state":"NJ"},"type":"Feature","geometry":{"type":"Point","coordinates":[-74.176596,40.928014]}},{"properties":{"lotsize":"40X100*","close date":"4/27/2011","city":"Paterson","dom":245,"geo_score":0.805,"last":190000,"baths":6.0,"units":4,"column_15":null,"rooms":20,"mlsnum":2752337,"sale":196000,"beds":14,"id":"a6ojirb253qu","geo_precision":"range","group":6,"address":"209-211 HARRISON ST*","original":150000,"state":"NJ"},"type":"Feature","geometry":{"type":"Point","coordinates":[-74.160753,40.922807]}},{"properties":{"lotsize":"25X125*","close date":"2/17/2011","city":"Paterson","dom":16,"geo_score":0.805,"last":120000,"baths":4.0,"units":4,"column_15":null,"rooms":20,"mlsnum":2752376,"sale":115000,"beds":12,"id":"a6ojirmdppgp","geo_precision":"range","group":null,"address":"209 MILL ST*","original":250000,"state":"NJ"},"type":"Feature","geometry":{"type":"Point","coordinates":[-74.173776,40.909803]}},{"properties":{"lotsize":"50x100*","close date":"11/17/2010","city":"Paterson","dom":218,"geo_score":0.805,"last":199000,"baths":3.0,"units":2,"column_15":null,"rooms":9,"mlsnum":2754287,"sale":210100,"beds":4,"id":"a6ojir9uemhs","geo_precision":"range","group":1,"address":"233-235 KEARNEY ST","original":269000,"state":"NJ"},"type":"Feature","geometry":{"type":"Point","coordinates":[-74.185161,40.924685]}},{"properties":{"lotsize":"25X99*","close date":"2/18/2011","city":"Paterson","dom":143,"geo_score":0.805,"last":129999,"baths":2.0,"units":2,"column_15":null,"rooms":12,"mlsnum":2755424,"sale":125000,"beds":5,"id":"a6ojirm2fhyy","geo_precision":"range","group":null,"address":"42 HOPPER ST*","original":389999,"state":"NJ"},"type":"Feature","geometry":{"type":"Point","coordinates":[-74.171151,40.931099]}},{"properties":{"lotsize":"25X100*","close date":"4/15/2011","city":"Paterson","dom":295,"geo_score":0.721,"last":250000,"baths":6.0,"units":2,"column_15":null,"rooms":12,"mlsnum":2756173,"sale":220000,"beds":6,"id":"a6ojirgvkv6q","geo_precision":"range","group":null,"address":"102 E 16TH ST*","original":310000,"state":"NJ"},"type":"Feature","geometry":{"type":"Point","coordinates":[-74.152694,40.934491]}},{"properties":{"lotsize":"75X57*","close date":"11/29/2010","city":"Paterson","dom":208,"geo_score":0.805,"last":183150,"baths":4.0,"units":4,"column_15":null,"rooms":17,"mlsnum":2757807,"sale":174000,"beds":9,"id":"a6ojirkz65n6","geo_precision":"range","group":null,"address":"220-224 WARREN ST*","original":247500,"state":"NJ"},"type":"Feature","geometry":{"type":"Point","coordinates":[-74.154639,40.927252]}},{"properties":{"lotsize":"25X100*","close date":"3/30/2011","city":"Paterson","dom":337,"geo_score":0.805,"last":90000,"baths":4.0,"units":3,"column_15":null,"rooms":10,"mlsnum":2758560,"sale":65000,"beds":7,"id":"a6ojirpmq68x","geo_precision":"range","group":null,"address":"60 HOPPER ST*","original":199000,"state":"NJ"},"type":"Feature","geometry":{"type":"Point","coordinates":[-74.170086,40.931866]}},{"properties":{"lotsize":"50X100*","close date":"2/4/2011","city":"Paterson","dom":4,"geo_score":0.805,"last":249000,"baths":3.0,"units":3,"column_15":null,"rooms":18,"mlsnum":2759363,"sale":202000,"beds":9,"id":"a6ojirb8njak","geo_precision":"range","group":null,"address":"76 PENNINGTON ST*","original":249000,"state":"NJ"},"type":"Feature","geometry":{"type":"Point","coordinates":[-74.158224,40.912621]}},{"properties":{"lotsize":"40X100*","close date":"12/13/2010","city":"Paterson","dom":200,"geo_score":0.805,"last":98900,"baths":5.0,"units":3,"column_15":null,"rooms":13,"mlsnum":2759762,"sale":116250,"beds":9,"id":"a6ojira2lss5","geo_precision":"range","group":null,"address":"436 ELLISON ST*","original":189900,"state":"NJ"},"type":"Feature","geometry":{"type":"Point","coordinates":[-74.158351,40.917093]}},{"properties":{"lotsize":"25X100*","close date":"1/3/2011","city":"Paterson","dom":151,"geo_score":0.805,"last":199000,"baths":2.0,"units":2,"column_15":null,"rooms":14,"mlsnum":2761075,"sale":160000,"beds":8,"id":"a6ojiriuxh77","geo_precision":"range","group":null,"address":"70 CHADWICK ST*","original":199000,"state":"NJ"},"type":"Feature","geometry":{"type":"Point","coordinates":[-74.168786,40.902341]}},{"properties":{"lotsize":"25X100*","close date":"3/21/2011","city":"Paterson","dom":270,"geo_score":0.805,"last":129900,"baths":2.0,"units":2,"column_15":null,"rooms":8,"mlsnum":2762900,"sale":131000,"beds":4,"id":"a6ojirkoxf5d","geo_precision":"range","group":null,"address":"175 Carlisle Ave","original":249900,"state":"NJ"},"type":"Feature","geometry":{"type":"Point","coordinates":[-74.187531,40.907541]}},{"properties":{"lotsize":"25X100*","close date":"12/8/2010","city":"Paterson","dom":131,"geo_score":0.707,"last":48000,"baths":3.0,"units":2,"column_15":null,"rooms":13,"mlsnum":2764307,"sale":48000,"beds":8,"id":"a6ojire7hn8j","geo_precision":"range","group":null,"address":"190 N 1ST ST*","original":48000,"state":"NJ"},"type":"Feature","geometry":{"type":"Point","coordinates":[-74.167637,40.930078]}},{"properties":{"lotsize":"25X97*","close date":"3/12/2011","city":"Paterson","dom":306,"geo_score":0.805,"last":249000,"baths":2.0,"units":2,"column_15":null,"rooms":10,"mlsnum":2766478,"sale":240000,"beds":6,"id":"a6ojirhbex54","geo_precision":"range","group":5,"address":"85 MERCER ST*","original":249000,"state":"NJ"},"type":"Feature","geometry":{"type":"Point","coordinates":[-74.160531,40.926093]}},{"properties":{"lotsize":"37X100*","close date":"12/13/2010","city":"Paterson","dom":219,"geo_score":0.721,"last":339000,"baths":2.0,"units":2,"column_15":null,"rooms":10,"mlsnum":2767098,"sale":310000,"beds":4,"id":"a6ojirgwg2lx","geo_precision":"range","group":null,"address":"131-133 23RD AVE*","original":359900,"state":"NJ"},"type":"Feature","geometry":{"type":"Point","coordinates":[-74.152591,40.902097]}},{"properties":{"lotsize":"25X100*","close date":"1/3/2011","city":"Paterson","dom":161,"geo_score":0.707,"last":110000,"baths":2.0,"units":2,"column_15":null,"rooms":14,"mlsnum":2768428,"sale":112500,"beds":8,"id":"a6ojirkeh5r4","geo_precision":"range","group":null,"address":"65 3RD AVE*","original":150400,"state":"NJ"},"type":"Feature","geometry":{"type":"Point","coordinates":[-74.156903,40.958422]}},{"properties":{"lotsize":"27X100*","close date":"12/26/2010","city":"Paterson","dom":2,"geo_score":0.805,"last":140000,"baths":3.0,"units":2,"column_15":null,"rooms":14,"mlsnum":2769420,"sale":140000,"beds":7,"id":"a6ojirffpib0","geo_precision":"range","group":1,"address":"128-130 REDWOOD AVE*","original":140000,"state":"NJ"},"type":"Feature","geometry":{"type":"Point","coordinates":[-74.185567,40.92309]}},{"properties":{"lotsize":"50X100*","close date":"12/2/2010","city":"Paterson","dom":78,"geo_score":0.721,"last":299000,"baths":4.0,"units":4,"column_15":null,"rooms":20,"mlsnum":2769500,"sale":275000,"beds":8,"id":"a6ojireerkt6","geo_precision":"range","group":null,"address":"116-118 E 32ND ST*","original":299000,"state":"NJ"},"type":"Feature","geometry":{"type":"Point","coordinates":[-74.142313,40.920487]}},{"properties":{"lotsize":"23X100*","close date":"4/13/2011","city":"Paterson","dom":342,"geo_score":0.805,"last":51900,"baths":2.0,"units":2,"column_15":null,"rooms":10,"mlsnum":2769697,"sale":24000,"beds":6,"id":"a6ojirppo1ba","geo_precision":"range","group":null,"address":"113 FAIR ST*","original":89900,"state":"NJ"},"type":"Feature","geometry":{"type":"Point","coordinates":[-74.167256,40.919579]}},{"properties":{"lotsize":"25X100*","close date":"2/11/2011","city":"Paterson","dom":238,"geo_score":0.805,"last":380000,"baths":4.0,"units":2,"column_15":null,"rooms":12,"mlsnum":2770382,"sale":140000,"beds":6,"id":"a6ojird9mol0","geo_precision":"range","group":null,"address":"186 MILL ST*","original":380000,"state":"NJ"},"type":"Feature","geometry":{"type":"Point","coordinates":[-74.173907,40.910086]}},{"properties":{"lotsize":"40X100*","close date":"4/8/2011","city":"Paterson","dom":83,"geo_score":0.805,"last":85000,"baths":2.0,"units":2,"column_15":null,"rooms":10,"mlsnum":2771739,"sale":80000,"beds":5,"id":"a6ojirk063ly","geo_precision":"range","group":4,"address":"36-38 BUTLER ST*","original":99000,"state":"NJ"},"type":"Feature","geometry":{"type":"Point","coordinates":[-74.155948,40.932998]}},{"properties":{"lotsize":"25X100*","close date":"1/13/2011","city":"Paterson","dom":133,"geo_score":0.805,"last":139000,"baths":4.0,"units":3,"column_15":null,"rooms":15,"mlsnum":2774150,"sale":120000,"beds":9,"id":"a6ojiri88mi2","geo_precision":"range","group":null,"address":"88 PENNINGTON ST*","original":159900,"state":"NJ"},"type":"Feature","geometry":{"type":"Point","coordinates":[-74.158374,40.912217]}},{"properties":{"lotsize":"35X100*","close date":"5/9/2011","city":"Paterson","dom":67,"geo_score":0.721,"last":199000,"baths":3.0,"units":2,"column_15":null,"rooms":12,"mlsnum":2775023,"sale":180000,"beds":6,"id":"a6ojirhf8eqw","geo_precision":"range","group":null,"address":"377 E 19TH ST*","original":199000,"state":"NJ"},"type":"Feature","geometry":{"type":"Point","coordinates":[-74.151743,40.927995]}},{"properties":{"lotsize":"25X126*","close date":"1/6/2011","city":"Paterson","dom":205,"geo_score":0.805,"last":120000,"baths":2.0,"units":2,"column_15":null,"rooms":10,"mlsnum":2775543,"sale":64000,"beds":6,"id":"a6ojirid4fll","geo_precision":"range","group":null,"address":"34 JEFFERSON ST*","original":120000,"state":"NJ"},"type":"Feature","geometry":{"type":"Point","coordinates":[-74.170584,40.925003]}},{"properties":{"lotsize":"50X100*","close date":"1/12/2011","city":"Paterson","dom":149,"geo_score":0.805,"last":209900,"baths":2.1,"units":2,"column_15":null,"rooms":10,"mlsnum":2775656,"sale":190000,"beds":4,"id":"a6ojirnnuqib","geo_precision":"range","group":null,"address":"35-37 QUINN ST*","original":289900,"state":"NJ"},"type":"Feature","geometry":{"type":"Point","coordinates":[-74.184149,40.910082]}},{"properties":{"lotsize":"34X100*","close date":"12/30/2010","city":"Paterson","dom":92,"geo_score":0.805,"last":149900,"baths":3.0,"units":3,"column_15":null,"rooms":13,"mlsnum":2775870,"sale":150000,"beds":6,"id":"a6ojirc4m7e7","geo_precision":"range","group":1,"address":"143-145 JASPER ST*","original":194900,"state":"NJ"},"type":"Feature","geometry":{"type":"Point","coordinates":[-74.184328,40.923054]}},{"properties":{"lotsize":"26 X 100*","close date":"12/31/2010","city":"Paterson","dom":183,"geo_score":0.805,"last":47000,"baths":3.0,"units":3,"column_15":null,"rooms":14,"mlsnum":2777314,"sale":38000,"beds":7,"id":"a6ojirak2njb","geo_precision":"range","group":3,"address":"30 WATSON ST*","original":60000,"state":"NJ"},"type":"Feature","geometry":{"type":"Point","coordinates":[-74.166798,40.927352]}},{"properties":{"lotsize":"25x100*","close date":"11/26/2010","city":"Paterson","dom":72,"geo_score":0.805,"last":99000,"baths":2.0,"units":2,"column_15":null,"rooms":8,"mlsnum":2777621,"sale":65000,"beds":4,"id":"a6ojiri5fefk","geo_precision":"range","group":3,"address":"10 WATSON ST*","original":99000,"state":"NJ"},"type":"Feature","geometry":{"type":"Point","coordinates":[-74.165965,40.927497]}},{"properties":{"lotsize":"37X100*","close date":"2/14/2011","city":"Paterson","dom":100,"geo_score":0.721,"last":359000,"baths":2.1,"units":2,"column_15":null,"rooms":12,"mlsnum":2779300,"sale":340000,"beds":6,"id":"a6ojirkslr1c","geo_precision":"range","group":null,"address":"865 E 23RD ST*","original":379000,"state":"NJ"},"type":"Feature","geometry":{"type":"Point","coordinates":[-74.152863,40.910925]}},{"properties":{"lotsize":"25X100*","close date":"12/9/2010","city":"Paterson","dom":151,"geo_score":0.805,"last":88200,"baths":2.0,"units":2,"column_15":null,"rooms":6,"mlsnum":2780140,"sale":80000,"beds":2,"id":"a6ojirejpfkr","geo_precision":"range","group":null,"address":"87 SHERMAN AVE*","original":114900,"state":"NJ"},"type":"Feature","geometry":{"type":"Point","coordinates":[-74.147147,40.966022]}},{"properties":{"lotsize":"37X100*","close date":"2/9/2011","city":"Paterson","dom":151,"geo_score":0.721,"last":299000,"baths":3.0,"units":2,"column_15":null,"rooms":13,"mlsnum":2780461,"sale":260000,"beds":6,"id":"a6ojirm72sx1","geo_precision":"range","group":null,"address":"280 19TH AVE*","original":299000,"state":"NJ"},"type":"Feature","geometry":{"type":"Point","coordinates":[-74.143264,40.908693]}},{"properties":{"lotsize":"50X100*","close date":"4/14/2011","city":"Paterson","dom":10,"geo_score":0.721,"last":260000,"baths":2.1,"units":2,"column_15":null,"rooms":8,"mlsnum":2782465,"sale":230000,"beds":4,"id":"a6ojirk65jt1","geo_precision":"range","group":null,"address":"972-974 E 24TH ST*","original":260000,"state":"NJ"},"type":"Feature","geometry":{"type":"Point","coordinates":[-74.152697,40.907093]}},{"properties":{"lotsize":"25X75*","close date":"11/12/2010","city":"Paterson","dom":115,"geo_score":0.805,"last":179900,"baths":2.0,"units":2,"column_15":null,"rooms":8,"mlsnum":2782610,"sale":175000,"beds":4,"id":"a6ojir9hiu20","geo_precision":"range","group":9,"address":"129 MADISON ST*","original":179900,"state":"NJ"},"type":"Feature","geometry":{"type":"Point","coordinates":[-74.165421,40.910468]}},{"properties":{"lotsize":"25X100*","close date":"11/16/2010","city":"Paterson","dom":54,"geo_score":0.805,"last":169000,"baths":3.0,"units":2,"column_15":null,"rooms":10,"mlsnum":2783709,"sale":130000,"beds":4,"id":"a6ojirjyv021","geo_precision":"range","group":10,"address":"134 BLOOMFIELD AVE*","original":169000,"state":"NJ"},"type":"Feature","geometry":{"type":"Point","coordinates":[-74.161538,40.897626]}},{"properties":{"lotsize":"37X100*","close date":"12/6/2010","city":"Paterson","dom":101,"geo_score":0.721,"last":231000,"baths":5.0,"units":4,"column_15":null,"rooms":16,"mlsnum":2784597,"sale":165000,"beds":6,"id":"a6ojir9y3jb9","geo_precision":"range","group":null,"address":"733 E 24TH ST*","original":231000,"state":"NJ"},"type":"Feature","geometry":{"type":"Point","coordinates":[-74.151013,40.915383]}},{"properties":{"lotsize":"50X90*","close date":"12/8/2010","city":"Paterson","dom":85,"geo_score":0.721,"last":179900,"baths":2.0,"units":2,"column_15":null,"rooms":12,"mlsnum":2786215,"sale":172000,"beds":5,"id":"a6ojirju42i4","geo_precision":"range","group":7,"address":"482-484 11TH AVE*","original":189900,"state":"NJ"},"type":"Feature","geometry":{"type":"Point","coordinates":[-74.147206,40.921685]}},{"properties":{"lotsize":"33X100*","close date":"5/2/2011","city":"Paterson","dom":160,"geo_score":0.721,"last":230000,"baths":2.1,"units":2,"column_15":null,"rooms":10,"mlsnum":2786672,"sale":230000,"beds":4,"id":"a6ojirkuid9s","geo_precision":"range","group":null,"address":"1066-1068 E 25TH ST*","original":250000,"state":"NJ"},"type":"Feature","geometry":{"type":"Point","coordinates":[-74.152557,40.903254]}},{"properties":{"lotsize":"26X50*","close date":"1/18/2011","city":"Paterson","dom":32,"geo_score":0.805,"last":44900,"baths":2.0,"units":2,"column_15":null,"rooms":8,"mlsnum":2787177,"sale":40000,"beds":4,"id":"a6ojir9s87lm","geo_precision":"range","group":3,"address":"128 E HOLSMAN ST*","original":44900,"state":"NJ"},"type":"Feature","geometry":{"type":"Point","coordinates":[-74.16674,40.928085]}},{"properties":{"lotsize":"25X100*","close date":"1/12/2011","city":"Paterson","dom":72,"geo_score":0.721,"last":129900,"baths":3.0,"units":2,"column_15":null,"rooms":8,"mlsnum":2787574,"sale":129000,"beds":4,"id":"a6ojirlq7iv0","geo_precision":"range","group":6,"address":"172 12TH AVE*","original":160000,"state":"NJ"},"type":"Feature","geometry":{"type":"Point","coordinates":[-74.15857,40.921327]}},{"properties":{"lotsize":"27 X 76*","close date":"2/23/2011","city":"Paterson","dom":27,"geo_score":0.805,"last":64900,"baths":2.0,"units":2,"column_15":null,"rooms":8,"mlsnum":2788607,"sale":65000,"beds":4,"id":"a6ojirhrjr46","geo_precision":"range","group":null,"address":"519 UNION AVE*","original":64900,"state":"NJ"},"type":"Feature","geometry":{"type":"Point","coordinates":[-74.181922,40.923443]}},{"properties":{"lotsize":"25X125*","close date":"1/27/2011","city":"Paterson","dom":187,"geo_score":0.721,"last":149000,"baths":2.0,"units":2,"column_15":null,"rooms":8,"mlsnum":2788926,"sale":135500,"beds":4,"id":"a6ojiro6wpfh","geo_precision":"range","group":null,"address":"220 E 21ST ST*","original":149000,"state":"NJ"},"type":"Feature","geometry":{"type":"Point","coordinates":[-74.154817,40.910744]}},{"properties":{"lotsize":"50X100*","close date":"2/8/2011","city":"Paterson","dom":202,"geo_score":0.805,"last":215000,"baths":2.0,"units":2,"column_15":null,"rooms":11,"mlsnum":2789624,"sale":168000,"beds":6,"id":"a6ojirjjfl9i","geo_precision":"range","group":null,"address":"162-164 SHERMAN AVE*","original":215000,"state":"NJ"},"type":"Feature","geometry":{"type":"Point","coordinates":[-74.18891,40.922709]}},{"properties":{"lotsize":"25X92*","close date":"3/1/2011","city":"Paterson","dom":183,"geo_score":0.805,"last":89000,"baths":2.0,"units":2,"column_15":null,"rooms":12,"mlsnum":2789754,"sale":75000,"beds":6,"id":"a6ojirkomzl2","geo_precision":"range","group":null,"address":"50 HOLSMAN ST*","original":129000,"state":"NJ"},"type":"Feature","geometry":{"type":"Point","coordinates":[-74.169187,40.926108]}},{"properties":{"lotsize":"50 X 100*","close date":"3/3/2011","city":"Paterson","dom":160,"geo_score":0.721,"last":260000,"baths":2.0,"units":2,"column_15":null,"rooms":10,"mlsnum":2789899,"sale":260000,"beds":6,"id":"a6ojirol5zw3","geo_precision":"range","group":null,"address":"1095-1097 E 23RD ST*","original":260000,"state":"NJ"},"type":"Feature","geometry":{"type":"Point","coordinates":[-74.154509,40.902804]}},{"properties":{"lotsize":"67X105*","close date":"3/9/2011","city":"Paterson","dom":0,"geo_score":0.805,"last":395000,"baths":3.1,"units":2,"column_15":null,"rooms":13,"mlsnum":2789956,"sale":362000,"beds":7,"id":"a6ojirle25r5","geo_precision":"range","group":null,"address":"22-24 WALKER ST*","original":425000,"state":"NJ"},"type":"Feature","geometry":{"type":"Point","coordinates":[-74.182642,40.911683]}},{"properties":{"lotsize":"25X100*","close date":"3/2/2011","city":"Paterson","dom":170,"geo_score":0.805,"last":59900,"baths":2.0,"units":2,"column_15":null,"rooms":8,"mlsnum":2789988,"sale":35000,"beds":4,"id":"a6ojirl1yn80","geo_precision":"range","group":null,"address":"116 LAWRENCE ST*","original":99900,"state":"NJ"},"type":"Feature","geometry":{"type":"Point","coordinates":[-74.162796,40.924197]}},{"properties":{"lotsize":"25X100*","close date":"3/16/2011","city":"Paterson","dom":203,"geo_score":0.805,"last":39900,"baths":2.0,"units":2,"column_15":null,"rooms":8,"mlsnum":2790498,"sale":30100,"beds":4,"id":"a6ojirgmd0et","geo_precision":"range","group":5,"address":"122 LAFAYETTE ST*","original":69900,"state":"NJ"},"type":"Feature","geometry":{"type":"Point","coordinates":[-74.160516,40.925557]}},{"properties":{"lotsize":"25X100*","close date":"3/4/2011","city":"Paterson","dom":162,"geo_score":0.805,"last":99900,"baths":3.0,"units":2,"column_15":null,"rooms":13,"mlsnum":2791371,"sale":95000,"beds":6,"id":"a6ojirebacp8","geo_precision":"range","group":11,"address":"341 GETTY AVE*","original":99900,"state":"NJ"},"type":"Feature","geometry":{"type":"Point","coordinates":[-74.157295,40.895334]}},{"properties":{"lotsize":"28X100*","close date":"12/2/2010","city":"Paterson","dom":79,"geo_score":0.805,"last":34900,"baths":1.0,"units":3,"column_15":null,"rooms":8,"mlsnum":2791413,"sale":25000,"beds":5,"id":"a6ojiraurh3y","geo_precision":"range","group":null,"address":"11 HILLMAN ST*","original":59900,"state":"NJ"},"type":"Feature","geometry":{"type":"Point","coordinates":[-74.166071,40.92959]}},{"properties":{"lotsize":"38X100*","close date":"3/15/2011","city":"Paterson","dom":231,"geo_score":0.721,"last":160000,"baths":3.0,"units":2,"column_15":null,"rooms":9,"mlsnum":2791489,"sale":151300,"beds":3,"id":"a6ojirefrbhz","geo_precision":"range","group":7,"address":"526-528 E 25TH ST*","original":160000,"state":"NJ"},"type":"Feature","geometry":{"type":"Point","coordinates":[-74.148773,40.921603]}},{"properties":{"lotsize":"50X100*","close date":"11/19/2010","city":"Paterson","dom":75,"geo_score":0.721,"last":385000,"baths":3.0,"units":3,"column_15":null,"rooms":21,"mlsnum":2791614,"sale":365000,"beds":10,"id":"a6ojirlwc0s6","geo_precision":"range","group":null,"address":"328-330 17TH AVE*","original":385000,"state":"NJ"},"type":"Feature","geometry":{"type":"Point","coordinates":[-74.143546,40.912041]}},{"properties":{"lotsize":"25X100*","close date":"3/31/2011","city":"Paterson","dom":218,"geo_score":0.721,"last":139000,"baths":1.2,"units":2,"column_15":null,"rooms":8,"mlsnum":2793201,"sale":115000,"beds":4,"id":"a6ojir9efzs5","geo_precision":"range","group":null,"address":"247 21ST AVE*","original":179900,"state":"NJ"},"type":"Feature","geometry":{"type":"Point","coordinates":[-74.163326,40.907614]}},{"properties":{"lotsize":"50X100*","close date":"4/18/2011","city":"Paterson","dom":72,"geo_score":0.721,"last":360000,"baths":3.0,"units":2,"column_15":null,"rooms":12,"mlsnum":2793382,"sale":270000,"beds":7,"id":"a6ojirnlqkn6","geo_precision":"range","group":null,"address":"542-544 14TH AVE*","original":410000,"state":"NJ"},"type":"Feature","geometry":{"type":"Point","coordinates":[-74.152298,40.91714]}},{"properties":{"lotsize":"37.5X100*","close date":"3/24/2011","city":"Paterson","dom":196,"geo_score":0.805,"last":64900,"baths":2.0,"units":2,"column_15":null,"rooms":10,"mlsnum":2794071,"sale":67777,"beds":6,"id":"a6ojirmc5ndx","geo_precision":"range","group":null,"address":"396 ELLISON ST*","original":74900,"state":"NJ"},"type":"Feature","geometry":{"type":"Point","coordinates":[-74.160376,40.917157]}},{"properties":{"lotsize":"25X100*","close date":"12/28/2010","city":"Paterson","dom":156,"geo_score":0.707,"last":24900,"baths":2.0,"units":2,"column_15":null,"rooms":0,"mlsnum":2795911,"sale":20000,"beds":0,"id":"a6ojirkhofq2","geo_precision":"range","group":null,"address":"128-130 N 4TH ST*","original":44900,"state":"NJ"},"type":"Feature","geometry":{"type":"Point","coordinates":[-74.170016,40.931047]}},{"properties":{"lotsize":"29X30*","close date":"1/30/2011","city":"Paterson","dom":208,"geo_score":0.805,"last":14900,"baths":2.1,"units":2,"column_15":null,"rooms":10,"mlsnum":2795921,"sale":12500,"beds":6,"id":"a6ojirgy8s6u","geo_precision":"range","group":null,"address":"113 E MAIN ST*","original":14900,"state":"NJ"},"type":"Feature","geometry":{"type":"Point","coordinates":[-74.16835,40.929805]}},{"properties":{"lotsize":"39X82*","close date":"11/19/2010","city":"Paterson","dom":3,"geo_score":0.805,"last":171000,"baths":4.0,"units":3,"column_15":null,"rooms":14,"mlsnum":2795956,"sale":148000,"beds":8,"id":"a6ojiriihaoc","geo_precision":"range","group":null,"address":"30-32 VREELAND AVE*","original":171000,"state":"NJ"},"type":"Feature","geometry":{"type":"Point","coordinates":[-74.231153,40.900107]}},{"properties":{"lotsize":"37.6X100*","close date":"12/7/2010","city":"Paterson","dom":19,"geo_score":0.721,"last":139900,"baths":3.0,"units":2,"column_15":null,"rooms":8,"mlsnum":2796065,"sale":139900,"beds":4,"id":"a6ojiro8sb4n","geo_precision":"range","group":null,"address":"545 11TH AVE*","original":139900,"state":"NJ"},"type":"Feature","geometry":{"type":"Point","coordinates":[-74.144036,40.921326]}},{"properties":{"lotsize":"25X100*","close date":"4/7/2011","city":"Paterson","dom":209,"geo_score":0.805,"last":180000,"baths":3.0,"units":3,"column_15":null,"rooms":14,"mlsnum":2798025,"sale":160000,"beds":8,"id":"a6ojircel61q","geo_precision":"range","group":1,"address":"140 ALBION AVE*","original":180000,"state":"NJ"},"type":"Feature","geometry":{"type":"Point","coordinates":[-74.187052,40.92315]}},{"properties":{"lotsize":"37X100*","close date":"12/14/2010","city":"Paterson","dom":82,"geo_score":0.707,"last":49900,"baths":2.0,"units":2,"column_15":null,"rooms":9,"mlsnum":2798180,"sale":49900,"beds":5,"id":"a6ojiri18xco","geo_precision":"range","group":null,"address":"116-118 N 1ST ST CV*","original":74900,"state":"NJ"},"type":"Feature","geometry":{"type":"Point","coordinates":[-74.169923,40.928044]}},{"properties":{"lotsize":"50X100*","close date":"2/4/2011","city":"Paterson","dom":105,"geo_score":0.707,"last":185000,"baths":3.0,"units":2,"column_15":null,"rooms":8,"mlsnum":2798976,"sale":195000,"beds":4,"id":"a6ojirnc9m86","geo_precision":"range","group":null,"address":"151-153 7TH AVE*","original":185000,"state":"NJ"},"type":"Feature","geometry":{"type":"Point","coordinates":[-74.150811,40.963384]}},{"properties":{"lotsize":"35.35 X 150*","close date":"2/8/2011","city":"Paterson","dom":80,"geo_score":0.805,"last":420000,"baths":4.0,"units":3,"column_15":null,"rooms":15,"mlsnum":2799205,"sale":200000,"beds":8,"id":"a6ojirl4osy8","geo_precision":"range","group":null,"address":"246-248 TRENTON AVE*","original":420000,"state":"NJ"},"type":"Feature","geometry":{"type":"Point","coordinates":[-74.146847,40.897882]}},{"properties":{"lotsize":"37X100*","close date":"2/1/2011","city":"Paterson","dom":65,"geo_score":0.805,"last":119900,"baths":2.0,"units":2,"column_15":null,"rooms":8,"mlsnum":2799583,"sale":95000,"beds":4,"id":"a6ojirnlrle4","geo_precision":"range","group":null,"address":"171-173 CARBON ST*","original":119900,"state":"NJ"},"type":"Feature","geometry":{"type":"Point","coordinates":[-74.176415,40.932044]}},{"properties":{"lotsize":"26X100*","close date":"11/17/2010","city":"Paterson","dom":70,"geo_score":0.805,"last":49900,"baths":2.0,"units":2,"column_15":null,"rooms":8,"mlsnum":2800444,"sale":44000,"beds":4,"id":"a6ojirpqpsw0","geo_precision":"range","group":null,"address":"171 PUTNAM ST","original":49900,"state":"NJ"},"type":"Feature","geometry":{"type":"Point","coordinates":[-74.15676,40.928068]}},{"properties":{"lotsize":"26.5X93*","close date":"4/5/2011","city":"Paterson","dom":216,"geo_score":0.721,"last":189000,"baths":3.0,"units":3,"column_15":null,"rooms":15,"mlsnum":2799891,"sale":140000,"beds":9,"id":"a6ojirf5nvy9","geo_precision":"range","group":null,"address":"157 16TH AVE*","original":189000,"state":"NJ"},"type":"Feature","geometry":{"type":"Point","coordinates":[-74.16079,40.91591]}},{"properties":{"lotsize":"25X75*","close date":"2/10/2011","city":"Paterson","dom":162,"geo_score":0.805,"last":19900,"baths":2.0,"units":2,"column_15":null,"rooms":10,"mlsnum":2800028,"sale":20000,"beds":4,"id":"a6ojirkiezg0","geo_precision":"range","group":3,"address":"23 WATSON ST*","original":36000,"state":"NJ"},"type":"Feature","geometry":{"type":"Point","coordinates":[-74.166369,40.927399]}},{"properties":{"lotsize":"25X100*","close date":"1/11/2011","city":"Paterson","dom":78,"geo_score":0.707,"last":20900,"baths":2.0,"units":2,"column_15":null,"rooms":10,"mlsnum":2800089,"sale":19000,"beds":6,"id":"a6ojiroi5izq","geo_precision":"range","group":null,"address":"88 N 3RD ST*","original":27900,"state":"NJ"},"type":"Feature","geometry":{"type":"Point","coordinates":[-74.17644,40.925399]}},{"properties":{"lotsize":"37X117*","close date":"3/3/2011","city":"Paterson","dom":6,"geo_score":0.721,"last":99000,"baths":3.0,"units":3,"column_15":null,"rooms":11,"mlsnum":2801293,"sale":70000,"beds":7,"id":"a6ojirk3t3of","geo_precision":"range","group":null,"address":"180-182 23RD AVE*","original":99000,"state":"NJ"},"type":"Feature","geometry":{"type":"Point","coordinates":[-74.150036,40.9018]}},{"properties":{"lotsize":"37X110*","close date":"1/5/2011","city":"Paterson","dom":111,"geo_score":0.721,"last":225000,"baths":4.0,"units":2,"column_15":null,"rooms":8,"mlsnum":2803244,"sale":260000,"beds":4,"id":"a6ojirkmg7xa","geo_precision":"range","group":null,"address":"104-106 E 33RD ST*","original":225000,"state":"NJ"},"type":"Feature","geometry":{"type":"Point","coordinates":[-74.141457,40.919924]}},{"properties":{"lotsize":"35X100*","close date":"12/20/2010","city":"Paterson","dom":33,"geo_score":0.721,"last":160000,"baths":2.0,"units":2,"column_15":null,"rooms":11,"mlsnum":2803350,"sale":151000,"beds":5,"id":"a6ojirnapzsj","geo_precision":"range","group":null,"address":"750 E 27TH ST*","original":160000,"state":"NJ"},"type":"Feature","geometry":{"type":"Point","coordinates":[-74.148805,40.912178]}},{"properties":{"lotsize":"25X100*","close date":"1/14/2011","city":"Paterson","dom":37,"geo_score":0.707,"last":60000,"baths":3.0,"units":2,"column_15":null,"rooms":14,"mlsnum":2806679,"sale":62500,"beds":8,"id":"a6ojireedorl","geo_precision":"range","group":null,"address":"84 N 3RD ST*","original":67000,"state":"NJ"},"type":"Feature","geometry":{"type":"Point","coordinates":[-74.176484,40.92536]}},{"properties":{"lotsize":"65 X 100*","close date":"11/17/2010","city":"Paterson","dom":25,"geo_score":0.805,"last":279900,"baths":2.0,"units":2,"column_15":null,"rooms":11,"mlsnum":2804160,"sale":260000,"beds":5,"id":"a6ojirom3igt","geo_precision":"range","group":null,"address":"307-311 ROSSITER AVE*","original":279900,"state":"NJ"},"type":"Feature","geometry":{"type":"Point","coordinates":[-74.198296,40.923356]}},{"properties":{"lotsize":"25X100*","close date":"3/29/2011","city":"Paterson","dom":24,"geo_score":0.805,"last":79900,"baths":2.0,"units":2,"column_15":null,"rooms":11,"mlsnum":2804474,"sale":74000,"beds":5,"id":"a6ojirjmntms","geo_precision":"range","group":9,"address":"528 SUMMER ST*","original":79900,"state":"NJ"},"type":"Feature","geometry":{"type":"Point","coordinates":[-74.163634,40.909311]}},{"properties":{"lotsize":"25X100*","close date":"1/26/2011","city":"Paterson","dom":16,"geo_score":0.721,"last":119000,"baths":1.0,"units":2,"column_15":null,"rooms":8,"mlsnum":2804739,"sale":94000,"beds":4,"id":"a6ojirgwdyoj","geo_precision":"range","group":null,"address":"153 E 18TH ST*","original":139000,"state":"NJ"},"type":"Feature","geometry":{"type":"Point","coordinates":[-74.150575,40.934797]}},{"properties":{"lotsize":"25X100*","close date":"11/19/2010","city":"Paterson","dom":30,"geo_score":0.805,"last":119500,"baths":2.0,"units":2,"column_15":null,"rooms":8,"mlsnum":2805356,"sale":122000,"beds":4,"id":"a6ojirakcyte","geo_precision":"range","group":null,"address":"305 PREAKNESS AVE*","original":119500,"state":"NJ"},"type":"Feature","geometry":{"type":"Point","coordinates":[-74.192582,40.920544]}},{"properties":{"lotsize":"25X100*","close date":"5/2/2011","city":"Paterson","dom":167,"geo_score":0.805,"last":119000,"baths":4.0,"units":2,"column_15":null,"rooms":10,"mlsnum":2805344,"sale":100000,"beds":6,"id":"a6ojirjip8aq","geo_precision":"range","group":null,"address":"175 PACIFIC ST*","original":119000,"state":"NJ"},"type":"Feature","geometry":{"type":"Point","coordinates":[-74.167576,40.898631]}},{"properties":{"lotsize":"75X100*","close date":"1/3/2011","city":"Paterson","dom":73,"geo_score":0.805,"last":274900,"baths":6.0,"units":4,"column_15":null,"rooms":13,"mlsnum":2805357,"sale":245000,"beds":4,"id":"a6ojirgxw8dh","geo_precision":"range","group":1,"address":"267-271 KEARNEY ST*","original":309000,"state":"NJ"},"type":"Feature","geometry":{"type":"Point","coordinates":[-74.185786,40.925215]}},{"properties":{"lotsize":"25X59*","close date":"12/31/2010","city":"Paterson","dom":95,"geo_score":0.805,"last":29900,"baths":3.0,"units":2,"column_15":null,"rooms":11,"mlsnum":2805457,"sale":27000,"beds":11,"id":"a6ojirn6q3n7","geo_precision":"range","group":2,"address":"185 CLINTON ST*","original":34900,"state":"NJ"},"type":"Feature","geometry":{"type":"Point","coordinates":[-74.176828,40.928168]}},{"properties":{"lotsize":"37X100*","close date":"12/7/2010","city":"Paterson","dom":16,"geo_score":0.721,"last":199000,"baths":3.1,"units":2,"column_15":null,"rooms":16,"mlsnum":2805981,"sale":197000,"beds":6,"id":"a6ojirml5h2e","geo_precision":"range","group":null,"address":"484-486 E 29TH ST*","original":199000,"state":"NJ"},"type":"Feature","geometry":{"type":"Point","coordinates":[-74.14549,40.918949]}},{"properties":{"lotsize":"25X100*","close date":"11/22/2010","city":"Paterson","dom":21,"geo_score":0.805,"last":43900,"baths":3.0,"units":2,"column_15":null,"rooms":12,"mlsnum":2806297,"sale":55000,"beds":6,"id":"a6ojirl8jf9l","geo_precision":"range","group":null,"address":"314 HAMILTON AVE*","original":43900,"state":"NJ"},"type":"Feature","geometry":{"type":"Point","coordinates":[-74.158515,40.919941]}},{"properties":{"lotsize":"25X100*","close date":"12/3/2010","city":"Paterson","dom":39,"geo_score":0.805,"last":124900,"baths":3.0,"units":2,"column_15":null,"rooms":11,"mlsnum":2806788,"sale":130000,"beds":5,"id":"a6ojirksp82s","geo_precision":"range","group":null,"address":"1015 MADISON AVE*","original":124900,"state":"NJ"},"type":"Feature","geometry":{"type":"Point","coordinates":[-74.157467,40.906473]}},{"properties":{"lotsize":"50X100*","close date":"2/9/2011","city":"Paterson","dom":50,"geo_score":0.707,"last":284900,"baths":3.0,"units":2,"column_15":null,"rooms":13,"mlsnum":2806812,"sale":273000,"beds":8,"id":"a6ojirksnav7","geo_precision":"range","group":2,"address":"75-77 N 9TH ST*","original":289000,"state":"NJ"},"type":"Feature","geometry":{"type":"Point","coordinates":[-74.180056,40.928676]}},{"properties":{"lotsize":"25X100*","close date":"12/7/2010","city":"Paterson","dom":5,"geo_score":0.805,"last":66000,"baths":2.0,"units":2,"column_15":null,"rooms":8,"mlsnum":2806814,"sale":66000,"beds":4,"id":"a6ojirf75em9","geo_precision":"range","group":5,"address":"72 KEEN ST*","original":66000,"state":"NJ"},"type":"Feature","geometry":{"type":"Point","coordinates":[-74.162107,40.927027]}},{"properties":{"lotsize":null,"close date":"12/7/2010","city":"Paterson","dom":0,"geo_score":0.805,"last":168000,"baths":5.0,"units":2,"column_15":null,"rooms":10,"mlsnum":2807329,"sale":166000,"beds":6,"id":"a6ojirj2d896","geo_precision":"range","group":5,"address":"138 LAFAYETTE ST*","original":168000,"state":"NJ"},"type":"Feature","geometry":{"type":"Point","coordinates":[-74.159922,40.92553]}},{"properties":{"lotsize":"49X47*","close date":"2/8/2011","city":"Paterson","dom":93,"geo_score":0.805,"last":104800,"baths":4.0,"units":4,"column_15":null,"rooms":16,"mlsnum":2809815,"sale":112000,"beds":7,"id":"a6ojirefe0z0","geo_precision":"range","group":null,"address":"69-71 BELMONT AVE*","original":104900,"state":"NJ"},"type":"Feature","geometry":{"type":"Point","coordinates":[-74.179365,40.926411]}},{"properties":{"lotsize":"50X100*","close date":"12/16/2010","city":"Paterson","dom":40,"geo_score":0.721,"last":249900,"baths":4.1,"units":4,"column_15":null,"rooms":21,"mlsnum":2810026,"sale":225000,"beds":8,"id":"a6ojirmfsikj","geo_precision":"range","group":null,"address":"102-104 E 23RD ST*","original":249900,"state":"NJ"},"type":"Feature","geometry":{"type":"Point","coordinates":[-74.146123,40.936635]}},{"properties":{"lotsize":"43X100*","close date":"2/10/2011","city":"Paterson","dom":90,"geo_score":0.721,"last":74000,"baths":4.0,"units":4,"column_15":null,"rooms":18,"mlsnum":2810152,"sale":71500,"beds":10,"id":"a6ojirlv6bi7","geo_precision":"range","group":6,"address":"58-60 12TH AVE*","original":94000,"state":"NJ"},"type":"Feature","geometry":{"type":"Point","coordinates":[-74.162783,40.921482]}},{"properties":{"lotsize":"25X100*","close date":"11/19/2010","city":"Paterson","dom":0,"geo_score":0.805,"last":74900,"baths":3.0,"units":3,"column_15":null,"rooms":13,"mlsnum":2811089,"sale":74900,"beds":7,"id":"a6ojiroq9x57","geo_precision":"range","group":null,"address":"32 ESSEX ST*","original":74900,"state":"NJ"},"type":"Feature","geometry":{"type":"Point","coordinates":[-74.165974,40.912741]}},{"properties":{"lotsize":"23 X 72.5*","close date":"12/28/2010","city":"Paterson","dom":28,"geo_score":0.805,"last":90000,"baths":2.0,"units":2,"column_15":null,"rooms":8,"mlsnum":2811067,"sale":85000,"beds":4,"id":"a6ojirk1xb8j","geo_precision":"range","group":null,"address":"16-18 PEARL ST*","original":90000,"state":"NJ"},"type":"Feature","geometry":{"type":"Point","coordinates":[-74.165769,40.916698]}},{"properties":{"lotsize":"50X50*","close date":"2/7/2011","city":"Paterson","dom":81,"geo_score":0.721,"last":165000,"baths":3.0,"units":2,"column_15":null,"rooms":10,"mlsnum":2810817,"sale":170000,"beds":4,"id":"a6ojirbvdf0k","geo_precision":"range","group":null,"address":"371 E 30TH ST*","original":165000,"state":"NJ"},"type":"Feature","geometry":{"type":"Point","coordinates":[-74.145534,40.914099]}},{"properties":{"lotsize":"26X50*","close date":"11/18/2010","city":"Paterson","dom":28,"geo_score":0.805,"last":299000,"baths":2.0,"units":2,"column_15":null,"rooms":8,"mlsnum":2811691,"sale":200000,"beds":4,"id":"a6ojiridrd4d","geo_precision":"range","group":null,"address":"1 WOODRUFF PL*","original":299000,"state":"NJ"},"type":"Feature","geometry":{"type":"Point","coordinates":[-74.180429,40.9216]}},{"properties":{"lotsize":"50X100*","close date":"11/30/2010","city":"Paterson","dom":4,"geo_score":0.805,"last":30900,"baths":3.0,"units":2,"column_15":null,"rooms":13,"mlsnum":2812031,"sale":32000,"beds":8,"id":"a6ojirmp2sha","geo_precision":"range","group":6,"address":"122-124 GODWIN AVE*","original":30900,"state":"NJ"},"type":"Feature","geometry":{"type":"Point","coordinates":[-74.160892,40.920727]}},{"properties":{"lotsize":"27X100*","close date":"1/24/2011","city":"Paterson","dom":41,"geo_score":0.721,"last":70000,"baths":2.0,"units":2,"column_15":null,"rooms":10,"mlsnum":2812511,"sale":78000,"beds":4,"id":"a6ojirch5tmk","geo_precision":"range","group":4,"address":"518 RIVER ST*","original":70000,"state":"NJ"},"type":"Feature","geometry":{"type":"Point","coordinates":[-74.158469,40.931956]}},{"properties":{"lotsize":"25X100*","close date":"12/29/2010","city":"Paterson","dom":47,"geo_score":0.805,"last":75000,"baths":2.0,"units":2,"column_15":null,"rooms":8,"mlsnum":2813392,"sale":65000,"beds":4,"id":"a6ojirdrwhgf","geo_precision":"range","group":null,"address":"16 JANE ST*","original":85000,"state":"NJ"},"type":"Feature","geometry":{"type":"Point","coordinates":[-74.182381,40.924008]}},{"properties":{"lotsize":"28X97*","close date":"2/4/2011","city":"Paterson","dom":44,"geo_score":0.805,"last":300000,"baths":3.0,"units":3,"column_15":null,"rooms":13,"mlsnum":2814078,"sale":250000,"beds":6,"id":"a6ojirgji9xc","geo_precision":"range","group":null,"address":"111 LYON ST*","original":300000,"state":"NJ"},"type":"Feature","geometry":{"type":"Point","coordinates":[-74.159758,40.928935]}},{"properties":{"lotsize":"25X100*","close date":"2/1/2011","city":"Paterson","dom":53,"geo_score":0.805,"last":129000,"baths":4.0,"units":2,"column_15":null,"rooms":11,"mlsnum":2813703,"sale":125000,"beds":4,"id":"a6ojira1vkcc","geo_precision":"range","group":null,"address":"499 MAIN ST*","original":129000,"state":"NJ"},"type":"Feature","geometry":{"type":"Point","coordinates":[-74.171019,40.908747]}},{"properties":{"lotsize":"25X100*","close date":"12/2/2010","city":"Paterson","dom":2,"geo_score":0.805,"last":279000,"baths":4.0,"units":2,"column_15":null,"rooms":10,"mlsnum":2814042,"sale":260000,"beds":6,"id":"a6ojirebshjh","geo_precision":"range","group":10,"address":"9 PARK ST*","original":279000,"state":"NJ"},"type":"Feature","geometry":{"type":"Point","coordinates":[-74.186928,40.947012]}},{"properties":{"lotsize":"37X100*","close date":"2/28/2011","city":"Paterson","dom":10,"geo_score":0.707,"last":155000,"baths":3.0,"units":2,"column_15":null,"rooms":10,"mlsnum":2814071,"sale":155000,"beds":6,"id":"a6ojiriymmpw","geo_precision":"range","group":2,"address":"105 N 7TH ST*","original":155000,"state":"NJ"},"type":"Feature","geometry":{"type":"Point","coordinates":[-74.177877,40.928236]}},{"properties":{"lotsize":"50X102*","close date":"3/30/2011","city":"Paterson","dom":24,"geo_score":0.707,"last":149000,"baths":3.0,"units":2,"column_15":null,"rooms":10,"mlsnum":2815281,"sale":110000,"beds":4,"id":"a6ojirbpj02e","geo_precision":"range","group":null,"address":"409-411 9TH AVE*","original":149000,"state":"NJ"},"type":"Feature","geometry":{"type":"Point","coordinates":[-74.145924,40.926208]}},{"properties":{"lotsize":"25X100*","close date":"2/18/2011","city":"Paterson","dom":0,"geo_score":0.721,"last":68900,"baths":2.0,"units":2,"column_15":null,"rooms":10,"mlsnum":2815416,"sale":52000,"beds":4,"id":"a6ojireq8qlr","geo_precision":"range","group":null,"address":"202 17TH AVE*","original":68900,"state":"NJ"},"type":"Feature","geometry":{"type":"Point","coordinates":[-74.149353,40.912736]}},{"properties":{"lotsize":"37.5X100*","close date":"5/2/2011","city":"Paterson","dom":532,"geo_score":0.805,"last":160000,"baths":2.0,"units":2,"column_15":null,"rooms":10,"mlsnum":2816136,"sale":85000,"beds":4,"id":"a6ojirloo7c1","geo_precision":"range","group":5,"address":"74.5 KEEN ST*","original":160000,"state":"NJ"},"type":"Feature","geometry":{"type":"Point","coordinates":[-74.164932,40.927123]}},{"properties":{"lotsize":"50X100*","close date":"12/30/2010","city":"Paterson","dom":19,"geo_score":0.61,"last":130000,"baths":2.0,"units":2,"column_15":null,"rooms":10,"mlsnum":2816878,"sale":105000,"beds":4,"id":"a6ojirbg8tx3","geo_precision":"street","group":null,"address":"40891 ELIZABETH ST*","original":130000,"state":"NJ"},"type":"Feature","geometry":{"type":"Point","coordinates":[-74.161624,40.900208]}},{"properties":{"lotsize":"32X100*","close date":"3/22/2011","city":"Paterson","dom":103,"geo_score":0.721,"last":329900,"baths":3.0,"units":2,"column_15":null,"rooms":13,"mlsnum":2816893,"sale":315000,"beds":7,"id":"a6ojirfxhozq","geo_precision":"range","group":7,"address":"511-513 E 26TH ST*","original":329900,"state":"NJ"},"type":"Feature","geometry":{"type":"Point","coordinates":[-74.147917,40.921056]}},{"properties":{"lotsize":"50X100  +  50X100*","close date":"4/25/2011","city":"Paterson","dom":136,"geo_score":0.721,"last":325000,"baths":3.2,"units":2,"column_15":null,"rooms":16,"mlsnum":2817068,"sale":325000,"beds":8,"id":"a6ojirloyhjc","geo_precision":"range","group":null,"address":"772 E 24TH ST*","original":349999,"state":"NJ"},"type":"Feature","geometry":{"type":"Point","coordinates":[-74.151263,40.914166]}},{"properties":{"lotsize":"25X123*","close date":"5/6/2011","city":"Paterson","dom":1,"geo_score":0.805,"last":175000,"baths":4.0,"units":3,"column_15":null,"rooms":14,"mlsnum":2817210,"sale":195000,"beds":6,"id":"a6ojirhxnlbw","geo_precision":"range","group":null,"address":"125 MARION ST*","original":175000,"state":"NJ"},"type":"Feature","geometry":{"type":"Point","coordinates":[-74.181053,40.922319]}},{"properties":{"lotsize":"48X100*","close date":"5/3/2011","city":"Paterson","dom":39,"geo_score":0.721,"last":301103,"baths":3.1,"units":2,"column_15":null,"rooms":12,"mlsnum":2822054,"sale":275000,"beds":6,"id":"a6ojirk08bg9","geo_precision":"range","group":null,"address":"606 E 27TH ST*","original":301103,"state":"NJ"},"type":"Feature","geometry":{"type":"Point","coordinates":[-74.147822,40.917026]}},{"properties":{"lotsize":"25X77*","close date":"1/7/2011","city":"Paterson","dom":19,"geo_score":0.805,"last":45000,"baths":3.0,"units":2,"column_15":null,"rooms":12,"mlsnum":2817740,"sale":40000,"beds":8,"id":"a6ojirbjof69","geo_precision":"range","group":5,"address":"88 MERCER ST*","original":45000,"state":"NJ"},"type":"Feature","geometry":{"type":"Point","coordinates":[-74.160541,40.925966]}},{"properties":{"lotsize":"37X100*","close date":"1/6/2011","city":"Paterson","dom":16,"geo_score":0.721,"last":159900,"baths":2.0,"units":2,"column_15":null,"rooms":12,"mlsnum":2818359,"sale":105000,"beds":4,"id":"a6ojirimbplc","geo_precision":"range","group":null,"address":"442-444 E 31ST ST*","original":159900,"state":"NJ"},"type":"Feature","geometry":{"type":"Point","coordinates":[-74.145327,40.910681]}},{"properties":{"lotsize":"24X100*","close date":"3/9/2011","city":"Paterson","dom":69,"geo_score":0.805,"last":122500,"baths":3.0,"units":3,"column_15":null,"rooms":15,"mlsnum":2818696,"sale":143000,"beds":6,"id":"a6ojiraacoge","geo_precision":"range","group":null,"address":"355 STRAIGHT ST*","original":122500,"state":"NJ"},"type":"Feature","geometry":{"type":"Point","coordinates":[-74.166322,40.912026]}},{"properties":{"lotsize":"25X75*","close date":"3/10/2011","city":"Paterson","dom":26,"geo_score":0.805,"last":30000,"baths":3.0,"units":3,"column_15":null,"rooms":12,"mlsnum":2823250,"sale":65000,"beds":6,"id":"a6ojironmx5r","geo_precision":"range","group":null,"address":"71 MILL ST*","original":30000,"state":"NJ"},"type":"Feature","geometry":{"type":"Point","coordinates":[-74.1761,40.913638]}},{"properties":{"lotsize":"37.5X100","close date":"4/1/2011","city":"Paterson","dom":108,"geo_score":0.721,"last":290000,"baths":3.0,"units":3,"column_15":null,"rooms":19,"mlsnum":2819069,"sale":270000,"beds":8,"id":"a6ojirlkmyum","geo_precision":"range","group":null,"address":"11 18TH AVE","original":499900,"state":"NJ"},"type":"Feature","geometry":{"type":"Point","coordinates":[-74.155183,40.91199]}},{"properties":{"lotsize":"47X98*","close date":"4/6/2011","city":"Paterson","dom":124,"geo_score":0.721,"last":240000,"baths":1.0,"units":2,"column_15":null,"rooms":10,"mlsnum":2819104,"sale":240000,"beds":3,"id":"a6ojirhbefa7","geo_precision":"range","group":null,"address":"743-745 14TH AVE*","original":240000,"state":"NJ"},"type":"Feature","geometry":{"type":"Point","coordinates":[-74.142926,40.916017]}},{"properties":{"lotsize":"25X75*","close date":"2/1/2011","city":"Paterson","dom":10,"geo_score":0.805,"last":53900,"baths":2.0,"units":2,"column_15":null,"rooms":8,"mlsnum":2819169,"sale":51000,"beds":4,"id":"a6ojireruuvc","geo_precision":"range","group":4,"address":"43 BUTLER ST*","original":53900,"state":"NJ"},"type":"Feature","geometry":{"type":"Point","coordinates":[-74.155948,40.932998]}},{"properties":{"lotsize":"25X83*","close date":"3/28/2011","city":"Paterson","dom":70,"geo_score":0.721,"last":139000,"baths":4.0,"units":3,"column_15":null,"rooms":14,"mlsnum":2819815,"sale":100000,"beds":7,"id":"a6ojirkbcw9z","geo_precision":"range","group":8,"address":"24 17TH AVE*","original":139000,"state":"NJ"},"type":"Feature","geometry":{"type":"Point","coordinates":[-74.157529,40.913729]}},{"properties":{"lotsize":"50 X 75*","close date":"4/15/2011","city":"Paterson","dom":11,"geo_score":0.707,"last":345000,"baths":2.1,"units":2,"column_15":null,"rooms":10,"mlsnum":2819749,"sale":332000,"beds":3,"id":"a6ojird5rb5i","geo_precision":"range","group":2,"address":"126-128 N 9TH ST*","original":345000,"state":"NJ"},"type":"Feature","geometry":{"type":"Point","coordinates":[-74.178273,40.929779]}},{"properties":{"lotsize":"25X100*","close date":"4/11/2011","city":"Paterson","dom":104,"geo_score":0.805,"last":39900,"baths":3.0,"units":3,"column_15":null,"rooms":13,"mlsnum":2819793,"sale":40000,"beds":6,"id":"a6ojirpnfsm9","geo_precision":"range","group":6,"address":"76 GODWIN AVE*","original":64900,"state":"NJ"},"type":"Feature","geometry":{"type":"Point","coordinates":[-74.162795,40.920799]}},{"properties":{"lotsize":"50X100*","close date":"1/7/2011","city":"Paterson","dom":7,"geo_score":0.805,"last":124900,"baths":2.0,"units":2,"column_15":null,"rooms":10,"mlsnum":2820270,"sale":133000,"beds":4,"id":"a6ojirg94dwo","geo_precision":"range","group":10,"address":"313-315 PACIFIC ST*","original":124900,"state":"NJ"},"type":"Feature","geometry":{"type":"Point","coordinates":[-74.162659,40.895842]}},{"properties":{"lotsize":"75X150*","close date":"5/2/2011","city":"Paterson","dom":104,"geo_score":0.805,"last":197000,"baths":3.0,"units":2,"column_15":null,"rooms":9,"mlsnum":2820860,"sale":219000,"beds":5,"id":"a6ojirbfnaco","geo_precision":"range","group":null,"address":"118-122 VERNON AVE*","original":229900,"state":"NJ"},"type":"Feature","geometry":{"type":"Point","coordinates":[-74.14438,40.899211]}},{"properties":{"lotsize":"50X100*","close date":"3/15/2011","city":"Paterson","dom":45,"geo_score":0.805,"last":23000,"baths":2.0,"units":2,"column_15":null,"rooms":10,"mlsnum":2821194,"sale":30000,"beds":4,"id":"a6ojirg4tmj8","geo_precision":"range","group":3,"address":"129-131 E HOLSMAN ST*","original":29900,"state":"NJ"},"type":"Feature","geometry":{"type":"Point","coordinates":[-74.16674,40.928085]}},{"properties":{"lotsize":"25X90*","close date":"4/26/2011","city":"Paterson","dom":21,"geo_score":0.721,"last":129900,"baths":2.0,"units":2,"column_15":null,"rooms":10,"mlsnum":2821557,"sale":142000,"beds":4,"id":"a6ojirjj2r7a","geo_precision":"range","group":8,"address":"44 17TH AVE*","original":129900,"state":"NJ"},"type":"Feature","geometry":{"type":"Point","coordinates":[-74.15665,40.913601]}},{"properties":{"lotsize":"25X100*","close date":"4/12/2011","city":"Paterson","dom":41,"geo_score":0.805,"last":45000,"baths":2.0,"units":2,"column_15":null,"rooms":11,"mlsnum":2821800,"sale":25000,"beds":7,"id":"a6ojirdjcfne","geo_precision":"range","group":3,"address":"44 WATSON ST*","original":100000,"state":"NJ"},"type":"Feature","geometry":{"type":"Point","coordinates":[-74.167259,40.927241]}},{"properties":{"lotsize":"25X75*","close date":"2/18/2011","city":"Paterson","dom":13,"geo_score":0.805,"last":99900,"baths":4.0,"units":3,"column_15":null,"rooms":15,"mlsnum":2821794,"sale":110000,"beds":9,"id":"a6ojirkqgl8b","geo_precision":"range","group":1,"address":"147 ALBION AVE*","original":115900,"state":"NJ"},"type":"Feature","geometry":{"type":"Point","coordinates":[-74.187186,40.923308]}},{"properties":{"lotsize":"25 X 123*","close date":"4/18/2011","city":"Paterson","dom":113,"geo_score":0.721,"last":69900,"baths":2.1,"units":2,"column_15":null,"rooms":10,"mlsnum":2822109,"sale":35000,"beds":4,"id":"a6ojirol3hjy","geo_precision":"range","group":null,"address":"293 RIVER ST*","original":69900,"state":"NJ"},"type":"Feature","geometry":{"type":"Point","coordinates":[-74.164643,40.926739]}},{"properties":{"lotsize":"25X100*","close date":"3/24/2011","city":"Paterson","dom":82,"geo_score":0.721,"last":116000,"baths":2.0,"units":2,"column_15":null,"rooms":8,"mlsnum":2822420,"sale":86500,"beds":4,"id":"a6ojirm4czyz","geo_precision":"range","group":null,"address":"269 E 23RD ST*","original":145000,"state":"NJ"},"type":"Feature","geometry":{"type":"Point","coordinates":[-74.147866,40.930905]}},{"properties":{"lotsize":"50X110*","close date":"5/3/2011","city":"Paterson","dom":1,"geo_score":0.611,"last":389000,"baths":6.0,"units":4,"column_15":null,"rooms":28,"mlsnum":2822627,"sale":300000,"beds":18,"id":"a6ojireao89b","geo_precision":"street","group":null,"address":"575-577 BROADWAY*","original":389000,"state":"NJ"},"type":"Feature","geometry":{"type":"Point","coordinates":[-74.155628,40.918423]}},{"properties":{"lotsize":"25X200*","close date":"4/7/2011","city":"Paterson","dom":65,"geo_score":0.805,"last":64900,"baths":3.0,"units":3,"column_15":null,"rooms":11,"mlsnum":2822632,"sale":64900,"beds":5,"id":"a6ojirjh3tfm","geo_precision":"range","group":null,"address":"74 FRONT ST*","original":99900,"state":"NJ"},"type":"Feature","geometry":{"type":"Point","coordinates":[-74.183756,40.914345]}},{"properties":{"lotsize":"25X100*","close date":"4/19/2011","city":"Paterson","dom":11,"geo_score":0.805,"last":74900,"baths":2.0,"units":2,"column_15":null,"rooms":4,"mlsnum":2822652,"sale":74900,"beds":2,"id":"a6ojir9j0r99","geo_precision":"range","group":null,"address":"35 BELLE AVE*","original":74900,"state":"NJ"},"type":"Feature","geometry":{"type":"Point","coordinates":[-74.169354,40.931566]}},{"properties":{"lotsize":"25X100*","close date":"3/18/2011","city":"Paterson","dom":25,"geo_score":0.805,"last":69900,"baths":3.0,"units":3,"column_15":null,"rooms":11,"mlsnum":2822772,"sale":57000,"beds":5,"id":"a6ojirefgxe3","geo_precision":"range","group":null,"address":"172 JACKSON ST*","original":69900,"state":"NJ"},"type":"Feature","geometry":{"type":"Point","coordinates":[-74.169259,40.90695]}},{"properties":{"lotsize":"25X100*","close date":"5/3/2011","city":"Paterson","dom":79,"geo_score":0.805,"last":224900,"baths":3.0,"units":3,"column_15":null,"rooms":15,"mlsnum":2822818,"sale":185000,"beds":6,"id":"a6ojirga32oe","geo_precision":"range","group":10,"address":"242 SUSSEX ST*","original":249000,"state":"NJ"},"type":"Feature","geometry":{"type":"Point","coordinates":[-74.165585,40.896789]}},{"properties":{"lotsize":"37X99*","close date":"4/15/2011","city":"Paterson","dom":95,"geo_score":0.805,"last":74900,"baths":3.0,"units":3,"column_15":null,"rooms":14,"mlsnum":2823122,"sale":65000,"beds":7,"id":"a6ojirnejp9f","geo_precision":"range","group":null,"address":"240-242 SUMMER ST*","original":104900,"state":"NJ"},"type":"Feature","geometry":{"type":"Point","coordinates":[-74.163604,40.919312]}},{"properties":{"lotsize":"37X56*","close date":"3/16/2011","city":"Paterson","dom":52,"geo_score":0.805,"last":60000,"baths":4.1,"units":2,"column_15":null,"rooms":11,"mlsnum":2823172,"sale":57500,"beds":4,"id":"a6ojir9trxyz","geo_precision":"range","group":6,"address":"256-258 GOVERNOR ST*","original":75000,"state":"NJ"},"type":"Feature","geometry":{"type":"Point","coordinates":[-74.158244,40.922033]}},{"properties":{"lotsize":"34X100*","close date":"3/1/2011","city":"Paterson","dom":7,"geo_score":0.805,"last":65000,"baths":3.0,"units":3,"column_15":null,"rooms":12,"mlsnum":2823303,"sale":64500,"beds":8,"id":"a6ojirox8pua","geo_precision":"range","group":null,"address":"402 VAN HOUTEN ST*","original":65000,"state":"NJ"},"type":"Feature","geometry":{"type":"Point","coordinates":[-74.158186,40.917789]}},{"properties":{"lotsize":"25X100*","close date":"3/29/2011","city":"Paterson","dom":63,"geo_score":0.721,"last":108200,"baths":3.0,"units":3,"column_15":null,"rooms":15,"mlsnum":2823466,"sale":109000,"beds":6,"id":"a6ojirdr3pa4","geo_precision":"range","group":null,"address":"249 21ST AVE*","original":113850,"state":"NJ"},"type":"Feature","geometry":{"type":"Point","coordinates":[-74.163266,40.90761]}},{"properties":{"lotsize":"25X100*","close date":"3/4/2011","city":"Paterson","dom":24,"geo_score":0.707,"last":45000,"baths":2.0,"units":2,"column_15":null,"rooms":10,"mlsnum":2823619,"sale":38000,"beds":5,"id":"a6ojirh6dsoe","geo_precision":"range","group":null,"address":"161 N 3RD ST*","original":45000,"state":"NJ"},"type":"Feature","geometry":{"type":"Point","coordinates":[-74.172002,40.928373]}},{"properties":{"lotsize":"25X100*","close date":"2/18/2011","city":"Paterson","dom":28,"geo_score":0.805,"last":99900,"baths":3.1,"units":3,"column_15":null,"rooms":11,"mlsnum":2824005,"sale":98000,"beds":5,"id":"a6ojirj7h1kg","geo_precision":"range","group":4,"address":"87 BUTLER ST*","original":124900,"state":"NJ"},"type":"Feature","geometry":{"type":"Point","coordinates":[-74.157049,40.931908]}},{"properties":{"lotsize":"25X100*","close date":"2/28/2011","city":"Paterson","dom":21,"geo_score":0.707,"last":13900,"baths":2.0,"units":2,"column_15":null,"rooms":7,"mlsnum":2824033,"sale":12000,"beds":2,"id":"a6ojirc8dedy","geo_precision":"range","group":null,"address":"61 N 1ST ST*","original":16900,"state":"NJ"},"type":"Feature","geometry":{"type":"Point","coordinates":[-74.171018,40.926472]}},{"properties":{"lotsize":"25X100*","close date":"3/14/2011","city":"Paterson","dom":50,"geo_score":0.721,"last":95535,"baths":4.1,"units":2,"column_15":null,"rooms":8,"mlsnum":2824127,"sale":91000,"beds":6,"id":"a6ojiriyggmf","geo_precision":"range","group":6,"address":"132 12TH AVE*","original":95535,"state":"NJ"},"type":"Feature","geometry":{"type":"Point","coordinates":[-74.159999,40.921368]}},{"properties":{"lotsize":"36X71*","close date":"4/26/2011","city":"Paterson","dom":24,"geo_score":0.805,"last":70900,"baths":2.0,"units":2,"column_15":null,"rooms":10,"mlsnum":2824300,"sale":129900,"beds":4,"id":"a6ojirercpg7","geo_precision":"range","group":null,"address":"178-180 MANCHESTER AVE*","original":79900,"state":"NJ"},"type":"Feature","geometry":{"type":"Point","coordinates":[-74.19112,40.922458]}},{"properties":{"lotsize":"25X56*","close date":"2/28/2011","city":"Paterson","dom":28,"geo_score":0.805,"last":169900,"baths":4.0,"units":4,"column_15":null,"rooms":20,"mlsnum":2824924,"sale":157000,"beds":12,"id":"a6ojirin7ats","geo_precision":"range","group":null,"address":"142 MILL ST*","original":169900,"state":"NJ"},"type":"Feature","geometry":{"type":"Point","coordinates":[-74.174691,40.9113]}},{"properties":{"lotsize":"26X57*","close date":"2/28/2011","city":"Paterson","dom":29,"geo_score":0.721,"last":55788,"baths":2.0,"units":2,"column_15":null,"rooms":10,"mlsnum":2825813,"sale":48000,"beds":4,"id":"a6ojirchsudf","geo_precision":"range","group":8,"address":"720 E 18TH ST*","original":63395,"state":"NJ"},"type":"Feature","geometry":{"type":"Point","coordinates":[-74.156675,40.915057]}},{"properties":{"lotsize":"25X102*","close date":"2/23/2011","city":"Paterson","dom":13,"geo_score":0.721,"last":57200,"baths":2.0,"units":2,"column_15":null,"rooms":10,"mlsnum":2825921,"sale":54400,"beds":4,"id":"a6ojirp0j7sz","geo_precision":"range","group":null,"address":"546 E 18TH ST*","original":57200,"state":"NJ"},"type":"Feature","geometry":{"type":"Point","coordinates":[-74.154622,40.921412]}},{"properties":{"lotsize":"50X100*","close date":"3/2/2011","city":"Paterson","dom":25,"geo_score":0.805,"last":119900,"baths":2.0,"units":2,"column_15":null,"rooms":8,"mlsnum":2826342,"sale":126500,"beds":4,"id":"a6ojirfsp4ss","geo_precision":"range","group":1,"address":"25-27 DOREMUS ST*","original":119900,"state":"NJ"},"type":"Feature","geometry":{"type":"Point","coordinates":[-74.186406,40.924963]}},{"properties":{"lotsize":"40 X 94*","close date":"4/19/2011","city":"Paterson","dom":5,"geo_score":0.805,"last":99000,"baths":2.0,"units":2,"column_15":null,"rooms":8,"mlsnum":2838800,"sale":68000,"beds":4,"id":"a6ojirjpk720","geo_precision":"range","group":null,"address":"309-311 W BROADWAY*","original":99000,"state":"NJ"},"type":"Feature","geometry":{"type":"Point","coordinates":[-74.18326,40.92597]}},{"properties":{"lotsize":"25X100*","close date":"3/11/2011","city":"Paterson","dom":24,"geo_score":0.805,"last":54900,"baths":2.0,"units":2,"column_15":null,"rooms":8,"mlsnum":2827060,"sale":55000,"beds":4,"id":"a6ojirb4xms7","geo_precision":"range","group":null,"address":"298 ELLISON ST*","original":54900,"state":"NJ"},"type":"Feature","geometry":{"type":"Point","coordinates":[-74.1645,40.917325]}},{"properties":{"lotsize":"50x100","close date":"4/25/2011","city":"Paterson","dom":49,"geo_score":0.805,"last":249000,"baths":3.0,"units":3,"column_15":null,"rooms":15,"mlsnum":2827231,"sale":199000,"beds":6,"id":"a6ojirls8rrc","geo_precision":"range","group":1,"address":"177-179 KEARNEY ST","original":249000,"state":"NJ"},"type":"Feature","geometry":{"type":"Point","coordinates":[-74.183591,40.923466]}},{"properties":{"lotsize":"25X100*","close date":"5/1/2011","city":"Paterson","dom":48,"geo_score":0.805,"last":39900,"baths":3.0,"units":3,"column_15":null,"rooms":18,"mlsnum":2827387,"sale":40000,"beds":12,"id":"a6ojirm4866u","geo_precision":"range","group":5,"address":"69 GRAHAM AVE*","original":39900,"state":"NJ"},"type":"Feature","geometry":{"type":"Point","coordinates":[-74.189029,40.971129]}},{"properties":{"lotsize":"50X100*","close date":"4/25/2011","city":"Paterson","dom":91,"geo_score":0.805,"last":310000,"baths":3.0,"units":3,"column_15":null,"rooms":15,"mlsnum":2827643,"sale":285000,"beds":6,"id":"a6ojirdoqmnc","geo_precision":"range","group":11,"address":"193-195 KNICKERBOCKER AVE*","original":310000,"state":"NJ"},"type":"Feature","geometry":{"type":"Point","coordinates":[-74.153477,40.890667]}},{"properties":{"lotsize":"25X100*","close date":"2/1/2011","city":"Paterson","dom":4,"geo_score":0.805,"last":200000,"baths":4.0,"units":2,"column_15":null,"rooms":10,"mlsnum":2829358,"sale":150000,"beds":4,"id":"a6ojirf8kcj8","geo_precision":"range","group":null,"address":"22 LEWIS ST*","original":200000,"state":"NJ"},"type":"Feature","geometry":{"type":"Point","coordinates":[-74.158483,40.910775]}},{"properties":{"lotsize":"37X98*","close date":"2/28/2011","city":"Paterson","dom":29,"geo_score":0.805,"last":49900,"baths":2.0,"units":2,"column_15":null,"rooms":10,"mlsnum":2828918,"sale":60000,"beds":6,"id":"a6ojirn85pea","geo_precision":"range","group":5,"address":"87-89 MERCER ST*","original":49900,"state":"NJ"},"type":"Feature","geometry":{"type":"Point","coordinates":[-74.160535,40.926034]}},{"properties":{"lotsize":"25X93*","close date":"4/28/2011","city":"Paterson","dom":20,"geo_score":0.805,"last":22900,"baths":2.0,"units":2,"column_15":null,"rooms":10,"mlsnum":2829163,"sale":22900,"beds":3,"id":"a6ojirp2jhw9","geo_precision":"range","group":null,"address":"150 E MAIN ST*","original":22900,"state":"NJ"},"type":"Feature","geometry":{"type":"Point","coordinates":[-74.168531,40.93111]}},{"properties":{"lotsize":"25X100*","close date":"3/17/2011","city":"Paterson","dom":49,"geo_score":0.805,"last":29900,"baths":3.0,"units":2,"column_15":null,"rooms":8,"mlsnum":2829290,"sale":29900,"beds":3,"id":"a6ojires0uy8","geo_precision":"range","group":6,"address":"121 GODWIN AVE*","original":44900,"state":"NJ"},"type":"Feature","geometry":{"type":"Point","coordinates":[-74.160931,40.920729]}},{"properties":{"lotsize":"25X75*","close date":"2/2/2011","city":"Paterson","dom":4,"geo_score":0.805,"last":136000,"baths":2.0,"units":2,"column_15":null,"rooms":11,"mlsnum":2829368,"sale":132000,"beds":5,"id":"a6ojirojo2vk","geo_precision":"range","group":9,"address":"19 CHESTNUT ST*","original":136000,"state":"NJ"},"type":"Feature","geometry":{"type":"Point","coordinates":[-74.162726,40.910041]}},{"properties":{"lotsize":"45X100*","close date":"3/31/2011","city":"Paterson","dom":32,"geo_score":0.805,"last":95000,"baths":3.0,"units":2,"column_15":null,"rooms":10,"mlsnum":2829432,"sale":95000,"beds":4,"id":"a6ojirhbht91","geo_precision":"range","group":null,"address":"176-180 LAWRENCE PL*","original":95000,"state":"NJ"},"type":"Feature","geometry":{"type":"Point","coordinates":[-74.155164,40.923927]}},{"properties":{"lotsize":"25 X 100*","close date":"4/11/2011","city":"Paterson","dom":4,"geo_score":0.805,"last":116500,"baths":3.0,"units":2,"column_15":null,"rooms":10,"mlsnum":2830250,"sale":117000,"beds":5,"id":"a6ojiregu7d9","geo_precision":"range","group":null,"address":"60 ALBION AVE*","original":116500,"state":"NJ"},"type":"Feature","geometry":{"type":"Point","coordinates":[-74.184459,40.921]}},{"properties":{"lotsize":"50X85*","close date":"4/8/2011","city":"Paterson","dom":6,"geo_score":0.721,"last":42000,"baths":2.0,"units":2,"column_15":null,"rooms":9,"mlsnum":2830802,"sale":42000,"beds":5,"id":"a6ojirm1g9ib","geo_precision":"range","group":8,"address":"788 E 19TH ST*","original":42000,"state":"NJ"},"type":"Feature","geometry":{"type":"Point","coordinates":[-74.156101,40.914016]}},{"properties":{"lotsize":"25X100*","close date":"5/9/2011","city":"Paterson","dom":16,"geo_score":0.805,"last":124900,"baths":2.0,"units":2,"column_15":null,"rooms":10,"mlsnum":2831430,"sale":130000,"beds":6,"id":"a6ojirg67y2w","geo_precision":"range","group":9,"address":"118 MADISON ST*","original":124900,"state":"NJ"},"type":"Feature","geometry":{"type":"Point","coordinates":[-74.16542,40.910735]}},{"properties":{"lotsize":"25X100*","close date":"4/29/2011","city":"Paterson","dom":59,"geo_score":0.707,"last":25000,"baths":2.0,"units":2,"column_15":null,"rooms":10,"mlsnum":2831835,"sale":26000,"beds":4,"id":"a6ojirorrcc3","geo_precision":"range","group":2,"address":"87 N 7TH ST*","original":49900,"state":"NJ"},"type":"Feature","geometry":{"type":"Point","coordinates":[-74.166853,40.935389]}},{"properties":{"lotsize":"25X100*","close date":"4/11/2011","city":"Paterson","dom":36,"geo_score":0.805,"last":98500,"baths":2.0,"units":2,"column_15":null,"rooms":10,"mlsnum":2833065,"sale":98500,"beds":6,"id":"a6ojirovkh9s","geo_precision":"range","group":1,"address":"171 KEARNEY ST*","original":98500,"state":"NJ"},"type":"Feature","geometry":{"type":"Point","coordinates":[-74.183469,40.923326]}},{"properties":{"lotsize":"50X92*","close date":"3/23/2011","city":"Paterson","dom":16,"geo_score":0.805,"last":249000,"baths":2.0,"units":2,"column_15":null,"rooms":9,"mlsnum":2837549,"sale":225000,"beds":4,"id":"a6ojirlrauzl","geo_precision":"range","group":null,"address":"96-98 ROSSITER AVE*","original":249000,"state":"NJ"},"type":"Feature","geometry":{"type":"Point","coordinates":[-74.191887,40.917605]}},{"properties":{"lotsize":"25X100*","close date":"4/14/2011","city":"Paterson","dom":7,"geo_score":0.721,"last":56900,"baths":3.0,"units":2,"column_15":null,"rooms":11,"mlsnum":2842959,"sale":58000,"beds":5,"id":"a6ojirll7ckh","geo_precision":"range","group":null,"address":"931 E 19TH ST*","original":56900,"state":"NJ"},"type":"Feature","geometry":{"type":"Point","coordinates":[-74.157577,40.909278]}},{"properties":{"lotsize":"25&amp;X82*","close date":"4/27/2011","city":"Paterson","dom":5,"geo_score":0.721,"last":45000,"baths":1.0,"units":2,"column_15":null,"rooms":6,"mlsnum":2847007,"sale":40000,"beds":3,"id":"a6ojirdwv34i","geo_precision":"range","group":7,"address":"574 E 24TH ST*","original":45000,"state":"NJ"},"type":"Feature","geometry":{"type":"Point","coordinates":[-74.149858,40.92072]}}],"is_temporal":false,"author":{"url":"","metadata":"","contact_name":"","contact_address":"","source":"","contact_phone":""},"source":"","pagination":{"sort":null,"start":0,"total":186,"limit":1000000},"state":"complete","tags":"","published":"2014-08-13T06:06:53-04:00","id":116114}