{"type":"FeatureCollection","data_type":"Dataset","url_type":null,"permissions":[{"permissions":{"download":true,"view":true},"group_id":"everyone"}],"classification":null,"title":"LA foreclosures data 1q2008","count":269,"stream_id":116209,"contributor":{"url":"http://geocommons.com/users/2712","name":"dianamaps"},"data_attributes":null,"calculation_params":null,"icon_link":null,"link":"http://geocommons.com/overlays/116209.json","extent":[-118.818,33.7397,-117.715,34.7297],"geometry_types":["point"],"unique_name":null,"name":"LA foreclosures data 1q2008","feature_count":269,"description":"","next_feature":null,"is_raster":false,"short_classification":"Y","stats":{"foreclosures first quarter 2008":{"max":345,"mean":26.3932584269663,"variance":1649.79589422996,"stdev":40.6176795771245,"min":0,"median":15},"households per foreclosure":{"max":21771.0,"mean":1392.90374517375,"variance":4653998.7487429,"stdev":2157.31285370085,"min":49.39,"median":684.23}},"features":[{"properties":{"name":"LA/Firestone PK","zipcode":"90001","foreclosures first quarter 2008":24,"id":"a63e0ur7rzsm","households per foreclosure":584.38},"type":"Feature","geometry":null},{"properties":{"name":"LA/Watts","zipcode":"90002","foreclosures first quarter 2008":50,"id":"a63e0uocr3vh","households per foreclosure":237.44},"type":"Feature","geometry":{"type":"Point","coordinates":[-118.2460435,33.9490645]}},{"properties":{"name":"LA","zipcode":"90003","foreclosures first quarter 2008":48,"id":"a63e0uob0gs9","households per foreclosure":336.96},"type":"Feature","geometry":{"type":"Point","coordinates":[-118.2738065,33.9637645]}},{"properties":{"name":"LA","zipcode":"90004","foreclosures first quarter 2008":12,"id":"a63e0url96g4","households per foreclosure":2010.0},"type":"Feature","geometry":{"type":"Point","coordinates":[-118.3104225,34.076178]}},{"properties":{"name":"LA/Sanford","zipcode":"90005","foreclosures first quarter 2008":11,"id":"a63e0v0bki75","households per foreclosure":1350.27},"type":"Feature","geometry":{"type":"Point","coordinates":[-118.3102585,34.0596375]}},{"properties":{"name":"LA","zipcode":"90006","foreclosures first quarter 2008":8,"id":"a63e0um8g7rx","households per foreclosure":2366.62},"type":"Feature","geometry":{"type":"Point","coordinates":[-118.292258,34.047743]}},{"properties":{"name":"LA/Dockweiler","zipcode":"90007","foreclosures first quarter 2008":4,"id":"a63e0uyf448l","households per foreclosure":3236.0},"type":"Feature","geometry":{"type":"Point","coordinates":[-118.2819575,34.026558]}},{"properties":{"name":"LA/Baldwin Hills","zipcode":"90008","foreclosures first quarter 2008":22,"id":"a63e0uqwdywv","households per foreclosure":626.36},"type":"Feature","geometry":{"type":"Point","coordinates":[-118.345159,34.006262]}},{"properties":{"name":"LA","zipcode":"90010","foreclosures first quarter 2008":0,"id":"a63e0uq0fwz3","households per foreclosure":null},"type":"Feature","geometry":{"type":"Point","coordinates":[-118.330909,34.06286]}},{"properties":{"name":"LA","zipcode":"90011","foreclosures first quarter 2008":24,"id":"a63e0ukmzsu1","households per foreclosure":964.0},"type":"Feature","geometry":{"type":"Point","coordinates":[-118.2583065,34.009313]}},{"properties":{"name":"LA","zipcode":"90012","foreclosures first quarter 2008":6,"id":"a63e0umzpo1g","households per foreclosure":1667.83},"type":"Feature","geometry":{"type":"Point","coordinates":[-118.2423065,34.068243]}},{"properties":{"name":"LA","zipcode":"90015","foreclosures first quarter 2008":3,"id":"a63e0um7lwzx","households per foreclosure":2376.33},"type":"Feature","geometry":{"type":"Point","coordinates":[-118.2665745,34.039612]}},{"properties":{"name":"LA","zipcode":"90016","foreclosures first quarter 2008":24,"id":"a63e0utvd3qk","households per foreclosure":687.58},"type":"Feature","geometry":{"type":"Point","coordinates":[-118.3574595,34.0291615]}},{"properties":{"name":"LA","zipcode":"90018","foreclosures first quarter 2008":18,"id":"a63e0upmuy14","households per foreclosure":946.56},"type":"Feature","geometry":{"type":"Point","coordinates":[-118.3176585,34.0283115]}},{"properties":{"name":"LA","zipcode":"90019","foreclosures first quarter 2008":22,"id":"a63e0uq5nscg","households per foreclosure":1158.5},"type":"Feature","geometry":{"type":"Point","coordinates":[-118.339959,34.0487605]}},{"properties":{"name":"LA","zipcode":"90020","foreclosures first quarter 2008":11,"id":"a63e0uyeu5p5","households per foreclosure":1645.27},"type":"Feature","geometry":{"type":"Point","coordinates":[-118.3108585,34.06701]}},{"properties":{"name":"Los Angeles","zipcode":"90021","foreclosures first quarter 2008":null,"id":"a63e0upbjs2a","households per foreclosure":null},"type":"Feature","geometry":{"type":"Point","coordinates":[-118.2406565,34.0304125]}},{"properties":{"name":"LA/East L.A.","zipcode":"90022","foreclosures first quarter 2008":6,"id":"a63e0urijjku","households per foreclosure":3174.0},"type":"Feature","geometry":{"type":"Point","coordinates":[-118.1517035,34.0292115]}},{"properties":{"name":"LA","zipcode":"90023","foreclosures first quarter 2008":6,"id":"a63e0uopcoqc","households per foreclosure":1822.17},"type":"Feature","geometry":{"type":"Point","coordinates":[-118.199955,34.0156745]}},{"properties":{"name":"LA/Westwood","zipcode":"90024","foreclosures first quarter 2008":7,"id":"a63e0ux37kyg","households per foreclosure":2708.86},"type":"Feature","geometry":{"type":"Point","coordinates":[-118.4336125,34.065675]}},{"properties":{"name":"LA/West LA","zipcode":"90025","foreclosures first quarter 2008":1,"id":"a63e0usjxkqs","households per foreclosure":21771.0},"type":"Feature","geometry":{"type":"Point","coordinates":[-118.4406625,34.0499095]}},{"properties":{"name":"LA/Echo Park","zipcode":"90026","foreclosures first quarter 2008":8,"id":"a63e0ulkvy3x","households per foreclosure":3195.5},"type":"Feature","geometry":{"type":"Point","coordinates":[-118.2626775,34.0763735]}},{"properties":{"name":"LA","zipcode":"90027","foreclosures first quarter 2008":7,"id":"a63e0um3nhtg","households per foreclosure":3365.43},"type":"Feature","geometry":{"type":"Point","coordinates":[-118.289259,34.1281075]}},{"properties":{"name":"LA/Hollywood","zipcode":"90028","foreclosures first quarter 2008":2,"id":"a63e0uxhrh3w","households per foreclosure":7435.5},"type":"Feature","geometry":{"type":"Point","coordinates":[-118.3275095,34.099809]}},{"properties":{"name":"LA","zipcode":"90029","foreclosures first quarter 2008":6,"id":"a63e0uvu4es4","households per foreclosure":2357.17},"type":"Feature","geometry":{"type":"Point","coordinates":[-118.2943085,34.089759]}},{"properties":{"name":"LA/Lincoln Hgts","zipcode":"90031","foreclosures first quarter 2008":5,"id":"a63e0uz6djqk","households per foreclosure":2194.6},"type":"Feature","geometry":{"type":"Point","coordinates":[-118.2079555,34.07981]}},{"properties":{"name":"LA/El Sereno","zipcode":"90032","foreclosures first quarter 2008":24,"id":"a63e0uobolwn","households per foreclosure":577.17},"type":"Feature","geometry":{"type":"Point","coordinates":[-118.179205,34.08151]}},{"properties":{"name":"LA/Boyle Heights","zipcode":"90033","foreclosures first quarter 2008":4,"id":"a63e0ulctpyr","households per foreclosure":3136.75},"type":"Feature","geometry":{"type":"Point","coordinates":[-118.2111055,34.0497615]}},{"properties":{"name":"LA","zipcode":"90034","foreclosures first quarter 2008":4,"id":"a63e0uw4q04x","households per foreclosure":6779.75},"type":"Feature","geometry":{"type":"Point","coordinates":[-118.399277,34.0287495]}},{"properties":{"name":"LA","zipcode":"90035","foreclosures first quarter 2008":2,"id":"a63e0usl9uil","households per foreclosure":6829.0},"type":"Feature","geometry":{"type":"Point","coordinates":[-118.3851755,34.0522595]}},{"properties":{"name":"LA","zipcode":"90036","foreclosures first quarter 2008":6,"id":"a63e0uualred","households per foreclosure":3146.67},"type":"Feature","geometry":{"type":"Point","coordinates":[-118.3502095,34.0703115]}},{"properties":{"name":"LA","zipcode":"90037","foreclosures first quarter 2008":12,"id":"a63e0uwt1175","households per foreclosure":1273.08},"type":"Feature","geometry":{"type":"Point","coordinates":[-118.2870575,34.0035635]}},{"properties":{"name":"Wst Hollywd/LA","zipcode":"90038","foreclosures first quarter 2008":2,"id":"a63e0urjrkmw","households per foreclosure":6179.0},"type":"Feature","geometry":{"type":"Point","coordinates":[-118.3272095,34.089159]}},{"properties":{"name":"LA","zipcode":"90039","foreclosures first quarter 2008":5,"id":"a63e0uvq3wwi","households per foreclosure":2377.0},"type":"Feature","geometry":{"type":"Point","coordinates":[-118.2522075,34.1173085]}},{"properties":{"name":"LA/CtyofCmmrc","zipcode":"90040","foreclosures first quarter 2008":3,"id":"a63e0usi4g6n","households per foreclosure":1197.0},"type":"Feature","geometry":{"type":"Point","coordinates":[-118.1596535,33.992663]}},{"properties":{"name":"LA/Eagle Rock","zipcode":"90041","foreclosures first quarter 2008":8,"id":"a63e0uw4f6eo","households per foreclosure":1262.12},"type":"Feature","geometry":{"type":"Point","coordinates":[-118.205456,34.1338575]}},{"properties":{"name":"LA/Highland Park","zipcode":"90042","foreclosures first quarter 2008":42,"id":"a63e0uziz30x","households per foreclosure":478.67},"type":"Feature","geometry":{"type":"Point","coordinates":[-118.1913735,34.113558]}},{"properties":{"name":"LA/View Park/Windsor Hills","zipcode":"90043","foreclosures first quarter 2008":46,"id":"a63e0uoo6eb1","households per foreclosure":355.87},"type":"Feature","geometry":{"type":"Point","coordinates":[-118.3378585,33.985363]}},{"properties":{"name":"LA/August F. Haw","zipcode":"90044","foreclosures first quarter 2008":58,"id":"a63e0uql0qwz","households per foreclosure":455.52},"type":"Feature","geometry":{"type":"Point","coordinates":[-118.2956055,33.951714]}},{"properties":{"name":"LA/Westchester","zipcode":"90045","foreclosures first quarter 2008":6,"id":"a63e0uo5q1hn","households per foreclosure":2869.67},"type":"Feature","geometry":{"type":"Point","coordinates":[-118.4040865,33.956868]}},{"properties":{"name":"Wst Hollywd/LA","zipcode":"90046","foreclosures first quarter 2008":12,"id":"a63e0uoal0hk","households per foreclosure":2508.67},"type":"Feature","geometry":{"type":"Point","coordinates":[-118.371861,34.107008]}},{"properties":{"name":"LA","zipcode":"90047","foreclosures first quarter 2008":66,"id":"a63e0utsz42o","households per foreclosure":251.44},"type":"Feature","geometry":{"type":"Point","coordinates":[-118.30935,33.9534135]}},{"properties":{"name":"Wst Hollywd/LA","zipcode":"90048","foreclosures first quarter 2008":1,"id":"a63e0ur6deqt","households per foreclosure":12748.0},"type":"Feature","geometry":{"type":"Point","coordinates":[-118.376245,34.0709615]}},{"properties":{"name":"LA/Brentwood","zipcode":"90049","foreclosures first quarter 2008":0,"id":"a63e0ul2390k","households per foreclosure":null},"type":"Feature","geometry":{"type":"Point","coordinates":[-118.4896325,34.0863575]}},{"properties":{"name":"LA/Ladera Hgts","zipcode":"90056","foreclosures first quarter 2008":5,"id":"a63e0uukotn6","households per foreclosure":725.6},"type":"Feature","geometry":{"type":"Point","coordinates":[-118.372359,33.98738]}},{"properties":{"name":"LA","zipcode":"90057","foreclosures first quarter 2008":5,"id":"a63e0uy41vfo","households per foreclosure":3231.6},"type":"Feature","geometry":{"type":"Point","coordinates":[-118.2755075,34.062084]}},{"properties":{"name":"Los Angeles","zipcode":"90058","foreclosures first quarter 2008":2,"id":"a63e0uvvuavi","households per foreclosure":478.0},"type":"Feature","geometry":{"type":"Point","coordinates":[-118.212905,34.0020635]}},{"properties":{"name":"LA/August F. Haw","zipcode":"90059","foreclosures first quarter 2008":56,"id":"a63e0uz3gsyw","households per foreclosure":185.62},"type":"Feature","geometry":{"type":"Point","coordinates":[-118.2453105,33.920665]}},{"properties":{"name":"LA/August F. Haw","zipcode":"90061","foreclosures first quarter 2008":19,"id":"a63e0ul73ssp","households per foreclosure":338.89},"type":"Feature","geometry":{"type":"Point","coordinates":[-118.275806,33.920465]}},{"properties":{"name":"LA","zipcode":"90062","foreclosures first quarter 2008":27,"id":"a63e0ur0uoey","households per foreclosure":326.11},"type":"Feature","geometry":{"type":"Point","coordinates":[-118.3091575,34.003589]}},{"properties":{"name":"LA","zipcode":"90063","foreclosures first quarter 2008":12,"id":"a63e0us2fenz","households per foreclosure":1208.25},"type":"Feature","geometry":{"type":"Point","coordinates":[-118.1874045,34.0437615]}},{"properties":{"name":"LA/Rancho Park","zipcode":"90064","foreclosures first quarter 2008":4,"id":"a63e0v0bv4bv","households per foreclosure":2706.75},"type":"Feature","geometry":{"type":"Point","coordinates":[-118.4297615,34.0381595]}},{"properties":{"name":"LA/Glassell","zipcode":"90065","foreclosures first quarter 2008":28,"id":"a63e0urcaird","households per foreclosure":530.79},"type":"Feature","geometry":{"type":"Point","coordinates":[-118.2287045,34.108059]}},{"properties":{"name":"LA/Mar Vista","zipcode":"90066","foreclosures first quarter 2008":7,"id":"a63e0uv8m67k","households per foreclosure":3466.71},"type":"Feature","geometry":{"type":"Point","coordinates":[-118.4355305,34.0038855]}},{"properties":{"name":"LA/Century City","zipcode":"90067","foreclosures first quarter 2008":4,"id":"a63e0usnq3os","households per foreclosure":417.25},"type":"Feature","geometry":{"type":"Point","coordinates":[-118.413583,34.0576095]}},{"properties":{"name":"LA/Hollywood","zipcode":"90068","foreclosures first quarter 2008":13,"id":"a63e0usno2m5","households per foreclosure":1026.46},"type":"Feature","geometry":{"type":"Point","coordinates":[-118.3388105,34.130007]}},{"properties":{"name":"Wst Hollywd/LA","zipcode":"90069","foreclosures first quarter 2008":15,"id":"a63e0unxf09e","households per foreclosure":941.73},"type":"Feature","geometry":{"type":"Point","coordinates":[-118.3818115,34.0943085]}},{"properties":{"name":"LA/Bel-Air","zipcode":"90077","foreclosures first quarter 2008":3,"id":"a63e0ulgnfhn","households per foreclosure":1230.0},"type":"Feature","geometry":{"type":"Point","coordinates":[-118.4538465,34.102657]}},{"properties":{"name":"Playa Vista","zipcode":"90094","foreclosures first quarter 2008":0,"id":"a63e0uza6lxs","households per foreclosure":null},"type":"Feature","geometry":null},{"properties":{"name":"Bell","zipcode":"90201","foreclosures first quarter 2008":15,"id":"a63e0umn4raa","households per foreclosure":1619.8},"type":"Feature","geometry":{"type":"Point","coordinates":[-118.1524815,33.9761135]}},{"properties":{"name":"Beverly Hills","zipcode":"90210","foreclosures first quarter 2008":3,"id":"a63e0v0a448q","households per foreclosure":3259.0},"type":"Feature","geometry":{"type":"Point","coordinates":[-118.4115125,34.099558]}},{"properties":{"name":"Beverly Hills","zipcode":"90211","foreclosures first quarter 2008":1,"id":"a63e0ux0l2o1","households per foreclosure":3675.0},"type":"Feature","geometry":{"type":"Point","coordinates":[-118.3812605,34.0645095]}},{"properties":{"name":"Beverly Hills","zipcode":"90212","foreclosures first quarter 2008":3,"id":"a63e0v0078sx","households per foreclosure":1963.67},"type":"Feature","geometry":{"type":"Point","coordinates":[-118.402145,34.0601175]}},{"properties":{"name":"Compton","zipcode":"90220","foreclosures first quarter 2008":58,"id":"a63e0uutcj0l","households per foreclosure":220.93},"type":"Feature","geometry":{"type":"Point","coordinates":[-118.240604,33.874874]}},{"properties":{"name":"Compton","zipcode":"90221","foreclosures first quarter 2008":42,"id":"a63e0v0k100y","households per foreclosure":283.79},"type":"Feature","geometry":{"type":"Point","coordinates":[-118.2028355,33.8787155]}},{"properties":{"name":"Compton","zipcode":"90222","foreclosures first quarter 2008":41,"id":"a63e0uosg698","households per foreclosure":185.37},"type":"Feature","geometry":{"type":"Point","coordinates":[-118.2388545,33.914465]}},{"properties":{"name":"Culver City","zipcode":"90230","foreclosures first quarter 2008":7,"id":"a63e0umdktpm","households per foreclosure":2002.71},"type":"Feature","geometry":{"type":"Point","coordinates":[-118.405511,34.0007285]}},{"properties":{"name":"Culver City","zipcode":"90232","foreclosures first quarter 2008":0,"id":"a63e0uyu0k0u","households per foreclosure":null},"type":"Feature","geometry":{"type":"Point","coordinates":[-118.3928105,34.020161]}},{"properties":{"name":"Downey","zipcode":"90240","foreclosures first quarter 2008":33,"id":"a63e0uxzk9nt","households per foreclosure":219.55},"type":"Feature","geometry":{"type":"Point","coordinates":[-118.130252,33.969363]}},{"properties":{"name":"Downey","zipcode":"90241","foreclosures first quarter 2008":34,"id":"a63e0uw67ju9","households per foreclosure":418.76},"type":"Feature","geometry":{"type":"Point","coordinates":[-118.130657,33.941864]}},{"properties":{"name":"Downey","zipcode":"90242","foreclosures first quarter 2008":37,"id":"a63e0uz8h7hg","households per foreclosure":352.68},"type":"Feature","geometry":{"type":"Point","coordinates":[-118.139575,33.923137]}},{"properties":{"name":"El Segundo","zipcode":"90245","foreclosures first quarter 2008":1,"id":"a63e0uzp5l6i","households per foreclosure":7347.0},"type":"Feature","geometry":{"type":"Point","coordinates":[-118.4040933,33.9163625]}},{"properties":{"name":"Gardena","zipcode":"90247","foreclosures first quarter 2008":23,"id":"a63e0upknk2f","households per foreclosure":720.43},"type":"Feature","geometry":{"type":"Point","coordinates":[-118.299306,33.8937155]}},{"properties":{"name":"Gardena","zipcode":"90248","foreclosures first quarter 2008":7,"id":"a63e0upxd70s","households per foreclosure":493.14},"type":"Feature","geometry":{"type":"Point","coordinates":[-118.2868055,33.8807655]}},{"properties":{"name":"Gardena","zipcode":"90249","foreclosures first quarter 2008":14,"id":"a63e0uxjcss9","households per foreclosure":640.71},"type":"Feature","geometry":{"type":"Point","coordinates":[-118.3175065,33.899315]}},{"properties":{"name":"Hawthorne","zipcode":"90250","foreclosures first quarter 2008":47,"id":"a63e0upqeezv","households per foreclosure":677.66},"type":"Feature","geometry":{"type":"Point","coordinates":[-118.3439385,33.912989]}},{"properties":{"name":"Hermosa Beach","zipcode":"90254","foreclosures first quarter 2008":3,"id":"a63e0ux4dj1v","households per foreclosure":3423.67},"type":"Feature","geometry":{"type":"Point","coordinates":[-118.3971012,33.8650348]}},{"properties":{"name":"Huntington Park","zipcode":"90255","foreclosures first quarter 2008":34,"id":"a63e0uwlb5dd","households per foreclosure":575.85},"type":"Feature","geometry":{"type":"Point","coordinates":[-118.2133385,33.976359]}},{"properties":{"name":"Lawndale","zipcode":"90260","foreclosures first quarter 2008":17,"id":"a63e0uxaysv8","households per foreclosure":603.59},"type":"Feature","geometry":{"type":"Point","coordinates":[-118.3547575,33.887214]}},{"properties":{"name":"Lynwood","zipcode":"90262","foreclosures first quarter 2008":39,"id":"a63e0urpw9i1","households per foreclosure":366.95},"type":"Feature","geometry":{"type":"Point","coordinates":[-118.203212,33.925115]}},{"properties":{"name":"Malibu","zipcode":"90265","foreclosures first quarter 2008":1,"id":"a63e0us5mw1c","households per foreclosure":7518.0},"type":"Feature","geometry":{"type":"Point","coordinates":[-118.8177252,34.0702625]}},{"properties":{"name":"Manhattan Beach","zipcode":"90266","foreclosures first quarter 2008":2,"id":"a63e0uz89jjd","households per foreclosure":7917.0},"type":"Feature","geometry":{"type":"Point","coordinates":[-118.4011345,33.889343]}},{"properties":{"name":"Maywood","zipcode":"90270","foreclosures first quarter 2008":3,"id":"a63e0uspwap8","households per foreclosure":2175.0},"type":"Feature","geometry":{"type":"Point","coordinates":[-118.186854,33.9882295]}},{"properties":{"name":"Pacific Palisades","zipcode":"90272","foreclosures first quarter 2008":1,"id":"a63e0ur7dk66","households per foreclosure":9348.0},"type":"Feature","geometry":{"type":"Point","coordinates":[-118.5466575,34.0797095]}},{"properties":{"name":"Palos Verdes Pen.","zipcode":"90274","foreclosures first quarter 2008":2,"id":"a63e0ux6chkp","households per foreclosure":4993.5},"type":"Feature","geometry":{"type":"Point","coordinates":[-118.371606,33.773216]}},{"properties":{"name":"Rancho P.V.","zipcode":"90275","foreclosures first quarter 2008":6,"id":"a63e0uuhe41l","households per foreclosure":2665.17},"type":"Feature","geometry":null},{"properties":{"name":"Redondo Beach","zipcode":"90277","foreclosures first quarter 2008":9,"id":"a63e0uxmqect","households per foreclosure":1973.22},"type":"Feature","geometry":{"type":"Point","coordinates":[-118.3852835,33.8310645]}},{"properties":{"name":"Redondo Beach","zipcode":"90278","foreclosures first quarter 2008":7,"id":"a63e0uznelrj","households per foreclosure":2456.14},"type":"Feature","geometry":{"type":"Point","coordinates":[-118.3720575,33.875514]}},{"properties":{"name":"South Gate","zipcode":"90280","foreclosures first quarter 2008":43,"id":"a63e0uu16tqd","households per foreclosure":557.35},"type":"Feature","geometry":{"type":"Point","coordinates":[-118.201654,33.948009]}},{"properties":{"name":"Topanga","zipcode":"90290","foreclosures first quarter 2008":0,"id":"a63e0up87qa0","households per foreclosure":null},"type":"Feature","geometry":{"type":"Point","coordinates":[-118.607814,34.1038455]}},{"properties":{"name":"Venice","zipcode":"90291","foreclosures first quarter 2008":0,"id":"a63e0unborqw","households per foreclosure":null},"type":"Feature","geometry":{"type":"Point","coordinates":[-118.4636764,33.99430419]}},{"properties":{"name":"Marina del Rey","zipcode":"90292","foreclosures first quarter 2008":9,"id":"a63e0uu4pvld","households per foreclosure":1329.56},"type":"Feature","geometry":{"type":"Point","coordinates":[-118.4461789,33.97833618]}},{"properties":{"name":"Playa del Rey","zipcode":"90293","foreclosures first quarter 2008":2,"id":"a63e0uqfvpyy","households per foreclosure":2923.0},"type":"Feature","geometry":{"type":"Point","coordinates":[-118.4388802,33.945412]}},{"properties":{"name":"Inglewood","zipcode":"90301","foreclosures first quarter 2008":19,"id":"a63e0uwobxwr","households per foreclosure":660.53},"type":"Feature","geometry":{"type":"Point","coordinates":[-118.3614085,33.958213]}},{"properties":{"name":"Inglewood","zipcode":"90302","foreclosures first quarter 2008":21,"id":"a63e0ulni0ec","households per foreclosure":529.19},"type":"Feature","geometry":{"type":"Point","coordinates":[-118.3526085,33.9726795]}},{"properties":{"name":"Inglewood","zipcode":"90303","foreclosures first quarter 2008":12,"id":"a63e0ulighi4","households per foreclosure":607.0},"type":"Feature","geometry":{"type":"Point","coordinates":[-118.3322,33.934462]}},{"properties":{"name":"Inglewood","zipcode":"90304","foreclosures first quarter 2008":8,"id":"a63e0uue58h6","households per foreclosure":902.5},"type":"Feature","geometry":{"type":"Point","coordinates":[-118.361308,33.934409]}},{"properties":{"name":"Inglewood","zipcode":"90305","foreclosures first quarter 2008":13,"id":"a63e0uolrcid","households per foreclosure":441.15},"type":"Feature","geometry":{"type":"Point","coordinates":[-118.3307575,33.959813]}},{"properties":{"name":"Santa Monica","zipcode":"90401","foreclosures first quarter 2008":0,"id":"a63e0ut2nhal","households per foreclosure":null},"type":"Feature","geometry":{"type":"Point","coordinates":[-118.493613,34.01596687]}},{"properties":{"name":"Santa Monica","zipcode":"90402","foreclosures first quarter 2008":1,"id":"a63e0uyftz1q","households per foreclosure":5955.0},"type":"Feature","geometry":{"type":"Point","coordinates":[-118.5016135,34.03563655]}},{"properties":{"name":"Santa Monica","zipcode":"90403","foreclosures first quarter 2008":2,"id":"a63e0uuiq3jf","households per foreclosure":7001.5},"type":"Feature","geometry":{"type":"Point","coordinates":[-118.489767,34.031009]}},{"properties":{"name":"Santa Monica","zipcode":"90404","foreclosures first quarter 2008":3,"id":"a63e0uxawaj7","households per foreclosure":3528.67},"type":"Feature","geometry":{"type":"Point","coordinates":[-118.4712625,34.0256095]}},{"properties":{"name":"Santa Monica","zipcode":"90405","foreclosures first quarter 2008":3,"id":"a63e0uxapjnq","households per foreclosure":4784.67},"type":"Feature","geometry":{"type":"Point","coordinates":[-118.4683522,34.01201645]}},{"properties":{"name":"Torrance","zipcode":"90501","foreclosures first quarter 2008":12,"id":"a63e0us5vs2g","households per foreclosure":1201.75},"type":"Feature","geometry":{"type":"Point","coordinates":[-118.3135555,33.8301655]}},{"properties":{"name":"Torrance","zipcode":"90502","foreclosures first quarter 2008":8,"id":"a63e0uspd169","households per foreclosure":747.5},"type":"Feature","geometry":{"type":"Point","coordinates":[-118.2924055,33.8336165]}},{"properties":{"name":"Torrance","zipcode":"90503","foreclosures first quarter 2008":9,"id":"a63e0unb3ahj","households per foreclosure":1980.89},"type":"Feature","geometry":{"type":"Point","coordinates":[-118.3538065,33.8403155]}},{"properties":{"name":"Torrance","zipcode":"90504","foreclosures first quarter 2008":7,"id":"a63e0unr1a95","households per foreclosure":1787.86},"type":"Feature","geometry":{"type":"Point","coordinates":[-118.3312565,33.8669585]}},{"properties":{"name":"Torrance","zipcode":"90505","foreclosures first quarter 2008":6,"id":"a63e0uqh5tjw","households per foreclosure":2457.0},"type":"Feature","geometry":{"type":"Point","coordinates":[-118.3511615,33.803875]}},{"properties":{"name":"Whittier","zipcode":"90601","foreclosures first quarter 2008":16,"id":"a63e0uxkx9rc","households per foreclosure":691.0},"type":"Feature","geometry":{"type":"Point","coordinates":[-118.0118395,34.03966]}},{"properties":{"name":"Whittier","zipcode":"90602","foreclosures first quarter 2008":15,"id":"a63e0uskm9lo","households per foreclosure":548.6},"type":"Feature","geometry":{"type":"Point","coordinates":[-118.018311,33.971206]}},{"properties":{"name":"Whittier","zipcode":"90603","foreclosures first quarter 2008":7,"id":"a63e0uvxp9k5","households per foreclosure":917.43},"type":"Feature","geometry":null},{"properties":{"name":"Whittier","zipcode":"90604","foreclosures first quarter 2008":37,"id":"a63e0uzwp9ot","households per foreclosure":335.3},"type":"Feature","geometry":null},{"properties":{"name":"Whittier","zipcode":"90605","foreclosures first quarter 2008":38,"id":"a63e0urep6nk","households per foreclosure":276.0},"type":"Feature","geometry":{"type":"Point","coordinates":[-118.012198,33.945722]}},{"properties":{"name":"Whittier","zipcode":"90606","foreclosures first quarter 2008":22,"id":"a63e0unb0d09","households per foreclosure":403.27},"type":"Feature","geometry":{"type":"Point","coordinates":[-118.06605,33.9816125]}},{"properties":{"name":"La Mirada","zipcode":"90638","foreclosures first quarter 2008":41,"id":"a63e0uxvgifx","households per foreclosure":376.95},"type":"Feature","geometry":{"type":"Point","coordinates":[-118.007297,33.9008635]}},{"properties":{"name":"Montebello","zipcode":"90640","foreclosures first quarter 2008":23,"id":"a63e0unh4l80","households per foreclosure":811.65},"type":"Feature","geometry":{"type":"Point","coordinates":[-118.1077505,34.009212]}},{"properties":{"name":"Norwalk","zipcode":"90650","foreclosures first quarter 2008":129,"id":"a63e0uttwhdx","households per foreclosure":210.04},"type":"Feature","geometry":{"type":"Point","coordinates":[-118.0767695,33.906714]}},{"properties":{"name":"Pico Rivera","zipcode":"90660","foreclosures first quarter 2008":43,"id":"a63e0uuqo73b","households per foreclosure":390.37},"type":"Feature","geometry":{"type":"Point","coordinates":[-118.088351,33.986412]}},{"properties":{"name":"Santa Fe Springs","zipcode":"90670","foreclosures first quarter 2008":11,"id":"a63e0uohhr0g","households per foreclosure":433.27},"type":"Feature","geometry":null},{"properties":{"name":"Artesia","zipcode":"90701","foreclosures first quarter 2008":14,"id":"a63e0ux27h76","households per foreclosure":323.43},"type":"Feature","geometry":null},{"properties":{"name":"Cerritos","zipcode":"90703","foreclosures first quarter 2008":26,"id":"a63e0ukvs2ys","households per foreclosure":620.73},"type":"Feature","geometry":{"type":"Point","coordinates":[-118.0683355,33.8668645]}},{"properties":{"name":"Avalon","zipcode":"90704","foreclosures first quarter 2008":null,"id":"a63e0up0hm9a","households per foreclosure":null},"type":"Feature","geometry":null},{"properties":{"name":"Bellflower","zipcode":"90706","foreclosures first quarter 2008":49,"id":"a63e0utfmyqs","households per foreclosure":487.0},"type":"Feature","geometry":{"type":"Point","coordinates":[-118.1292005,33.8879845]}},{"properties":{"name":"Harbor City","zipcode":"90710","foreclosures first quarter 2008":12,"id":"a63e0uunbwli","households per foreclosure":775.67},"type":"Feature","geometry":{"type":"Point","coordinates":[-118.298955,33.7979665]}},{"properties":{"name":"Lakewood","zipcode":"90712","foreclosures first quarter 2008":28,"id":"a63e0uwnmvee","households per foreclosure":395.07},"type":"Feature","geometry":{"type":"Point","coordinates":[-118.1464505,33.8398155]}},{"properties":{"name":"Lakewood","zipcode":"90713","foreclosures first quarter 2008":17,"id":"a63e0uz8uwxi","households per foreclosure":561.94},"type":"Feature","geometry":null},{"properties":{"name":"Lakewood","zipcode":"90715","foreclosures first quarter 2008":16,"id":"a63e0utu422y","households per foreclosure":400.5},"type":"Feature","geometry":{"type":"Point","coordinates":[-118.078992,33.840865]}},{"properties":{"name":"Hawaiian Gardens","zipcode":"90716","foreclosures first quarter 2008":14,"id":"a63e0unxb70r","households per foreclosure":266.86},"type":"Feature","geometry":{"type":"Point","coordinates":[-118.072652,33.830167]}},{"properties":{"name":"Lomita","zipcode":"90717","foreclosures first quarter 2008":7,"id":"a63e0uo107dg","households per foreclosure":1198.29},"type":"Feature","geometry":{"type":"Point","coordinates":[-118.3181535,33.7926665]}},{"properties":{"name":"Paramount","zipcode":"90723","foreclosures first quarter 2008":36,"id":"a63e0us6fnnz","households per foreclosure":392.06},"type":"Feature","geometry":{"type":"Point","coordinates":[-118.165152,33.899015]}},{"properties":{"name":"San Pedro","zipcode":"90731","foreclosures first quarter 2008":19,"id":"a63e0urg1ssp","households per foreclosure":1223.37},"type":"Feature","geometry":{"type":"Point","coordinates":[-118.2916434,33.739722]}},{"properties":{"name":"San Pedro","zipcode":"90732","foreclosures first quarter 2008":7,"id":"a63e0uwbyqh8","households per foreclosure":1150.43},"type":"Feature","geometry":{"type":"Point","coordinates":[-118.3133485,33.74696665]}},{"properties":{"name":"Wilmington","zipcode":"90744","foreclosures first quarter 2008":24,"id":"a63e0uzzqctz","households per foreclosure":589.25},"type":"Feature","geometry":{"type":"Point","coordinates":[-118.2592535,33.7768175]}},{"properties":{"name":"Carson","zipcode":"90745","foreclosures first quarter 2008":52,"id":"a63e0ulaxux6","households per foreclosure":306.23},"type":"Feature","geometry":{"type":"Point","coordinates":[-118.260704,33.8266665]}},{"properties":{"name":"Carson","zipcode":"90746","foreclosures first quarter 2008":34,"id":"a63e0uyg23so","households per foreclosure":225.24},"type":"Feature","geometry":{"type":"Point","coordinates":[-118.2564045,33.8608165]}},{"properties":{"name":"Signal Hill","zipcode":"90755","foreclosures first quarter 2008":13,"id":"a63e0v0lhps7","households per foreclosure":340.23},"type":"Feature","geometry":null},{"properties":{"name":"Long Beach","zipcode":"90802","foreclosures first quarter 2008":28,"id":"a63e0um2xqmv","households per foreclosure":716.54},"type":"Feature","geometry":{"type":"Point","coordinates":[-118.2015098,33.753314]}},{"properties":{"name":"Long Beach","zipcode":"90803","foreclosures first quarter 2008":9,"id":"a63e0ullixo8","households per foreclosure":2072.11},"type":"Feature","geometry":{"type":"Point","coordinates":[-118.1330485,33.75930742]}},{"properties":{"name":"Long Beach","zipcode":"90804","foreclosures first quarter 2008":18,"id":"a63e0usvkc9o","households per foreclosure":863.33},"type":"Feature","geometry":{"type":"Point","coordinates":[-118.144449,33.785643]}},{"properties":{"name":"Long Beach","zipcode":"90805","foreclosures first quarter 2008":92,"id":"a63e0umj7qu4","households per foreclosure":289.98},"type":"Feature","geometry":{"type":"Point","coordinates":[-118.180724,33.8626915]}},{"properties":{"name":"Long Beach","zipcode":"90806","foreclosures first quarter 2008":27,"id":"a63e0ukk9jjs","households per foreclosure":465.04},"type":"Feature","geometry":{"type":"Point","coordinates":[-118.1726075,33.8115305]}},{"properties":{"name":"Long Beach","zipcode":"90807","foreclosures first quarter 2008":30,"id":"a63e0ur2hb59","households per foreclosure":407.93},"type":"Feature","geometry":{"type":"Point","coordinates":[-118.184714,33.831466]}},{"properties":{"name":"Long Beach","zipcode":"90808","foreclosures first quarter 2008":19,"id":"a63e0uph6v5r","households per foreclosure":752.42},"type":"Feature","geometry":{"type":"Point","coordinates":[-118.116949,33.828716]}},{"properties":{"name":"Long Beach","zipcode":"90810","foreclosures first quarter 2008":39,"id":"a63e0v09owrb","households per foreclosure":251.23},"type":"Feature","geometry":{"type":"Point","coordinates":[-118.2232795,33.8162165]}},{"properties":{"name":"Long Beach","zipcode":"90813","foreclosures first quarter 2008":14,"id":"a63e0uqwt98t","households per foreclosure":1184.79},"type":"Feature","geometry":{"type":"Point","coordinates":[-118.2222525,33.7777065]}},{"properties":{"name":"Long Beach","zipcode":"90814","foreclosures first quarter 2008":5,"id":"a63e0um2qibn","households per foreclosure":1874.8},"type":"Feature","geometry":{"type":"Point","coordinates":[-118.142299,33.7711345]}},{"properties":{"name":"Long Beach","zipcode":"90815","foreclosures first quarter 2008":18,"id":"a63e0ur6cmma","households per foreclosure":818.17},"type":"Feature","geometry":{"type":"Point","coordinates":[-118.1211985,33.796367]}},{"properties":{"name":"Altadena","zipcode":"91001","foreclosures first quarter 2008":31,"id":"a63e0uwdcdeb","households per foreclosure":409.84},"type":"Feature","geometry":{"type":"Point","coordinates":[-118.1392035,34.200536]}},{"properties":{"name":"Arcadia","zipcode":"91006","foreclosures first quarter 2008":11,"id":"a63e0upy5y9l","households per foreclosure":984.36},"type":"Feature","geometry":{"type":"Point","coordinates":[-118.03605,34.137826]}},{"properties":{"name":"Arcadia","zipcode":"91007","foreclosures first quarter 2008":8,"id":"a63e0uz30lvh","households per foreclosure":1519.5},"type":"Feature","geometry":{"type":"Point","coordinates":[-118.0496005,34.125007]}},{"properties":{"name":"Duarte","zipcode":"91010","foreclosures first quarter 2008":21,"id":"a63e0urfekef","households per foreclosure":402.05},"type":"Feature","geometry":{"type":"Point","coordinates":[-117.947447,34.137257]}},{"properties":{"name":"LACanadaFlntrdg","zipcode":"91011","foreclosures first quarter 2008":1,"id":"a63e0ulk4gzk","households per foreclosure":7163.0},"type":"Feature","geometry":{"type":"Point","coordinates":[-118.1485905,34.228231]}},{"properties":{"name":"Monrovia","zipcode":"91016","foreclosures first quarter 2008":17,"id":"a63e0ulndmjz","households per foreclosure":896.88},"type":"Feature","geometry":{"type":"Point","coordinates":[-117.999624,34.1466645]}},{"properties":{"name":"Montrose","zipcode":"91020","foreclosures first quarter 2008":3,"id":"a63e0uopbxd4","households per foreclosure":1161.0},"type":"Feature","geometry":{"type":"Point","coordinates":[-118.2298935,34.2120545]}},{"properties":{"name":"Sierra Madre","zipcode":"91024","foreclosures first quarter 2008":4,"id":"a63e0uthukgx","households per foreclosure":1286.25},"type":"Feature","geometry":{"type":"Point","coordinates":[-118.0777535,34.2377885]}},{"properties":{"name":"South Pasadena","zipcode":"91030","foreclosures first quarter 2008":2,"id":"a63e0uszj5s1","households per foreclosure":5449.5},"type":"Feature","geometry":{"type":"Point","coordinates":[-118.156404,34.1130585]}},{"properties":{"name":"Sunland","zipcode":"91040","foreclosures first quarter 2008":20,"id":"a63e0uwyjjux","households per foreclosure":388.4},"type":"Feature","geometry":{"type":"Point","coordinates":[-118.313927,34.288249]}},{"properties":{"name":"Tujunga","zipcode":"91042","foreclosures first quarter 2008":26,"id":"a63e0uzqmg0o","households per foreclosure":378.08},"type":"Feature","geometry":{"type":"Point","coordinates":[-118.245618,34.292197]}},{"properties":{"name":"Pasadena","zipcode":"91101","foreclosures first quarter 2008":6,"id":"a63e0uw7z1mc","households per foreclosure":1730.5},"type":"Feature","geometry":{"type":"Point","coordinates":[-118.139161,34.1469565]}},{"properties":{"name":"Pasadena","zipcode":"91103","foreclosures first quarter 2008":19,"id":"a63e0uutpv0p","households per foreclosure":489.16},"type":"Feature","geometry":{"type":"Point","coordinates":[-118.170705,34.167306]}},{"properties":{"name":"Pasadena","zipcode":"91104","foreclosures first quarter 2008":17,"id":"a63e0uuqde7l","households per foreclosure":795.71},"type":"Feature","geometry":{"type":"Point","coordinates":[-118.122303,34.1700055]}},{"properties":{"name":"Pasadena","zipcode":"91105","foreclosures first quarter 2008":3,"id":"a63e0ushc02c","households per foreclosure":1787.0},"type":"Feature","geometry":{"type":"Point","coordinates":[-118.1662045,34.148407]}},{"properties":{"name":"Pasadena","zipcode":"91106","foreclosures first quarter 2008":6,"id":"a63e0ulsi744","households per foreclosure":1875.33},"type":"Feature","geometry":{"type":"Point","coordinates":[-118.1302535,34.1378985]}},{"properties":{"name":"Pasadena","zipcode":"91107","foreclosures first quarter 2008":14,"id":"a63e0uxic37a","households per foreclosure":941.14},"type":"Feature","geometry":{"type":"Point","coordinates":[-118.089509,34.1613495]}},{"properties":{"name":"San Marino","zipcode":"91108","foreclosures first quarter 2008":0,"id":"a63e0utj4mdp","households per foreclosure":null},"type":"Feature","geometry":{"type":"Point","coordinates":[-118.116053,34.1214075]}},{"properties":{"name":"Glendale","zipcode":"91201","foreclosures first quarter 2008":12,"id":"a63e0uqor25q","households per foreclosure":738.67},"type":"Feature","geometry":{"type":"Point","coordinates":[-118.2914595,34.171806]}},{"properties":{"name":"Glendale","zipcode":"91202","foreclosures first quarter 2008":13,"id":"a63e0usrwgnf","households per foreclosure":684.23},"type":"Feature","geometry":{"type":"Point","coordinates":[-118.2667585,34.167856]}},{"properties":{"name":"Glendale","zipcode":"91203","foreclosures first quarter 2008":6,"id":"a63e0uwjsqei","households per foreclosure":921.67},"type":"Feature","geometry":{"type":"Point","coordinates":[-118.2650585,34.152557]}},{"properties":{"name":"Glendale","zipcode":"91204","foreclosures first quarter 2008":2,"id":"a63e0ut82nex","households per foreclosure":2786.0},"type":"Feature","geometry":{"type":"Point","coordinates":[-118.263208,34.1358575]}},{"properties":{"name":"Glendale","zipcode":"91205","foreclosures first quarter 2008":6,"id":"a63e0urr6fek","households per foreclosure":2406.5},"type":"Feature","geometry":{"type":"Point","coordinates":[-118.2415575,34.1351575]}},{"properties":{"name":"Glendale","zipcode":"91206","foreclosures first quarter 2008":14,"id":"a63e0v07cvzg","households per foreclosure":972.21},"type":"Feature","geometry":{"type":"Point","coordinates":[-118.2182565,34.166576]}},{"properties":{"name":"Glendale","zipcode":"91207","foreclosures first quarter 2008":9,"id":"a63e0urcqf84","households per foreclosure":461.22},"type":"Feature","geometry":{"type":"Point","coordinates":[-118.2594085,34.1879055]}},{"properties":{"name":"Glendale","zipcode":"91208","foreclosures first quarter 2008":8,"id":"a63e0uw58k06","households per foreclosure":743.5},"type":"Feature","geometry":{"type":"Point","coordinates":[-118.2484275,34.1950045]}},{"properties":{"name":"La Crescenta","zipcode":"91214","foreclosures first quarter 2008":21,"id":"a63e0uqkiqc8","households per foreclosure":501.29},"type":"Feature","geometry":{"type":"Point","coordinates":[-118.2468225,34.2386885]}},{"properties":{"name":"Agoura Hills","zipcode":"91301","foreclosures first quarter 2008":24,"id":"a63e0uzho86g","households per foreclosure":395.5},"type":"Feature","geometry":{"type":"Point","coordinates":[-118.7651495,34.1267495]}},{"properties":{"name":"Calabasas","zipcode":"91302","foreclosures first quarter 2008":6,"id":"a63e0uxdcgz4","households per foreclosure":1592.17},"type":"Feature","geometry":{"type":"Point","coordinates":[-118.6739515,34.120774]}},{"properties":{"name":"Canoga Park","zipcode":"91303","foreclosures first quarter 2008":19,"id":"a63e0uvcy0o9","households per foreclosure":438.32},"type":"Feature","geometry":{"type":"Point","coordinates":[-118.6014695,34.197354]}},{"properties":{"name":"Canoga Park","zipcode":"91304","foreclosures first quarter 2008":50,"id":"a63e0uxwxncq","households per foreclosure":338.12},"type":"Feature","geometry":{"type":"Point","coordinates":[-118.626171,34.231076]}},{"properties":{"name":"Winnetka","zipcode":"91306","foreclosures first quarter 2008":67,"id":"a63e0uozx3x3","households per foreclosure":219.61},"type":"Feature","geometry":{"type":"Point","coordinates":[-118.5752815,34.2098385]}},{"properties":{"name":"West Hills","zipcode":"91307","foreclosures first quarter 2008":31,"id":"a63e0uqz0gc5","households per foreclosure":268.1},"type":"Feature","geometry":{"type":"Point","coordinates":[-118.6922445,34.203322]}},{"properties":{"name":"Chatsworth","zipcode":"91311","foreclosures first quarter 2008":36,"id":"a63e0uottw50","households per foreclosure":384.28},"type":"Feature","geometry":{"type":"Point","coordinates":[-118.5909565,34.2867805]}},{"properties":{"name":"Encino","zipcode":"91316","foreclosures first quarter 2008":32,"id":"a63e0uwjpv79","households per foreclosure":398.0},"type":"Feature","geometry":{"type":"Point","coordinates":[-118.5229705,34.1567995]}},{"properties":{"name":"Newhall","zipcode":"91321","foreclosures first quarter 2008":36,"id":"a63e0uxa67e6","households per foreclosure":320.97},"type":"Feature","geometry":{"type":"Point","coordinates":[-118.4920875,34.3687865]}},{"properties":{"name":"Northridge","zipcode":"91324","foreclosures first quarter 2008":32,"id":"a63e0uw54j6q","households per foreclosure":266.38},"type":"Feature","geometry":{"type":"Point","coordinates":[-118.55037,34.238963]}},{"properties":{"name":"Northridge","zipcode":"91325","foreclosures first quarter 2008":23,"id":"a63e0upck5v1","households per foreclosure":497.35},"type":"Feature","geometry":{"type":"Point","coordinates":[-118.5192685,34.232852]}},{"properties":{"name":"Northridge","zipcode":"91326","foreclosures first quarter 2008":29,"id":"a63e0usp8tel","households per foreclosure":368.03},"type":"Feature","geometry":{"type":"Point","coordinates":[-118.5575265,34.281046]}},{"properties":{"name":"Pacoima","zipcode":"91331","foreclosures first quarter 2008":105,"id":"a63e0uoka2jx","households per foreclosure":208.97},"type":"Feature","geometry":{"type":"Point","coordinates":[-118.419487,34.256802]}},{"properties":{"name":"Reseda","zipcode":"91335","foreclosures first quarter 2008":101,"id":"a63e0uyxmc7f","households per foreclosure":232.07},"type":"Feature","geometry":{"type":"Point","coordinates":[-118.540368,34.2005125]}},{"properties":{"name":"San Fernando","zipcode":"91340","foreclosures first quarter 2008":48,"id":"a63e0umbnl9i","households per foreclosure":180.4},"type":"Feature","geometry":{"type":"Point","coordinates":[-118.4334155,34.2845735]}},{"properties":{"name":"Sylmar","zipcode":"91342","foreclosures first quarter 2008":142,"id":"a63e0ul7aujy","households per foreclosure":154.74},"type":"Feature","geometry":{"type":"Point","coordinates":[-118.3943655,34.312406]}},{"properties":{"name":"North Hills","zipcode":"91343","foreclosures first quarter 2008":78,"id":"a63e0uqs7tgy","households per foreclosure":220.72},"type":"Feature","geometry":{"type":"Point","coordinates":[-118.477167,34.2386525]}},{"properties":{"name":"Granada Hills","zipcode":"91344","foreclosures first quarter 2008":58,"id":"a63e0uuknuhy","households per foreclosure":287.36},"type":"Feature","geometry":{"type":"Point","coordinates":[-118.507674,34.2942925]}},{"properties":{"name":"Mission Hills","zipcode":"91345","foreclosures first quarter 2008":28,"id":"a63e0usr2v72","households per foreclosure":180.71},"type":"Feature","geometry":{"type":"Point","coordinates":[-118.4571585,34.271901]}},{"properties":{"name":"Santa Clarita","zipcode":"91350","foreclosures first quarter 2008":41,"id":"a63e0ute7guv","households per foreclosure":220.76},"type":"Feature","geometry":{"type":"Point","coordinates":[-118.399445,34.5167755]}},{"properties":{"name":"Canyon Country","zipcode":"91351","foreclosures first quarter 2008":61,"id":"a63e0uzybaes","households per foreclosure":166.67},"type":"Feature","geometry":{"type":"Point","coordinates":[-118.422992,34.4311475]}},{"properties":{"name":"Sun Valley","zipcode":"91352","foreclosures first quarter 2008":35,"id":"a63e0uwy1g0f","households per foreclosure":348.86},"type":"Feature","geometry":{"type":"Point","coordinates":[-118.344812,34.232153]}},{"properties":{"name":"Valencia","zipcode":"91354","foreclosures first quarter 2008":48,"id":"a63e0uux45i5","households per foreclosure":162.4},"type":"Feature","geometry":{"type":"Point","coordinates":[-118.573726,34.46173]}},{"properties":{"name":"Valencia","zipcode":"91355","foreclosures first quarter 2008":20,"id":"a63e0uq0s2es","households per foreclosure":595.55},"type":"Feature","geometry":{"type":"Point","coordinates":[-118.6000245,34.4175715]}},{"properties":{"name":"Tarzana","zipcode":"91356","foreclosures first quarter 2008":52,"id":"a63e0urrhipk","households per foreclosure":230.4},"type":"Feature","geometry":{"type":"Point","coordinates":[-118.546477,34.155255]}},{"properties":{"name":"Woodland Hills","zipcode":"91364","foreclosures first quarter 2008":28,"id":"a63e0uu9f5dh","households per foreclosure":349.18},"type":"Feature","geometry":{"type":"Point","coordinates":[-118.600432,34.1519375]}},{"properties":{"name":"Woodland Hills","zipcode":"91367","foreclosures first quarter 2008":37,"id":"a63e0v07b75p","households per foreclosure":434.14},"type":"Feature","geometry":{"type":"Point","coordinates":[-118.615209,34.174621]}},{"properties":{"name":"Stevenson Ranch","zipcode":"91381","foreclosures first quarter 2008":24,"id":"a63e0urwj1l0","households per foreclosure":197.46},"type":"Feature","geometry":{"type":"Point","coordinates":[-118.616369,34.375911]}},{"properties":{"name":"Castaic","zipcode":"91384","foreclosures first quarter 2008":29,"id":"a63e0umoielq","households per foreclosure":223.24},"type":"Feature","geometry":{"type":"Point","coordinates":[-118.6804425,34.526226]}},{"properties":{"name":"Canyon Country","zipcode":"91387","foreclosures first quarter 2008":73,"id":"a63e0uuca6h4","households per foreclosure":173.78},"type":"Feature","geometry":null},{"properties":{"name":"Santa Clarita","zipcode":"91390","foreclosures first quarter 2008":19,"id":"a63e0uqs5b8m","households per foreclosure":344.95},"type":"Feature","geometry":null},{"properties":{"name":"Van Nuys","zipcode":"91401","foreclosures first quarter 2008":19,"id":"a63e0ul2o749","households per foreclosure":846.47},"type":"Feature","geometry":{"type":"Point","coordinates":[-118.430864,34.1793045]}},{"properties":{"name":"Panorama City","zipcode":"91402","foreclosures first quarter 2008":87,"id":"a63e0uor2f5s","households per foreclosure":213.09},"type":"Feature","geometry":{"type":"Point","coordinates":[-118.4440655,34.2286535]}},{"properties":{"name":"Sherman Oaks","zipcode":"91403","foreclosures first quarter 2008":14,"id":"a63e0v0scbkb","households per foreclosure":777.64},"type":"Feature","geometry":{"type":"Point","coordinates":[-118.465122,34.1462555]}},{"properties":{"name":"Van Nuys","zipcode":"91405","foreclosures first quarter 2008":28,"id":"a63e0uykwue6","households per foreclosure":600.43},"type":"Feature","geometry":{"type":"Point","coordinates":[-118.4467895,34.2028245]}},{"properties":{"name":"Van Nuys","zipcode":"91406","foreclosures first quarter 2008":48,"id":"a63e0uuiiv7t","households per foreclosure":402.27},"type":"Feature","geometry":{"type":"Point","coordinates":[-118.492417,34.192127]}},{"properties":{"name":"Van Nuys","zipcode":"91411","foreclosures first quarter 2008":11,"id":"a63e0ur8opt7","households per foreclosure":892.27},"type":"Feature","geometry":{"type":"Point","coordinates":[-118.461616,34.1792215]}},{"properties":{"name":"Sherman Oaks","zipcode":"91423","foreclosures first quarter 2008":16,"id":"a63e0umyja4b","households per foreclosure":940.94},"type":"Feature","geometry":{"type":"Point","coordinates":[-118.428881,34.146306]}},{"properties":{"name":"Encino","zipcode":"91436","foreclosures first quarter 2008":13,"id":"a63e0usab494","households per foreclosure":440.62},"type":"Feature","geometry":{"type":"Point","coordinates":[-118.4885725,34.1545555]}},{"properties":{"name":"Burbank","zipcode":"91501","foreclosures first quarter 2008":11,"id":"a63e0upc5be3","households per foreclosure":792.91},"type":"Feature","geometry":{"type":"Point","coordinates":[-118.299641,34.1881055]}},{"properties":{"name":"Burbank","zipcode":"91502","foreclosures first quarter 2008":3,"id":"a63e0uvb4810","households per foreclosure":1814.33},"type":"Feature","geometry":{"type":"Point","coordinates":[-118.3098105,34.1768095]}},{"properties":{"name":"Burbank","zipcode":"91504","foreclosures first quarter 2008":11,"id":"a63e0uts1uk0","households per foreclosure":819.73},"type":"Feature","geometry":{"type":"Point","coordinates":[-118.3145605,34.205621]}},{"properties":{"name":"Burbank","zipcode":"91505","foreclosures first quarter 2008":16,"id":"a63e0uo4uyzu","households per foreclosure":840.19},"type":"Feature","geometry":{"type":"Point","coordinates":[-118.3472175,34.1766055]}},{"properties":{"name":"Burbank","zipcode":"91506","foreclosures first quarter 2008":6,"id":"a63e0uq57o5u","households per foreclosure":1363.33},"type":"Feature","geometry":{"type":"Point","coordinates":[-118.3216105,34.1715535]}},{"properties":{"name":"North Hollywood","zipcode":"91601","foreclosures first quarter 2008":10,"id":"a63e0uoovcdz","households per foreclosure":1600.8},"type":"Feature","geometry":{"type":"Point","coordinates":[-118.372975,34.168456]}},{"properties":{"name":"North Hollywood","zipcode":"91602","foreclosures first quarter 2008":13,"id":"a63e0up3mj9z","households per foreclosure":686.08},"type":"Feature","geometry":{"type":"Point","coordinates":[-118.3650115,34.150676]}},{"properties":{"name":"Studio City","zipcode":"91604","foreclosures first quarter 2008":16,"id":"a63e0uo3utm8","households per foreclosure":897.06},"type":"Feature","geometry":{"type":"Point","coordinates":[-118.3921625,34.137892]}},{"properties":{"name":"North Hollywood","zipcode":"91605","foreclosures first quarter 2008":41,"id":"a63e0umtiprs","households per foreclosure":386.22},"type":"Feature","geometry":{"type":"Point","coordinates":[-118.3943145,34.208454]}},{"properties":{"name":"North Hollywood","zipcode":"91606","foreclosures first quarter 2008":39,"id":"a63e0uprsey1","households per foreclosure":405.9},"type":"Feature","geometry":{"type":"Point","coordinates":[-118.3858875,34.1853725]}},{"properties":{"name":"Valley Village","zipcode":"91607","foreclosures first quarter 2008":16,"id":"a63e0unn5xhp","households per foreclosure":933.62},"type":"Feature","geometry":{"type":"Point","coordinates":[-118.4008125,34.1648055]}},{"properties":{"name":"Azusa","zipcode":"91702","foreclosures first quarter 2008":43,"id":"a63e0urcb04f","households per foreclosure":377.12},"type":"Feature","geometry":{"type":"Point","coordinates":[-117.8595925,34.174846]}},{"properties":{"name":"Baldwin Park","zipcode":"91706","foreclosures first quarter 2008":58,"id":"a63e0uubobk5","households per foreclosure":308.52},"type":"Feature","geometry":{"type":"Point","coordinates":[-117.9666975,34.096408]}},{"properties":{"name":"Claremont","zipcode":"91711","foreclosures first quarter 2008":16,"id":"a63e0v0n64sk","households per foreclosure":770.25},"type":"Feature","geometry":{"type":"Point","coordinates":[-117.714939,34.1222085]}},{"properties":{"name":"Covina","zipcode":"91722","foreclosures first quarter 2008":35,"id":"a63e0us37n1h","households per foreclosure":311.31},"type":"Feature","geometry":{"type":"Point","coordinates":[-117.9071955,34.0974085]}},{"properties":{"name":"Covina","zipcode":"91723","foreclosures first quarter 2008":13,"id":"a63e0uz5v6dl","households per foreclosure":444.77},"type":"Feature","geometry":{"type":"Point","coordinates":[-117.8876945,34.0847085]}},{"properties":{"name":"Covina","zipcode":"91724","foreclosures first quarter 2008":11,"id":"a63e0upcmcno","households per foreclosure":824.27},"type":"Feature","geometry":{"type":"Point","coordinates":[-117.849385,34.081099]}},{"properties":{"name":"El Monte","zipcode":"91731","foreclosures first quarter 2008":13,"id":"a63e0v0kodl1","households per foreclosure":595.62},"type":"Feature","geometry":null},{"properties":{"name":"El Monte","zipcode":"91732","foreclosures first quarter 2008":28,"id":"a63e0upicakl","households per foreclosure":565.14},"type":"Feature","geometry":{"type":"Point","coordinates":[-118.011749,34.073409]}},{"properties":{"name":"El Monte - South","zipcode":"91733","foreclosures first quarter 2008":11,"id":"a63e0un1wk54","households per foreclosure":926.91},"type":"Feature","geometry":{"type":"Point","coordinates":[-118.04855,34.04691]}},{"properties":{"name":"Glendora","zipcode":"91740","foreclosures first quarter 2008":11,"id":"a63e0utrk1k2","households per foreclosure":772.64},"type":"Feature","geometry":{"type":"Point","coordinates":[-117.8507435,34.1182195]}},{"properties":{"name":"Glendora","zipcode":"91741","foreclosures first quarter 2008":6,"id":"a63e0unz2t8t","households per foreclosure":1562.67},"type":"Feature","geometry":{"type":"Point","coordinates":[-117.8508215,34.145357]}},{"properties":{"name":"La Puente","zipcode":"91744","foreclosures first quarter 2008":63,"id":"a63e0ukulzv2","households per foreclosure":293.67},"type":"Feature","geometry":{"type":"Point","coordinates":[-117.9347965,34.028611]}},{"properties":{"name":"Hacienda Heights","zipcode":"91745","foreclosures first quarter 2008":46,"id":"a63e0um9jlls","households per foreclosure":365.46},"type":"Feature","geometry":{"type":"Point","coordinates":[-117.9756975,34.0024455]}},{"properties":{"name":"La Puente","zipcode":"91746","foreclosures first quarter 2008":16,"id":"a63e0uplrpxi","households per foreclosure":463.25},"type":"Feature","geometry":{"type":"Point","coordinates":[-117.984898,34.04591]}},{"properties":{"name":"Rowland Heights","zipcode":"91748","foreclosures first quarter 2008":27,"id":"a63e0unut6to","households per foreclosure":521.37},"type":"Feature","geometry":null},{"properties":{"name":"La Verne","zipcode":"91750","foreclosures first quarter 2008":9,"id":"a63e0urlp2ln","households per foreclosure":1391.56},"type":"Feature","geometry":{"type":"Point","coordinates":[-117.7640615,34.149371]}},{"properties":{"name":"Monterey Park","zipcode":"91754","foreclosures first quarter 2008":15,"id":"a63e0us4dbj9","households per foreclosure":743.07},"type":"Feature","geometry":{"type":"Point","coordinates":[-118.1455535,34.0514605]}},{"properties":{"name":"Monterey Park","zipcode":"91755","foreclosures first quarter 2008":5,"id":"a63e0urdifk9","households per foreclosure":1976.8},"type":"Feature","geometry":{"type":"Point","coordinates":[-118.1152525,34.0524575]}},{"properties":{"name":"Diamond Bar","zipcode":"91765","foreclosures first quarter 2008":41,"id":"a63e0upkscec","households per foreclosure":388.29},"type":"Feature","geometry":{"type":"Point","coordinates":[-117.8188915,33.9957615]}},{"properties":{"name":"Pomona","zipcode":"91766","foreclosures first quarter 2008":73,"id":"a63e0uljchzo","households per foreclosure":246.19},"type":"Feature","geometry":{"type":"Point","coordinates":[-117.7543405,34.038911]}},{"properties":{"name":"Pomona","zipcode":"91767","foreclosures first quarter 2008":66,"id":"a63e0ukklx5x","households per foreclosure":209.79},"type":"Feature","geometry":{"type":"Point","coordinates":[-117.7344895,34.0853895]}},{"properties":{"name":"Pomona","zipcode":"91768","foreclosures first quarter 2008":35,"id":"a63e0ur9i08m","households per foreclosure":234.6},"type":"Feature","geometry":null},{"properties":{"name":"Rosemead","zipcode":"91770","foreclosures first quarter 2008":13,"id":"a63e0upx20ml","households per foreclosure":1285.85},"type":"Feature","geometry":{"type":"Point","coordinates":[-118.081751,34.0615595]}},{"properties":{"name":"San Dimas","zipcode":"91773","foreclosures first quarter 2008":18,"id":"a63e0uq7axd5","households per foreclosure":687.83},"type":"Feature","geometry":{"type":"Point","coordinates":[-117.813592,34.106633]}},{"properties":{"name":"San Gabriel","zipcode":"91775","foreclosures first quarter 2008":4,"id":"a63e0ul7wqpu","households per foreclosure":2344.75},"type":"Feature","geometry":{"type":"Point","coordinates":[-118.0941835,34.1162195]}},{"properties":{"name":"San Gabriel","zipcode":"91776","foreclosures first quarter 2008":11,"id":"a63e0urggjnn","households per foreclosure":1086.91},"type":"Feature","geometry":{"type":"Point","coordinates":[-118.092402,34.0877585]}},{"properties":{"name":"Temple City","zipcode":"91780","foreclosures first quarter 2008":12,"id":"a63e0ux61huj","households per foreclosure":1066.0},"type":"Feature","geometry":{"type":"Point","coordinates":[-118.0510005,34.103108]}},{"properties":{"name":"Walnut","zipcode":"91789","foreclosures first quarter 2008":27,"id":"a63e0usz1v65","households per foreclosure":488.33},"type":"Feature","geometry":{"type":"Point","coordinates":[-117.8535435,34.0114695]}},{"properties":{"name":"West Covina","zipcode":"91790","foreclosures first quarter 2008":34,"id":"a63e0uraglb1","households per foreclosure":382.88},"type":"Feature","geometry":{"type":"Point","coordinates":[-117.9420875,34.069809]}},{"properties":{"name":"West Covina","zipcode":"91791","foreclosures first quarter 2008":22,"id":"a63e0unwbt2o","households per foreclosure":456.32},"type":"Feature","geometry":{"type":"Point","coordinates":[-117.887495,34.062719]}},{"properties":{"name":"West Covina","zipcode":"91792","foreclosures first quarter 2008":22,"id":"a63e0uv4qf5s","households per foreclosure":449.0},"type":"Feature","geometry":{"type":"Point","coordinates":[-117.897545,34.024961]}},{"properties":{"name":"Alhambra","zipcode":"91801","foreclosures first quarter 2008":5,"id":"a63e0uomm2el","households per foreclosure":4035.4},"type":"Feature","geometry":{"type":"Point","coordinates":[-118.134603,34.090509]}},{"properties":{"name":"Alhambra","zipcode":"91803","foreclosures first quarter 2008":7,"id":"a63e0urthv9k","households per foreclosure":1342.0},"type":"Feature","geometry":{"type":"Point","coordinates":[-118.144202,34.0760595]}},{"properties":{"name":"Acton","zipcode":"93510","foreclosures first quarter 2008":9,"id":"a63e0uzna2ht","households per foreclosure":295.11},"type":"Feature","geometry":{"type":"Point","coordinates":[-118.2154195,34.4985685]}},{"properties":{"name":"Lake Hughes","zipcode":"93532","foreclosures first quarter 2008":10,"id":"a63e0uvcvvkp","households per foreclosure":99.7},"type":"Feature","geometry":null},{"properties":{"name":"Lancaster","zipcode":"93534","foreclosures first quarter 2008":146,"id":"a63e0uym0hu7","households per foreclosure":100.98},"type":"Feature","geometry":{"type":"Point","coordinates":[-118.1575935,34.729719]}},{"properties":{"name":"Lancaster","zipcode":"93535","foreclosures first quarter 2008":345,"id":"a63e0uyqmrj0","households per foreclosure":59.34},"type":"Feature","geometry":{"type":"Point","coordinates":[-117.9068665,34.7199855]}},{"properties":{"name":"Lancaster","zipcode":"93536","foreclosures first quarter 2008":255,"id":"a63e0uvmz9z0","households per foreclosure":75.83},"type":"Feature","geometry":{"type":"Point","coordinates":[-118.4796485,34.725351]}},{"properties":{"name":"Littlerock","zipcode":"93543","foreclosures first quarter 2008":49,"id":"a63e0uxd18uz","households per foreclosure":74.53},"type":"Feature","geometry":null},{"properties":{"name":"Llano","zipcode":"93544","foreclosures first quarter 2008":1,"id":"a63e0uv69bmc","households per foreclosure":513.0},"type":"Feature","geometry":null},{"properties":{"name":"Palmdale","zipcode":"93550","foreclosures first quarter 2008":323,"id":"a63e0uuuvuxr","households per foreclosure":67.11},"type":"Feature","geometry":null},{"properties":{"name":"Palmdale","zipcode":"93551","foreclosures first quarter 2008":198,"id":"a63e0uqclmcy","households per foreclosure":72.55},"type":"Feature","geometry":{"type":"Point","coordinates":[-118.2576855,34.6116595]}},{"properties":{"name":"Palmdale","zipcode":"93552","foreclosures first quarter 2008":179,"id":"a63e0uwywjs0","households per foreclosure":49.39},"type":"Feature","geometry":{"type":"Point","coordinates":[-118.023258,34.553343]}},{"properties":{"name":"Pearblossom","zipcode":"93553","foreclosures first quarter 2008":4,"id":"a63e0umtzkdj","households per foreclosure":147.75},"type":"Feature","geometry":null},{"properties":{"name":"Palmdale","zipcode":"93591","foreclosures first quarter 2008":29,"id":"a63e0utqch7g","households per foreclosure":66.76},"type":"Feature","geometry":{"type":"Point","coordinates":[-117.818202,34.61187]}}],"is_temporal":false,"author":{"url":"","metadata":"","contact_name":"","contact_address":"","source":"","contact_phone":""},"source":"","pagination":{"sort":null,"start":0,"total":269,"limit":1000000},"state":"complete","tags":"","published":"2014-08-13T06:17:20-04:00","id":116209}