{"type":"FeatureCollection","data_type":"Dataset","url_type":null,"permissions":[{"permissions":{"download":true,"view":true},"group_id":"everyone"}],"classification":null,"title":"north eastern","count":96,"stream_id":116635,"contributor":{"url":"http://geocommons.com/users/24920","name":"emanuellamaria"},"data_attributes":null,"calculation_params":null,"icon_link":null,"link":"http://geocommons.com/overlays/116635.json","extent":[38.771,-1.97955,41.8689,4.23949],"geometry_types":["point"],"unique_name":null,"name":"north eastern","feature_count":96,"description":"","next_feature":null,"is_raster":false,"short_classification":"Y","stats":{"latitude":{"max":4.23949,"mean":1.5991704375,"variance":5.87759662686016,"stdev":2.42437551275791,"min":-1.979547,"median":3.15096},"amountspttodate":{"max":8800000,"mean":1493077.09375,"variance":2339211175102.29,"stdev":1529447.99686106,"min":110000,"median":1000000},"index":{"max":49847,"mean":32787.7916666667,"variance":550358995.87193,"stdev":23459.7313682815,"min":432,"median":49601},"longitude":{"max":41.86885,"mean":40.755903,"variance":0.467120612443158,"stdev":0.683462224591204,"min":38.77096,"median":40.71072}},"features":[{"properties":{"latitude":-1.979547,"amountspttodate":800000,"column_11":null,"column_12":null,"district":"Ijara","column_13":null,"activitytobedone":"Construction Of 1 Classroom","index":49602,"longitude":40.179515,"projectname":"Kotile Primary School","id":"a68nzlqkmdr5","province":"North Eastern","location":"Kotile","constituency":"Ijara"},"type":"Feature","geometry":{"type":"Point","coordinates":[40.179515,-1.979547]}},{"properties":{"latitude":-1.979547,"amountspttodate":640000,"column_11":null,"column_12":null,"district":"Ijara","column_13":null,"activitytobedone":"Purchase Of Bedding Facilities","index":49602,"longitude":40.179515,"projectname":"Kotile Primary School","id":"a68nzm095j6n","province":"North Eastern","location":"Kotille","constituency":"Ijara"},"type":"Feature","geometry":{"type":"Point","coordinates":[40.179515,-1.979547]}},{"properties":{"latitude":-1.848732,"amountspttodate":1200000,"column_11":null,"column_12":null,"district":"Ijara","column_13":null,"activitytobedone":"Construction Of 1 Dormitory","index":49603,"longitude":40.224887,"projectname":"Hara Primary School","id":"a68nzlqr64xl","province":"North Eastern","location":"Hara","constituency":"Ijara"},"type":"Feature","geometry":{"type":"Point","coordinates":[40.224887,-1.848732]}},{"properties":{"latitude":-1.848732,"amountspttodate":1200000,"column_11":null,"column_12":null,"district":"Ijara","column_13":null,"activitytobedone":"Construction Of 1 Dormitory","index":49603,"longitude":40.224887,"projectname":"Hara Primary School","id":"a68nzloq1gmc","province":"North Eastern","location":"Hara","constituency":"Ijara"},"type":"Feature","geometry":{"type":"Point","coordinates":[40.224887,-1.848732]}},{"properties":{"latitude":-1.824541,"amountspttodate":900000,"column_11":null,"column_12":null,"district":"Ijara","column_13":null,"activitytobedone":"Construction Of 3 Classrooms","index":49589,"longitude":40.262774,"projectname":"Farjana Primary School","id":"a68nzlzc7xif","province":"North Eastern","location":"Hara","constituency":"Ijara"},"type":"Feature","geometry":{"type":"Point","coordinates":[40.262774,-1.824541]}},{"properties":{"latitude":-1.779884,"amountspttodate":600000,"column_11":null,"column_12":null,"district":"Ijara","column_13":null,"activitytobedone":"Construction Of 2 Classroom","index":49590,"longitude":40.26824,"projectname":"Rahma Primary School","id":"a68nzlmw3wix","province":"North Eastern","location":"Hara","constituency":"Ijara"},"type":"Feature","geometry":{"type":"Point","coordinates":[40.26824,-1.779884]}},{"properties":{"latitude":-1.754199,"amountspttodate":775000,"column_11":null,"column_12":null,"district":"Ijara","column_13":null,"activitytobedone":"Construction Of 2 Classroom","index":49638,"longitude":40.21775,"projectname":"Shabelley Ecd","id":"a68nzlp9trdn","province":"North Eastern","location":"Masalani","constituency":"Ijara"},"type":"Feature","geometry":{"type":"Point","coordinates":[40.21775,-1.754199]}},{"properties":{"latitude":-1.731579,"amountspttodate":700000,"column_11":null,"column_12":null,"district":"Ijara","column_13":null,"activitytobedone":"Construction Of 2 Classroom","index":49592,"longitude":40.34962,"projectname":"Mai Primary School","id":"a68nzlyzklh5","province":"North Eastern","location":"Masalani","constituency":"Ijara"},"type":"Feature","geometry":{"type":"Point","coordinates":[40.34962,-1.731579]}},{"properties":{"latitude":-1.69704,"amountspttodate":1000000,"column_11":null,"column_12":null,"district":"Ijara","column_13":null,"activitytobedone":"Construction Of 2 Classrooms","index":49680,"longitude":40.50666,"projectname":"Jalish Primary School","id":"a68nzlpvma4t","province":"North Eastern","location":"Jalish","constituency":"Ijara"},"type":"Feature","geometry":{"type":"Point","coordinates":[40.50666,-1.69704]}},{"properties":{"latitude":-1.69424,"amountspttodate":833000,"column_11":null,"column_12":null,"district":"Ijara","column_13":null,"activitytobedone":"Purchase Of Desks Antbeddings","index":49617,"longitude":40.15255,"projectname":"Yusuf Haji Girls Secondary School","id":"a68nzlznthd7","province":"North Eastern","location":"Masalani","constituency":"Ijara"},"type":"Feature","geometry":{"type":"Point","coordinates":[40.15255,-1.69424]}},{"properties":{"latitude":-1.69424,"amountspttodate":6000000,"column_11":null,"column_12":null,"district":"Ijara","column_13":null,"activitytobedone":"Completion Of The Lab And Construction Of A Dormitory","index":49617,"longitude":40.15255,"projectname":"Yusuf Haji Girls Secondary School","id":"a68nzlozeod1","province":"North Eastern","location":"Masalani","constituency":"Ijara"},"type":"Feature","geometry":{"type":"Point","coordinates":[40.15255,-1.69424]}},{"properties":{"latitude":-1.68958,"amountspttodate":900000,"column_11":null,"column_12":null,"district":"Ijara","column_13":null,"activitytobedone":"Construction Of 2 Classrooms","index":49645,"longitude":40.1692,"projectname":"Masalani Primary School","id":"a68nzlsculbt","province":"North Eastern","location":"Masalani","constituency":"Ijara"},"type":"Feature","geometry":{"type":"Point","coordinates":[40.1692,-1.68958]}},{"properties":{"latitude":-1.68702,"amountspttodate":1500000,"column_11":null,"column_12":null,"district":"Ijara","column_13":null,"activitytobedone":"Construction Of 2 Classrooms","index":49596,"longitude":40.16123,"projectname":"Shurie Secondary School","id":"a68nzlrmaf2m","province":"North Eastern","location":"Masalani","constituency":"Ijara"},"type":"Feature","geometry":{"type":"Point","coordinates":[40.16123,-1.68702]}},{"properties":{"latitude":-1.68702,"amountspttodate":1400000,"column_11":null,"column_12":null,"district":"Ijara","column_13":null,"activitytobedone":"Construction Of A Dormitory","index":49596,"longitude":40.16123,"projectname":"Shurie Secondary School","id":"a68nzm024716","province":"North Eastern","location":"Masalani","constituency":"Ijara"},"type":"Feature","geometry":{"type":"Point","coordinates":[40.16123,-1.68702]}},{"properties":{"latitude":-1.67476,"amountspttodate":775000,"column_11":null,"column_12":null,"district":"Ijara","column_13":null,"activitytobedone":"Construction Of 2 Classroom","index":49637,"longitude":40.18007,"projectname":"Gumarey Primary School","id":"a68nzlvs69ue","province":"North Eastern","location":"Masalani","constituency":"Ijara"},"type":"Feature","geometry":{"type":"Point","coordinates":[40.18007,-1.67476]}},{"properties":{"latitude":-1.67476,"amountspttodate":950000,"column_11":null,"column_12":null,"district":"Ijara","column_13":null,"activitytobedone":"Construction Of 2 Classrooms","index":49637,"longitude":40.18007,"projectname":"Gumarey Primary School","id":"a68nzlweso6x","province":"North Eastern","location":"Masalani","constituency":"Ijara"},"type":"Feature","geometry":{"type":"Point","coordinates":[40.18007,-1.67476]}},{"properties":{"latitude":-1.61198,"amountspttodate":600000,"column_11":null,"column_12":null,"district":"Ijara","column_13":null,"activitytobedone":"Construction Of 2 Classroom","index":49605,"longitude":40.52118,"projectname":"Waranwein Primary School","id":"a68nzlubz1vs","province":"North Eastern","location":"Ijara","constituency":"Ijara"},"type":"Feature","geometry":{"type":"Point","coordinates":[40.52118,-1.61198]}},{"properties":{"latitude":-1.61198,"amountspttodate":700333,"column_11":null,"column_12":null,"district":"Ijara","column_13":null,"activitytobedone":"Construction Of 2 Classroom","index":49605,"longitude":40.52118,"projectname":"Waranwein Primary School","id":"a68nzm1280qk","province":"North Eastern","location":"Ijara","constituency":"Ijara"},"type":"Feature","geometry":{"type":"Point","coordinates":[40.52118,-1.61198]}},{"properties":{"latitude":-1.59828,"amountspttodate":1200000,"column_11":null,"column_12":null,"district":"Ijara","column_13":null,"activitytobedone":"Construction Of 4 Classrooms","index":49578,"longitude":40.57715,"projectname":"Dololo Primary School","id":"a68nzlozjeql","province":"North Eastern","location":"Dololo","constituency":"Ijara"},"type":"Feature","geometry":{"type":"Point","coordinates":[40.57715,-1.59828]}},{"properties":{"latitude":-1.59436,"amountspttodate":1200000,"column_11":null,"column_12":null,"district":"Ijara","column_13":null,"activitytobedone":"Construction Of A Dormitory","index":49569,"longitude":40.5109,"projectname":"Ijara Primary School","id":"a68nzlvx8byg","province":"North Eastern","location":"Ijara","constituency":"Ijara"},"type":"Feature","geometry":{"type":"Point","coordinates":[40.5109,-1.59436]}},{"properties":{"latitude":-1.59436,"amountspttodate":1000000,"column_11":null,"column_12":null,"district":"Ijara","column_13":null,"activitytobedone":"Construction Of Admin Block","index":49569,"longitude":40.5109,"projectname":"Ijara Primary School","id":"a68nzlrmo27z","province":"North Eastern","location":"Ijara Div","constituency":"Ijara"},"type":"Feature","geometry":{"type":"Point","coordinates":[40.5109,-1.59436]}},{"properties":{"latitude":-1.59436,"amountspttodate":1000000,"column_11":null,"column_12":null,"district":"Ijara","column_13":null,"activitytobedone":"Construction Of Adm. Block","index":49569,"longitude":40.5109,"projectname":"Ijara Primary School","id":"a68nzlwimbam","province":"North Eastern","location":"Ijara","constituency":"Ijara"},"type":"Feature","geometry":{"type":"Point","coordinates":[40.5109,-1.59436]}},{"properties":{"latitude":-1.57935,"amountspttodate":1000000,"column_11":null,"column_12":null,"district":"Ijara","column_13":null,"activitytobedone":"Construction Of 3 Classrooms","index":49601,"longitude":40.49966,"projectname":"Gerille Primary School","id":"a68nzlq2hpdf","province":"North Eastern","location":"Gerille","constituency":"Ijara"},"type":"Feature","geometry":{"type":"Point","coordinates":[40.49966,-1.57935]}},{"properties":{"latitude":-1.55286,"amountspttodate":1200000,"column_11":null,"column_12":null,"district":"Ijara","column_13":null,"activitytobedone":"Construction of Of A Dormiroty Block","index":49570,"longitude":40.44899,"projectname":"Ruqa Primary School","id":"a68nzlsjdctq","province":"North Eastern","location":"Ruqa","constituency":"Ijara"},"type":"Feature","geometry":{"type":"Point","coordinates":[40.44899,-1.55286]}},{"properties":{"latitude":-1.50171,"amountspttodate":750000,"column_11":null,"column_12":null,"district":"Ijara","column_13":null,"activitytobedone":"Construction Of 2 Classrooms","index":49623,"longitude":40.59125,"projectname":"Elmaan Primary School","id":"a68nzlxglb12","province":"North Eastern","location":"Sangole","constituency":"Ijara"},"type":"Feature","geometry":{"type":"Point","coordinates":[40.59125,-1.50171]}},{"properties":{"latitude":-1.47852,"amountspttodate":775000,"column_11":null,"column_12":null,"district":"Ijara","column_13":null,"activitytobedone":"Construction Of 2 Classroom","index":49633,"longitude":40.33847,"projectname":"Warsame Ecd","id":"a68nzlxl4i2u","province":"North Eastern","location":"Ruqa","constituency":"Ijara"},"type":"Feature","geometry":{"type":"Point","coordinates":[40.33847,-1.47852]}},{"properties":{"latitude":-1.45111,"amountspttodate":690000,"column_11":null,"column_12":null,"district":"Ijara","column_13":null,"activitytobedone":"Construction Of 2 Classroom","index":49587,"longitude":40.6548,"projectname":"Handaro Primary School","id":"a68nzlxxu06q","province":"North Eastern","location":"Handaro","constituency":"Ijara"},"type":"Feature","geometry":{"type":"Point","coordinates":[40.6548,-1.45111]}},{"properties":{"latitude":-1.38407,"amountspttodate":600000,"column_11":null,"column_12":null,"district":"Ijara","column_13":null,"activitytobedone":"Construction Of 2 Classrooms","index":49607,"longitude":40.71072,"projectname":"Gedilun Primary School","id":"a68nzlte7qxe","province":"North Eastern","location":"Handaro","constituency":"Ijara"},"type":"Feature","geometry":{"type":"Point","coordinates":[40.71072,-1.38407]}},{"properties":{"latitude":-1.3011,"amountspttodate":750000,"column_11":null,"column_12":null,"district":"Ijara","column_13":null,"activitytobedone":"Construction Of 2 Classrooms","index":49615,"longitude":40.70469,"projectname":"Wakabharey Ecd","id":"a68nzlneue20","province":"North Eastern","location":"Sangaillu","constituency":"Ijara"},"type":"Feature","geometry":{"type":"Point","coordinates":[40.70469,-1.3011]}},{"properties":{"latitude":-1.19137,"amountspttodate":1000000,"column_11":null,"column_12":null,"district":"Ijara","column_13":null,"activitytobedone":"Construction Of 2 Classrooms","index":49684,"longitude":41.24239,"projectname":"Hadi Primary School","id":"a68nzlvgp0gw","province":"North Eastern","location":"Hadi","constituency":"Ijara"},"type":"Feature","geometry":{"type":"Point","coordinates":[41.24239,-1.19137]}},{"properties":{"latitude":-1.14742,"amountspttodate":1500000,"column_11":null,"column_12":null,"district":"Ijara","column_13":null,"activitytobedone":"Construction Of 2 No.Classrooms","index":49685,"longitude":41.0514,"projectname":"Hulugho Primary School","id":"a68nzm0qe75r","province":"North Eastern","location":"Hulugho","constituency":"Ijara"},"type":"Feature","geometry":{"type":"Point","coordinates":[41.0514,-1.14742]}},{"properties":{"latitude":0.276563,"amountspttodate":3000000,"column_11":null,"column_12":null,"district":"Garissa","column_13":null,"activitytobedone":"Construction Of Dinning Hall,Kitchen&amp;Stores Block","index":49457,"longitude":39.80064,"projectname":"Dertu Primary School","id":"a68nzlyapuzb","province":"North Eastern","location":"Dertu","constituency":"Lagdera"},"type":"Feature","geometry":{"type":"Point","coordinates":[39.80064,0.276563]}},{"properties":{"latitude":0.49384,"amountspttodate":800000,"column_11":null,"column_12":null,"district":"Wajir","column_13":null,"activitytobedone":"Construction Of 2 Class","index":680,"longitude":39.84884,"projectname":"Two Classrooms At Meri Primary School","id":"a68nzlz1yeoe","province":"North Eastern","location":"Meri","constituency":"Wajir South"},"type":"Feature","geometry":{"type":"Point","coordinates":[39.84884,0.49384]}},{"properties":{"latitude":0.49384,"amountspttodate":900000,"column_11":null,"column_12":null,"district":"Wajir","column_13":null,"activitytobedone":"Construction Of Two Staff Houses","index":782,"longitude":39.84884,"projectname":"Two Staff Houses At Meri Primary School","id":"a68nzltfm2in","province":"North Eastern","location":"Meri","constituency":"Wajir South"},"type":"Feature","geometry":{"type":"Point","coordinates":[39.84884,0.49384]}},{"properties":{"latitude":0.52288,"amountspttodate":1400000,"column_11":null,"column_12":null,"district":"Garissa","column_13":null,"activitytobedone":"Construction Of 2 Classroom,Twin Pitlatrine, 40 Desks","index":49453,"longitude":38.77096,"projectname":"Tokojo Primary School","id":"a68nzm01kgu2","province":"North Eastern","location":null,"constituency":"Lagdera"},"type":"Feature","geometry":{"type":"Point","coordinates":[38.77096,0.52288]}},{"properties":{"latitude":0.53829,"amountspttodate":200000,"column_11":null,"column_12":null,"district":"Wajir","column_13":null,"activitytobedone":"Re-Roofing Of 3 Classes At Dadaja Bulla Pry. School","index":624,"longitude":40.87344,"projectname":"Dadaja Bulla Primary School","id":"a68nzlynzuii","province":"North Eastern","location":"Dadaja Bulla","constituency":"Wajir South"},"type":"Feature","geometry":{"type":"Point","coordinates":[40.87344,0.53829]}},{"properties":{"latitude":0.59352,"amountspttodate":4857612,"column_11":null,"column_12":null,"district":"Garissa","column_13":null,"activitytobedone":"Construction Of Dorm, 2 Classrooms+2 Twin Latrines, Staff Quarters","index":49461,"longitude":38.8346,"projectname":"Kulan Secondary School","id":"a68nzlmay6k6","province":"North Eastern","location":"Kulan","constituency":"Lagdera"},"type":"Feature","geometry":{"type":"Point","coordinates":[38.8346,0.59352]}},{"properties":{"latitude":0.74559,"amountspttodate":2047016,"column_11":null,"column_12":null,"district":"Garissa","column_13":null,"activitytobedone":"Construction Of Classrooms","index":49439,"longitude":39.17915,"projectname":"Ama Primary School","id":"a68nzlr9g47c","province":"North Eastern","location":"Modogashe","constituency":"Lagdera"},"type":"Feature","geometry":{"type":"Point","coordinates":[39.17915,0.74559]}},{"properties":{"latitude":1.02305,"amountspttodate":350000,"column_11":null,"column_12":null,"district":"Wajir","column_13":null,"activitytobedone":"Construction Of H/Masters Office","index":648,"longitude":39.50509,"projectname":"Ndege Primary School","id":"a68nzlx0jst1","province":"North Eastern","location":"Ndege","constituency":"Wajir South"},"type":"Feature","geometry":{"type":"Point","coordinates":[39.50509,1.02305]}},{"properties":{"latitude":1.66826,"amountspttodate":200000,"column_11":null,"column_12":null,"district":"Wajir","column_13":null,"activitytobedone":"Construction Of 2 Toilets &amp; 50 Desks","index":755,"longitude":40.07645,"projectname":"Two Toilets And Desks At El Adow Primary School","id":"a68nzlysgoia","province":"North Eastern","location":"Kulaaley","constituency":"Wajir South"},"type":"Feature","geometry":{"type":"Point","coordinates":[40.07645,1.66826]}},{"properties":{"latitude":1.66826,"amountspttodate":150000,"column_11":null,"column_12":null,"district":"Wajir","column_13":null,"activitytobedone":"Reroofing Of Two Classrooms Blown By Wind.","index":776,"longitude":40.07645,"projectname":"Two Classrooms At El Adow Primary School","id":"a68nzltvndub","province":"North Eastern","location":"Kulaley","constituency":"Wajir South"},"type":"Feature","geometry":{"type":"Point","coordinates":[40.07645,1.66826]}},{"properties":{"latitude":1.74293,"amountspttodate":1000000,"column_11":null,"column_12":null,"district":"Wajir","column_13":null,"activitytobedone":"Purchase Of School Bus. Co- Funding With Cdf Wajir East, Wajir West And Wajir North.","index":787,"longitude":40.06066,"projectname":"School Bus For Wajir Secondary School","id":"a68nzlnpe4ql","province":"North Eastern","location":"Hodhan","constituency":"Wajir South"},"type":"Feature","geometry":{"type":"Point","coordinates":[40.06066,1.74293]}},{"properties":{"latitude":1.75746,"amountspttodate":500000,"column_11":null,"column_12":null,"district":"Wajir","column_13":null,"activitytobedone":"Purchase Of Laboratory Equipments","index":788,"longitude":40.03598,"projectname":"Wajir Girls Secondary School","id":"a68nzm02feuc","province":"North Eastern","location":"Central","constituency":"Wajir South"},"type":"Feature","geometry":{"type":"Point","coordinates":[40.03598,1.75746]}},{"properties":{"latitude":2.79455,"amountspttodate":8800000,"column_11":null,"column_12":null,"district":"Mandera","column_13":null,"activitytobedone":"Construction of Admin Block, 8 Toilets, 4 Bathrooms, 4 Classrooms, 2 Dormitory, Shallow Well, Water Tank","index":446,"longitude":40.93424,"projectname":"Elwak Girls Secondary School","id":"a68nzlovk7ds","province":"North Eastern","location":"Elwak South","constituency":"Mandera Central"},"type":"Feature","geometry":{"type":"Point","coordinates":[40.93424,2.79455]}},{"properties":{"latitude":2.82339,"amountspttodate":1350000,"column_11":null,"column_12":null,"district":"Mandera","column_13":null,"activitytobedone":"Construction Of 3 Classrooms","index":485,"longitude":40.91722,"projectname":"Elwak Secondary School","id":"a68nzlqf98bm","province":"North Eastern","location":"Elwak","constituency":"Mandera Central"},"type":"Feature","geometry":{"type":"Point","coordinates":[40.91722,2.82339]}},{"properties":{"latitude":2.84225,"amountspttodate":1700000,"column_11":null,"column_12":null,"district":"Mandera","column_13":null,"activitytobedone":"1 Dormitory,2 Classes","index":439,"longitude":40.97504,"projectname":"Elgolicha Primary School","id":"a68nzlnlczpw","province":"North Eastern","location":"ElGolicha","constituency":"Mandera Central"},"type":"Feature","geometry":{"type":"Point","coordinates":[40.97504,2.84225]}},{"properties":{"latitude":2.97842,"amountspttodate":700000,"column_11":null,"column_12":null,"district":"Mandera","column_13":null,"activitytobedone":"2 Classrooms","index":473,"longitude":40.2686,"projectname":"Burmayo Primary School","id":"a68nzlnp6mkg","province":"North Eastern","location":"Burmayo","constituency":"Mandera Central"},"type":"Feature","geometry":{"type":"Point","coordinates":[40.2686,2.97842]}},{"properties":{"latitude":3.02815,"amountspttodate":2950000,"column_11":null,"column_12":null,"district":"Mandera","column_13":null,"activitytobedone":"Dormitory,2 Classes,1 Dinning Hall,1 Water Tank","index":434,"longitude":40.50912,"projectname":"Shimbir Fatuma Primary School","id":"a68nzln8mpzg","province":"North Eastern","location":"Shimbir Fatuma","constituency":"Mandera Central"},"type":"Feature","geometry":{"type":"Point","coordinates":[40.50912,3.02815]}},{"properties":{"latitude":3.15096,"amountspttodate":1200000,"column_11":null,"column_12":null,"district":"Mandera","column_13":null,"activitytobedone":"Construction of 2 Classrooms;","index":49835,"longitude":41.18649,"projectname":"Lafey Upper Primary School","id":"a68nzlpit1yy","province":"North Eastern","location":"Lafey","constituency":"Mandera East"},"type":"Feature","geometry":{"type":"Point","coordinates":[41.18649,3.15096]}},{"properties":{"latitude":3.15096,"amountspttodate":400000,"column_11":null,"column_12":null,"district":"Mandera","column_13":null,"activitytobedone":"Construction of Admini. Block","index":49835,"longitude":41.18649,"projectname":"Lafey Upper Primary School","id":"a68nzlv7bkzf","province":"North Eastern","location":"Lafey","constituency":"Mandera East"},"type":"Feature","geometry":{"type":"Point","coordinates":[41.18649,3.15096]}},{"properties":{"latitude":3.1637,"amountspttodate":800000,"column_11":null,"column_12":null,"district":"Mandera","column_13":null,"activitytobedone":"Construction of 2 Classrooms","index":49743,"longitude":41.32793,"projectname":"Damasa Primary School","id":"a68nzm1qzwqw","province":"North Eastern","location":"Damasa","constituency":"Mandera East"},"type":"Feature","geometry":{"type":"Point","coordinates":[41.32793,3.1637]}},{"properties":{"latitude":3.1971,"amountspttodate":125000,"column_11":null,"column_12":null,"district":"Mandera","column_13":null,"activitytobedone":"Construction of Semi-Permanent Classroom","index":49751,"longitude":41.24777,"projectname":"Kamor Liban Primary School","id":"a68nzlulszqd","province":"North Eastern","location":"K/Liban","constituency":"Mandera East"},"type":"Feature","geometry":{"type":"Point","coordinates":[41.24777,3.1971]}},{"properties":{"latitude":3.1971,"amountspttodate":600000,"column_11":null,"column_12":null,"district":"Mandera","column_13":null,"activitytobedone":"Construction of Classroom","index":49751,"longitude":41.24777,"projectname":"Kamor Liban Primary School","id":"a68nzlwddlw5","province":"North Eastern","location":"Lafey","constituency":"Mandera East"},"type":"Feature","geometry":{"type":"Point","coordinates":[41.24777,3.1971]}},{"properties":{"latitude":3.27319,"amountspttodate":2100000,"column_11":null,"column_12":null,"district":"Mandera","column_13":null,"activitytobedone":"5 Classrooms,60 Desks","index":462,"longitude":40.70372,"projectname":"Elele Primary School","id":"a68nzlq3c832","province":"North Eastern","location":"Elele","constituency":"Mandera Central"},"type":"Feature","geometry":{"type":"Point","coordinates":[40.70372,3.27319]}},{"properties":{"latitude":3.38101,"amountspttodate":550000,"column_11":null,"column_12":null,"district":"Mandera","column_13":null,"activitytobedone":"Construction of 1 Classroom","index":49840,"longitude":41.41511,"projectname":"Fino Primary School","id":"a68nzm1akp14","province":"North Eastern","location":"Fino","constituency":"Mandera East"},"type":"Feature","geometry":{"type":"Point","coordinates":[41.41511,3.38101]}},{"properties":{"latitude":3.39803,"amountspttodate":5500000,"column_11":null,"column_12":null,"district":"Mandera","column_13":null,"activitytobedone":"Construction Of School Facilities","index":550,"longitude":40.24332,"projectname":"Takaba Boys Secondary School","id":"a68nzlt99lk3","province":"North Eastern","location":"Takaba","constituency":"Mandera West"},"type":"Feature","geometry":{"type":"Point","coordinates":[40.24332,3.39803]}},{"properties":{"latitude":3.41116,"amountspttodate":250000,"column_11":null,"column_12":null,"district":"Mandera","column_13":null,"activitytobedone":"Provision Of Desks","index":49775,"longitude":41.01336,"projectname":"Warankara Primary School","id":"a68nzluy90y1","province":"North Eastern","location":"Warankara","constituency":"Mandera East"},"type":"Feature","geometry":{"type":"Point","coordinates":[41.01336,3.41116]}},{"properties":{"latitude":3.41116,"amountspttodate":1200000,"column_11":null,"column_12":null,"district":"Mandera","column_13":null,"activitytobedone":"Construction of 2 Classrooms","index":49775,"longitude":41.01336,"projectname":"Warankara Primary School","id":"a68nzlp6l5px","province":"North Eastern","location":"Gari","constituency":"Mandera East"},"type":"Feature","geometry":{"type":"Point","coordinates":[41.01336,3.41116]}},{"properties":{"latitude":3.42489,"amountspttodate":900000,"column_11":null,"column_12":null,"district":"Mandera","column_13":null,"activitytobedone":"Renovation Of 5 No. Classrooms, 1 No. Staffroom &amp; HeadteacherS Office","index":543,"longitude":39.87746,"projectname":"Dandu Primary School","id":"a68nzm0m151r","province":"North Eastern","location":"Dandu","constituency":"Mandera West"},"type":"Feature","geometry":{"type":"Point","coordinates":[39.87746,3.42489]}},{"properties":{"latitude":3.42959,"amountspttodate":1400000,"column_11":null,"column_12":null,"district":"Mandera","column_13":null,"activitytobedone":"Construction Of 3 No. Classrooms","index":566,"longitude":40.26242,"projectname":"Lagsure Primary School","id":"a68nzlqtbfxw","province":"North Eastern","location":"Takaba","constituency":"Mandera West"},"type":"Feature","geometry":{"type":"Point","coordinates":[40.26242,3.42959]}},{"properties":{"latitude":3.55097,"amountspttodate":5215000,"column_11":null,"column_12":null,"district":"Mandera","column_13":null,"activitytobedone":"Construction of 2 Classrooms,Dormitory","index":49737,"longitude":41.49638,"projectname":"Arabia Girls Secondary School","id":"a68nzlx4zu5u","province":"North Eastern","location":"Arabia","constituency":"Mandera East"},"type":"Feature","geometry":{"type":"Point","coordinates":[41.49638,3.55097]}},{"properties":{"latitude":3.55097,"amountspttodate":292000,"column_11":null,"column_12":null,"district":"Mandera","column_13":null,"activitytobedone":"Making Of Desks And Chambers","index":49737,"longitude":41.49638,"projectname":"Arabia Girls Secondary School","id":"a68nzlwz8sfe","province":"North Eastern","location":"Arabia","constituency":"Mandera East"},"type":"Feature","geometry":{"type":"Point","coordinates":[41.49638,3.55097]}},{"properties":{"latitude":3.55097,"amountspttodate":2600000,"column_11":null,"column_12":null,"district":"Mandera","column_13":null,"activitytobedone":"Construction of Staff House","index":49737,"longitude":41.49638,"projectname":"Arabia Girls Secondary School","id":"a68nzm0sjelg","province":"North Eastern","location":"Arabia","constituency":"Mandera East"},"type":"Feature","geometry":{"type":"Point","coordinates":[41.49638,3.55097]}},{"properties":{"latitude":3.55097,"amountspttodate":800000,"column_11":null,"column_12":null,"district":"Mandera","column_13":null,"activitytobedone":"Construction of 2 Water Tanks","index":49737,"longitude":41.49638,"projectname":"Arabia Girls Secondary School","id":"a68nzltcd2hc","province":"North Eastern","location":"Arabia","constituency":"Mandera East"},"type":"Feature","geometry":{"type":"Point","coordinates":[41.49638,3.55097]}},{"properties":{"latitude":3.55599,"amountspttodate":6850000,"column_11":null,"column_12":null,"district":"Mandera","column_13":null,"activitytobedone":"Construction Of Learning/Staff Facility, 4 Classes,120 Bed Dormitory,2 Staff Houses,4 Toilets,2 Bathrooms","index":464,"longitude":40.87906,"projectname":"Ashabito Secondary School","id":"a68nzm0g2jbr","province":"North Eastern","location":"Ashabito","constituency":"Mandera Central"},"type":"Feature","geometry":{"type":"Point","coordinates":[40.87906,3.55599]}},{"properties":{"latitude":3.55599,"amountspttodate":2500000,"column_11":null,"column_12":null,"district":"Mandera","column_13":null,"activitytobedone":"1 Dormitory,2 Classrooms And Desks And Chairs,Construction Of Two Toilets","index":464,"longitude":40.87906,"projectname":"Ashabito Secondary School","id":"a68nzlli45wn","province":"North Eastern","location":"Ashabito","constituency":"Mandera Central"},"type":"Feature","geometry":{"type":"Point","coordinates":[40.87906,3.55599]}},{"properties":{"latitude":3.55905,"amountspttodate":1650000,"column_11":null,"column_12":null,"district":"Mandera","column_13":null,"activitytobedone":"Construction of 3 Classrooms; Dorm","index":49838,"longitude":41.50553,"projectname":"Arabia Primary School","id":"a68nzlteat4v","province":"North Eastern","location":"Arabia","constituency":"Mandera East"},"type":"Feature","geometry":{"type":"Point","coordinates":[41.50553,3.55905]}},{"properties":{"latitude":3.55905,"amountspttodate":700000,"column_11":null,"column_12":null,"district":"Mandera","column_13":null,"activitytobedone":"Roof And Doors Renovation","index":49838,"longitude":41.50553,"projectname":"Arabia Primary School","id":"a68nzlsf8hjt","province":"North Eastern","location":"Arabia","constituency":"Mandera East"},"type":"Feature","geometry":{"type":"Point","coordinates":[41.50553,3.55905]}},{"properties":{"latitude":3.56219,"amountspttodate":785000,"column_11":null,"column_12":null,"district":"Mandera","column_13":null,"activitytobedone":"Furniture Making","index":49756,"longitude":41.49884,"projectname":"Arabia Boys Secondary School","id":"a68nzlu15uzo","province":"North Eastern","location":"Arabia","constituency":"Mandera East"},"type":"Feature","geometry":{"type":"Point","coordinates":[41.49884,3.56219]}},{"properties":{"latitude":3.59266,"amountspttodate":4150000,"column_11":null,"column_12":null,"district":"Mandera","column_13":null,"activitytobedone":"7 Classes,One Dormitory And Four Toilets","index":432,"longitude":40.83384,"projectname":"Guticha Primary School","id":"a68nzln9aict","province":"North Eastern","location":"Guticha","constituency":"Mandera Central"},"type":"Feature","geometry":{"type":"Point","coordinates":[40.83384,3.59266]}},{"properties":{"latitude":3.75907,"amountspttodate":500000,"column_11":null,"column_12":null,"district":"Mandera","column_13":null,"activitytobedone":"Construction of 1 Classroom","index":49841,"longitude":41.66694,"projectname":"Omar Jilaow Primary School","id":"a68nzlt67sxt","province":"North Eastern","location":"Arabia","constituency":"Mandera East"},"type":"Feature","geometry":{"type":"Point","coordinates":[41.66694,3.75907]}},{"properties":{"latitude":3.83413,"amountspttodate":1200000,"column_11":null,"column_12":null,"district":"Mandera","column_13":null,"activitytobedone":"Completion-Plastering, Doors, Windows And Painting","index":49843,"longitude":41.52671,"projectname":"Libahiya Primary School","id":"a68nzlzqggsb","province":"North Eastern","location":"Libahiya","constituency":"Mandera East"},"type":"Feature","geometry":{"type":"Point","coordinates":[41.52671,3.83413]}},{"properties":{"latitude":3.89701,"amountspttodate":1100000,"column_11":null,"column_12":null,"district":"Mandera","column_13":null,"activitytobedone":"Construction Of 3 Classrooms,Desks","index":560,"longitude":40.26697,"projectname":"Tarama Primary School","id":"a68nzlts72ny","province":"North Eastern","location":"BanisaTerkhale","constituency":"Mandera West"},"type":"Feature","geometry":{"type":"Point","coordinates":[40.26697,3.89701]}},{"properties":{"latitude":3.89922,"amountspttodate":3500000,"column_11":null,"column_12":null,"district":"Mandera","column_13":null,"activitytobedone":"One Dormitory, 2 Classes,Two Units Staff House","index":448,"longitude":40.86678,"projectname":"Olla Primary School","id":"a68nzlnfvztm","province":"North Eastern","location":"Olla","constituency":"Mandera Central"},"type":"Feature","geometry":{"type":"Point","coordinates":[40.86678,3.89922]}},{"properties":{"latitude":3.92622,"amountspttodate":850000,"column_11":null,"column_12":null,"district":"Mandera","column_13":null,"activitytobedone":"Construction of 3 Classrooms","index":49725,"longitude":41.84934,"projectname":"Kamor Primary School","id":"a68nzlsr9etk","province":"North Eastern","location":"Kamor","constituency":"Mandera East"},"type":"Feature","geometry":{"type":"Point","coordinates":[41.84934,3.92622]}},{"properties":{"latitude":3.92622,"amountspttodate":380000,"column_11":null,"column_12":null,"district":"Mandera","column_13":null,"activitytobedone":"Construction of 1 Classroom","index":49800,"longitude":41.84934,"projectname":"Kamor Primary School Classroom","id":"a68nzlur607w","province":"North Eastern","location":"Kamor","constituency":"Mandera East"},"type":"Feature","geometry":{"type":"Point","coordinates":[41.84934,3.92622]}},{"properties":{"latitude":3.92622,"amountspttodate":110000,"column_11":null,"column_12":null,"district":"Mandera","column_13":null,"activitytobedone":"Provision Of Desks","index":49725,"longitude":41.84934,"projectname":"Kamor Primary School","id":"a68nzlsiwe8g","province":"North Eastern","location":"Kamor","constituency":"Mandera East"},"type":"Feature","geometry":{"type":"Point","coordinates":[41.84934,3.92622]}},{"properties":{"latitude":3.93098,"amountspttodate":2500000,"column_11":null,"column_12":null,"district":"Mandera","column_13":null,"activitytobedone":"Dining Hall(Model)","index":452,"longitude":41.23899,"projectname":"Rhamu Girls Secondary School","id":"a68nzlq0w5hy","province":"North Eastern","location":"Garissa","constituency":"Mandera Central"},"type":"Feature","geometry":{"type":"Point","coordinates":[41.23899,3.93098]}},{"properties":{"latitude":3.93114,"amountspttodate":600000,"column_11":null,"column_12":null,"district":"Mandera","column_13":null,"activitytobedone":"2 Classrooms","index":459,"longitude":41.22232,"projectname":"Al-Hidaya Primary School","id":"a68nzlx11qwv","province":"North Eastern","location":"Rhamn","constituency":"Mandera Central"},"type":"Feature","geometry":{"type":"Point","coordinates":[41.22232,3.93114]}},{"properties":{"latitude":3.93114,"amountspttodate":900000,"column_11":null,"column_12":null,"district":"Mandera","column_13":null,"activitytobedone":"Construction Of Two Classrooms","index":459,"longitude":41.22232,"projectname":"Al-Hidaya Primary School","id":"a68nzlm5ldy5","province":"North Eastern","location":"Rhamu","constituency":"Mandera Central"},"type":"Feature","geometry":{"type":"Point","coordinates":[41.22232,3.93114]}},{"properties":{"latitude":3.93154,"amountspttodate":120000,"column_11":null,"column_12":null,"district":"Mandera","column_13":null,"activitytobedone":"Provision Of Desks","index":49802,"longitude":41.86071,"projectname":"Township Primary School Desks","id":"a68nzls1eyed","province":"North Eastern","location":"Township","constituency":"Mandera East"},"type":"Feature","geometry":{"type":"Point","coordinates":[41.86071,3.93154]}},{"properties":{"latitude":3.93249,"amountspttodate":1000000,"column_11":null,"column_12":null,"district":"Mandera","column_13":null,"activitytobedone":"Construction of Laboratory","index":49829,"longitude":41.84154,"projectname":"Moi Girls Secondary School","id":"a68nzlwlefub","province":"North Eastern","location":"B/Mpya","constituency":"Mandera East"},"type":"Feature","geometry":{"type":"Point","coordinates":[41.84154,3.93249]}},{"properties":{"latitude":3.93719,"amountspttodate":1300000,"column_11":null,"column_12":null,"district":"Mandera","column_13":null,"activitytobedone":"2 Classes","index":438,"longitude":41.22294,"projectname":"Shantoley Primary School","id":"a68nzlq96hf0","province":"North Eastern","location":"Shantoley","constituency":"Mandera Central"},"type":"Feature","geometry":{"type":"Point","coordinates":[41.22294,3.93719]}},{"properties":{"latitude":3.94036,"amountspttodate":2200000,"column_11":null,"column_12":null,"district":"Mandera","column_13":null,"activitytobedone":"4 Classrooms,One Dormitory","index":441,"longitude":41.16554,"projectname":"Yabicho Primary School","id":"a68nzlo64vet","province":"North Eastern","location":"Yabicho","constituency":"Mandera Central"},"type":"Feature","geometry":{"type":"Point","coordinates":[41.16554,3.94036]}},{"properties":{"latitude":3.94059,"amountspttodate":300000,"column_11":null,"column_12":null,"district":"Mandera","column_13":null,"activitytobedone":"Furniture Making","index":49721,"longitude":41.84297,"projectname":"Mandera Secondary School -Furniture","id":"a68nzlpr94fd","province":"North Eastern","location":"Central","constituency":"Mandera East"},"type":"Feature","geometry":{"type":"Point","coordinates":[41.84297,3.94059]}},{"properties":{"latitude":3.94059,"amountspttodate":670000,"column_11":null,"column_12":null,"district":"Mandera","column_13":null,"activitytobedone":"Construction of Classroom","index":49763,"longitude":41.84297,"projectname":"Mandera Secondary School Class","id":"a68nzluyloxv","province":"North Eastern","location":"Central","constituency":"Mandera East"},"type":"Feature","geometry":{"type":"Point","coordinates":[41.84297,3.94059]}},{"properties":{"latitude":3.94297,"amountspttodate":1700000,"column_11":null,"column_12":null,"district":"Mandera","column_13":null,"activitytobedone":"Computer Equipments,4 Classrooms","index":455,"longitude":41.24071,"projectname":"Sheikh Ali Secondary School","id":"a68nzltaylwf","province":"North Eastern","location":"Garissa","constituency":"Mandera Central"},"type":"Feature","geometry":{"type":"Point","coordinates":[41.24071,3.94297]}},{"properties":{"latitude":3.9478,"amountspttodate":380000,"column_11":null,"column_12":null,"district":"Mandera","column_13":null,"activitytobedone":"Construction of 1 Classroom","index":49771,"longitude":41.86885,"projectname":"Buruburu Primary School","id":"a68nzlurz4b1","province":"North Eastern","location":"Central","constituency":"Mandera East"},"type":"Feature","geometry":{"type":"Point","coordinates":[41.86885,3.9478]}},{"properties":{"latitude":3.95213,"amountspttodate":2500000,"column_11":null,"column_12":null,"district":"Mandera","column_13":null,"activitytobedone":"Construction of Dormitory","index":49752,"longitude":41.54529,"projectname":"Aresa Primary School","id":"a68nzltdgcel","province":"North Eastern","location":"Aresa","constituency":"Mandera East"},"type":"Feature","geometry":{"type":"Point","coordinates":[41.54529,3.95213]}},{"properties":{"latitude":3.95364,"amountspttodate":2000000,"column_11":null,"column_12":null,"district":"Mandera","column_13":null,"activitytobedone":"Construction of 4 Classrooms","index":49846,"longitude":41.47703,"projectname":"Hareri Primary School","id":"a68nzlotur4a","province":"North Eastern","location":"Hareri","constituency":"Mandera East"},"type":"Feature","geometry":{"type":"Point","coordinates":[41.47703,3.95364]}},{"properties":{"latitude":3.97003,"amountspttodate":948440,"column_11":null,"column_12":null,"district":"Mandera","column_13":null,"activitytobedone":"Construction of 3 Classrooms","index":49847,"longitude":41.78713,"projectname":"Neboi Primary School","id":"a68nzlo0ol0n","province":"North Eastern","location":null,"constituency":"Mandera East"},"type":"Feature","geometry":{"type":"Point","coordinates":[41.78713,3.97003]}},{"properties":{"latitude":3.97129,"amountspttodate":1900000,"column_11":null,"column_12":null,"district":"Mandera","column_13":null,"activitytobedone":"Construction Of Four Classrooms","index":516,"longitude":41.11903,"projectname":"Kalicha Primary School","id":"a68nzlw0yjhw","province":"North Eastern","location":"Kalicha","constituency":"Mandera Central"},"type":"Feature","geometry":{"type":"Point","coordinates":[41.11903,3.97129]}},{"properties":{"latitude":4.0213,"amountspttodate":1100000,"column_11":null,"column_12":null,"district":"Mandera","column_13":null,"activitytobedone":"Construction Of 3 Classrooms,Desks","index":561,"longitude":40.3384,"projectname":"Lulis Primary School","id":"a68nzltt5pws","province":"North Eastern","location":"Banisa","constituency":"Mandera West"},"type":"Feature","geometry":{"type":"Point","coordinates":[40.3384,4.0213]}},{"properties":{"latitude":4.02345,"amountspttodate":1900000,"column_11":null,"column_12":null,"district":"Mandera","column_13":null,"activitytobedone":"6 Classes","index":440,"longitude":41.06493,"projectname":"Rhamu Dimtu Primary School","id":"a68nzm1kebcs","province":"North Eastern","location":"Rhamudimtu","constituency":"Mandera Central"},"type":"Feature","geometry":{"type":"Point","coordinates":[41.06493,4.02345]}},{"properties":{"latitude":4.1835,"amountspttodate":3200000,"column_11":null,"column_12":null,"district":"Mandera","column_13":null,"activitytobedone":"Construction Of 3 Classrooms, Desks","index":553,"longitude":40.80098,"projectname":"Hullow Primary School","id":"a68nzlx0hmg5","province":"North Eastern","location":"M/Mari","constituency":"Mandera West"},"type":"Feature","geometry":{"type":"Point","coordinates":[40.80098,4.1835]}},{"properties":{"latitude":4.23949,"amountspttodate":4867000,"column_11":null,"column_12":null,"district":"Mandera","column_13":null,"activitytobedone":"Construction Of School Facilities; Desks Bedding","index":544,"longitude":40.69539,"projectname":"Malkamari Primary School","id":"a68nzllzaf13","province":"North Eastern","location":"Malkamari","constituency":"Mandera West"},"type":"Feature","geometry":{"type":"Point","coordinates":[40.69539,4.23949]}}],"is_temporal":false,"author":{"url":"","metadata":"","contact_name":"","contact_address":"","source":"","contact_phone":""},"source":"","pagination":{"sort":null,"start":0,"total":96,"limit":1000000},"state":"complete","tags":"","published":"2014-08-13T06:53:27-04:00","id":116635}