{"type":"FeatureCollection","data_type":"Dataset","url_type":null,"permissions":[{"permissions":{"download":true,"view":true},"group_id":"everyone"}],"classification":null,"title":"ProfitableDeals","count":51,"stream_id":116762,"contributor":{"url":"http://geocommons.com/users/26906","name":"JZOONY"},"data_attributes":null,"calculation_params":null,"icon_link":null,"link":"http://geocommons.com/overlays/116762.json","extent":[-5.66895,50.7167,1.157,57.1333],"geometry_types":["point"],"unique_name":null,"name":"ProfitableDeals","feature_count":51,"description":"","next_feature":null,"is_raster":false,"short_classification":"Y","stats":{"apps":{"max":6957,"mean":1506.23529411765,"variance":1592329.90352941,"stdev":1261.87554993724,"min":225,"median":994},"deals":{"max":37,"mean":12.7647058823529,"variance":72.9435294117648,"stdev":8.54069841475302,"min":4,"median":9}},"features":[{"properties":{"apps":3728,"county":"West Yorkshire County","geo_score":1.0,"country":"United Kingdom","deals":37,"town":"Leeds","id":"a6cm5h3pke8a","geo_precision":"zip"},"type":"Feature","geometry":{"type":"Point","coordinates":[-1.54784917831421,53.7964812592701]}},{"properties":{"apps":3717,"county":"Lancashire County","geo_score":1.0,"country":"United Kingdom","deals":34,"town":"Blackburn","id":"a6cm5hi38cev","geo_precision":"zip"},"type":"Feature","geometry":{"type":"Point","coordinates":[-2.4833333,53.75]}},{"properties":{"apps":6957,"county":"Greater London County","geo_score":1.0,"country":"United Kingdom","deals":33,"town":"London","id":"a6cm5hazxxrl","geo_precision":"zip"},"type":"Feature","geometry":{"type":"Point","coordinates":[-0.125532746315002,51.5084152563931]}},{"properties":{"apps":3373,"county":"Kent County","geo_score":1.0,"country":"United Kingdom","deals":29,"town":"Maidstone","id":"a6cm5h3k3xf2","geo_precision":"zip"},"type":"Feature","geometry":{"type":"Point","coordinates":[0.5166667,51.2666667]}},{"properties":{"apps":3049,"county":"Essex County","geo_score":1.0,"country":"United Kingdom","deals":27,"town":"Chelmsford","id":"a6cm5h7r1x5y","geo_precision":"zip"},"type":"Feature","geometry":{"type":"Point","coordinates":[0.4833333,51.7333333]}},{"properties":{"apps":3773,"county":"west midlands County","geo_score":1.0,"country":"United Kingdom","deals":26,"town":"Birmingham","id":"a6cm5hjpalpr","geo_precision":"zip"},"type":"Feature","geometry":{"type":"Point","coordinates":[-1.9166667,52.4666667]}},{"properties":{"apps":3686,"county":"Lanarkshire County","geo_score":1.0,"country":"United Kingdom","deals":26,"town":"Glasgow","id":"a6cm5h7jr1wr","geo_precision":"zip"},"type":"Feature","geometry":{"type":"Point","coordinates":[-4.25763130187988,55.8651497187961]}},{"properties":{"apps":2609,"county":"merseyside County","geo_score":1.0,"country":"United Kingdom","deals":21,"town":"Liverpool","id":"a6cm5hhvj4s5","geo_precision":"zip"},"type":"Feature","geometry":{"type":"Point","coordinates":[-2.97793865203857,53.410580680167]}},{"properties":{"apps":2962,"county":"Greater Manchester County","geo_score":1.0,"country":"United Kingdom","deals":20,"town":"Manchester","id":"a6cm5hbqdsp5","geo_precision":"zip"},"type":"Feature","geometry":{"type":"Point","coordinates":[-2.23743438720703,53.4809464283615]}},{"properties":{"apps":2492,"county":"Hampshire County","geo_score":1.0,"country":"United Kingdom","deals":20,"town":"Winchester","id":"a6cm5hadbjfp","geo_precision":"zip"},"type":"Feature","geometry":{"type":"Point","coordinates":[-1.31870269775391,51.0651332044118]}},{"properties":{"apps":1388,"county":"Hertfordshire County","geo_score":1.0,"country":"United Kingdom","deals":19,"town":"Hertford","id":"a6cm5h6kf96m","geo_precision":"zip"},"type":"Feature","geometry":{"type":"Point","coordinates":[-0.0666667,51.8]}},{"properties":{"apps":1583,"county":"Middlesex County","geo_score":1.0,"country":"United Kingdom","deals":18,"town":"Wembley","id":"a6cm5h4cqrp0","geo_precision":"zip"},"type":"Feature","geometry":{"type":"Point","coordinates":[-0.2833333,51.55]}},{"properties":{"apps":1777,"county":"Cheshire County","geo_score":1.0,"country":"United Kingdom","deals":18,"town":"Crewe","id":"a6cm5h7hv8u4","geo_precision":"zip"},"type":"Feature","geometry":{"type":"Point","coordinates":[-2.4333333,53.1]}},{"properties":{"apps":2059,"county":"Surrey County","geo_score":1.0,"country":"United Kingdom","deals":17,"town":"Guildford","id":"a6cm5hce3lai","geo_precision":"zip"},"type":"Feature","geometry":{"type":"Point","coordinates":[-0.574271678924561,51.2353612561628]}},{"properties":{"apps":2297,"county":"South Yorkshire County","geo_score":1.0,"country":"United Kingdom","deals":16,"town":"Sheffield","id":"a6cm5hdrsy66","geo_precision":"zip"},"type":"Feature","geometry":{"type":"Point","coordinates":[-1.46590232849121,53.3829700049879]}},{"properties":{"apps":2021,"county":"Nottinghamshire County","geo_score":1.0,"country":"United Kingdom","deals":16,"town":"Nottingham","id":"a6cm5hex47p0","geo_precision":"zip"},"type":"Feature","geometry":{"type":"Point","coordinates":[-1.15047454833984,52.9536023000285]}},{"properties":{"apps":1182,"county":"Staffordshire County","geo_score":1.0,"country":"United Kingdom","deals":15,"town":"Stafford","id":"a6cm5hif5ovz","geo_precision":"zip"},"type":"Feature","geometry":{"type":"Point","coordinates":[-2.1,52.8]}},{"properties":{"apps":1721,"county":"Leicestershire County","geo_score":1.0,"country":"United Kingdom","deals":14,"town":"Leicester","id":"a6cm5h4j2oms","geo_precision":"zip"},"type":"Feature","geometry":{"type":"Point","coordinates":[-1.1333333,52.6333333]}},{"properties":{"apps":1093,"county":"Lincolnshire County","geo_score":1.0,"country":"United Kingdom","deals":13,"town":"Lincoln","id":"a6cm5hao5xii","geo_precision":"zip"},"type":"Feature","geometry":{"type":"Point","coordinates":[-0.5333333,53.2333333]}},{"properties":{"apps":1004,"county":"East Sussex County","geo_score":1.0,"country":"United Kingdom","deals":11,"town":"Brighton","id":"a6cm5hf7qk92","geo_precision":"zip"},"type":"Feature","geometry":{"type":"Point","coordinates":[-0.139474868774414,50.8283849472495]}},{"properties":{"apps":915,"county":"County Durham County","geo_score":1.0,"country":"United Kingdom","deals":10,"town":"Durham","id":"a6cm5hbqjsib","geo_precision":"zip"},"type":"Feature","geometry":{"type":"Point","coordinates":[-1.5666667,54.7666667]}},{"properties":{"apps":751,"county":"Wiltshire County","geo_score":0.964,"country":"United Kingdom","deals":10,"town":"Wilton","id":"a6cm5hi4yqun","geo_precision":"zip"},"type":"Feature","geometry":{"type":"Point","coordinates":[-3.3208333,51.1608333]}},{"properties":{"apps":845,"county":"Northamptonshire County","geo_score":1.0,"country":"United Kingdom","deals":10,"town":"Northampton","id":"a6cm5hi08rbi","geo_precision":"zip"},"type":"Feature","geometry":{"type":"Point","coordinates":[-0.8833333,52.25]}},{"properties":{"apps":1244,"county":"West Sussex County","geo_score":1.0,"country":"United Kingdom","deals":9,"town":"Chichester","id":"a6cm5hac8em4","geo_precision":"zip"},"type":"Feature","geometry":{"type":"Point","coordinates":[-0.780029296875,50.8367332416275]}},{"properties":{"apps":889,"county":"Berkshire County","geo_score":1.0,"country":"United Kingdom","deals":9,"town":"Reading","id":"a6cm5hcri8zn","geo_precision":"zip"},"type":"Feature","geometry":{"type":"Point","coordinates":[-1.0,51.4333333]}},{"properties":{"apps":727,"county":"Clwyd County","geo_score":0.918,"country":"United Kingdom","deals":9,"town":"Mold","id":"a6cm5h3msmrm","geo_precision":"zip"},"type":"Feature","geometry":{"type":"Point","coordinates":[-3.6833333,52.6833333]}},{"properties":{"apps":730,"county":"Cumbria County","geo_score":1.0,"country":"United Kingdom","deals":9,"town":"Kendal","id":"a6cm5hfnvl2r","geo_precision":"zip"},"type":"Feature","geometry":{"type":"Point","coordinates":[-2.75,54.3166667]}},{"properties":{"apps":972,"county":"Derbyshire County","geo_score":1.0,"country":"United Kingdom","deals":8,"town":"Derby","id":"a6cm5hcodkcs","geo_precision":"zip"},"type":"Feature","geometry":{"type":"Point","coordinates":[-1.47663116455078,52.9227723427478]}},{"properties":{"apps":602,"county":"Dyfed County","geo_score":1.0,"country":"United Kingdom","deals":8,"town":"Carmarthen","id":"a6cm5h4vol1n","geo_precision":"zip"},"type":"Feature","geometry":{"type":"Point","coordinates":[-4.3116667,51.8591667]}},{"properties":{"apps":669,"county":"Cambridgeshire County","geo_score":1.0,"country":"United Kingdom","deals":8,"town":"Cambridge","id":"a6cm5h5nojo9","geo_precision":"zip"},"type":"Feature","geometry":{"type":"Point","coordinates":[0.1166667,52.2]}},{"properties":{"apps":662,"county":"West Lothian County","geo_score":1.0,"country":"United Kingdom","deals":8,"town":"Livingston","id":"a6cm5hjqzvsy","geo_precision":"zip"},"type":"Feature","geometry":{"type":"Point","coordinates":[-3.5333333,55.8833333]}},{"properties":{"apps":994,"county":"North Yorkshire County","geo_score":1.0,"country":"United Kingdom","deals":8,"town":"York","id":"a6cm5h5zbl94","geo_precision":"zip"},"type":"Feature","geometry":{"type":"Point","coordinates":[-1.0833333,53.9666667]}},{"properties":{"apps":867,"county":"ayrshire County","geo_score":1.0,"country":"United Kingdom","deals":7,"town":"Ayr","id":"a6cm5hgo0z1d","geo_precision":"zip"},"type":"Feature","geometry":{"type":"Point","coordinates":[-4.6166667,55.45]}},{"properties":{"apps":1301,"county":"Tyne and Wear County","geo_score":0.886,"country":"United Kingdom","deals":7,"town":"Newcast upon tyne","id":"a6cm5hacb21a","geo_precision":"zip"},"type":"Feature","geometry":{"type":"Point","coordinates":[-3.8833333,56.0166667]}},{"properties":{"apps":691,"county":"Oxfordshire County","geo_score":1.0,"country":"United Kingdom","deals":7,"town":"Oxford","id":"a6cm5h4dp35p","geo_precision":"zip"},"type":"Feature","geometry":{"type":"Point","coordinates":[-1.25596046447754,51.7522210025796]}},{"properties":{"apps":625,"county":"Shropshire County","geo_score":1.0,"country":"United Kingdom","deals":7,"town":"Shrewsbury","id":"a6cm5hiu2uux","geo_precision":"zip"},"type":"Feature","geometry":{"type":"Point","coordinates":[-2.7520751953125,52.7100913371863]}},{"properties":{"apps":542,"county":"Aberdeenshire County","geo_score":1.0,"country":"United Kingdom","deals":7,"town":"Aberdeen","id":"a6cm5h5px8yq","geo_precision":"zip"},"type":"Feature","geometry":{"type":"Point","coordinates":[-2.1,57.1333333]}},{"properties":{"apps":667,"county":"Warwickshire County","geo_score":1.0,"country":"United Kingdom","deals":7,"town":"Warwick","id":"a6cm5h3r7xve","geo_precision":"zip"},"type":"Feature","geometry":{"type":"Point","coordinates":[-1.5833333,52.2833333]}},{"properties":{"apps":963,"county":"Gwent County","geo_score":1.0,"country":"United Kingdom","deals":7,"town":"Newport","id":"a6cm5hjaqgsk","geo_precision":"zip"},"type":"Feature","geometry":{"type":"Point","coordinates":[-2.99835026264191,51.5877363767512]}},{"properties":{"apps":880,"county":"Suffolk County","geo_score":1.0,"country":"United Kingdom","deals":7,"town":"Ipswich","id":"a6cm5hd42y1y","geo_precision":"zip"},"type":"Feature","geometry":{"type":"Point","coordinates":[1.15699768066406,52.0546544307833]}},{"properties":{"apps":1233,"county":"Bristol County","geo_score":1.0,"country":"United Kingdom","deals":6,"town":"Bristol","id":"a6cm5hey6xof","geo_precision":"zip"},"type":"Feature","geometry":{"type":"Point","coordinates":[-2.5833333,51.45]}},{"properties":{"apps":601,"county":"Worcestershire County","geo_score":1.0,"country":"United Kingdom","deals":6,"town":"Worcester","id":"a6cm5h3reuqh","geo_precision":"zip"},"type":"Feature","geometry":{"type":"Point","coordinates":[-2.22001075744629,52.1893516852187]}},{"properties":{"apps":969,"county":"Dorset County","geo_score":1.0,"country":"United Kingdom","deals":6,"town":"Dorchester","id":"a6cm5hdkz70c","geo_precision":"zip"},"type":"Feature","geometry":{"type":"Point","coordinates":[-2.4333333,50.7166667]}},{"properties":{"apps":437,"county":"Bedfordshire County","geo_score":1.0,"country":"United Kingdom","deals":6,"town":"Luton","id":"a6cm5h6h16l7","geo_precision":"zip"},"type":"Feature","geometry":{"type":"Point","coordinates":[-0.4166667,51.8833333]}},{"properties":{"apps":225,"county":"Dunbartonshire County","geo_score":1.0,"country":"United Kingdom","deals":6,"town":"Dumbarton","id":"a6cm5hahzfog","geo_precision":"zip"},"type":"Feature","geometry":{"type":"Point","coordinates":[-4.5666667,55.95]}},{"properties":{"apps":609,"county":"South Humberside County","geo_score":1.0,"country":"United Kingdom","deals":6,"town":"Grimsby","id":"a6cm5hg75q87","geo_precision":"zip"},"type":"Feature","geometry":{"type":"Point","coordinates":[-0.05,53.5333333]}},{"properties":{"apps":1091,"county":"Fife County","geo_score":1.0,"country":"United Kingdom","deals":5,"town":"Kirkcaldy","id":"a6cm5h866mbs","geo_precision":"zip"},"type":"Feature","geometry":{"type":"Point","coordinates":[-3.1666667,56.1166667]}},{"properties":{"apps":389,"county":"Gwynedd County","geo_score":1.0,"country":"United Kingdom","deals":5,"town":"Bangor","id":"a6cm5h9m92gs","geo_precision":"zip"},"type":"Feature","geometry":{"type":"Point","coordinates":[-5.6689453125,54.653378295775]}},{"properties":{"apps":386,"county":"Angus County","geo_score":1.0,"country":"United Kingdom","deals":5,"town":"Montrose","id":"a6cm5hgw3qn5","geo_precision":"zip"},"type":"Feature","geometry":{"type":"Point","coordinates":[-2.45,56.7]}},{"properties":{"apps":1091,"county":"Devon County","geo_score":0.893,"country":"United Kingdom","deals":4,"town":"Devon","id":"a6cm5h436s3o","geo_precision":"zip"},"type":"Feature","geometry":{"type":"Point","coordinates":[-5.1833333,55.5]}},{"properties":{"apps":780,"county":"Somerset County","geo_score":1.0,"country":"United Kingdom","deals":4,"town":"Taunton","id":"a6cm5hc7oln1","geo_precision":"zip"},"type":"Feature","geometry":{"type":"Point","coordinates":[-3.1047222,51.0211111]}}],"is_temporal":false,"author":{"url":"","metadata":"","contact_name":"","contact_address":"","source":"","contact_phone":""},"source":"","pagination":{"sort":null,"start":0,"total":51,"limit":1000000},"state":"complete","tags":"","published":"2014-08-13T07:03:32-04:00","id":116762}