{"type":"FeatureCollection","data_type":"Dataset","url_type":null,"permissions":[{"permissions":{"download":true,"view":true},"group_id":"everyone"}],"classification":null,"title":"Investor list updated","count":202,"stream_id":116726,"contributor":{"url":"http://geocommons.com/users/22774","name":"mcleodm02"},"data_attributes":null,"calculation_params":null,"icon_link":null,"link":"http://geocommons.com/overlays/116726.json","extent":[-122.419,27.3364,-67.8482,47.6062],"geometry_types":["point"],"unique_name":null,"name":"Investor list updated","feature_count":202,"description":"","next_feature":null,"is_raster":false,"short_classification":"Y","stats":{},"features":[{"properties":{"city":"Bangor","geo_score":0.857,"full name":"chris hutchins","id":"a6a0scdxp91f","geo_precision":"city","state":"ME"},"type":"Feature","geometry":{"type":"Point","coordinates":[-68.878893,45.061744]}},{"properties":{"city":"Bristol","geo_score":0.857,"full name":"jon lundburg","id":"a6a0scblwqrx","geo_precision":"city","state":"TN"},"type":"Feature","geometry":{"type":"Point","coordinates":[-82.192545,36.531703]}},{"properties":{"city":"Middletown","geo_score":0.857,"full name":"John Griffin","id":"a6a0sc43gq0j","geo_precision":"city","state":"DE"},"type":"Feature","geometry":{"type":"Point","coordinates":[-75.677535,39.485721]}},{"properties":{"city":"Birmingham","geo_score":0.857,"full name":"Ed Roberts","id":"a6a0sceuopl8","geo_precision":"city","state":"AL"},"type":"Feature","geometry":{"type":"Point","coordinates":[-86.80249,33.520661]}},{"properties":{"city":"Statesville","geo_score":0.819,"full name":"Travis Carter","id":"a6a0scgmyloi","geo_precision":"city","state":"NC"},"type":"Feature","geometry":{"type":"Point","coordinates":[-80.930908,35.785413]}},{"properties":{"city":"Rocky Mount","geo_score":0.729,"full name":"Skip Watson[1]","id":"a6a0scfjitjp","geo_precision":"city","state":"NC"},"type":"Feature","geometry":{"type":"Point","coordinates":[-75.681122,35.950867]}},{"properties":{"city":"Bangor","geo_score":0.857,"full name":"Frank Simon","id":"a6a0scebt0bb","geo_precision":"city","state":"ME"},"type":"Feature","geometry":{"type":"Point","coordinates":[-68.878893,45.061744]}},{"properties":{"city":"Burmingham","geo_score":0.843,"full name":"Walter Gresham","id":"a6a0scb6fsqc","geo_precision":"city","state":"AL"},"type":"Feature","geometry":{"type":"Point","coordinates":[-86.80249,33.520661]}},{"properties":{"city":"Hillsborough","geo_score":0.857,"full name":"Eric Garrison[2]","id":"a6a0sc3nnjvx","geo_precision":"city","state":"NC"},"type":"Feature","geometry":{"type":"Point","coordinates":[-79.085469,36.077432]}},{"properties":{"city":"Orlando","geo_score":0.857,"full name":"Karl Mayenshine[3]","id":"a6a0scc56ur8","geo_precision":"city","state":"FL"},"type":"Feature","geometry":{"type":"Point","coordinates":[-81.379237,28.538336]}},{"properties":{"city":"Presquille","geo_score":0.0,"full name":"Bruce Sargent[4]","id":"a6a0sc8jow5i","geo_precision":"unmatched","state":"ME"},"type":"Feature","geometry":null},{"properties":{"city":"St. Louis","geo_score":0.0,"full name":"Chris Ussellman","id":"a6a0scaxdiox","geo_precision":"unmatched","state":"MO"},"type":"Feature","geometry":null},{"properties":{"city":"portland","geo_score":0.857,"full name":"Tyler Brewer","id":"a6a0sch8ewui","geo_precision":"city","state":"ME"},"type":"Feature","geometry":{"type":"Point","coordinates":[-70.255326,43.661471]}},{"properties":{"city":"Presquille","geo_score":0.0,"full name":"Wade &amp; Kyle McCrum","id":"a6a0sc6xg123","geo_precision":"unmatched","state":"ME"},"type":"Feature","geometry":null},{"properties":{"city":"boston","geo_score":0.857,"full name":"Rich Prout","id":"a6a0sc1e3nqh","geo_precision":"city","state":"MA"},"type":"Feature","geometry":{"type":"Point","coordinates":[-71.059773,42.358431]}},{"properties":{"city":"Lyncburg","geo_score":0.0,"full name":"Rob Eagel","id":"a6a0sc40v58z","geo_precision":"unmatched","state":"VA"},"type":"Feature","geometry":null},{"properties":{"city":"San Fransico","geo_score":0.833,"full name":"cisco[5]","id":"a6a0scdy0bap","geo_precision":"city","state":"CA"},"type":"Feature","geometry":{"type":"Point","coordinates":[-122.419416,37.77493]}},{"properties":{"city":"Richmond","geo_score":0.857,"full name":"Darios Kamgaing","id":"a6a0scbj8b9u","geo_precision":"city","state":"VA"},"type":"Feature","geometry":{"type":"Point","coordinates":[-77.460262,37.553758]}},{"properties":{"city":"raleigh","geo_score":0.857,"full name":"Will Head[6]","id":"a6a0sc8460f5","geo_precision":"city","state":"NC"},"type":"Feature","geometry":{"type":"Point","coordinates":[-78.638615,35.772096]}},{"properties":{"city":"Goldsboro","geo_score":0.857,"full name":"Gordon Maxwell","id":"a6a0sc3u0zzz","geo_precision":"city","state":"NC"},"type":"Feature","geometry":{"type":"Point","coordinates":[-78.092871,35.368277]}},{"properties":{"city":"Charlette","geo_score":0.841,"full name":"Joaquin Soria (wa-Keen)[7]","id":"a6a0sc27puu9","geo_precision":"city","state":"NC"},"type":"Feature","geometry":{"type":"Point","coordinates":[-80.843127,35.227087]}},{"properties":{"city":"Fredrick","geo_score":0.802,"full name":"John Brown[8]","id":"a6a0sc9bu4r7","geo_precision":"city","state":"MD"},"type":"Feature","geometry":{"type":"Point","coordinates":[-75.883828,39.366223]}},{"properties":{"city":"Chapel Hill","geo_score":0.857,"full name":"Steve Holdaway","id":"a6a0scbk71hv","geo_precision":"city","state":"NC"},"type":"Feature","geometry":{"type":"Point","coordinates":[-79.038605,35.926939]}},{"properties":{"city":"raleigh","geo_score":0.857,"full name":"Bob Daniels","id":"a6a0scfhx74u","geo_precision":"city","state":"NC"},"type":"Feature","geometry":{"type":"Point","coordinates":[-78.638615,35.772096]}},{"properties":{"city":"raleigh","geo_score":0.857,"full name":"Bob Brumbaugh","id":"a6a0scgrdzfr","geo_precision":"city","state":"NC"},"type":"Feature","geometry":{"type":"Point","coordinates":[-78.638615,35.772096]}},{"properties":{"city":"raleigh","geo_score":0.857,"full name":"Christian Desgroux","id":"a6a0sc6v8fuv","geo_precision":"city","state":"NC"},"type":"Feature","geometry":{"type":"Point","coordinates":[-78.638615,35.772096]}},{"properties":{"city":"raleigh","geo_score":0.857,"full name":"Sam Whitt","id":"a6a0sc1dwof6","geo_precision":"city","state":"NC"},"type":"Feature","geometry":{"type":"Point","coordinates":[-78.638615,35.772096]}},{"properties":{"city":"Nashville","geo_score":0.857,"full name":"gary stuart","id":"a6a0sceio83h","geo_precision":"city","state":"TN"},"type":"Feature","geometry":{"type":"Point","coordinates":[-86.784443,36.16589]}},{"properties":{"city":"Lynchburg","geo_score":0.857,"full name":"george caylor  commonwealth, VA","id":"a6a0sc72owyc","geo_precision":"city","state":"VA"},"type":"Feature","geometry":{"type":"Point","coordinates":[-79.178326,37.383112]}},{"properties":{"city":"Lynchburg","geo_score":0.857,"full name":"mr rice","id":"a6a0sc4x8wda","geo_precision":"city","state":"VA"},"type":"Feature","geometry":{"type":"Point","coordinates":[-79.178326,37.383112]}},{"properties":{"city":"Lynchburg","geo_score":0.857,"full name":"Nate Freeman","id":"a6a0sc1jwfi9","geo_precision":"city","state":"VA"},"type":"Feature","geometry":{"type":"Point","coordinates":[-79.178326,37.383112]}},{"properties":{"city":"Veazie","geo_score":0.857,"full name":"Rod Hathaway","id":"a6a0sc6p4axa","geo_precision":"city","state":"ME"},"type":"Feature","geometry":{"type":"Point","coordinates":[-68.705312,44.838681]}},{"properties":{"city":"Bangor","geo_score":0.857,"full name":"tim chandler","id":"a6a0sc1td732","geo_precision":"city","state":"ME"},"type":"Feature","geometry":{"type":"Point","coordinates":[-68.878893,45.061744]}},{"properties":{"city":"Forest","geo_score":0.857,"full name":"Tim Hamilton @ valtim[9]","id":"a6a0sc127yvv","geo_precision":"city","state":"VA"},"type":"Feature","geometry":{"type":"Point","coordinates":[-79.318718,37.372437]}},{"properties":{"city":"Orlando","geo_score":0.857,"full name":"wayne frost","id":"a6a0scdihzhf","geo_precision":"city","state":"FL"},"type":"Feature","geometry":{"type":"Point","coordinates":[-81.379237,28.538336]}},{"properties":{"city":"bangor","geo_score":0.857,"full name":"paul cook","id":"a6a0sc86tjqw","geo_precision":"city","state":"ME"},"type":"Feature","geometry":{"type":"Point","coordinates":[-68.878893,45.061744]}},{"properties":{"city":"Baltimore","geo_score":0.857,"full name":"bill spencer","id":"a6a0scdcer5b","geo_precision":"city","state":"MD"},"type":"Feature","geometry":{"type":"Point","coordinates":[-76.612189,39.290385]}},{"properties":{"city":"Lynchburg","geo_score":0.857,"full name":"Bill Stockwell","id":"a6a0scflm11l","geo_precision":"city","state":"VA"},"type":"Feature","geometry":{"type":"Point","coordinates":[-79.178326,37.383112]}},{"properties":{"city":"Houston","geo_score":0.816,"full name":"brian fertig's cousin in TX","id":"a6a0sce5h26h","geo_precision":"city","state":"TX"},"type":"Feature","geometry":{"type":"Point","coordinates":[-96.919704,29.845783]}},{"properties":{"city":"Dairy","geo_score":0.8,"full name":"david clater","id":"a6a0sc9etx4x","geo_precision":"city","state":"NH"},"type":"Feature","geometry":{"type":"Point","coordinates":[-71.197169,42.950825]}},{"properties":{"city":"Agusta","geo_score":0.837,"full name":"dennis keller","id":"a6a0scar4ynq","geo_precision":"city","state":"ME"},"type":"Feature","geometry":{"type":"Point","coordinates":[-69.803773,44.351642]}},{"properties":{"city":"Lynchburg","geo_score":0.857,"full name":"Dustin Slightham","id":"a6a0sc30jvp0","geo_precision":"city","state":"VA"},"type":"Feature","geometry":{"type":"Point","coordinates":[-79.178326,37.383112]}},{"properties":{"city":"Hamptons","geo_score":0.805,"full name":"jack mulderick","id":"a6a0scftde9z","geo_precision":"city","state":"NY"},"type":"Feature","geometry":{"type":"Point","coordinates":[-72.394252,40.909267]}},{"properties":{"city":"Orlando","geo_score":0.857,"full name":"nathan reardon","id":"a6a0scgje2oe","geo_precision":"city","state":"FL"},"type":"Feature","geometry":{"type":"Point","coordinates":[-81.379237,28.538336]}},{"properties":{"city":"Mansfield","geo_score":0.8,"full name":"Pat Hord","id":"a6a0sc4w382r","geo_precision":"city","state":"OH"},"type":"Feature","geometry":{"type":"Point","coordinates":[-82.242093,39.712291]}},{"properties":{"city":"Lynchbrg","geo_score":0.841,"full name":"Reggie Powell[10]","id":"a6a0sc64dnin","geo_precision":"city","state":"VA"},"type":"Feature","geometry":{"type":"Point","coordinates":[-79.178326,37.383112]}},{"properties":{"city":"Forest","geo_score":0.857,"full name":"Steve Powell","id":"a6a0scb85uo7","geo_precision":"city","state":"VA"},"type":"Feature","geometry":{"type":"Point","coordinates":[-79.318718,37.372437]}},{"properties":{"city":"Lyncburg","geo_score":0.0,"full name":"polly woldridge","id":"a6a0sccqzn7b","geo_precision":"unmatched","state":"VA"},"type":"Feature","geometry":null},{"properties":{"city":"Lynhburg","geo_score":0.0,"full name":"bruce braunn","id":"a6a0scgkhlo4","geo_precision":"unmatched","state":"Va"},"type":"Feature","geometry":null},{"properties":{"city":"new york","geo_score":0.857,"full name":"Howard Keenan","id":"a6a0sc68c79z","geo_precision":"city","state":"NY"},"type":"Feature","geometry":{"type":"Point","coordinates":[-74.005973,40.714269]}},{"properties":{"city":"lyncburg","geo_score":0.0,"full name":"Jim Thomas","id":"a6a0scdik910","geo_precision":"unmatched","state":"VA"},"type":"Feature","geometry":null},{"properties":{"city":"charlottsville","geo_score":0.0,"full name":"stansberry investments charlottsville","id":"a6a0scc6co29","geo_precision":"unmatched","state":"NC"},"type":"Feature","geometry":null},{"properties":{"city":"Lyncburg","geo_score":0.0,"full name":"Terry Falwell","id":"a6a0sc4okp49","geo_precision":"unmatched","state":"VA"},"type":"Feature","geometry":null},{"properties":{"city":"forest","geo_score":0.857,"full name":"Charles Spangler","id":"a6a0sc3x2d1w","geo_precision":"city","state":"VA"},"type":"Feature","geometry":{"type":"Point","coordinates":[-79.318718,37.372437]}},{"properties":{"city":"New York","geo_score":0.857,"full name":"charles glover","id":"a6a0sc345hco","geo_precision":"city","state":"NY"},"type":"Feature","geometry":{"type":"Point","coordinates":[-74.005973,40.714269]}},{"properties":{"city":"Ellsworth","geo_score":0.806,"full name":"john linnehan","id":"a6a0sc8wf0ky","geo_precision":"city","state":"ME"},"type":"Feature","geometry":{"type":"Point","coordinates":[-68.438632,44.562298]}},{"properties":{"city":"Philadelphia","geo_score":0.857,"full name":"Steve Haney","id":"a6a0sc9d5n6s","geo_precision":"city","state":"PA"},"type":"Feature","geometry":{"type":"Point","coordinates":[-75.163789,39.952335]}},{"properties":{"city":"San Diego","geo_score":0.857,"full name":"Andrew Horawitz[11]","id":"a6a0sc42jyat","geo_precision":"city","state":"CA"},"type":"Feature","geometry":{"type":"Point","coordinates":[-117.157255,32.715329]}},{"properties":{"city":"Washington","geo_score":0.857,"full name":"jim wiltraut","id":"a6a0sc8njray","geo_precision":"city","state":"DC"},"type":"Feature","geometry":{"type":"Point","coordinates":[-77.036366,38.895112]}},{"properties":{"city":"Agusta","geo_score":0.837,"full name":"Willard Souper  savings bank of maine","id":"a6a0scap2ta3","geo_precision":"city","state":"ME"},"type":"Feature","geometry":{"type":"Point","coordinates":[-69.803773,44.351642]}},{"properties":{"city":"Madison","geo_score":0.857,"full name":"mitch lambert","id":"a6a0scakswqk","geo_precision":"city","state":"WI"},"type":"Feature","geometry":{"type":"Point","coordinates":[-89.40123,43.073052]}},{"properties":{"city":"Bangor","geo_score":0.857,"full name":"Tim Varney","id":"a6a0sc0zrwux","geo_precision":"city","state":"ME"},"type":"Feature","geometry":{"type":"Point","coordinates":[-68.878893,45.061744]}},{"properties":{"city":"San Diego","geo_score":0.857,"full name":"wang trading","id":"a6a0sc9sfoob","geo_precision":"city","state":"CA"},"type":"Feature","geometry":{"type":"Point","coordinates":[-117.157255,32.715329]}},{"properties":{"city":"Bangor","geo_score":0.857,"full name":"Tom Lynch","id":"a6a0scedfsm9","geo_precision":"city","state":"ME"},"type":"Feature","geometry":{"type":"Point","coordinates":[-68.878893,45.061744]}},{"properties":{"city":"Fairfeild","geo_score":0.781,"full name":"tim bailey","id":"a6a0scdsp9qe","geo_precision":"city","state":"ME"},"type":"Feature","geometry":{"type":"Point","coordinates":[-69.662825,44.606176]}},{"properties":{"city":"Cambridge","geo_score":0.813,"full name":"thatcher JR.","id":"a6a0sca47k85","geo_precision":"city","state":"MA"},"type":"Feature","geometry":{"type":"Point","coordinates":[-71.103663,42.358431]}},{"properties":{"city":"Blaine","geo_score":0.857,"full name":"JR McGillan","id":"a6a0sc60783b","geo_precision":"city","state":"ME"},"type":"Feature","geometry":{"type":"Point","coordinates":[-68.886826,46.516166]}},{"properties":{"city":"Middletown","geo_score":0.857,"full name":"Bill Baron","id":"a6a0sc2g9ukc","geo_precision":"city","state":"DE"},"type":"Feature","geometry":{"type":"Point","coordinates":[-75.677535,39.485721]}},{"properties":{"city":"Colfax","geo_score":0.857,"full name":"Bob Ness","id":"a6a0scepsg4m","geo_precision":"city","state":"LA"},"type":"Feature","geometry":{"type":"Point","coordinates":[-92.653269,31.527636]}},{"properties":{"city":"Richmond","geo_score":0.857,"full name":"Marty Cox","id":"a6a0scfgh17i","geo_precision":"city","state":"VA"},"type":"Feature","geometry":{"type":"Point","coordinates":[-77.460262,37.553758]}},{"properties":{"city":"Lyncburg","geo_score":0.0,"full name":"nissan lynchburg guy, leads to areva","id":"a6a0scdxfty2","geo_precision":"unmatched","state":"VA"},"type":"Feature","geometry":null},{"properties":{"city":"Lynchburg","geo_score":0.857,"full name":"Fred Newton","id":"a6a0scbmbhrv","geo_precision":"city","state":"VA"},"type":"Feature","geometry":{"type":"Point","coordinates":[-79.178326,37.383112]}},{"properties":{"city":"Tyron","geo_score":0.833,"full name":"Greg Owens","id":"a6a0scaqaoqd","geo_precision":"city","state":"GA"},"type":"Feature","geometry":{"type":"Point","coordinates":[-82.861256,33.672351]}},{"properties":{"city":"Bangor","geo_score":0.857,"full name":"Carol Conley","id":"a6a0sc907120","geo_precision":"city","state":"ME"},"type":"Feature","geometry":{"type":"Point","coordinates":[-68.878893,45.061744]}},{"properties":{"city":"Rocky Mount","geo_score":0.729,"full name":"Eagle Transport","id":"a6a0sc9foib2","geo_precision":"city","state":"NC"},"type":"Feature","geometry":{"type":"Point","coordinates":[-75.681122,35.950867]}},{"properties":{"city":"Goldsboro","geo_score":0.857,"full name":"Mayo Boddie","id":"a6a0scbekojs","geo_precision":"city","state":"NC"},"type":"Feature","geometry":{"type":"Point","coordinates":[-78.092871,35.368277]}},{"properties":{"city":"Greenbay","geo_score":0.857,"full name":"Randall Lawton","id":"a6a0scf6ga7d","geo_precision":"city","state":"WI"},"type":"Feature","geometry":{"type":"Point","coordinates":[-88.019826,44.519159]}},{"properties":{"city":"raleigh","geo_score":0.857,"full name":"Larry Horton","id":"a6a0scak1hmk","geo_precision":"city","state":"NC"},"type":"Feature","geometry":{"type":"Point","coordinates":[-78.638615,35.772096]}},{"properties":{"city":"Carlsbad","geo_score":0.857,"full name":"David Easterbrooks","id":"a6a0sc72ig0v","geo_precision":"city","state":"CA"},"type":"Feature","geometry":{"type":"Point","coordinates":[-116.846046,33.016928]}},{"properties":{"city":"Cary","geo_score":0.821,"full name":"Kathleen Carter","id":"a6a0sc2kz19w","geo_precision":"city","state":"NC"},"type":"Feature","geometry":{"type":"Point","coordinates":[-79.220017,36.211527]}},{"properties":{"city":"New York","geo_score":0.857,"full name":"Howard Druckman","id":"a6a0scflhqv7","geo_precision":"city","state":"NY"},"type":"Feature","geometry":{"type":"Point","coordinates":[-74.005973,40.714269]}},{"properties":{"city":"raleigh","geo_score":0.857,"full name":"Bill Warner","id":"a6a0sc9plm0h","geo_precision":"city","state":"NC"},"type":"Feature","geometry":{"type":"Point","coordinates":[-78.638615,35.772096]}},{"properties":{"city":"Cary","geo_score":0.821,"full name":"Dwight Carter","id":"a6a0sc9uxx9y","geo_precision":"city","state":"NC"},"type":"Feature","geometry":{"type":"Point","coordinates":[-79.220017,36.211527]}},{"properties":{"city":"raleigh","geo_score":0.857,"full name":"Matt Carter","id":"a6a0scb0c2zr","geo_precision":"city","state":"NC"},"type":"Feature","geometry":{"type":"Point","coordinates":[-78.638615,35.772096]}},{"properties":{"city":"Chapel Hill","geo_score":0.857,"full name":"Tommie Smith","id":"a6a0sc67bqkp","geo_precision":"city","state":"NC"},"type":"Feature","geometry":{"type":"Point","coordinates":[-79.038605,35.926939]}},{"properties":{"city":"raleigh","geo_score":0.857,"full name":"Dale Siler","id":"a6a0scb5qo8f","geo_precision":"city","state":"NC"},"type":"Feature","geometry":{"type":"Point","coordinates":[-78.638615,35.772096]}},{"properties":{"city":"raleigh","geo_score":0.857,"full name":"David Rowe","id":"a6a0sc946jke","geo_precision":"city","state":"NC"},"type":"Feature","geometry":{"type":"Point","coordinates":[-78.638615,35.772096]}},{"properties":{"city":"Sarasota","geo_score":0.857,"full name":"Drew Stamp","id":"a6a0sc3yh08y","geo_precision":"city","state":"FL"},"type":"Feature","geometry":{"type":"Point","coordinates":[-82.530653,27.336435]}},{"properties":{"city":"Yorktown","geo_score":0.857,"full name":"Ellis Moore","id":"a6a0scc37lhb","geo_precision":"city","state":"NY"},"type":"Feature","geometry":{"type":"Point","coordinates":[-73.80819,41.29565]}},{"properties":{"city":"Portland","geo_score":0.857,"full name":"John Shattuck[12]","id":"a6a0scfqaoea","geo_precision":"city","state":"ME"},"type":"Feature","geometry":{"type":"Point","coordinates":[-70.255326,43.661471]}},{"properties":{"city":"Doraville","geo_score":0.857,"full name":"Mike Flanter","id":"a6a0sc6z8lo2","geo_precision":"city","state":"GA"},"type":"Feature","geometry":{"type":"Point","coordinates":[-84.283256,33.898158]}},{"properties":{"city":"Pittsboro","geo_score":0.857,"full name":"Orlan Johnson","id":"a6a0sc8iuvzx","geo_precision":"city","state":"NC"},"type":"Feature","geometry":{"type":"Point","coordinates":[-79.213195,35.745239]}},{"properties":{"city":"Durham","geo_score":0.857,"full name":"Adam Smith","id":"a6a0scb6eyt6","geo_precision":"city","state":"NC"},"type":"Feature","geometry":{"type":"Point","coordinates":[-78.898619,35.994033]}},{"properties":{"city":"Raleigh","geo_score":0.857,"full name":"Ron Wooten","id":"a6a0scblv030","geo_precision":"city","state":"NC"},"type":"Feature","geometry":{"type":"Point","coordinates":[-78.638615,35.772096]}},{"properties":{"city":"Myrtle Beach","geo_score":0.857,"full name":"Joel Teague","id":"a6a0sc27eutg","geo_precision":"city","state":"SC"},"type":"Feature","geometry":{"type":"Point","coordinates":[-78.852005,33.711741]}},{"properties":{"city":"raleigh","geo_score":0.857,"full name":"Lou Sauer","id":"a6a0sc1fame7","geo_precision":"city","state":"NC"},"type":"Feature","geometry":{"type":"Point","coordinates":[-78.638615,35.772096]}},{"properties":{"city":"Tampa","geo_score":0.857,"full name":"Jim Burhop","id":"a6a0scgtm31o","geo_precision":"city","state":"FL"},"type":"Feature","geometry":{"type":"Point","coordinates":[-82.458428,27.947522]}},{"properties":{"city":"Lynchburg","geo_score":0.857,"full name":"Mike Lowry[13]","id":"a6a0scepdxmv","geo_precision":"city","state":"VA"},"type":"Feature","geometry":{"type":"Point","coordinates":[-79.178326,37.383112]}},{"properties":{"city":"Bangor","geo_score":0.857,"full name":"aj walker","id":"a6a0sc44jmmk","geo_precision":"city","state":"ME"},"type":"Feature","geometry":{"type":"Point","coordinates":[-68.878893,45.061744]}},{"properties":{"city":"Lyncburg","geo_score":0.0,"full name":"Mickey Herzing","id":"a6a0sc15orz5","geo_precision":"unmatched","state":"VA"},"type":"Feature","geometry":null},{"properties":{"city":"Charlotsville","geo_score":0.0,"full name":"port stansberry","id":"a6a0scczw67m","geo_precision":"unmatched","state":"NC"},"type":"Feature","geometry":null},{"properties":{"city":"Bangor","geo_score":0.857,"full name":"Alex Shaw","id":"a6a0sc9rixf6","geo_precision":"city","state":"ME"},"type":"Feature","geometry":{"type":"Point","coordinates":[-68.878893,45.061744]}},{"properties":{"city":"Bangor","geo_score":0.857,"full name":"David Palmer","id":"a6a0sc5vlsan","geo_precision":"city","state":"ME"},"type":"Feature","geometry":{"type":"Point","coordinates":[-68.878893,45.061744]}},{"properties":{"city":"Boston","geo_score":0.857,"full name":"ed luchetti","id":"a6a0sc34fqsh","geo_precision":"city","state":"MA"},"type":"Feature","geometry":{"type":"Point","coordinates":[-71.059773,42.358431]}},{"properties":{"city":"Vaezie","geo_score":0.81,"full name":"bill reed","id":"a6a0scebo6o7","geo_precision":"city","state":"ME"},"type":"Feature","geometry":{"type":"Point","coordinates":[-68.705312,44.838681]}},{"properties":{"city":"Orlando","geo_score":0.857,"full name":"billy speer","id":"a6a0sc97un99","geo_precision":"city","state":"FL"},"type":"Feature","geometry":{"type":"Point","coordinates":[-81.379237,28.538336]}},{"properties":{"city":"Rouse point","geo_score":0.771,"full name":"Bobby Treadwell","id":"a6a0scf3hk3x","geo_precision":"city","state":"NY"},"type":"Feature","geometry":{"type":"Point","coordinates":[-75.65495,44.37867]}},{"properties":{"city":"Bangor","geo_score":0.857,"full name":"Doug Reed","id":"a6a0scc4r64p","geo_precision":"city","state":"ME"},"type":"Feature","geometry":{"type":"Point","coordinates":[-68.878893,45.061744]}},{"properties":{"city":"Chalotsville","geo_score":0.0,"full name":"joe polumbo in charlotsville","id":"a6a0scav7lr8","geo_precision":"unmatched","state":"NC"},"type":"Feature","geometry":null},{"properties":{"city":"Brewer","geo_score":0.0,"full name":"Milan family","id":"a6a0sc82dzap","geo_precision":"unmatched","state":"Me"},"type":"Feature","geometry":null},{"properties":{"city":"Holden","geo_score":0.857,"full name":"Rollin Stearns","id":"a6a0scejsczx","geo_precision":"city","state":"ME"},"type":"Feature","geometry":{"type":"Point","coordinates":[-68.818345,44.894294]}},{"properties":{"city":"Hermon","geo_score":0.857,"full name":"Tim Dysart","id":"a6a0sc2kq14f","geo_precision":"city","state":"ME"},"type":"Feature","geometry":{"type":"Point","coordinates":[-68.913372,44.81007]}},{"properties":{"city":"Bangor","geo_score":0.857,"full name":"Tim Horton's owner .","id":"a6a0sc3qxis6","geo_precision":"city","state":"ME"},"type":"Feature","geometry":{"type":"Point","coordinates":[-68.878893,45.061744]}},{"properties":{"city":"Lynchburg","geo_score":0.857,"full name":"Wayne Booth","id":"a6a0scbk29jj","geo_precision":"city","state":"VA"},"type":"Feature","geometry":{"type":"Point","coordinates":[-79.178326,37.383112]}},{"properties":{"city":"Lynchburg","geo_score":0.857,"full name":"rob branch","id":"a6a0scgqat2x","geo_precision":"city","state":"VA"},"type":"Feature","geometry":{"type":"Point","coordinates":[-79.178326,37.383112]}},{"properties":{"city":"Carmel","geo_score":0.857,"full name":"Howie Soule","id":"a6a0scgoj5s8","geo_precision":"city","state":"ME"},"type":"Feature","geometry":{"type":"Point","coordinates":[-68.940624,44.808062]}},{"properties":{"city":"Tulsa","geo_score":0.857,"full name":"kurt able","id":"a6a0sc3cmh9k","geo_precision":"city","state":"OK"},"type":"Feature","geometry":{"type":"Point","coordinates":[-95.992775,36.153982]}},{"properties":{"city":"Brewer","geo_score":0.857,"full name":"daniel marden","id":"a6a0sc4rowha","geo_precision":"city","state":"ME"},"type":"Feature","geometry":{"type":"Point","coordinates":[-68.783742,44.83561]}},{"properties":{"city":"Nashville","geo_score":0.857,"full name":"Steve Strout","id":"a6a0scbwapqj","geo_precision":"city","state":"TN"},"type":"Feature","geometry":{"type":"Point","coordinates":[-86.784443,36.16589]}},{"properties":{"city":"Charlotte","geo_score":0.857,"full name":"byron tabor","id":"a6a0sc53s2a3","geo_precision":"city","state":"NC"},"type":"Feature","geometry":{"type":"Point","coordinates":[-80.843127,35.227087]}},{"properties":{"city":"Lynchburg","geo_score":0.857,"full name":"tom dewitt","id":"a6a0sc691xmj","geo_precision":"city","state":"VA"},"type":"Feature","geometry":{"type":"Point","coordinates":[-79.178326,37.383112]}},{"properties":{"city":"Atlanta","geo_score":0.857,"full name":"william edge","id":"a6a0sc2pstoc","geo_precision":"city","state":"GA"},"type":"Feature","geometry":{"type":"Point","coordinates":[-84.387982,33.748995]}},{"properties":{"city":"Pheonix","geo_score":0.816,"full name":"Markus Ellison","id":"a6a0sc638cgi","geo_precision":"city","state":"AZ"},"type":"Feature","geometry":{"type":"Point","coordinates":[-112.074037,33.448377]}},{"properties":{"city":"Lyncburg","geo_score":0.0,"full name":"randy dunton","id":"a6a0scasu699","geo_precision":"unmatched","state":"VA"},"type":"Feature","geometry":null},{"properties":{"city":"Lynchburg","geo_score":0.857,"full name":"john gauger","id":"a6a0scer6cak","geo_precision":"city","state":"VA"},"type":"Feature","geometry":{"type":"Point","coordinates":[-79.178326,37.383112]}},{"properties":{"city":"Bangor","geo_score":0.857,"full name":"Park Johnson","id":"a6a0sc6i67i9","geo_precision":"city","state":"ME"},"type":"Feature","geometry":{"type":"Point","coordinates":[-68.878893,45.061744]}},{"properties":{"city":"Greensboro","geo_score":0.857,"full name":"hales greensboro relative","id":"a6a0scb4i5yv","geo_precision":"city","state":"NC"},"type":"Feature","geometry":{"type":"Point","coordinates":[-79.791975,36.072636]}},{"properties":{"city":"Bangor","geo_score":0.857,"full name":"John Miller","id":"a6a0sceqwfg5","geo_precision":"city","state":"ME"},"type":"Feature","geometry":{"type":"Point","coordinates":[-68.878893,45.061744]}},{"properties":{"city":"Lynchburg","geo_score":0.857,"full name":"LU investment guy","id":"a6a0sc1whm9o","geo_precision":"city","state":"VA"},"type":"Feature","geometry":{"type":"Point","coordinates":[-79.178326,37.383112]}},{"properties":{"city":"Lynchburg","geo_score":0.857,"full name":"mr howell, carrie's dad","id":"a6a0scb5f454","geo_precision":"city","state":"VA"},"type":"Feature","geometry":{"type":"Point","coordinates":[-79.178326,37.383112]}},{"properties":{"city":"Lyncburg","geo_score":0.0,"full name":"mr. reber who thomas knows","id":"a6a0scfnsxyb","geo_precision":"unmatched","state":"VA"},"type":"Feature","geometry":null},{"properties":{"city":"Bangor","geo_score":0.857,"full name":"tom obey","id":"a6a0sc4lmakl","geo_precision":"city","state":"ME"},"type":"Feature","geometry":{"type":"Point","coordinates":[-68.878893,45.061744]}},{"properties":{"city":"Atlanta","geo_score":0.857,"full name":"Kevin Sperrey (Beth's cousin in Atlanta)","id":"a6a0scddoxfe","geo_precision":"city","state":"GA"},"type":"Feature","geometry":{"type":"Point","coordinates":[-84.387982,33.748995]}},{"properties":{"city":"Lynchburg","geo_score":0.857,"full name":"mike troxel","id":"a6a0sc4a8j09","geo_precision":"city","state":"VA"},"type":"Feature","geometry":{"type":"Point","coordinates":[-79.178326,37.383112]}},{"properties":{"city":"Bedford","geo_score":0.857,"full name":"allen greggory","id":"a6a0sc63aj2b","geo_precision":"city","state":"VA"},"type":"Feature","geometry":{"type":"Point","coordinates":[-79.522585,37.336027]}},{"properties":{"city":"Lynchburg","geo_score":0.857,"full name":"bob miller","id":"a6a0scgs0i21","geo_precision":"city","state":"VA"},"type":"Feature","geometry":{"type":"Point","coordinates":[-79.178326,37.383112]}},{"properties":{"city":"Charlottsville","geo_score":0.0,"full name":"cheif nesbit","id":"a6a0scf5gtqf","geo_precision":"unmatched","state":"NC"},"type":"Feature","geometry":null},{"properties":{"city":"Bangor","geo_score":0.857,"full name":"jamie campbell","id":"a6a0scev8qhs","geo_precision":"city","state":"ME"},"type":"Feature","geometry":{"type":"Point","coordinates":[-68.878893,45.061744]}},{"properties":{"city":"kittery","geo_score":0.857,"full name":"linda bean","id":"a6a0scgjrh3i","geo_precision":"city","state":"ME"},"type":"Feature","geometry":{"type":"Point","coordinates":[-70.684607,43.191554]}},{"properties":{"city":"Raleigh","geo_score":0.857,"full name":"paynes father","id":"a6a0sca94ejj","geo_precision":"city","state":"NC"},"type":"Feature","geometry":{"type":"Point","coordinates":[-78.638615,35.772096]}},{"properties":{"city":"Bangor","geo_score":0.857,"full name":"pudge harrison","id":"a6a0scefn7ok","geo_precision":"city","state":"ME"},"type":"Feature","geometry":{"type":"Point","coordinates":[-68.878893,45.061744]}},{"properties":{"city":"Forest","geo_score":0.857,"full name":"rev davidson gleaning","id":"a6a0sc2n3in0","geo_precision":"city","state":"VA"},"type":"Feature","geometry":{"type":"Point","coordinates":[-79.318718,37.372437]}},{"properties":{"city":"brewer","geo_score":0.857,"full name":"Allen Campbell","id":"a6a0sc8ewhds","geo_precision":"city","state":"ME"},"type":"Feature","geometry":{"type":"Point","coordinates":[-68.783742,44.83561]}},{"properties":{"city":"RedHook","geo_score":0.857,"full name":"dan viles","id":"a6a0sc8gq8e4","geo_precision":"city","state":"NY"},"type":"Feature","geometry":{"type":"Point","coordinates":[-74.009584,40.675103]}},{"properties":{"city":"Lynchburg","geo_score":0.857,"full name":"duke westover","id":"a6a0sc8rolsj","geo_precision":"city","state":"VA"},"type":"Feature","geometry":{"type":"Point","coordinates":[-79.178326,37.383112]}},{"properties":{"city":"lynchburg","geo_score":0.857,"full name":"larry richmond","id":"a6a0scbbzkpp","geo_precision":"city","state":"VA"},"type":"Feature","geometry":{"type":"Point","coordinates":[-79.178326,37.383112]}},{"properties":{"city":"Lyncburg","geo_score":0.0,"full name":"noah's dad, in service","id":"a6a0sccpx1m0","geo_precision":"unmatched","state":"VA"},"type":"Feature","geometry":null},{"properties":{"city":"Orlando","geo_score":0.857,"full name":"steve saint","id":"a6a0scbvfz0z","geo_precision":"city","state":"FL"},"type":"Feature","geometry":{"type":"Point","coordinates":[-81.379237,28.538336]}},{"properties":{"city":"San Diego","geo_score":0.857,"full name":"Connie Koch","id":"a6a0sc7kt7e8","geo_precision":"city","state":"CA"},"type":"Feature","geometry":{"type":"Point","coordinates":[-117.157255,32.715329]}},{"properties":{"city":"Spartansburg","geo_score":0.845,"full name":"Crews","id":"a6a0scgypux5","geo_precision":"city","state":"SC"},"type":"Feature","geometry":{"type":"Point","coordinates":[-81.932048,34.949567]}},{"properties":{"city":"Bangor","geo_score":0.857,"full name":"darling","id":"a6a0sc49suc8","geo_precision":"city","state":"ME"},"type":"Feature","geometry":{"type":"Point","coordinates":[-68.878893,45.061744]}},{"properties":{"city":"Portland","geo_score":0.857,"full name":"john hathaway","id":"a6a0sc3r3deb","geo_precision":"city","state":"ME"},"type":"Feature","geometry":{"type":"Point","coordinates":[-70.255326,43.661471]}},{"properties":{"city":"orrington","geo_score":0.8,"full name":"john oulette trash biz owner","id":"a6a0sc63sxew","geo_precision":"city","state":"ME"},"type":"Feature","geometry":{"type":"Point","coordinates":[-68.788647,44.721183]}},{"properties":{"city":"Bangor","geo_score":0.857,"full name":"quirk","id":"a6a0sc3zagqv","geo_precision":"city","state":"ME"},"type":"Feature","geometry":{"type":"Point","coordinates":[-68.878893,45.061744]}},{"properties":{"city":"Brewer","geo_score":0.857,"full name":"terry hunt","id":"a6a0sc2wqi2x","geo_precision":"city","state":"ME"},"type":"Feature","geometry":{"type":"Point","coordinates":[-68.783742,44.83561]}},{"properties":{"city":"Lynchburg","geo_score":0.857,"full name":"troxel","id":"a6a0sc9vbu5d","geo_precision":"city","state":"VA"},"type":"Feature","geometry":{"type":"Point","coordinates":[-79.178326,37.383112]}},{"properties":{"city":"Forest","geo_score":0.857,"full name":"chip staple","id":"a6a0sc211kik","geo_precision":"city","state":"VA"},"type":"Feature","geometry":{"type":"Point","coordinates":[-79.318718,37.372437]}},{"properties":{"city":"San Deigo","geo_score":0.821,"full name":"Christopher Asimakopoulos[14]","id":"a6a0scfomhy3","geo_precision":"city","state":"CA"},"type":"Feature","geometry":{"type":"Point","coordinates":[-117.157255,32.715329]}},{"properties":{"city":"Kernersville","geo_score":0.786,"full name":"Aaron Tabor[15]","id":"a6a0sc6v0n7x","geo_precision":"city","state":"NC"},"type":"Feature","geometry":{"type":"Point","coordinates":[-79.574196,35.404869]}},{"properties":{"city":"Bangor","geo_score":0.857,"full name":"Andrew Cushing","id":"a6a0sc41jqi4","geo_precision":"city","state":"ME"},"type":"Feature","geometry":{"type":"Point","coordinates":[-68.878893,45.061744]}},{"properties":{"city":"Orono","geo_score":0.857,"full name":"Annie O'Reilly","id":"a6a0scgfbyag","geo_precision":"city","state":"ME"},"type":"Feature","geometry":{"type":"Point","coordinates":[-68.63343,45.002798]}},{"properties":{"city":"Bangor","geo_score":0.857,"full name":"bill macdonald","id":"a6a0scg44rgn","geo_precision":"city","state":"ME"},"type":"Feature","geometry":{"type":"Point","coordinates":[-68.878893,45.061744]}},{"properties":{"city":"Hollywood","geo_score":0.857,"full name":"bill shortridge","id":"a6a0sc4f5ipq","geo_precision":"city","state":"CA"},"type":"Feature","geometry":{"type":"Point","coordinates":[-118.326743,34.098343]}},{"properties":{"city":"Bangor","geo_score":0.857,"full name":"french family","id":"a6a0scbir3gs","geo_precision":"city","state":"ME"},"type":"Feature","geometry":{"type":"Point","coordinates":[-68.878893,45.061744]}},{"properties":{"city":"Lynchburg","geo_score":0.857,"full name":"Galen Eddy","id":"a6a0scf6236d","geo_precision":"city","state":"VA"},"type":"Feature","geometry":{"type":"Point","coordinates":[-79.178326,37.383112]}},{"properties":{"city":"Forest","geo_score":0.857,"full name":"jeff haringtons","id":"a6a0sc5bwcjr","geo_precision":"city","state":"VA"},"type":"Feature","geometry":{"type":"Point","coordinates":[-79.318718,37.372437]}},{"properties":{"city":"Bristol","geo_score":0.857,"full name":"Joe","id":"a6a0sch1an3f","geo_precision":"city","state":"TN"},"type":"Feature","geometry":{"type":"Point","coordinates":[-82.192545,36.531703]}},{"properties":{"city":"Lynchburg","geo_score":0.857,"full name":"steve tosure","id":"a6a0scdjrr92","geo_precision":"city","state":"VA"},"type":"Feature","geometry":{"type":"Point","coordinates":[-79.178326,37.383112]}},{"properties":{"city":"Lynchburg","geo_score":0.857,"full name":"tip killoingsworth","id":"a6a0sc8daqde","geo_precision":"city","state":"VA"},"type":"Feature","geometry":{"type":"Point","coordinates":[-79.178326,37.383112]}},{"properties":{"city":"Mars Hill","geo_score":0.857,"full name":"dalton","id":"a6a0scdtkx1v","geo_precision":"city","state":"ME"},"type":"Feature","geometry":{"type":"Point","coordinates":[-67.84817,46.551571]}},{"properties":{"city":"Raleigh","geo_score":0.857,"full name":"Don Gilman","id":"a6a0sca2lqlc","geo_precision":"city","state":"NC"},"type":"Feature","geometry":{"type":"Point","coordinates":[-78.638615,35.772096]}},{"properties":{"city":"Lynchburg","geo_score":0.857,"full name":"doug hales","id":"a6a0sc7up6em","geo_precision":"city","state":"VA"},"type":"Feature","geometry":{"type":"Point","coordinates":[-79.178326,37.383112]}},{"properties":{"city":"Lynchburg","geo_score":0.857,"full name":"donna soothy king","id":"a6a0sc5f3x5k","geo_precision":"city","state":"VA"},"type":"Feature","geometry":{"type":"Point","coordinates":[-79.178326,37.383112]}},{"properties":{"city":"Bangor","geo_score":0.857,"full name":"brent Dumfee","id":"a6a0scb8zye7","geo_precision":"city","state":"ME"},"type":"Feature","geometry":{"type":"Point","coordinates":[-68.878893,45.061744]}},{"properties":{"city":"Lynchburg","geo_score":0.857,"full name":"Dunns mary kaye","id":"a6a0sca6d5j8","geo_precision":"city","state":"VA"},"type":"Feature","geometry":{"type":"Point","coordinates":[-79.178326,37.383112]}},{"properties":{"city":"Lynchburg","geo_score":0.857,"full name":"smissen","id":"a6a0scbijf88","geo_precision":"city","state":"VA"},"type":"Feature","geometry":{"type":"Point","coordinates":[-79.178326,37.383112]}},{"properties":{"city":"Dallas","geo_score":0.857,"full name":"Barb Stanley -brother","id":"a6a0sc9ecpji","geo_precision":"city","state":"TX"},"type":"Feature","geometry":{"type":"Point","coordinates":[-96.806667,32.783056]}},{"properties":{"city":"Seatle","geo_score":0.837,"full name":"John Kappler","id":"a6a0sc0v68cc","geo_precision":"city","state":"WA"},"type":"Feature","geometry":{"type":"Point","coordinates":[-122.332071,47.60621]}},{"properties":{"city":"Lynchburg","geo_score":0.857,"full name":"Cooper","id":"a6a0sc8dfc7c","geo_precision":"city","state":"VA"},"type":"Feature","geometry":{"type":"Point","coordinates":[-79.178326,37.383112]}},{"properties":{"city":"Wilmington","geo_score":0.857,"full name":"John Candeloro","id":"a6a0scb8y5x3","geo_precision":"city","state":"DE"},"type":"Feature","geometry":{"type":"Point","coordinates":[-75.546589,39.745947]}},{"properties":{"city":"Lyncburg","geo_score":0.0,"full name":"english construction","id":"a6a0sc1w6tob","geo_precision":"unmatched","state":"VA"},"type":"Feature","geometry":null},{"properties":{"city":"Gladys","geo_score":0.738,"full name":"Ted Vasser","id":"a6a0sc2m6adn","geo_precision":"city","state":"VA"},"type":"Feature","geometry":{"type":"Point","coordinates":[-80.675624,37.342346]}},{"properties":{"city":"Amery","geo_score":0.857,"full name":"Brad Marquand","id":"a6a0sc48aqga","geo_precision":"city","state":"WI"},"type":"Feature","geometry":{"type":"Point","coordinates":[-92.401379,45.348566]}},{"properties":{"city":"Lynchburg","geo_score":0.857,"full name":"Chris Malbury","id":"a6a0sc12c6jz","geo_precision":"city","state":"VA"},"type":"Feature","geometry":{"type":"Point","coordinates":[-79.178326,37.383112]}},{"properties":{"city":"crossvile","geo_score":0.843,"full name":"Tom Prieur","id":"a6a0sc4iko8z","geo_precision":"city","state":"TN"},"type":"Feature","geometry":{"type":"Point","coordinates":[-85.030023,35.950993]}},{"properties":{"city":"Bedford","geo_score":0.857,"full name":"Brent Bedford Guy ?benlley","id":"a6a0scgq5wv3","geo_precision":"city","state":"VA"},"type":"Feature","geometry":{"type":"Point","coordinates":[-79.522585,37.336027]}},{"properties":{"city":"Middletown","geo_score":0.857,"full name":"Micky Cockren","id":"a6a0scghcm08","geo_precision":"city","state":"DE"},"type":"Feature","geometry":{"type":"Point","coordinates":[-75.677535,39.485721]}},{"properties":{"city":"amery","geo_score":0.857,"full name":"Norm Osero","id":"a6a0scg6nn4f","geo_precision":"city","state":"WI"},"type":"Feature","geometry":{"type":"Point","coordinates":[-92.401379,45.348566]}},{"properties":{"city":"Middletown","geo_score":0.857,"full name":"Charles Stanley","id":"a6a0sc6r8zrq","geo_precision":"city","state":"DE"},"type":"Feature","geometry":{"type":"Point","coordinates":[-75.677535,39.485721]}},{"properties":{"city":"Middletown","geo_score":0.857,"full name":"Donnie Buriss","id":"a6a0scewhfha","geo_precision":"city","state":"DE"},"type":"Feature","geometry":{"type":"Point","coordinates":[-75.677535,39.485721]}},{"properties":{"city":"Lynchburg","geo_score":0.857,"full name":"Jay Kumar -boss","id":"a6a0sc9o92sw","geo_precision":"city","state":"VA"},"type":"Feature","geometry":{"type":"Point","coordinates":[-79.178326,37.383112]}},{"properties":{"city":"Lynchburg","geo_score":0.857,"full name":"New Ocean Funding, jay kumar","id":"a6a0scd7kj2h","geo_precision":"city","state":"VA"},"type":"Feature","geometry":{"type":"Point","coordinates":[-79.178326,37.383112]}},{"properties":{"city":"Lynchburg","geo_score":0.857,"full name":"ron ferrin","id":"a6a0scbohwq8","geo_precision":"city","state":"VA"},"type":"Feature","geometry":{"type":"Point","coordinates":[-79.178326,37.383112]}},{"properties":{"city":"Lynchburg","geo_score":0.857,"full name":"runck and pratt","id":"a6a0sc0wir2r","geo_precision":"city","state":"VA"},"type":"Feature","geometry":{"type":"Point","coordinates":[-79.178326,37.383112]}},{"properties":{"city":"Middletown","geo_score":0.857,"full name":"Jay Baron","id":"a6a0scdbk7dv","geo_precision":"city","state":"DE"},"type":"Feature","geometry":{"type":"Point","coordinates":[-75.677535,39.485721]}},{"properties":{"city":"lymerick","geo_score":0.791,"full name":"F R Carroll","id":"a6a0sc7gh4rh","geo_precision":"city","state":"ME"},"type":"Feature","geometry":{"type":"Point","coordinates":[-70.788116,43.695911]}},{"properties":{"city":"South Paris","geo_score":0.79,"full name":"Rupert Grover","id":"a6a0sc8k94zg","geo_precision":"city","state":"ME"},"type":"Feature","geometry":{"type":"Point","coordinates":[-70.899786,43.695911]}},{"properties":{"city":"Gardiner","geo_score":0.857,"full name":"Steve McGee","id":"a6a0sc1htzpe","geo_precision":"city","state":"ME"},"type":"Feature","geometry":{"type":"Point","coordinates":[-69.796909,44.296652]}},{"properties":{"city":"saco","geo_score":0.857,"full name":"Tomealwale","id":"a6a0scd5xqsd","geo_precision":"city","state":"ME"},"type":"Feature","geometry":{"type":"Point","coordinates":[-70.666387,43.541241]}},{"properties":{"city":"biddeford","geo_score":0.857,"full name":"David Gould","id":"a6a0sc8edfq6","geo_precision":"city","state":"ME"},"type":"Feature","geometry":{"type":"Point","coordinates":[-70.651859,43.532376]}},{"properties":{"city":"washington","geo_score":0.857,"full name":"Doug Holiday","id":"a6a0scgf7cqm","geo_precision":"city","state":"DC"},"type":"Feature","geometry":{"type":"Point","coordinates":[-77.036366,38.895112]}},{"properties":{"city":"Bangor","geo_score":0.857,"full name":"Adam Beals","id":"a6a0sc6cyv21","geo_precision":"city","state":"ME"},"type":"Feature","geometry":{"type":"Point","coordinates":[-68.878893,45.061744]}}],"is_temporal":false,"author":{"url":"","metadata":"","contact_name":"","contact_address":"","source":"","contact_phone":""},"source":"","pagination":{"sort":null,"start":0,"total":202,"limit":1000000},"state":"complete","tags":"","published":"2014-08-13T07:01:09-04:00","id":116726}