{"type":"FeatureCollection","data_type":"Dataset","url_type":null,"permissions":[{"permissions":{"download":true,"edit":true,"view":true},"group_id":13923},{"permissions":{"download":true,"view":true},"group_id":"everyone"}],"classification":null,"title":"Boat Club Camps","count":71,"stream_id":117144,"contributor":{"url":"http://geocommons.com/users/695","name":"Bill"},"data_attributes":null,"calculation_params":null,"icon_link":null,"link":"http://geocommons.com/overlays/117144.json","extent":[-122.537,28.5383,-69.6178,47.6062],"geometry_types":["point"],"unique_name":null,"name":"Boat Club Camps","feature_count":71,"description":"","next_feature":null,"is_raster":false,"short_classification":"Y","stats":{},"features":[{"properties":{"city":"Windsor","camp":"Eton College Rowing","geo_score":0.634,"id":"a6l039i6knhp","geo_precision":"city","state":"Berkshire"},"type":"Feature","geometry":{"type":"Point","coordinates":[-86.793878,33.46844]}},{"properties":{"city":"Costa Mesa","camp":"Iron Oarsman Camp with Xeno Muller","geo_score":0.73,"id":"a6l0395ihvwo","geo_precision":"city","state":"CA"},"type":"Feature","geometry":{"type":"Point","coordinates":[-115.967051,34.839964]}},{"properties":{"city":"Sausolito","camp":"Open Water Rowing","geo_score":0.841,"id":"a6l039hopiq2","geo_precision":"city","state":"CA"},"type":"Feature","geometry":{"type":"Point","coordinates":[-122.531423,37.850417]}},{"properties":{"city":"Stanford","camp":"Stanford Advanced Rowing Camps","geo_score":0.857,"id":"a6l0392uyrmt","geo_precision":"city","state":"CA"},"type":"Feature","geometry":{"type":"Point","coordinates":[-121.705327,37.189396]}},{"properties":{"city":"La Jolla","camp":"UC San Diego Day Camps for Boys and Girls","geo_score":0.857,"id":"a6l039c6yz60","geo_precision":"city","state":"CA"},"type":"Feature","geometry":{"type":"Point","coordinates":[-117.876447,33.857515]}},{"properties":{"city":"Hartford","camp":"College Coaches Camp hosted by Riverfront Recapture","geo_score":0.857,"id":"a6l0398e4mn3","geo_precision":"city","state":"CT"},"type":"Feature","geometry":{"type":"Point","coordinates":[-72.685093,41.763711]}},{"properties":{"city":"Farmington","camp":"Porter's Summer Sports Academy","geo_score":0.857,"id":"a6l0398wgvi5","geo_precision":"city","state":"CT"},"type":"Feature","geometry":{"type":"Point","coordinates":[-72.718832,41.791776]}},{"properties":{"city":"Middletown","camp":"Sparks Rowing Camp","geo_score":0.857,"id":"a6l039g1oy5s","geo_precision":"city","state":"CT"},"type":"Feature","geometry":{"type":"Point","coordinates":[-72.655357,41.550139]}},{"properties":{"city":"Washington","camp":"Colonial Rowing Camp at George Washington University","geo_score":0.714,"id":"a6l0396z70mc","geo_precision":"city","state":"DC"},"type":"Feature","geometry":{"type":"Point","coordinates":[-77.036366,38.895112]}},{"properties":{"city":"Wellington","camp":"Florida Rowing Center","geo_score":0.0,"id":"a6l039d5v2lf","geo_precision":"unmatched","state":"FL"},"type":"Feature","geometry":null},{"properties":{"city":"Orlando","camp":"Orlando Rowing Club","geo_score":0.857,"id":"a6l039hdgqmq","geo_precision":"city","state":"FL"},"type":"Feature","geometry":{"type":"Point","coordinates":[-81.379237,28.538336]}},{"properties":{"city":"Boca Raton","camp":"Pine Crest Pairs and SAT Prep Camp","geo_score":0.786,"id":"a6l039f2t4hw","geo_precision":"city","state":"FL"},"type":"Feature","geometry":{"type":"Point","coordinates":[-81.331733,28.828325]}},{"properties":{"city":"Wichita","camp":"Wichita Rowing Association","geo_score":0.857,"id":"a6l0396anpqg","geo_precision":"city","state":"KS"},"type":"Feature","geometry":{"type":"Point","coordinates":[-97.337545,37.692236]}},{"properties":{"city":"Waterville","camp":"Colby Crew Camp","geo_score":0.857,"id":"a6l0395thrvw","geo_precision":"city","state":"ME"},"type":"Feature","geometry":{"type":"Point","coordinates":[-69.617809,44.554321]}},{"properties":{"city":"Raymond","camp":"Northeast Rowing Center","geo_score":0.857,"id":"a6l039hef1pp","geo_precision":"city","state":"ME"},"type":"Feature","geometry":{"type":"Point","coordinates":[-70.465928,43.906227]}},{"properties":{"city":"Chestertown","camp":"Chesapeake Crew Camp for Girls","geo_score":0.857,"id":"a6l039heimd4","geo_precision":"city","state":"MD"},"type":"Feature","geometry":{"type":"Point","coordinates":[-76.059316,39.235988]}},{"properties":{"city":"Annapolis","camp":"Navy Masters Rowing Camp for Women","geo_score":0.857,"id":"a6l0393cird1","geo_precision":"city","state":"MD"},"type":"Feature","geometry":{"type":"Point","coordinates":[-76.492183,38.978445]}},{"properties":{"city":"Cambridge","camp":"Charles River Rowing Camps","geo_score":0.813,"id":"a6l039agiz7v","geo_precision":"city","state":"MA"},"type":"Feature","geometry":{"type":"Point","coordinates":[-71.103663,42.358431]}},{"properties":{"city":"Marblehead","camp":"Little Harbor Boathouse Open Water Rowing Center","geo_score":0.816,"id":"a6l0395r8b0y","geo_precision":"city","state":"MA"},"type":"Feature","geometry":{"type":"Point","coordinates":[-70.836991,42.500096]}},{"properties":{"city":"Cambridge","camp":"MIT Youth Sculling Camp","geo_score":0.813,"id":"a6l039hk7u93","geo_precision":"city","state":"MA"},"type":"Feature","geometry":{"type":"Point","coordinates":[-71.103663,42.358431]}},{"properties":{"city":"Detroit","camp":"Detroit Women's Rowing Association","geo_score":0.857,"id":"a6l039344j0k","geo_precision":"city","state":"MI"},"type":"Feature","geometry":{"type":"Point","coordinates":[-83.045754,42.331427]}},{"properties":{"city":"Ann Arbor","camp":"University of Michigan Summer Rowing Camp","geo_score":0.75,"id":"a6l0395o3gy3","geo_precision":"city","state":"MI"},"type":"Feature","geometry":{"type":"Point","coordinates":[-86.176715,42.96502]}},{"properties":{"city":"Minneapolis","camp":"Minnesota Rowing Camps","geo_score":0.857,"id":"a6l039dzd8nx","geo_precision":"city","state":"MN"},"type":"Feature","geometry":{"type":"Point","coordinates":[-93.263836,44.979965]}},{"properties":{"city":"Hanover","camp":"North Country Rowing Camp at Dartmouth College","geo_score":0.857,"id":"a6l039glsvzr","geo_precision":"city","state":"NH"},"type":"Feature","geometry":{"type":"Point","coordinates":[-72.120314,43.861077]}},{"properties":{"city":"Hanover","camp":"Steve Wagner's Black Bear Sculling Camp","geo_score":0.857,"id":"a6l039cmui1u","geo_precision":"city","state":"NH"},"type":"Feature","geometry":{"type":"Point","coordinates":[-72.120314,43.861077]}},{"properties":{"city":"Durham","camp":"UNH Rowing and Coxing Camp for Girls","geo_score":0.857,"id":"a6l039hjyrtk","geo_precision":"city","state":"NH"},"type":"Feature","geometry":{"type":"Point","coordinates":[-70.962843,43.165772]}},{"properties":{"city":"Mercer Lake","camp":"PNRA-Resolute Racing Camp","geo_score":0.0,"id":"a6l0393nqnnb","geo_precision":"unmatched","state":"NJ"},"type":"Feature","geometry":null},{"properties":{"city":"Princeton","camp":"Princeton High-Performance Rowing Camps","geo_score":0.806,"id":"a6l039bb2ad9","geo_precision":"city","state":"NJ"},"type":"Feature","geometry":{"type":"Point","coordinates":[-74.64795,40.363882]}},{"properties":{"city":"Rutgers University","camp":"Raritan Valley Rowing Camp","geo_score":0.0,"id":"a6l039fpi034","geo_precision":"unmatched","state":"NJ"},"type":"Feature","geometry":null},{"properties":{"city":"Brigantine","camp":"Rowmax Summer Rowing Program","geo_score":0.779,"id":"a6l039bnfi5a","geo_precision":"city","state":"NJ"},"type":"Feature","geometry":{"type":"Point","coordinates":[-74.580989,39.362616]}},{"properties":{"city":"Ithaca","camp":"Cornell Big Red Competitive Rowing Camp","geo_score":0.857,"id":"a6l0393uulzi","geo_precision":"city","state":"NY"},"type":"Feature","geometry":{"type":"Point","coordinates":[-76.483999,42.402794]}},{"properties":{"city":"Pelham","camp":"NYAC Summer Racing Program","geo_score":0.857,"id":"a6l0396matq5","geo_precision":"city","state":"NY"},"type":"Feature","geometry":{"type":"Point","coordinates":[-73.806277,40.904538]}},{"properties":{"city":"Sag Harbor","camp":"Sag Harbor Community Rowing","geo_score":0.857,"id":"a6l039h0lvbz","geo_precision":"city","state":"NY"},"type":"Feature","geometry":{"type":"Point","coordinates":[-72.637078,40.922326]}},{"properties":{"city":"Marietta","camp":"Pioneer Navy Technical Sweep Camp","geo_score":0.857,"id":"a6l039d95v7p","geo_precision":"city","state":"OH"},"type":"Feature","geometry":{"type":"Point","coordinates":[-81.351051,39.413446]}},{"properties":{"city":"Oklahoma City","camp":"Oklahoma City High Performance Camp","geo_score":0.857,"id":"a6l03973oiog","geo_precision":"city","state":"OK"},"type":"Feature","geometry":{"type":"Point","coordinates":[-97.516428,35.46756]}},{"properties":{"city":"Erie","camp":"Mercyhurst College Summer Rowing Camp","geo_score":0.857,"id":"a6l039h4wabm","geo_precision":"city","state":"PA"},"type":"Feature","geometry":{"type":"Point","coordinates":[-80.085059,42.129224]}},{"properties":{"city":"Philadelphia","camp":"Penn AC Gold","geo_score":0.857,"id":"a6l039cpfzk9","geo_precision":"city","state":"PA"},"type":"Feature","geometry":{"type":"Point","coordinates":[-75.163789,39.952335]}},{"properties":{"city":"Philadelphia","camp":"Philadelphia Sculling Club","geo_score":0.857,"id":"a6l039fsslj7","geo_precision":"city","state":"PA"},"type":"Feature","geometry":{"type":"Point","coordinates":[-75.163789,39.952335]}},{"properties":{"city":"Philadelphia","camp":"Quaker Rowing Camp at The University of Pennsylvania","geo_score":0.857,"id":"a6l0398y9rk1","geo_precision":"city","state":"PA"},"type":"Feature","geometry":{"type":"Point","coordinates":[-75.163789,39.952335]}},{"properties":{"city":"Winfield","camp":"River Breeze Rowing","geo_score":0.857,"id":"a6l0397qr9xj","geo_precision":"city","state":"PA"},"type":"Feature","geometry":{"type":"Point","coordinates":[-76.859662,40.905947]}},{"properties":{"city":"San Miniato","camp":"Terralba Rowing","geo_score":0.614,"id":"a6l039h7eibb","geo_precision":"city","state":"Pisa"},"type":"Feature","geometry":{"type":"Point","coordinates":[-88.050595,34.645649]}},{"properties":{"city":"Providence","camp":"Providence Rowing Camp at Brown University","geo_score":0.857,"id":"a6l03932gwc0","geo_precision":"city","state":"RI"},"type":"Feature","geometry":{"type":"Point","coordinates":[-71.412834,41.823989]}},{"properties":{"city":"Seville","camp":"TeamSur Rowing Camps","geo_score":0.694,"id":"a6l039b7ow2k","geo_precision":"city","state":"Seville"},"type":"Feature","geometry":{"type":"Point","coordinates":[-86.331076,31.877374]}},{"properties":{"city":"Austin","camp":"University of Texas Longhorns Rowing Camp","geo_score":0.857,"id":"a6l039gms189","geo_precision":"city","state":"TX"},"type":"Feature","geometry":{"type":"Point","coordinates":[-97.743061,30.267153]}},{"properties":{"city":"Norfolk","camp":"High Performance Junior Rowing Camp","geo_score":0.714,"id":"a6l03932ewrb","geo_precision":"city","state":"VA"},"type":"Feature","geometry":{"type":"Point","coordinates":[-76.285218,36.846815]}},{"properties":{"city":"Craftsbury","camp":"Craftsbury Sculling Center","geo_score":0.857,"id":"a6l0395ur3st","geo_precision":"city","state":"VT"},"type":"Feature","geometry":{"type":"Point","coordinates":[-72.388928,44.641663]}},{"properties":{"city":"Craftsbury","camp":"Henry Hamilton's Sculling School","geo_score":0.857,"id":"a6l039ffnkdh","geo_precision":"city","state":"VT"},"type":"Feature","geometry":{"type":"Point","coordinates":[-72.388928,44.641663]}},{"properties":{"city":"Charlottesville","camp":"Cavalier Rowing Camp","geo_score":0.857,"id":"a6l039bzmfh8","geo_precision":"city","state":"VA"},"type":"Feature","geometry":{"type":"Point","coordinates":[-78.476678,38.029306]}},{"properties":{"city":"Christchurch","camp":"Christchurch School Summer Program Crew Camp","geo_score":0.857,"id":"a6l039asj0de","geo_precision":"city","state":"VA"},"type":"Feature","geometry":{"type":"Point","coordinates":[-76.447551,37.598391]}},{"properties":{"city":"Norfolk","camp":"ODU Women's Rowing Camp","geo_score":0.857,"id":"a6l0399y0vq2","geo_precision":"city","state":"VA"},"type":"Feature","geometry":{"type":"Point","coordinates":[-76.285218,36.846815]}},{"properties":{"city":"Charlottesville","camp":"Wahoo Rowing Camps for Boys at the University of Virginia","geo_score":0.857,"id":"a6l0392vj3pr","geo_precision":"city","state":"VA"},"type":"Feature","geometry":{"type":"Point","coordinates":[-78.476678,38.029306]}},{"properties":{"city":"Williamsburg","camp":"William and Mary Rowing Club","geo_score":0.857,"id":"a6l039hrax7r","geo_precision":"city","state":"VA"},"type":"Feature","geometry":{"type":"Point","coordinates":[-76.746769,37.310451]}},{"properties":{"city":"Seattle","camp":"Lake Union Crew Junior Summer Camp","geo_score":0.857,"id":"a6l039gpk5ek","geo_precision":"city","state":"WA"},"type":"Feature","geometry":{"type":"Point","coordinates":[-122.332071,47.60621]}},{"properties":{"city":"Seattle","camp":"Pocock Rowing Center Camp","geo_score":0.857,"id":"a6l039dzj74f","geo_precision":"city","state":"WA"},"type":"Feature","geometry":{"type":"Point","coordinates":[-122.332071,47.60621]}},{"properties":{"city":"Seattle","camp":"Seattle Rowing Center Summer Development Camps","geo_score":0.857,"id":"a6l03943pzh0","geo_precision":"city","state":"WA"},"type":"Feature","geometry":{"type":"Point","coordinates":[-122.332071,47.60621]}},{"properties":{"city":"Madison","camp":"Camp Randall Rowing Club","geo_score":0.857,"id":"a6l039auzi0e","geo_precision":"city","state":"WI"},"type":"Feature","geometry":{"type":"Point","coordinates":[-89.40123,43.073052]}},{"properties":{"city":"Madison","camp":"Wisconsin Boys and Girls Rowing Camp","geo_score":0.857,"id":"a6l039atjcjy","geo_precision":"city","state":"WI"},"type":"Feature","geometry":{"type":"Point","coordinates":[-89.40123,43.073052]}},{"properties":{"city":"Madison","camp":"Wisconsin Junior Women's Rowing Camp","geo_score":0.857,"id":"a6l0393gahrh","geo_precision":"city","state":"WI"},"type":"Feature","geometry":{"type":"Point","coordinates":[-89.40123,43.073052]}},{"properties":{"city":"Berkeley","camp":"Cal Rowing Camp for Girls","geo_score":0.857,"id":"a6l039ex9ows","geo_precision":"city","state":"CA"},"type":"Feature","geometry":{"type":"Point","coordinates":[-122.29673,37.860576]}},{"properties":{"city":"Berkeley","camp":"Cal Rowing Camps for Boys","geo_score":0.857,"id":"a6l0396qab15","geo_precision":"city","state":"CA"},"type":"Feature","geometry":{"type":"Point","coordinates":[-122.29673,37.860576]}},{"properties":{"city":"Sacramento","camp":"California State University at Sacramento's Aquatic Center at Lake Natoma","geo_score":0.857,"id":"a6l03981917n","geo_precision":"city","state":"CA"},"type":"Feature","geometry":{"type":"Point","coordinates":[-121.4944,38.581572]}},{"properties":{"city":"New Haven","camp":"Bulldog Rowing Camp at Yale","geo_score":0.857,"id":"a6l0394y91pu","geo_precision":"city","state":"CT"},"type":"Feature","geometry":{"type":"Point","coordinates":[-72.928158,41.308153]}},{"properties":{"city":"Pittsfield","camp":"Berkshire Sculling Association","geo_score":0.857,"id":"a6l039c9y8fv","geo_precision":"city","state":"MA"},"type":"Feature","geometry":{"type":"Point","coordinates":[-73.24807,42.479475]}},{"properties":{"city":"Boston","camp":"Boston Rowing Club Women Sculling","geo_score":0.857,"id":"a6l039j4cpue","geo_precision":"city","state":"MA"},"type":"Feature","geometry":{"type":"Point","coordinates":[-71.059773,42.358431]}},{"properties":{"city":"Hanover","camp":"Black Bear Sculling","geo_score":0.857,"id":"a6l039c20bwz","geo_precision":"city","state":"NH"},"type":"Feature","geometry":{"type":"Point","coordinates":[-72.120314,43.861077]}},{"properties":{"city":"Queensbury","camp":"Adirondack Rowing","geo_score":0.857,"id":"a6l039ax5xd8","geo_precision":"city","state":"NY"},"type":"Feature","geometry":{"type":"Point","coordinates":[-73.613171,43.377293]}},{"properties":{"city":"Toronto","camp":"Argonaut Rowing Club","geo_score":0.0,"id":"a6l039an1srf","geo_precision":"unmatched","state":"ON"},"type":"Feature","geometry":null},{"properties":{"city":"St. Catharines","camp":"Brock Rowing School","geo_score":0.0,"id":"a6l039id0wg3","geo_precision":"unmatched","state":"ON"},"type":"Feature","geometry":null},{"properties":{"city":"Ashland","camp":"All American Rowing Camps","geo_score":0.857,"id":"a6l0395kgh82","geo_precision":"city","state":"OR"},"type":"Feature","geometry":{"type":"Point","coordinates":[-122.537356,42.148098]}},{"properties":{"city":"Lancaster","camp":"Calm Waters Rowing","geo_score":0.857,"id":"a6l039f29mzq","geo_precision":"city","state":"VA"},"type":"Feature","geometry":{"type":"Point","coordinates":[-76.50021,37.739451]}},{"properties":{"city":"Annapolis","camp":"Navy Rowing Camps, U.S. Naval Academy","geo_score":0.857,"id":"a6l039ehyrtk","geo_precision":"city","state":"MD"},"type":"Feature","geometry":{"type":"Point","coordinates":[-76.492183,38.978445]}}],"is_temporal":false,"author":{"url":"","metadata":"","contact_name":"","contact_address":"","source":"","contact_phone":""},"source":"","pagination":{"sort":null,"start":0,"total":71,"limit":1000000},"state":"complete","tags":"","published":"2014-08-13T07:29:27-04:00","id":117144}