{"type":"FeatureCollection","data_type":"Dataset","url_type":null,"permissions":[{"permissions":{"download":true,"view":true},"group_id":"everyone"}],"classification":null,"title":"ASPRS Western Great Lakes Members","count":212,"stream_id":118022,"contributor":{"url":"http://geocommons.com/users/25798","name":"jim.lacy"},"data_attributes":null,"calculation_params":null,"icon_link":null,"link":"http://geocommons.com/overlays/118022.json","extent":[-95.0783,0.0,0.0,47.2416],"geometry_types":["point"],"unique_name":null,"name":"ASPRS Western Great Lakes Members","feature_count":212,"description":"Locations of ASPRS Western Great Lakes members as of May 27, 2011","next_feature":null,"is_raster":false,"short_classification":"Y","stats":{},"features":[{"properties":{"city":"Platteville","zip":"53818","county":"Grant","id":"a62dv0k77co8","state":"WI"},"type":"Feature","geometry":{"type":"Point","coordinates":[-90.493107,42.733786]}},{"properties":{"city":"Eola","zip":"60519","county":"Du Page","id":"a62dv08wyrr2","state":"IL"},"type":"Feature","geometry":{"type":"Point","coordinates":[-88.030758,41.769435]}},{"properties":{"city":"Madison","zip":"53705-1143","county":"Dane","id":"a62dv0h1i4xj","state":"WI"},"type":"Feature","geometry":{"type":"Point","coordinates":[-89.491315,43.076302]}},{"properties":{"city":"Hoffman Estates","zip":"60192-3824","county":"Cook","id":"a62dv0dyi02m","state":"IL"},"type":"Feature","geometry":{"type":"Point","coordinates":[-88.114186,42.107797]}},{"properties":{"city":"Sheboygan","zip":"53083","county":"Madison","id":"a62dv0fdt1s1","state":"WI"},"type":"Feature","geometry":{"type":"Point","coordinates":[-88.261755,43.246038]}},{"properties":{"city":"Madison","zip":"53706","county":"Dane","id":"a62dv07gjnyr","state":"WI"},"type":"Feature","geometry":{"type":"Point","coordinates":[-89.469297,43.060891]}},{"properties":{"city":"Madison","zip":"53704-3116","county":"Dane","id":"a62dv0jhhr0f","state":"WI"},"type":"Feature","geometry":{"type":"Point","coordinates":[-89.353048,43.119441]}},{"properties":{"city":"Bloomington","zip":"47405","county":"Monroe","id":"a62dv077jqx4","state":"IN"},"type":"Feature","geometry":{"type":"Point","coordinates":[-86.515145,39.173447]}},{"properties":{"city":"West Bend","zip":"53095","county":"Washington","id":"a62dv0dnkylx","state":"WI"},"type":"Feature","geometry":{"type":"Point","coordinates":[-88.185928,43.451666]}},{"properties":{"city":"Oconomowoc","zip":"53066","county":"Waukesha","id":"a62dv07i07mf","state":"WI"},"type":"Feature","geometry":{"type":"Point","coordinates":[-88.48781,43.11627]}},{"properties":{"city":"West Lafayette","zip":"47907-1284","county":"Tippecanoe","id":"a62dv0ha9v0v","state":"IN"},"type":"Feature","geometry":{"type":"Point","coordinates":[-86.916215,40.424923]}},{"properties":{"city":"Indianapolis","zip":"46205-1704","county":"Marion","id":"a62dv0bss1uw","state":"IN"},"type":"Feature","geometry":{"type":"Point","coordinates":[-86.153891,39.833748]}},{"properties":{"city":"Oregon","zip":"53575","county":"Dane","id":"a62dv0gerty0","state":"WI"},"type":"Feature","geometry":{"type":"Point","coordinates":[-89.448216,42.908936]}},{"properties":{"city":"Fishers","zip":"46038","county":"Marion","id":"a62dv0bh3ljl","state":"IN"},"type":"Feature","geometry":{"type":"Point","coordinates":[-86.027772,39.961964]}},{"properties":{"city":"Elkhart","zip":"46514-1395","county":"Elkhart","id":"a62dv0ju63em","state":"IN"},"type":"Feature","geometry":{"type":"Point","coordinates":[-86.019656,41.686752]}},{"properties":{"city":"Elgin","zip":"60120","county":"Kane","id":"a62dv0brjuwt","state":"IL"},"type":"Feature","geometry":{"type":"Point","coordinates":[-88.284,42.039561]}},{"properties":{"city":"Osseo","zip":"55311-3516","county":"Hennepin","id":"a62dv086f3lc","state":"MN"},"type":"Feature","geometry":{"type":"Point","coordinates":[-93.449623,45.07864]}},{"properties":{"city":"Terre Haute","zip":"47809-0001","county":"Vigo","id":"a62dv0drc9rt","state":"IN"},"type":"Feature","geometry":{"type":"Point","coordinates":[-87.41107,39.470986]}},{"properties":{"city":"Lafayette","zip":"47905-2007","county":"Tippecanoe","id":"a62dv0fx3zg8","state":"IN"},"type":"Feature","geometry":{"type":"Point","coordinates":[-86.877202,40.417345]}},{"properties":{"city":"St. Paul","zip":"55108","county":"Ramsey","id":"a62dv06u54ga","state":"MN"},"type":"Feature","geometry":{"type":"Point","coordinates":[-93.060829,44.950381]}},{"properties":{"city":"West Lafayette","zip":"47906-7323","county":"Tippecanoe","id":"a62dv089bth2","state":"IN"},"type":"Feature","geometry":{"type":"Point","coordinates":[-86.934755,40.445925]}},{"properties":{"city":"W Lafayette","zip":"47906-1707","county":"Tippecanoe","id":"a62dv07w2yyb","state":"IN"},"type":"Feature","geometry":{"type":"Point","coordinates":[-86.899723,40.448334]}},{"properties":{"city":"West Lafayette","zip":"47606","county":"Tippecanoe","id":"a62dv0jgk0yi","state":"IN"},"type":"Feature","geometry":{"type":"Point","coordinates":[-86.923736,40.442268]}},{"properties":{"city":"West Lafayette","zip":"47907-2051","county":"Tippecanoe","id":"a62dv0efffh3","state":"IN"},"type":"Feature","geometry":{"type":"Point","coordinates":[-86.912121,40.431353]}},{"properties":{"city":"West Lafayette","zip":"47906","county":"Tippecanoe","id":"a62dv0ifjru5","state":"IN"},"type":"Feature","geometry":{"type":"Point","coordinates":[-86.901242,40.435388]}},{"properties":{"city":"West Lafayette","zip":"47906-2224","county":"Tippecanoe","id":"a62dv0i53y6e","state":"IN"},"type":"Feature","geometry":{"type":"Point","coordinates":[-86.92229,40.442702]}},{"properties":{"city":"South Bend","zip":"46628","county":"Saint Joseph","id":"a62dv0ex5g1s","state":"IN"},"type":"Feature","geometry":{"type":"Point","coordinates":[-86.306281,41.696036]}},{"properties":{"city":"Dixon","zip":"61021-8717","county":"Lee","id":"a62dv0hfhpvn","state":"IL"},"type":"Feature","geometry":{"type":"Point","coordinates":[-89.554779,41.844256]}},{"properties":{"city":"Sheboygan Falls","zip":"53085-1448","county":"Sheboygan","id":"a62dv0eaqcww","state":"WI"},"type":"Feature","geometry":{"type":"Point","coordinates":[-87.808195,43.728267]}},{"properties":{"city":"Marquette","zip":"49855-5342","county":"Marquette","id":"a62dv0fjplji","state":"MI"},"type":"Feature","geometry":{"type":"Point","coordinates":[-87.396565,46.55358]}},{"properties":{"city":"Houghton","zip":"49931","county":"Houghton","id":"a62dv0g976l3","state":"MI"},"type":"Feature","geometry":{"type":"Point","coordinates":[-88.642901,47.15576]}},{"properties":{"city":"St. Paul","zip":"55155","county":"Ramsey","id":"a62dv0g7d8p6","state":"MN"},"type":"Feature","geometry":{"type":"Point","coordinates":[-93.095518,44.952165]}},{"properties":{"city":"Elkhart Lake","zip":"53020-0187","county":"Sheboygan","id":"a62dv0ewmp0z","state":"WI"},"type":"Feature","geometry":{"type":"Point","coordinates":[-87.912708,43.194793]}},{"properties":{"city":"Sheboygan","zip":"53083","county":"Sheboygan","id":"a62dv0jtouth","state":"WI"},"type":"Feature","geometry":{"type":"Point","coordinates":[-87.713188,43.782845]}},{"properties":{"city":"Sheboygan","zip":"53081","county":"Sheboygan","id":"a62dv0d164uo","state":"WI"},"type":"Feature","geometry":{"type":"Point","coordinates":[-87.708199,43.69383]}},{"properties":{"city":"Elm Grove","zip":"53122-1053","county":"Waukesha","id":"a62dv0e58hio","state":"WI"},"type":"Feature","geometry":{"type":"Point","coordinates":[-88.099769,43.055531]}},{"properties":{"city":"Plainfield","zip":"46168","county":"Hendricks","id":"a62dv0c1bbb4","state":"IN"},"type":"Feature","geometry":{"type":"Point","coordinates":[-86.402945,39.702627]}},{"properties":{"city":"Houghton","zip":"49931","county":"Houghton","id":"a62dv0j1twzn","state":"MI"},"type":"Feature","geometry":{"type":"Point","coordinates":[-90.005388,46.473753]}},{"properties":{"city":"Sheboygan","zip":"53083-1825","county":"Sheboygan","id":"a62dv07hnoi7","state":"WI"},"type":"Feature","geometry":{"type":"Point","coordinates":[-87.760328,43.795039]}},{"properties":{"city":"Houghton","zip":"49931-0839","county":"Houghton","id":"a62dv0fxex1f","state":"MI"},"type":"Feature","geometry":{"type":"Point","coordinates":[-88.572842,47.10875]}},{"properties":{"city":"Edina","zip":"55424","county":"Hennepin","id":"a62dv06c94l1","state":"MN"},"type":"Feature","geometry":{"type":"Point","coordinates":[-93.331544,44.908834]}},{"properties":{"city":"Middleton","zip":"53562","county":"Dane","id":"a62dv0gc4zw3","state":"WI"},"type":"Feature","geometry":{"type":"Point","coordinates":[-89.484009,43.104162]}},{"properties":{"city":"Madison","zip":"53705","county":"Dane","id":"a62dv0jdyesu","state":"WI"},"type":"Feature","geometry":{"type":"Point","coordinates":[-89.45669,43.073045]}},{"properties":{"city":"Saint Paul","zip":"55127-6156","county":"Ramsey","id":"a62dv0bo8moq","state":"MN"},"type":"Feature","geometry":{"type":"Point","coordinates":[-93.093511,45.065694]}},{"properties":{"city":"St. Paul","zip":"55108","county":"Ramsey","id":"a62dv05hr6j5","state":"MN"},"type":"Feature","geometry":{"type":"Point","coordinates":[-93.188862,44.977759]}},{"properties":{"city":"Mahtomedi","zip":"55115","county":"Washington","id":"a62dv08nkakj","state":"MN"},"type":"Feature","geometry":{"type":"Point","coordinates":[-92.950862,45.062541]}},{"properties":{"city":"Eden Prairie","zip":"55344","county":"Hennepin","id":"a62dv0kzux99","state":"MN"},"type":"Feature","geometry":{"type":"Point","coordinates":[-93.453911,44.851387]}},{"properties":{"city":"MILACA","zip":"56353","county":"Mille Lacs","id":"a62dv0ggm5h4","state":"MN"},"type":"Feature","geometry":{"type":"Point","coordinates":[-93.694488,45.793031]}},{"properties":{"city":"Minnetonka","zip":"55305-3299","county":"Hennepin","id":"a62dv0fesymi","state":"MN"},"type":"Feature","geometry":{"type":"Point","coordinates":[-93.403968,44.957176]}},{"properties":{"city":"Crosslake","zip":"56442-9883","county":"Crow Wing","id":"a62dv05ynh4b","state":"MN"},"type":"Feature","geometry":{"type":"Point","coordinates":[-94.127986,46.649355]}},{"properties":{"city":"Minneapolis","zip":"55418-1534","county":"Hennepin","id":"a62dv0kvd8fk","state":"MN"},"type":"Feature","geometry":{"type":"Point","coordinates":[-93.230715,45.03221]}},{"properties":{"city":"Saint Paul","zip":"55111-4056","county":"Hennepin","id":"a62dv0jl1guz","state":"MN"},"type":"Feature","geometry":{"type":"Point","coordinates":[-93.210221,44.804687]}},{"properties":{"city":"Saint Cloud","zip":"56301-4498","county":"Stearns","id":"a62dv0iwbzxh","state":"MN"},"type":"Feature","geometry":{"type":"Point","coordinates":[-94.154155,45.478576]}},{"properties":{"city":"Sheboygan","zip":"53083","county":"Sheboygan","id":"a62dv0d80b86","state":"WI"},"type":"Feature","geometry":{"type":"Point","coordinates":[-87.760328,43.795039]}},{"properties":{"city":"Minneapolis","zip":"55427-3143","county":"Hennepin","id":"a62dv05s6ujn","state":"MN"},"type":"Feature","geometry":{"type":"Point","coordinates":[-93.396088,45.002418]}},{"properties":{"city":"Rochelle","zip":"61068-1371","county":"Ogle","id":"a62dv0kir7j8","state":"IL"},"type":"Feature","geometry":{"type":"Point","coordinates":[-89.072075,41.932319]}},{"properties":{"city":"Wheaton","zip":"60187-7747","county":"Du Page","id":"a62dv07ovdaf","state":"IL"},"type":"Feature","geometry":{"type":"Point","coordinates":[-88.086467,41.848706]}},{"properties":{"city":"Somonauk","zip":"60552","county":"De Kalb","id":"a62dv058l0js","state":"IL"},"type":"Feature","geometry":{"type":"Point","coordinates":[-88.683153,41.637149]}},{"properties":{"city":"Bolingbrook","zip":"60440","county":"Will","id":"a62dv0amkf4u","state":"IL"},"type":"Feature","geometry":{"type":"Point","coordinates":[-88.105878,41.688783]}},{"properties":{"city":"New Holstein","zip":"53061","county":"Calumet","id":"a62dv0bwlarp","state":"WI"},"type":"Feature","geometry":{"type":"Point","coordinates":[-88.081257,43.939454]}},{"properties":{"city":"Carmel","zip":"46032","county":"Montgomery","id":"a62dv0lg1dn0","state":"IN"},"type":"Feature","geometry":{"type":"Point","coordinates":[-86.185261,39.96643]}},{"properties":{"city":"Ham Lake","zip":"55304","county":"Anoka","id":"a62dv0j58yla","state":"MN"},"type":"Feature","geometry":{"type":"Point","coordinates":[-93.218842,45.27583]}},{"properties":{"city":"W. Lafayette","zip":"47907-2054","county":"Tippecanoe","id":"a62dv06urqru","state":"IN"},"type":"Feature","geometry":{"type":"Point","coordinates":[-86.905588,40.422672]}},{"properties":{"city":"Madison","zip":"53706","county":"Dane","id":"a62dv053jbit","state":"WI"},"type":"Feature","geometry":{"type":"Point","coordinates":[-89.400635,43.074196]}},{"properties":{"city":"Minneapolis","zip":"55404","county":"Hennepin","id":"a62dv0ljbdh3","state":"MN"},"type":"Feature","geometry":{"type":"Point","coordinates":[-93.265105,44.957316]}},{"properties":{"city":"Terre Haute","zip":"47809-0001","county":"Vigo","id":"a62dv06eqwzs","state":"IN"},"type":"Feature","geometry":{"type":"Point","coordinates":[-87.41107,39.470986]}},{"properties":{"city":"Willowbrook","zip":"60527-2241","county":"Du Page","id":"a62dv0hbti6j","state":"IL"},"type":"Feature","geometry":{"type":"Point","coordinates":[-87.952212,41.770017]}},{"properties":{"city":"Marengo","zip":"47140","county":"Crawford","id":"a62dv0e5e3ee","state":"IN"},"type":"Feature","geometry":{"type":"Point","coordinates":[0.0,0.0]}},{"properties":{"city":"Aurora","zip":"60502","county":"Du Page","id":"a62dv0kf95s2","state":"IL"},"type":"Feature","geometry":{"type":"Point","coordinates":[-88.136616,41.768399]}},{"properties":{"city":"New Carlisle","zip":"46552","county":"Saint Joseph","id":"a62dv07giteu","state":"IN"},"type":"Feature","geometry":{"type":"Point","coordinates":[-86.509104,41.704322]}},{"properties":{"city":"Redwood Falls","zip":"56283-2827","county":"Redwood","id":"a62dv0ciajio","state":"MN"},"type":"Feature","geometry":{"type":"Point","coordinates":[-95.078332,44.543082]}},{"properties":{"city":"Terre Haute","zip":"47809-0001","county":"Vigo","id":"a62dv06qbfy5","state":"IN"},"type":"Feature","geometry":{"type":"Point","coordinates":[-87.280251,39.624624]}},{"properties":{"city":"Sheboygan","zip":"53083","county":"Sheboygan","id":"a62dv0j08af2","state":"WI"},"type":"Feature","geometry":{"type":"Point","coordinates":[-87.760328,43.795039]}},{"properties":{"city":"Duluth","zip":"55812-2403","county":"Saint Louis","id":"a62dv0e9vbow","state":"MN"},"type":"Feature","geometry":{"type":"Point","coordinates":[-92.072288,46.810788]}},{"properties":{"city":"Madison","zip":"53704","county":"Dane","id":"a62dv0i0o98x","state":"WI"},"type":"Feature","geometry":{"type":"Point","coordinates":[-89.330109,43.125787]}},{"properties":{"city":"Bloomington","zip":"47405","county":"Monroe","id":"a62dv0flsodd","state":"IN"},"type":"Feature","geometry":{"type":"Point","coordinates":[-86.526924,39.166543]}},{"properties":{"city":"Sheboygan","zip":"53083","county":"Sheboygan","id":"a62dv08obmem","state":"WI"},"type":"Feature","geometry":{"type":"Point","coordinates":[-87.713072,43.782843]}},{"properties":{"city":"Crown Point","zip":"46307","county":"Lake","id":"a62dv0f67fuq","state":"IN"},"type":"Feature","geometry":{"type":"Point","coordinates":[-87.364802,41.438227]}},{"properties":{"city":"Saint Paul","zip":"55108","county":"Ramsey","id":"a62dv07zfsfr","state":"MN"},"type":"Feature","geometry":{"type":"Point","coordinates":[-93.188862,44.977759]}},{"properties":{"city":"Sun Prairie","zip":"53590-2995","county":"Dane","id":"a62dv0kobcep","state":"WI"},"type":"Feature","geometry":{"type":"Point","coordinates":[-89.168966,43.28189]}},{"properties":{"city":"West Lafayette","zip":"47907","county":"Tippecanoe","id":"a62dv06rc636","state":"IN"},"type":"Feature","geometry":{"type":"Point","coordinates":[-86.764884,40.357815]}},{"properties":{"city":"Madison","zip":"53703-4083","county":"Dane","id":"a62dv0bzoupp","state":"WI"},"type":"Feature","geometry":{"type":"Point","coordinates":[-89.379947,43.073573]}},{"properties":{"city":"Sheboygan","zip":"53083","county":"Sheboygan","id":"a62dv0g5d1zu","state":"WI"},"type":"Feature","geometry":{"type":"Point","coordinates":[-87.760328,43.795039]}},{"properties":{"city":"St. Charles","zip":"60174","county":"Kane","id":"a62dv0kn5wrr","state":"IL"},"type":"Feature","geometry":{"type":"Point","coordinates":[-88.165613,42.002655]}},{"properties":{"city":"Edina","zip":"55435-5919","county":"Hennepin","id":"a62dv0lj2pko","state":"MN"},"type":"Feature","geometry":{"type":"Point","coordinates":[-93.323814,44.861892]}},{"properties":{"city":"La Crosse","zip":"54601","county":"La Crosse","id":"a62dv0hmc6sv","state":"WI"},"type":"Feature","geometry":{"type":"Point","coordinates":[-91.230811,43.812799]}},{"properties":{"city":"Sun Prairie","zip":"53590-2295","county":"Dane","id":"a62dv0inac5x","state":"WI"},"type":"Feature","geometry":{"type":"Point","coordinates":[-89.213713,43.182849]}},{"properties":{"city":"Arlington Heights","zip":"60625","county":null,"id":"a62dv058ymht","state":"IL"},"type":"Feature","geometry":{"type":"Point","coordinates":[-87.714905,41.98147]}},{"properties":{"city":"Janesville","zip":"53545-4077","county":"Rock","id":"a62dv0atvzaf","state":"WI"},"type":"Feature","geometry":{"type":"Point","coordinates":[-89.020499,42.683931]}},{"properties":{"city":"Saint Paul","zip":"55108","county":"Ramsey","id":"a62dv0inlezf","state":"MN"},"type":"Feature","geometry":{"type":"Point","coordinates":[-93.205779,44.998577]}},{"properties":{"city":"North Barrington","zip":"60010-2209","county":"Lake","id":"a62dv06yh4w7","state":"IL"},"type":"Feature","geometry":{"type":"Point","coordinates":[-88.128542,42.195783]}},{"properties":{"city":"West Lafayette","zip":"47907","county":"Tippecanoe","id":"a62dv0ed09d9","state":"IN"},"type":"Feature","geometry":{"type":"Point","coordinates":[-86.87583,40.444153]}},{"properties":{"city":"Sheboygan","zip":"53083","county":"Harris","id":"a62dv0d1hfs7","state":"WI"},"type":"Feature","geometry":{"type":"Point","coordinates":[-87.760094,43.797396]}},{"properties":{"city":"Superior","zip":"54880-0458","county":"Douglas","id":"a62dv091ucby","state":"WI"},"type":"Feature","geometry":{"type":"Point","coordinates":[-91.783794,46.648191]}},{"properties":{"city":"Onalaska","zip":"54650","county":"La Crosse","id":"a62dv0g06ovb","state":"WI"},"type":"Feature","geometry":{"type":"Point","coordinates":[-91.202644,43.888332]}},{"properties":{"city":"Madison","zip":"53715","county":"San Diego","id":"a62dv05oqtkf","state":"WI"},"type":"Feature","geometry":{"type":"Point","coordinates":[-89.402796,43.06096]}},{"properties":{"city":"Cadillac","zip":"49601","county":"Wexford","id":"a62dv0feveh8","state":"MI"},"type":"Feature","geometry":{"type":"Point","coordinates":[-85.485187,44.22727]}},{"properties":{"city":"Madison","zip":"53726","county":"Dane","id":"a62dv0dmw5av","state":"WI"},"type":"Feature","geometry":{"type":"Point","coordinates":[-89.415022,43.073426]}},{"properties":{"city":"Fishers","zip":"46038-3086","county":"Hamilton","id":"a62dv0ih5tve","state":"IN"},"type":"Feature","geometry":{"type":"Point","coordinates":[-86.010212,39.961118]}},{"properties":{"city":"Fishers","zip":"46038","county":"Hamilton","id":"a62dv05ar5vh","state":"IN"},"type":"Feature","geometry":{"type":"Point","coordinates":[-86.010212,39.961118]}},{"properties":{"city":"Houghton","zip":"49931","county":"Los Angeles","id":"a62dv0ga045v","state":"MI"},"type":"Feature","geometry":{"type":"Point","coordinates":[-88.602511,47.109765]}},{"properties":{"city":"Minneapolis","zip":"55447","county":"Hennepin","id":"a62dv058xbxl","state":"MN"},"type":"Feature","geometry":{"type":"Point","coordinates":[-93.506152,44.987301]}},{"properties":{"city":"Madison","zip":"53704-3116","county":"Dane","id":"a62dv06k3sv7","state":"WI"},"type":"Feature","geometry":{"type":"Point","coordinates":[-89.330109,43.125787]}},{"properties":{"city":"Columbus","zip":"47201","county":"Denver","id":"a62dv0edn4pk","state":"IN"},"type":"Feature","geometry":{"type":"Point","coordinates":[-85.969662,39.185489]}},{"properties":{"city":"Madison","zip":"53704","county":"Dane","id":"a62dv0eh9iqm","state":"WI"},"type":"Feature","geometry":{"type":"Point","coordinates":[-89.353048,43.119441]}},{"properties":{"city":"Argonne","zip":"60439","county":null,"id":"a62dv07npbph","state":"IL"},"type":"Feature","geometry":{"type":"Point","coordinates":[-87.998977,41.670163]}},{"properties":{"city":"Milwaukee","zip":"53201","county":"Milwaukee","id":"a62dv0kg7vp0","state":"WI"},"type":"Feature","geometry":{"type":"Point","coordinates":[-87.955748,42.983484]}},{"properties":{"city":"West Lafayette","zip":"47906","county":"Tippecanoe","id":"a62dv0k4tpms","state":"IN"},"type":"Feature","geometry":{"type":"Point","coordinates":[-86.905836,40.435071]}},{"properties":{"city":"Saint Paul","zip":"55155-1801","county":"Ramsey","id":"a62dv06noxjv","state":"MN"},"type":"Feature","geometry":{"type":"Point","coordinates":[-93.107361,44.949046]}},{"properties":{"city":"Madison","zip":"53705","county":"Washtenaw","id":"a62dv0gb7u25","state":"WI"},"type":"Feature","geometry":{"type":"Point","coordinates":[-89.438116,43.085936]}},{"properties":{"city":"St. Charles","zip":"60174","county":"Kane","id":"a62dv0esx7ee","state":"IL"},"type":"Feature","geometry":{"type":"Point","coordinates":[-88.165613,42.002655]}},{"properties":{"city":"Sheboygan","zip":"53082","county":"Sheboygan","id":"a62dv0i1l7kd","state":"WI"},"type":"Feature","geometry":{"type":"Point","coordinates":[-87.760328,43.795039]}},{"properties":{"city":"West Lafayette","zip":"47906","county":"Tippecanoe","id":"a62dv0g3rgqo","state":"IN"},"type":"Feature","geometry":{"type":"Point","coordinates":[-86.907088,40.4352]}},{"properties":{"city":"Fishers","zip":"46038","county":"Hamilton","id":"a62dv053wso9","state":"IN"},"type":"Feature","geometry":{"type":"Point","coordinates":[-86.010212,39.961118]}},{"properties":{"city":"Madison","zip":"53706","county":"Dane","id":"a62dv076vckw","state":"WI"},"type":"Feature","geometry":{"type":"Point","coordinates":[-89.397528,43.070907]}},{"properties":{"city":"Chicago","zip":"60603-4177","county":"Cook","id":"a62dv0ehpv2b","state":"IL"},"type":"Feature","geometry":{"type":"Point","coordinates":[-87.72596,42.055179]}},{"properties":{"city":"Saint Paul","zip":"55155","county":"Ramsey","id":"a62dv0hwlapc","state":"MN"},"type":"Feature","geometry":{"type":"Point","coordinates":[-93.107361,44.949046]}},{"properties":{"city":"Saint Charles","zip":"60174","county":"Kane","id":"a62dv0i9aszr","state":"IL"},"type":"Feature","geometry":{"type":"Point","coordinates":[-88.165613,42.002655]}},{"properties":{"city":"Crystal Lake","zip":"60014","county":"Du Page","id":"a62dv05tq12e","state":"IL"},"type":"Feature","geometry":{"type":"Point","coordinates":[-88.336844,42.227623]}},{"properties":{"city":"Madison","zip":"53704","county":"Dane","id":"a62dv0ldbzw5","state":"WI"},"type":"Feature","geometry":{"type":"Point","coordinates":[-89.330109,43.125787]}},{"properties":{"city":"Madison","zip":"53704","county":"Dane","id":"a62dv0izvvu1","state":"WI"},"type":"Feature","geometry":{"type":"Point","coordinates":[-89.353048,43.119441]}},{"properties":{"city":"Terre Haute","zip":"47809","county":null,"id":"a62dv0kmcncu","state":"IN"},"type":"Feature","geometry":{"type":"Point","coordinates":[-87.484464,39.453216]}},{"properties":{"city":"Sun Prairie","zip":"53590-2995","county":"Dane","id":"a62dv08zlh0n","state":"WI"},"type":"Feature","geometry":{"type":"Point","coordinates":[-89.213713,43.182849]}},{"properties":{"city":"La Crosse","zip":"54603","county":"La Crosse","id":"a62dv05szh3b","state":"WI"},"type":"Feature","geometry":{"type":"Point","coordinates":[-91.255057,43.868045]}},{"properties":{"city":"Arden Hills","zip":"55112","county":"Ramsey","id":"a62dv0cki27o","state":"MN"},"type":"Feature","geometry":{"type":"Point","coordinates":[-93.154309,45.057443]}},{"properties":{"city":"Madison","zip":"53704-3116","county":"Dane","id":"a62dv0i7llwt","state":"WI"},"type":"Feature","geometry":{"type":"Point","coordinates":[-89.353048,43.119441]}},{"properties":{"city":"Madison","zip":"53704-3116","county":"Dane","id":"a62dv0baudw4","state":"WI"},"type":"Feature","geometry":{"type":"Point","coordinates":[-89.353048,43.119441]}},{"properties":{"city":"Sun Prairie","zip":"53590","county":"Dane","id":"a62dv08xel2p","state":"WI"},"type":"Feature","geometry":{"type":"Point","coordinates":[-89.21088,43.196515]}},{"properties":{"city":"Indianapolis","zip":"46278-2731","county":null,"id":"a62dv0i65mfc","state":"IN"},"type":"Feature","geometry":{"type":"Point","coordinates":[-86.264352,39.781777]}},{"properties":{"city":"Saint Paul","zip":"55123","county":"Dakota","id":"a62dv0bngrjs","state":"MN"},"type":"Feature","geometry":{"type":"Point","coordinates":[-93.126972,44.800125]}},{"properties":{"city":"Saint Paul","zip":"55108","county":"Ramsey","id":"a62dv09nde5n","state":"MN"},"type":"Feature","geometry":{"type":"Point","coordinates":[-93.188862,44.977759]}},{"properties":{"city":"South Bend","zip":"46628","county":"Saint Joseph","id":"a62dv08092hv","state":"IN"},"type":"Feature","geometry":{"type":"Point","coordinates":[-86.306281,41.696036]}},{"properties":{"city":"West Lafayette","zip":"47906","county":"Tippecanoe","id":"a62dv06r3lhk","state":"IN"},"type":"Feature","geometry":{"type":"Point","coordinates":[-86.948496,40.464324]}},{"properties":{"city":"Janesville","zip":"53547","county":"Rock","id":"a62dv0k8b1oc","state":"WI"},"type":"Feature","geometry":{"type":"Point","coordinates":[-90.147979,42.532123]}},{"properties":{"city":"Sun Prairie","zip":"53590","county":"Dane","id":"a62dv0hth1v9","state":"WI"},"type":"Feature","geometry":{"type":"Point","coordinates":[-89.168966,43.28189]}},{"properties":{"city":"Fox Point","zip":"53217","county":"Milwaukee","id":"a62dv0cv8yp9","state":"WI"},"type":"Feature","geometry":{"type":"Point","coordinates":[-87.913264,43.165012]}},{"properties":{"city":"Chicago","zip":"60611","county":"Cook","id":"a62dv0afzfqy","state":"IL"},"type":"Feature","geometry":{"type":"Point","coordinates":[-87.620234,41.891802]}},{"properties":{"city":"Oregon","zip":"61061","county":null,"id":"a62dv0gn4ll1","state":"IL"},"type":"Feature","geometry":{"type":"Point","coordinates":[-89.318438,41.984474]}},{"properties":{"city":"Sheboygan","zip":"53083","county":"Sheboygan","id":"a62dv0lahlz1","state":"WI"},"type":"Feature","geometry":{"type":"Point","coordinates":[-87.760328,43.795039]}},{"properties":{"city":"Madison","zip":"53705-3313","county":"Dane","id":"a62dv0ap48zw","state":"WI"},"type":"Feature","geometry":{"type":"Point","coordinates":[-89.446357,43.068412]}},{"properties":{"city":"Milwaukee","zip":"53208","county":"Milwaukee","id":"a62dv08yat76","state":"WI"},"type":"Feature","geometry":{"type":"Point","coordinates":[-87.978765,43.036684]}},{"properties":{"city":"Indianapolis","zip":"46219","county":"Marion","id":"a62dv08g3j6s","state":"IN"},"type":"Feature","geometry":{"type":"Point","coordinates":[-86.04048,39.769444]}},{"properties":{"city":"Ellsworth","zip":"54011","county":"Pierce","id":"a62dv0at9tea","state":"WI"},"type":"Feature","geometry":{"type":"Point","coordinates":[-92.532609,44.688832]}},{"properties":{"city":"Chicago","zip":"60622","county":"Utah","id":"a62dv09w59ru","state":"IL"},"type":"Feature","geometry":{"type":"Point","coordinates":[-87.648924,41.896377]}},{"properties":{"city":"Minneapolis","zip":"55406","county":"Hennepin","id":"a62dv0fzr34n","state":"MN"},"type":"Feature","geometry":{"type":"Point","coordinates":[-93.265821,45.158995]}},{"properties":{"city":"Ashland","zip":"54806","county":null,"id":"a62dv0j4gy64","state":"WI"},"type":"Feature","geometry":{"type":"Point","coordinates":[-90.873406,46.580797]}},{"properties":{"city":"Cottage Grove","zip":"55016","county":"Washington","id":"a62dv0jlpxe4","state":"MN"},"type":"Feature","geometry":{"type":"Point","coordinates":[-93.28575,44.623515]}},{"properties":{"city":"West Lafayette","zip":"47906","county":"Tippecanoe","id":"a62dv0dwvp27","state":"IN"},"type":"Feature","geometry":{"type":"Point","coordinates":[-86.899306,40.43783]}},{"properties":{"city":"Houghton","zip":"49931","county":"Houghton","id":"a62dv0kydy9s","state":"MI"},"type":"Feature","geometry":{"type":"Point","coordinates":[-88.531213,47.110473]}},{"properties":{"city":"Saint Paul","zip":"55108","county":"Ramsey","id":"a62dv0dl4jol","state":"MN"},"type":"Feature","geometry":{"type":"Point","coordinates":[-93.205779,44.998577]}},{"properties":{"city":"Houghton","zip":"49931","county":"Houghton","id":"a62dv0cbvsbt","state":"MI"},"type":"Feature","geometry":{"type":"Point","coordinates":[-88.531213,47.110473]}},{"properties":{"city":"Roseville","zip":"55113-1239","county":"Ramsey","id":"a62dv0aslmvu","state":"MN"},"type":"Feature","geometry":{"type":"Point","coordinates":[-93.177455,45.035046]}},{"properties":{"city":"St. Paul","zip":"55104","county":"Dakota","id":"a62dv0j0c4hk","state":"MN"},"type":"Feature","geometry":{"type":"Point","coordinates":[-93.187374,44.942941]}},{"properties":{"city":"Arden Hills","zip":"55112","county":"Ramsey","id":"a62dv0cbhi36","state":"MN"},"type":"Feature","geometry":{"type":"Point","coordinates":[-93.155111,45.072447]}},{"properties":{"city":"W Saint Paul","zip":"55118","county":"Dakota","id":"a62dv0c63a5e","state":"MN"},"type":"Feature","geometry":{"type":"Point","coordinates":[-93.083562,44.912618]}},{"properties":{"city":"Minneapolis","zip":"55425","county":"Hennepin","id":"a62dv066b2yh","state":"MN"},"type":"Feature","geometry":{"type":"Point","coordinates":[-93.223107,44.858581]}},{"properties":{"city":"Houghton","zip":"49931","county":"Houghton","id":"a62dv0ekgy9l","state":"MI"},"type":"Feature","geometry":{"type":"Point","coordinates":[-88.642901,47.15576]}},{"properties":{"city":"Houghton","zip":"49931","county":"Houghton","id":"a62dv0adrk8a","state":"MI"},"type":"Feature","geometry":{"type":"Point","coordinates":[-88.443565,47.241628]}},{"properties":{"city":"Wells","zip":"49894","county":"Delta","id":"a62dv0cjetqn","state":"MI"},"type":"Feature","geometry":{"type":"Point","coordinates":[-87.07719,45.787064]}},{"properties":{"city":"Houghton","zip":"49931","county":"Houghton","id":"a62dv07keiaj","state":"MI"},"type":"Feature","geometry":{"type":"Point","coordinates":[-88.568109,47.122381]}},{"properties":{"city":"Saint Paul","zip":"55108","county":"Ramsey","id":"a62dv071h59d","state":"MN"},"type":"Feature","geometry":{"type":"Point","coordinates":[-93.184149,44.988626]}},{"properties":{"city":"Saint Paul","zip":"55108","county":"Ramsey","id":"a62dv08rjqpu","state":"MN"},"type":"Feature","geometry":{"type":"Point","coordinates":[-93.185693,44.975067]}},{"properties":{"city":"West Latayette","zip":"47907","county":null,"id":"a62dv05a87bz","state":"IN"},"type":"Feature","geometry":{"type":"Point","coordinates":[-86.916215,40.424923]}},{"properties":{"city":"Sheboygan Falls","zip":"53085","county":"Sheboygan","id":"a62dv0ctgfel","state":"WI"},"type":"Feature","geometry":{"type":"Point","coordinates":[-87.81752,43.730689]}},{"properties":{"city":"Highland","zip":"46322","county":null,"id":"a62dv0bqmvb3","state":"IN"},"type":"Feature","geometry":{"type":"Point","coordinates":[-87.453447,41.543817]}},{"properties":{"city":"Fishers","zip":"46038","county":"Hamilton","id":"a62dv0hnb2pz","state":"IN"},"type":"Feature","geometry":{"type":"Point","coordinates":[-86.010212,39.961118]}},{"properties":{"city":"Milwaukee","zip":"53211","county":null,"id":"a62dv07ly5iv","state":"WI"},"type":"Feature","geometry":{"type":"Point","coordinates":[-87.879366,43.064229]}},{"properties":{"city":"St. Cloud","zip":"56301-4498","county":"Stearns","id":"a62dv09eta95","state":"MN"},"type":"Feature","geometry":{"type":"Point","coordinates":[-94.152686,45.552528]}},{"properties":{"city":"Madison","zip":"53706","county":null,"id":"a62dv064wp4j","state":"WI"},"type":"Feature","geometry":{"type":"Point","coordinates":[-89.406216,43.075075]}},{"properties":{"city":"Saint Paul","zip":"55116","county":"Ramsey","id":"a62dv0hh0ht2","state":"MN"},"type":"Feature","geometry":{"type":"Point","coordinates":[-93.196451,44.919761]}},{"properties":{"city":"Minneapolis","zip":"55417","county":"Hennepin","id":"a62dv08fc5k9","state":"MN"},"type":"Feature","geometry":{"type":"Point","coordinates":[-93.238626,44.90326]}},{"properties":{"city":"Houghton","zip":"49931","county":null,"id":"a62dv0jzk2d6","state":"MI"},"type":"Feature","geometry":{"type":"Point","coordinates":[-88.642901,47.15576]}},{"properties":{"city":"Madison","zip":"53704","county":"Dane","id":"a62dv07vgppm","state":"WI"},"type":"Feature","geometry":{"type":"Point","coordinates":[-89.330109,43.125787]}},{"properties":{"city":"Rice","zip":"56367","county":null,"id":"a62dv08r5qxe","state":"MN"},"type":"Feature","geometry":{"type":"Point","coordinates":[-94.217823,45.779021]}},{"properties":{"city":"West Lafayette","zip":"47906","county":null,"id":"a62dv0gqnlfh","state":"IN"},"type":"Feature","geometry":{"type":"Point","coordinates":[-86.764884,40.357815]}},{"properties":{"city":"St Paul","zip":"55102","county":null,"id":"a62dv08j6yyh","state":"MN"},"type":"Feature","geometry":{"type":"Point","coordinates":[-93.113387,44.945729]}},{"properties":{"city":"Madison","zip":"53706","county":"Dane","id":"a62dv0kf83xs","state":"WI"},"type":"Feature","geometry":{"type":"Point","coordinates":[-89.461103,43.056726]}},{"properties":{"city":"Madison","zip":"53705","county":null,"id":"a62dv0l03frq","state":"WI"},"type":"Feature","geometry":{"type":"Point","coordinates":[-89.45669,43.073045]}},{"properties":{"city":"La Crosse","zip":"54603","county":"La Crosse","id":"a62dv0db8ooy","state":"WI"},"type":"Feature","geometry":{"type":"Point","coordinates":[-91.255057,43.868045]}},{"properties":{"city":"Madison","zip":"53711-1304","county":"Dane","id":"a62dv0999hvr","state":"WI"},"type":"Feature","geometry":{"type":"Point","coordinates":[-89.457411,43.057816]}},{"properties":{"city":"Madison","zip":"53704","county":"Dane","id":"a62dv07pesgx","state":"WI"},"type":"Feature","geometry":{"type":"Point","coordinates":[-89.330109,43.125787]}},{"properties":{"city":"Madison","zip":"53706","county":null,"id":"a62dv0ka5p1p","state":"WI"},"type":"Feature","geometry":{"type":"Point","coordinates":[-89.400635,43.074196]}},{"properties":{"city":"Houghton","zip":"49931","county":null,"id":"a62dv0aezrm6","state":"MI"},"type":"Feature","geometry":{"type":"Point","coordinates":[-88.570967,47.109837]}},{"properties":{"city":"Lafayette","zip":"47909","county":null,"id":"a62dv09eeqje","state":"IN"},"type":"Feature","geometry":{"type":"Point","coordinates":[-86.865099,40.388124]}},{"properties":{"city":"West Lafayette","zip":"47906","county":null,"id":"a62dv0kf1xvb","state":"IN"},"type":"Feature","geometry":{"type":"Point","coordinates":[-87.430986,39.889849]}},{"properties":{"city":"Roseville","zip":"55113-2222","county":"Ramsey","id":"a62dv0ihk2ey","state":"MN"},"type":"Feature","geometry":{"type":"Point","coordinates":[-93.10613,45.026607]}},{"properties":{"city":"Fort Snelling","zip":"55111","county":null,"id":"a62dv07vm5bt","state":"MN"},"type":"Feature","geometry":{"type":"Point","coordinates":[-93.199623,44.897026]}},{"properties":{"city":"West Lafayette","zip":"47907","county":null,"id":"a62dv0jsecbs","state":"IN"},"type":"Feature","geometry":{"type":"Point","coordinates":[-87.323327,40.604851]}},{"properties":{"city":"Marquette","zip":"49855","county":null,"id":"a62dv0i2nxt3","state":"MI"},"type":"Feature","geometry":{"type":"Point","coordinates":[-87.401963,46.533987]}},{"properties":{"city":"Milwaukee","zip":"53212","county":null,"id":"a62dv0bru2n8","state":"WI"},"type":"Feature","geometry":{"type":"Point","coordinates":[-87.90287,43.062032]}},{"properties":{"city":"Sheboygan","zip":"53083","county":null,"id":"a62dv0i9jvpu","state":"WI"},"type":"Feature","geometry":{"type":"Point","coordinates":[-87.760328,43.795039]}},{"properties":{"city":"St Paul","zip":"55155","county":null,"id":"a62dv09bumr9","state":"MN"},"type":"Feature","geometry":{"type":"Point","coordinates":[-93.075466,45.042029]}},{"properties":{"city":"Oswego","zip":"60543","county":null,"id":"a62dv0ia5xcf","state":"IL"},"type":"Feature","geometry":{"type":"Point","coordinates":[-88.326839,41.685829]}},{"properties":{"city":"Madison","zip":"53704","county":null,"id":"a62dv0azq8ph","state":"WI"},"type":"Feature","geometry":{"type":"Point","coordinates":[-89.330109,43.125787]}},{"properties":{"city":"Madison","zip":"53704-2549","county":"Dane","id":"a62dv07g9nw3","state":"WI"},"type":"Feature","geometry":{"type":"Point","coordinates":[-89.330109,43.125787]}},{"properties":{"city":"Madison","zip":"53706","county":"Dane","id":"a62dv05g7xx5","state":"WI"},"type":"Feature","geometry":{"type":"Point","coordinates":[-89.501669,43.077192]}},{"properties":{"city":"Dousman","zip":"53118","county":null,"id":"a62dv07sjyau","state":"WI"},"type":"Feature","geometry":{"type":"Point","coordinates":[-88.403803,42.98666]}},{"properties":{"city":"Sheboygan","zip":"53083","county":"Sheboygan","id":"a62dv067xjhk","state":"WI"},"type":"Feature","geometry":{"type":"Point","coordinates":[-87.760328,43.795039]}},{"properties":{"city":"Sheboygan","zip":"53083","county":"Sheboygan","id":"a62dv0650hec","state":"WI"},"type":"Feature","geometry":{"type":"Point","coordinates":[-87.760328,43.795039]}},{"properties":{"city":"Sheboygan","zip":"53083","county":"Sheboygan","id":"a62dv0gew87l","state":"WI"},"type":"Feature","geometry":{"type":"Point","coordinates":[-87.760328,43.795039]}},{"properties":{"city":"Sheboygan","zip":"53083","county":"Sheboygan","id":"a62dv0ac96ep","state":"WI"},"type":"Feature","geometry":{"type":"Point","coordinates":[-87.760328,43.795039]}},{"properties":{"city":"Yorkville","zip":"60560","county":null,"id":"a62dv098qrnv","state":"IL"},"type":"Feature","geometry":{"type":"Point","coordinates":[-88.477663,41.613668]}},{"properties":{"city":"Milwaukee","zip":"532024616","county":"Milwaukee","id":"a62dv0glw7lu","state":"WI"},"type":"Feature","geometry":{"type":"Point","coordinates":[-87.903703,43.038907]}},{"properties":{"city":"La Crosse","zip":"54603","county":"La Crosse","id":"a62dv0i9elzf","state":"WI"},"type":"Feature","geometry":{"type":"Point","coordinates":[-91.255057,43.868045]}},{"properties":{"city":"La Crosse","zip":"54603","county":"La Crosse","id":"a62dv0dz8q3q","state":"WI"},"type":"Feature","geometry":{"type":"Point","coordinates":[-91.255057,43.868045]}},{"properties":{"city":"Milwaukee","zip":"53201","county":"Milwaukee","id":"a62dv0c4ygj0","state":"WI"},"type":"Feature","geometry":{"type":"Point","coordinates":[-87.955748,42.983484]}},{"properties":{"city":"Indianapolis","zip":"46256","county":"Marion","id":"a62dv061o3r0","state":"IN"},"type":"Feature","geometry":{"type":"Point","coordinates":[-86.029694,39.930473]}},{"properties":{"city":"Seymour","zip":"47274-1835","county":"Jackson","id":"a62dv0i2jj0z","state":"IN"},"type":"Feature","geometry":{"type":"Point","coordinates":[-85.870431,38.965239]}},{"properties":{"city":"Sheboygan","zip":"53081","county":"Sheboygan","id":"a62dv06ai62y","state":"WI"},"type":"Feature","geometry":{"type":"Point","coordinates":[-87.726767,43.683289]}},{"properties":{"city":"Plainfield","zip":"46168","county":"Marion","id":"a62dv0gws4br","state":"IN"},"type":"Feature","geometry":{"type":"Point","coordinates":[-86.402419,39.701606]}},{"properties":{"city":"River Falls","zip":"54022","county":"Pierce","id":"a62dv0bdrrmq","state":"WI"},"type":"Feature","geometry":{"type":"Point","coordinates":[-92.198119,45.151088]}},{"properties":{"city":"Maple Grove","zip":"55311-3515","county":"Hennepin","id":"a62dv0b6r1ci","state":"MN"},"type":"Feature","geometry":{"type":"Point","coordinates":[-93.452444,45.078568]}}],"is_temporal":false,"author":{"url":"","metadata":"","contact_name":"Jim Lacy","contact_address":"5800 Osborn Drive\nMcFarland, WI  53558","source":"ASPRS Membership Database","contact_phone":""},"source":"","pagination":{"sort":null,"start":0,"total":212,"limit":1000000},"state":"complete","tags":"asprs,great,lakes,western","published":"2011-05-27T16:00:00Z","id":118022}