{"type":"FeatureCollection","data_type":"Dataset","url_type":null,"permissions":[{"permissions":{"download":true,"view":true},"group_id":"everyone"}],"classification":null,"title":"ACHBA Associate Members","count":63,"stream_id":118376,"contributor":{"url":"http://geocommons.com/users/27101","name":"WeMarketBuilders"},"data_attributes":null,"calculation_params":null,"icon_link":null,"link":"http://geocommons.com/overlays/118376.json","extent":[-83.0454,34.5967,-78.5833,36.508],"geometry_types":["point"],"unique_name":null,"name":"ACHBA Associate Members","feature_count":63,"description":"","next_feature":null,"is_raster":false,"short_classification":"Y","stats":{},"features":[{"properties":{"name":"Blue Ridge Energies","city":"West Jefferson","zip":"28694","url":"www.blueridgeemc.com/","type":"Associate","phone":"336-246-2421","id":"a65lrjpc959j","address":"2375 NC Highway 163","state":"NC"},"type":"Feature","geometry":{"type":"Point","coordinates":[-81.472369,36.376207]}},{"properties":{"name":"Jordan &amp; Jordan Law Offices, PLLC","city":"Jefferson","zip":"28640","url":"www.jordanjordanlaw.com/","type":"Associate","phone":"336-846-1657","id":"a65lrjgec46j","address":"410 East Main Street PO Box 744","state":"NC"},"type":"Feature","geometry":{"type":"Point","coordinates":[-81.468867,36.420911]}},{"properties":{"name":"LifeStore Bank","city":"West Jefferson","zip":"28694","url":"www.golifestore.com/","type":"Associate","phone":"336-246-4344","id":"a65lrjbkjw4y","address":"419 East 2nd Street PO Box 26","state":"NC"},"type":"Feature","geometry":{"type":"Point","coordinates":[-81.489567,36.404627]}},{"properties":{"name":"Yadkin Valley Bank","city":"West Jefferson","zip":"28694","url":"www.yadkinvalleybank.com/","type":"Associate","phone":"336-246-9800","id":"a65lrjoc6z6x","address":"419 East 2nd Street PO Box 1865","state":"NC"},"type":"Feature","geometry":{"type":"Point","coordinates":[-81.489567,36.404627]}},{"properties":{"name":"84 Lumber","city":"Statesville","zip":"28625","url":"www.84lumber.com/","type":"Associate","phone":"704-252-6313","id":"a65lrjgm9vxl","address":"3210 Taylorsville Hwy","state":"NC"},"type":"Feature","geometry":{"type":"Point","coordinates":[-80.942529,35.802841]}},{"properties":{"name":"Ashe County Builders Supply Inc","city":"West Jefferson","zip":"28694","url":null,"type":"Associate","phone":"336-246-3367","id":"a65lrjm086s9","address":"127 Beaver Creek School Road","state":"NC"},"type":"Feature","geometry":{"type":"Point","coordinates":[-81.489062,36.379225]}},{"properties":{"name":"BLEVINS BUILDING SUPPLY","city":"West Jefferson","zip":"28694","url":"www.blevinsbuildingsupplyinc.com","type":"Associate","phone":"336-667-4200","id":"a65lrjoeyuke","address":"485 Beaver Creek School Road","state":"NC"},"type":"Feature","geometry":{"type":"Point","coordinates":[-81.494287,36.378158]}},{"properties":{"name":"Blue Ridge Supply &amp; Millwork","city":"Boone","zip":"28607","url":null,"type":"Associate","phone":"828-264-6003","id":"a65lrjiftnym","address":"1636 US Hwy 421 S.","state":"NC"},"type":"Feature","geometry":{"type":"Point","coordinates":[-81.697844,36.221582]}},{"properties":{"name":"Lowes","city":"West Jefferson","zip":"28694","url":"www.lowes.com/","type":"Associate","phone":"336-846-1829","id":"a65lrjfgnfh5","address":"158 Lowe's Drive","state":"NC"},"type":"Feature","geometry":{"type":"Point","coordinates":[-81.500711,36.396395]}},{"properties":{"name":"The Hardwood Company","city":"West Jefferson","zip":"28694","url":"www.thehardwoodcompany.com/","type":"Associate","phone":"336-846-9663","id":"a65lrjm3ajw4","address":"419 East 2nd Street PO Box 1614","state":"NC"},"type":"Feature","geometry":{"type":"Point","coordinates":[-81.489567,36.404627]}},{"properties":{"name":"High Country Woodworking","city":"West Jefferson","zip":"28694","url":null,"type":"Associate","phone":"336-877-4133","id":"a65lrji0yn1w","address":"419 East 2nd StreetPo Box 1228","state":"NC"},"type":"Feature","geometry":{"type":"Point","coordinates":[-81.5491,36.418806]}},{"properties":{"name":"Roland's Cabinet Shop","city":"West Jefferson","zip":"28694","url":null,"type":"Associate","phone":"336-846-8878","id":"a65lrjqk0i78","address":"456 Wickzola Lane","state":"NC"},"type":"Feature","geometry":{"type":"Point","coordinates":[-81.482725,36.379825]}},{"properties":{"name":"E &amp; E Construction","city":"WILKESBORO","zip":"28697","url":null,"type":"Associate","phone":"336-957-1640","id":"a65lrjgzw2hu","address":"136 Leather Hinge Drive","state":"NC"},"type":"Feature","geometry":{"type":"Point","coordinates":[-81.267355,36.150414]}},{"properties":{"name":"E &amp; P Trimwork, Inc","city":"Mooresville","zip":"28117","url":"www.eptrimwork.com/","type":"Associate","phone":"704-664-6695","id":"a65lrjpw2lbu","address":"128 Cedar Pointe Dr","state":"NC"},"type":"Feature","geometry":{"type":"Point","coordinates":[-80.85286,35.604558]}},{"properties":{"name":"Mountaintop Maintenance","city":"West Jefferson","zip":"28694","url":"www.mountaintopmaintenance.com/","type":"Associate","phone":"336-384-5847","id":"a65lrjrasjno","address":"419 East 2nd Street PO Box 429","state":"NC"},"type":"Feature","geometry":{"type":"Point","coordinates":[-81.489567,36.404627]}},{"properties":{"name":"Peter Okrepky Interior Trim Carpentry","city":"Raleigh","zip":"27615","url":null,"type":"Associate","phone":"919-274-4002","id":"a65lrjeew8pt","address":"8716 Bluff Pointe Ct","state":"NC"},"type":"Feature","geometry":{"type":"Point","coordinates":[-78.583314,35.896763]}},{"properties":{"name":"Closet Design Center, Inc","city":"Creston","zip":"28615","url":"www.closetdesigncenterinc.com/","type":"Associate","phone":"336-846-2321","id":"a65lrjeknr7x","address":"456 Roy Kemp Rd","state":"NC"},"type":"Feature","geometry":{"type":"Point","coordinates":[-81.610996,36.439751]}},{"properties":{"name":"Cub Creek Countertops, Inc","city":"Wilkesboro","zip":"28697","url":"www.cubcreekcountertops.com/","type":"Associate","phone":"336-651-8983","id":"a65lrjhcm16y","address":"1200A Industrial Park Rd","state":"NC"},"type":"Feature","geometry":{"type":"Point","coordinates":[-81.121404,36.156051]}},{"properties":{"name":"N2 Granite, Inc","city":"Mooresville","zip":"28115","url":"www.n2granite.com/","type":"Associate","phone":"336-846-1861","id":"a65lrjhkhn8u","address":"640 Oak Ridge Farm Road","state":"NC"},"type":"Feature","geometry":{"type":"Point","coordinates":[-80.808932,35.604247]}},{"properties":{"name":"High Country Stone","city":"Deep Gap","zip":"28618","url":"www.highcountrystone.com/","type":"Associate","phone":"828-355-9320","id":"a65lrjqgeunx","address":"6489 Old 421 S","state":"NC"},"type":"Feature","geometry":{"type":"Point","coordinates":[-81.547186,36.233791]}},{"properties":{"name":"ProFinish Painting &amp; Drywall Inc","city":"Glendale Springs","zip":"28629","url":"www.asheaverywataugapaintingcontractors.com/","type":"Associate","phone":"336-982-3869","id":"a65lrjdtw2ss","address":"7471 Nc Highway 16 PO Box 105","state":"NC"},"type":"Feature","geometry":{"type":"Point","coordinates":[-81.380529,36.345205]}},{"properties":{"name":"B &amp; G Plumbing &amp; Electric Inc","city":"West Jefferson","zip":"28694","url":null,"type":"Associate","phone":"336-246-9612","id":"a65lrjls5sed","address":"240 Helen Blevins Rd","state":"NC"},"type":"Feature","geometry":{"type":"Point","coordinates":[-81.490934,36.377023]}},{"properties":{"name":"Russell Electric &amp; Builders","city":"Fleetwood","zip":"28626","url":null,"type":"Associate","phone":"336-977-6902","id":"a65lrjc5jg51","address":"179 Jordan Road","state":"NC"},"type":"Feature","geometry":{"type":"Point","coordinates":[-81.534412,36.316607]}},{"properties":{"name":"WORLEY'S ELECTRICAL","city":"West Jefferson","zip":"28694","url":"www.worleyelectric.com","type":"Associate","phone":"336-877-4127","id":"a65lrjdmb59z","address":"632 Big Tree Rd","state":"NC"},"type":"Feature","geometry":{"type":"Point","coordinates":[-81.548418,36.363684]}},{"properties":{"name":"Mountain Home and Hearth","city":"Boone","zip":"28607","url":"www.mountainhomeandhearth.com/","type":"Associate","phone":"828-262-0051","id":"a65lrjb4vlvz","address":"4912 US Highway 421 S","state":"NC"},"type":"Feature","geometry":{"type":"Point","coordinates":[-81.63058,36.230486]}},{"properties":{"name":"Hardin Hardwood Floors","city":"Warrensville","zip":"28693","url":null,"type":"Associate","phone":"336-877-0881","id":"a65lrjkc67ar","address":"2162 W Mill Creek Rd","state":"NC"},"type":"Feature","geometry":{"type":"Point","coordinates":[-81.588245,36.480997]}},{"properties":{"name":"Jones Hardwood Floors","city":"Warrensville","zip":"28693","url":"www.roanvalleyflooring.com/","type":"Associate","phone":"423-727-4700","id":"a65lrjf3dcek","address":"122 Northwest School Road PO Box 212","state":"NC"},"type":"Feature","geometry":{"type":"Point","coordinates":[-81.517854,36.461087]}},{"properties":{"name":"Southern Basements","city":"Westminster","zip":"29693","url":null,"type":"Associate","phone":"864-972-1173","id":"a65lrjbsacfm","address":"11253 South Hwy 11","state":"SC"},"type":"Feature","geometry":{"type":"Point","coordinates":[-83.045423,34.596675]}},{"properties":{"name":"Timber Solutions, Inc.","city":"Jefferson","zip":"28640","url":"www.timbersolutionsinc.com/","type":"Associate","phone":"336-384-1469","id":"a65lrjjlheux","address":"125 Colvard Farm Road","state":"NC"},"type":"Feature","geometry":{"type":"Point","coordinates":[-81.423462,36.405915]}},{"properties":{"name":"Odie Gilbert Construction","city":"West Jefferson","zip":"28694","url":null,"type":"Associate","phone":"336-877-4710","id":"a65lrjl4rdy7","address":"419 East 2nd Street PO Box 1038","state":"NC"},"type":"Feature","geometry":{"type":"Point","coordinates":[-81.489567,36.404627]}},{"properties":{"name":"Ashe County Garage Doors","city":"Jefferson","zip":"28640","url":"www.ashecountygaragedoors.com/","type":"Associate","phone":"336-246-3651","id":"a65lrjb1j0j8","address":"120 Blackburn Street","state":"NC"},"type":"Feature","geometry":{"type":"Point","coordinates":[-81.479223,36.411828]}},{"properties":{"name":"GDS-Garbage Disposal Services","city":"Boone","zip":"28607","url":null,"type":"Associate","phone":"828-264-3689","id":"a65lrjqac9lo","address":"300 Brookhollow Rd","state":"NC"},"type":"Feature","geometry":{"type":"Point","coordinates":[-81.640305,36.213957]}},{"properties":{"name":"Cross Creek Construction","city":"West Jefferson","zip":"28694","url":null,"type":"Associate","phone":"336-982-4354","id":"a65lrjeu6a0q","address":"419 East 2nd Street PO Box 642","state":"NC"},"type":"Feature","geometry":{"type":"Point","coordinates":[-81.489567,36.404627]}},{"properties":{"name":"Jack Miller Construction","city":"West Jefferson","zip":"28694","url":null,"type":"Associate","phone":"336-982-3088","id":"a65lrjq3p3gq","address":"8411 Hwy 16 S","state":"NC"},"type":"Feature","geometry":{"type":"Point","coordinates":[-81.386272,36.332786]}},{"properties":{"name":"Sheets Brothers Inc.","city":"Jefferson","zip":"28640","url":null,"type":"Associate","phone":"336-246-5566","id":"a65lrjngoeux","address":"3466 NC Hwy 16 South","state":"NC"},"type":"Feature","geometry":{"type":"Point","coordinates":[-81.406068,36.392992]}},{"properties":{"name":"Blue Ridge Air","city":"West Jefferson","zip":"28694","url":"www.ashewataugaheatingandair.com/","type":"Associate","phone":"336-877-9009","id":"a65lrjb7tf0x","address":"310 Beaver Creek School Road","state":"NC"},"type":"Feature","geometry":{"type":"Point","coordinates":[-81.492081,36.377888]}},{"properties":{"name":"Scott Brothers Heating &amp; Air","city":"Fleetwood","zip":"28626","url":"www.scottbrothersnc.com/","type":"Associate","phone":"336-877-1702","id":"a65lrjlunati","address":"1872 Liberty Grove Church Rd","state":"NC"},"type":"Feature","geometry":{"type":"Point","coordinates":[-81.515225,36.287524]}},{"properties":{"name":"Ashe County Building Inspections","city":"Jefferson","zip":"28640","url":"www.ashecountygov.com/BuildingInspections/index.htm","type":"Associate","phone":"336-219-2511","id":"a65lrjk4a3r8","address":"150 Government Circle","state":"NC"},"type":"Feature","geometry":{"type":"Point","coordinates":[-81.459136,36.419802]}},{"properties":{"name":"Staley Insulation Inc.","city":"West Jefferson","zip":"28694","url":null,"type":"Associate","phone":"336-846-9200","id":"a65lrjhaval0","address":"419 East 2nd Street PO Box 10","state":"NC"},"type":"Feature","geometry":{"type":"Point","coordinates":[-81.489567,36.404627]}},{"properties":{"name":"High Country Insurance &amp; Investments","city":"West Jefferson","zip":"28694","url":null,"type":"Associate","phone":"336-846-1465","id":"a65lrjay93j9","address":"419 East 2nd Street PO Box 1623","state":"NC"},"type":"Feature","geometry":{"type":"Point","coordinates":[-81.489567,36.404627]}},{"properties":{"name":"Life Store Insurance","city":"West Jefferson","zip":"28694","url":"www.lifestoreinsurance.com/","type":"Associate","phone":"336-246-7297","id":"a65lrjb9znl4","address":"1441 Mount Jefferson Rd","state":"NC"},"type":"Feature","geometry":{"type":"Point","coordinates":[-81.482445,36.388945]}},{"properties":{"name":"Miller Insurance","city":"West Jefferson","zip":"28694","url":"www.miller-insurance-group.com/","type":"Associate","phone":"336-246-7151","id":"a65lrjbv8vdu","address":"419 East 2nd Street Po Box 390","state":"NC"},"type":"Feature","geometry":{"type":"Point","coordinates":[-81.489567,36.404627]}},{"properties":{"name":"Mountain Advantage Tree &amp; Landscaping","city":"Crumpler","zip":"28617","url":"www.mountainadvantagetreeandlandscape.com/","type":"Associate","phone":"336-877-6190","id":"a65lrji7abb7","address":"644 Roy Goodman RD","state":"NC"},"type":"Feature","geometry":{"type":"Point","coordinates":[-81.417271,36.437202]}},{"properties":{"name":"Exterior &amp; Lighting Concepts","city":"Purlear","zip":"28665","url":null,"type":"Associate","phone":"336-973-1352","id":"a65lrjmt5kwe","address":"687 Vannoy Maxwell Rd","state":"NC"},"type":"Feature","geometry":{"type":"Point","coordinates":[-81.297898,36.191008]}},{"properties":{"name":"St. Germain Media Services, LLC","city":"West Jefferson","zip":"28694","url":"www.wemarketbuilders.com","type":"Associate","phone":"336-620-2000","id":"a65lrjh4l98t","address":"419 East 2nd Street PO Box 671","state":"NC"},"type":"Feature","geometry":{"type":"Point","coordinates":[-81.489567,36.404627]}},{"properties":{"name":"Shepherd Masonry, Inc","city":"Lansing","zip":"28643","url":"www.shepherdmasonry.com/","type":"Associate","phone":"336-384-3038","id":"a65lrjpqc0pi","address":"9294 Nc Highway 194 N PO Box 213","state":"NC"},"type":"Feature","geometry":{"type":"Point","coordinates":[-81.510466,36.498424]}},{"properties":{"name":"Independence Oil &amp; LP Gas, Inc","city":"West Jefferson","zip":"28694","url":null,"type":"Associate","phone":"336-246-6569","id":"a65lrjntobdq","address":"419 East 2nd Street PO Box 830","state":"NC"},"type":"Feature","geometry":{"type":"Point","coordinates":[-81.489567,36.404627]}},{"properties":{"name":"Shatley Construction &amp; Paving","city":"West Jefferson","zip":"28694","url":"www.shatleyconstruction.com","type":"Associate","phone":"336-877-8824","id":"a65lrje4rmyq","address":"515 Clarence Lyall Rd","state":"NC"},"type":"Feature","geometry":{"type":"Point","coordinates":[-81.522145,36.356846]}},{"properties":{"name":"Tri-County Paving, Inc","city":"West Jefferson","zip":"28694","url":null,"type":"Associate","phone":"336-246-7244","id":"a65lrjn2vkge","address":"419 East 2nd Street Po Box 863","state":"NC"},"type":"Feature","geometry":{"type":"Point","coordinates":[-81.489567,36.404627]}},{"properties":{"name":"Terminix Company","city":"Boone","zip":"28607","url":"www.terminix.com/","type":"Associate","phone":"828-297-7650","id":"a65lrjne2v76","address":"7553 Highway 105","state":"NC"},"type":"Feature","geometry":{"type":"Point","coordinates":[-81.771183,36.157807]}},{"properties":{"name":"Baker's Plumbing","city":"Trap Hill","zip":"28685","url":null,"type":"Associate","phone":"336-902-0513","id":"a65lrjc18aoq","address":"187 Gray Stone Drive","state":"NC"},"type":"Feature","geometry":{"type":"Point","coordinates":[-81.510883,36.394507]}},{"properties":{"name":"Robert Holman Plumbing Company","city":"Todd","zip":"28684","url":null,"type":"Associate","phone":"336-877-2265","id":"a65lrjiyw9c0","address":"9619 Three Top Road","state":"NC"},"type":"Feature","geometry":{"type":"Point","coordinates":[-81.600909,36.318156]}},{"properties":{"name":"Design on Tap Bath and Kitchen Gallery","city":"BOONE","zip":"28607","url":null,"type":"Associate","phone":"828-265-0505","id":"a65lrjerdr9m","address":"1542 US HIGHWAY 421 S STE E","state":"NC"},"type":"Feature","geometry":{"type":"Point","coordinates":[-81.696585,36.221857]}},{"properties":{"name":"Mountainscape Realty","city":"Jefferson","zip":"28640","url":"www.mountainscaperealty.com/","type":"Associate","phone":"336-846-8977","id":"a65lrjb5ng2c","address":"410 East Main Street PO BOX 239","state":"NC"},"type":"Feature","geometry":{"type":"Point","coordinates":[-81.468867,36.420911]}},{"properties":{"name":"Jefferson Rent-All, Inc.","city":"Jefferson","zip":"28640","url":null,"type":"Associate","phone":"336-846-8136","id":"a65lrji5u5xs","address":"427 S Main St","state":"NC"},"type":"Feature","geometry":{"type":"Point","coordinates":[-81.477032,36.415555]}},{"properties":{"name":"SkyBest Security","city":"West Jefferson","zip":"28694","url":"www.skybestsecurity.com/","type":"Associate","phone":"336-877-1350","id":"a65lrji9rg3t","address":"419 East 2nd Street PO Box 759","state":"NC"},"type":"Feature","geometry":{"type":"Point","coordinates":[-81.489567,36.404627]}},{"properties":{"name":"Bare's Sand &amp; Stone, Inc.","city":"Millers Creek","zip":"28651","url":null,"type":"Associate","phone":"336-973-5522","id":"a65lrjmir65a","address":"2431 N NC Highway 16","state":"NC"},"type":"Feature","geometry":{"type":"Point","coordinates":[-81.240488,36.180799]}},{"properties":{"name":"Matheson Tile","city":"Zionville","zip":"28698","url":null,"type":"Associate","phone":"828-964-6437","id":"a65lrjpjr21u","address":"188 LOAFERS JOY DR","state":"NC"},"type":"Feature","geometry":{"type":"Point","coordinates":[-81.739629,36.280927]}},{"properties":{"name":"Skyline Membership Corp &amp; SkyBest Communications, Inc","city":"West Jefferson","zip":"28694","url":"www.skyline.org/","type":"Associate","phone":"800-759-2226","id":"a65lrjd6o1qs","address":"419 East 2nd Street PO Box 759","state":"NC"},"type":"Feature","geometry":{"type":"Point","coordinates":[-81.489567,36.404627]}},{"properties":{"name":"Tri-State Components Inc","city":"Sparta","zip":"28675","url":"www.tristatecomponents.com/","type":"Associate","phone":"336-372-6260","id":"a65lrjkn2fel","address":"79 South Grayson Street PO Box 1795","state":"NC"},"type":"Feature","geometry":{"type":"Point","coordinates":[-81.120286,36.508013]}},{"properties":{"name":"TruLine Truss, Inc","city":"Sparta","zip":"28675","url":"www.trulinetruss.com/","type":"Associate","phone":"336-372-2226","id":"a65lrjjn45p4","address":"79 South Grayson Street PO Box 878","state":"NC"},"type":"Feature","geometry":{"type":"Point","coordinates":[-81.120286,36.508013]}},{"properties":{"name":"Blue Ridge Electric","city":"West Jefferson","zip":"28694","url":"www.blueridgeemc.com/","type":"Associate","phone":"336-246-2421","id":"a65lrjp39vx2","address":"2375 NC Highway 163","state":"NC"},"type":"Feature","geometry":{"type":"Point","coordinates":[-81.472369,36.376207]}},{"properties":{"name":"Yadkin Well Company","city":"Hamptonville","zip":"27020","url":"www.yadkinwell.com/","type":"Associate","phone":"800-248-9355","id":"a65lrjgb43pr","address":"1908 Hamptonville Rd","state":"NC"},"type":"Feature","geometry":{"type":"Point","coordinates":[-80.764144,36.09722]}}],"is_temporal":false,"author":{"url":"","metadata":"","contact_name":"","contact_address":"","source":"","contact_phone":""},"source":"","pagination":{"sort":null,"start":0,"total":63,"limit":1000000},"state":"complete","tags":"","published":"2014-08-13T08:42:51-04:00","id":118376}