{"type":"FeatureCollection","data_type":"Dataset","url_type":null,"permissions":[{"permissions":{"download":true,"view":true},"group_id":"everyone"}],"classification":null,"title":"growth","count":630,"stream_id":11864,"contributor":{"url":"http://geocommons.com/users/6029","name":"amuller"},"data_attributes":null,"calculation_params":null,"icon_link":null,"link":"http://geocommons.com/overlays/11864.json","extent":[-124.2,32.5438,-114.599,41.9668],"geometry_types":["point"],"unique_name":null,"name":"growth","feature_count":630,"description":"","next_feature":null,"is_raster":false,"short_classification":"Y","stats":{"growth":{"max":1.0,"mean":0.558936507936508,"variance":0.0725802662326191,"stdev":0.269407249777394,"min":0.1,"median":0.57},"rownum":{"max":630,"mean":315.279365079365,"variance":33236.1762030939,"stdev":182.30791590903,"min":0,"median":316},"visits 2009":{"max":116985,"mean":1548.56825396825,"variance":42169130.7067807,"stdev":6493.77630556987,"min":6,"median":303},"lat":{"max":41.966843,"mean":36.0452668603175,"variance":5.12720644960687,"stdev":2.26433355528881,"min":32.543793,"median":35.677465},"long":{"max":-114.598849,"mean":-119.703981985714,"variance":4.26896661301898,"stdev":2.06614777134139,"min":-124.200459,"median":-119.343049}},"features":[{"properties":{"city":"Los Angeles","growth":0.53,"rownum":0,"id":"a65lpuafhp7x","visits 2009":116985,"lat":34.05329,"state":"CA","long":-118.245009},"type":"Feature","geometry":{"type":"Point","coordinates":[-118.245009,34.05329]}},{"properties":{"city":"San Francisco","growth":0.18,"rownum":1,"id":"a65lpubjv0bq","visits 2009":66406,"lat":37.77916,"state":"CA","long":-122.420049},"type":"Feature","geometry":{"type":"Point","coordinates":[-122.420049,37.77916]}},{"properties":{"city":"San Diego","growth":0.96,"rownum":2,"id":"a65lpucfrnpl","visits 2009":57012,"lat":32.715685,"state":"CA","long":-117.161724},"type":"Feature","geometry":{"type":"Point","coordinates":[-117.161724,32.715685]}},{"properties":{"city":"Sacramento","growth":0.15,"rownum":3,"id":"a65lpumwl1h6","visits 2009":52116,"lat":38.57906,"state":"CA","long":-121.490999},"type":"Feature","geometry":{"type":"Point","coordinates":[-121.490999,38.57906]}},{"properties":{"city":"Fresno","growth":0.83,"rownum":4,"id":"a65lpuf6t6fs","visits 2009":23009,"lat":36.740615,"state":"CA","long":-119.785679},"type":"Feature","geometry":{"type":"Point","coordinates":[-119.785679,36.740615]}},{"properties":{"city":"Modesto","growth":0.34,"rownum":5,"id":"a65lpulkg2d4","visits 2009":21929,"lat":37.6383,"state":"CA","long":-120.999589},"type":"Feature","geometry":{"type":"Point","coordinates":[-120.999589,37.6383]}},{"properties":{"city":"West Hollywood","growth":0.95,"rownum":6,"id":"a65lpujoij1a","visits 2009":21269,"lat":34.090685,"state":"CA","long":-118.370934},"type":"Feature","geometry":{"type":"Point","coordinates":[-118.370934,34.090685]}},{"properties":{"city":"Bakersfield","growth":0.2,"rownum":7,"id":"a65lpubyeea4","visits 2009":15710,"lat":35.366975,"state":"CA","long":-119.018844},"type":"Feature","geometry":{"type":"Point","coordinates":[-119.018844,35.366975]}},{"properties":{"city":"San Jose","growth":0.58,"rownum":8,"id":"a65lpumb88kt","visits 2009":15125,"lat":37.338475,"state":"CA","long":-121.885794},"type":"Feature","geometry":{"type":"Point","coordinates":[-121.885794,37.338475]}},{"properties":{"city":"Piedmont","growth":0.72,"rownum":9,"id":"a65lpugj8sn2","visits 2009":12760,"lat":37.82459,"state":"CA","long":-122.232814},"type":"Feature","geometry":{"type":"Point","coordinates":[-122.232814,37.82459]}},{"properties":{"city":"La Jolla","growth":0.39,"rownum":10,"id":"a65lpufvumqi","visits 2009":8974,"lat":32.842592,"state":"CA","long":-117.272276},"type":"Feature","geometry":{"type":"Point","coordinates":[-117.272276,32.842592]}},{"properties":{"city":"Poway","growth":0.65,"rownum":11,"id":"a65lpufwqhsn","visits 2009":8582,"lat":32.95459,"state":"CA","long":-117.041984},"type":"Feature","geometry":{"type":"Point","coordinates":[-117.041984,32.95459]}},{"properties":{"city":"Huntington Park","growth":0.97,"rownum":12,"id":"a65lpukg7kc7","visits 2009":8048,"lat":33.98044,"state":"CA","long":-118.219119},"type":"Feature","geometry":{"type":"Point","coordinates":[-118.219119,33.98044]}},{"properties":{"city":"Chula Vista","growth":0.69,"rownum":13,"id":"a65lpua20myk","visits 2009":7929,"lat":32.640565,"state":"CA","long":-117.084154},"type":"Feature","geometry":{"type":"Point","coordinates":[-117.084154,32.640565]}},{"properties":{"city":"Carmichael","growth":0.72,"rownum":14,"id":"a65lpugngijt","visits 2009":7809,"lat":38.625205,"state":"CA","long":-121.328399},"type":"Feature","geometry":{"type":"Point","coordinates":[-121.328399,38.625205]}},{"properties":{"city":"La Mesa","growth":0.68,"rownum":15,"id":"a65lpuni2np2","visits 2009":7717,"lat":32.766024,"state":"CA","long":-117.023559},"type":"Feature","geometry":{"type":"Point","coordinates":[-117.023559,32.766024]}},{"properties":{"city":"Stockton","growth":0.99,"rownum":16,"id":"a65lpu8numgp","visits 2009":7676,"lat":37.95362,"state":"CA","long":-121.290719},"type":"Feature","geometry":{"type":"Point","coordinates":[-121.290719,37.95362]}},{"properties":{"city":"Alameda","growth":0.27,"rownum":17,"id":"a65lpucjuzvr","visits 2009":7630,"lat":37.766585,"state":"CA","long":-122.244739},"type":"Feature","geometry":{"type":"Point","coordinates":[-122.244739,37.766585]}},{"properties":{"city":"Sunnyvale","growth":0.42,"rownum":18,"id":"a65lpuazrase","visits 2009":7239,"lat":37.371612,"state":"CA","long":-122.038258},"type":"Feature","geometry":{"type":"Point","coordinates":[-122.038258,37.371612]}},{"properties":{"city":"Riverside","growth":0.69,"rownum":19,"id":"a65lpu7r4ped","visits 2009":6818,"lat":33.98163,"state":"CA","long":-117.373879},"type":"Feature","geometry":{"type":"Point","coordinates":[-117.373879,33.98163]}},{"properties":{"city":"Elk Grove","growth":0.4,"rownum":20,"id":"a65lpubuanew","visits 2009":6709,"lat":38.40901,"state":"CA","long":-121.365619},"type":"Feature","geometry":{"type":"Point","coordinates":[-121.365619,38.40901]}},{"properties":{"city":"Lancaster","growth":0.72,"rownum":21,"id":"a65lpuaa1uko","visits 2009":6630,"lat":34.698905,"state":"CA","long":-118.144779},"type":"Feature","geometry":{"type":"Point","coordinates":[-118.144779,34.698905]}},{"properties":{"city":"Temecula","growth":0.11,"rownum":22,"id":"a65lpu8jyzqp","visits 2009":6121,"lat":33.502486,"state":"CA","long":-117.166931},"type":"Feature","geometry":{"type":"Point","coordinates":[-117.166931,33.502486]}},{"properties":{"city":"Victorville","growth":0.79,"rownum":23,"id":"a65lpubbfnuk","visits 2009":6091,"lat":34.510622,"state":"CA","long":-117.32364},"type":"Feature","geometry":{"type":"Point","coordinates":[-117.32364,34.510622]}},{"properties":{"city":"Durham","growth":0.98,"rownum":24,"id":"a65lpudqcz3t","visits 2009":5569,"lat":39.64599,"state":"CA","long":-121.800894},"type":"Feature","geometry":{"type":"Point","coordinates":[-121.800894,39.64599]}},{"properties":{"city":"Beverly Hills","growth":0.68,"rownum":25,"id":"a65lpu7xxd5r","visits 2009":5372,"lat":34.07292,"state":"CA","long":-118.399809},"type":"Feature","geometry":{"type":"Point","coordinates":[-118.399809,34.07292]}},{"properties":{"city":"Bonita","growth":0.73,"rownum":26,"id":"a65lpubvvshd","visits 2009":5201,"lat":32.673886,"state":"CA","long":-117.017904},"type":"Feature","geometry":{"type":"Point","coordinates":[-117.017904,32.673886]}},{"properties":{"city":"Roseville","growth":0.68,"rownum":27,"id":"a65lpun12sir","visits 2009":5136,"lat":38.748529,"state":"CA","long":-121.284558},"type":"Feature","geometry":{"type":"Point","coordinates":[-121.284558,38.748529]}},{"properties":{"city":"Anaheim","growth":0.2,"rownum":28,"id":"a65lpu7xg3fs","visits 2009":5112,"lat":33.83276,"state":"CA","long":-117.915719},"type":"Feature","geometry":{"type":"Point","coordinates":[-117.915719,33.83276]}},{"properties":{"city":"Los Alamitos","growth":0.14,"rownum":29,"id":"a65lpue3uuys","visits 2009":4997,"lat":33.803165,"state":"CA","long":-118.076624},"type":"Feature","geometry":{"type":"Point","coordinates":[-118.076624,33.803165]}},{"properties":{"city":"Wildomar","growth":0.6,"rownum":30,"id":"a65lpuc1knww","visits 2009":4899,"lat":33.612357,"state":"CA","long":-117.262079},"type":"Feature","geometry":{"type":"Point","coordinates":[-117.262079,33.612357]}},{"properties":{"city":"Long Beach","growth":0.38,"rownum":31,"id":"a65lpung5a4c","visits 2009":4861,"lat":33.766425,"state":"CA","long":-118.192394},"type":"Feature","geometry":{"type":"Point","coordinates":[-118.192394,33.766425]}},{"properties":{"city":"Del Mar","growth":0.25,"rownum":32,"id":"a65lpuf1rkhe","visits 2009":4838,"lat":32.954892,"state":"CA","long":-117.263482},"type":"Feature","geometry":{"type":"Point","coordinates":[-117.263482,32.954892]}},{"properties":{"city":"Irvine","growth":0.23,"rownum":33,"id":"a65lpuigsdjx","visits 2009":4833,"lat":33.686887,"state":"CA","long":-117.825348},"type":"Feature","geometry":{"type":"Point","coordinates":[-117.825348,33.686887]}},{"properties":{"city":"Glendale","growth":0.52,"rownum":34,"id":"a65lpumhvfp5","visits 2009":4807,"lat":34.14632,"state":"CA","long":-118.248024},"type":"Feature","geometry":{"type":"Point","coordinates":[-118.248024,34.14632]}},{"properties":{"city":"Santa Clara","growth":0.35,"rownum":35,"id":"a65lpuanvu1h","visits 2009":4657,"lat":37.355509,"state":"CA","long":-121.954262},"type":"Feature","geometry":{"type":"Point","coordinates":[-121.954262,37.355509]}},{"properties":{"city":"San Bernardino","growth":0.4,"rownum":36,"id":"a65lpujekihn","visits 2009":4333,"lat":34.105245,"state":"CA","long":-117.294124},"type":"Feature","geometry":{"type":"Point","coordinates":[-117.294124,34.105245]}},{"properties":{"city":"Carlsbad","growth":0.82,"rownum":37,"id":"a65lpujdgw9z","visits 2009":4234,"lat":33.165887,"state":"CA","long":-117.338225},"type":"Feature","geometry":{"type":"Point","coordinates":[-117.338225,33.165887]}},{"properties":{"city":"San Marcos","growth":0.23,"rownum":38,"id":"a65lpuli1bia","visits 2009":4180,"lat":33.140862,"state":"CA","long":-117.158827},"type":"Feature","geometry":{"type":"Point","coordinates":[-117.158827,33.140862]}},{"properties":{"city":"San Luis Rey","growth":0.49,"rownum":39,"id":"a65lpufugn0y","visits 2009":4151,"lat":33.236586,"state":"CA","long":-117.322831},"type":"Feature","geometry":{"type":"Point","coordinates":[-117.322831,33.236586]}},{"properties":{"city":"Redding","growth":0.14,"rownum":40,"id":"a65lpujkh2wv","visits 2009":4109,"lat":40.587523,"state":"CA","long":-122.39291},"type":"Feature","geometry":{"type":"Point","coordinates":[-122.39291,40.587523]}},{"properties":{"city":"Montclair","growth":0.16,"rownum":41,"id":"a65lpudlw06h","visits 2009":4080,"lat":34.074005,"state":"CA","long":-117.692539},"type":"Feature","geometry":{"type":"Point","coordinates":[-117.692539,34.074005]}},{"properties":{"city":"Oakland","growth":0.4,"rownum":42,"id":"a65lpukz4b9k","visits 2009":3831,"lat":37.805065,"state":"CA","long":-122.273024},"type":"Feature","geometry":{"type":"Point","coordinates":[-122.273024,37.805065]}},{"properties":{"city":"Lakewood","growth":0.25,"rownum":43,"id":"a65lpuktozuo","visits 2009":3790,"lat":33.848815,"state":"CA","long":-118.133784},"type":"Feature","geometry":{"type":"Point","coordinates":[-118.133784,33.848815]}},{"properties":{"city":"Fairfield","growth":0.29,"rownum":44,"id":"a65lpujo1ugk","visits 2009":3684,"lat":38.2492,"state":"CA","long":-122.043884},"type":"Feature","geometry":{"type":"Point","coordinates":[-122.043884,38.2492]}},{"properties":{"city":"Loma Linda","growth":0.39,"rownum":45,"id":"a65lpumgaqnb","visits 2009":3536,"lat":34.048305,"state":"CA","long":-117.245809},"type":"Feature","geometry":{"type":"Point","coordinates":[-117.245809,34.048305]}},{"properties":{"city":"Santee","growth":0.9,"rownum":46,"id":"a65lpu96da4l","visits 2009":3464,"lat":32.870495,"state":"CA","long":-116.971024},"type":"Feature","geometry":{"type":"Point","coordinates":[-116.971024,32.870495]}},{"properties":{"city":"Santa Barbara","growth":0.12,"rownum":47,"id":"a65lpuk6jakq","visits 2009":3390,"lat":34.419285,"state":"CA","long":-119.698824},"type":"Feature","geometry":{"type":"Point","coordinates":[-119.698824,34.419285]}},{"properties":{"city":"East Irvine","growth":0.91,"rownum":48,"id":"a65lpui3wjcj","visits 2009":3347,"lat":33.679955,"state":"CA","long":-117.743539},"type":"Feature","geometry":{"type":"Point","coordinates":[-117.743539,33.679955]}},{"properties":{"city":"Manteca","growth":0.75,"rownum":49,"id":"a65lpuewcj93","visits 2009":3346,"lat":37.79917,"state":"CA","long":-121.232189},"type":"Feature","geometry":{"type":"Point","coordinates":[-121.232189,37.79917]}},{"properties":{"city":"Downey","growth":0.83,"rownum":50,"id":"a65lpuilrrgh","visits 2009":3241,"lat":33.940035,"state":"CA","long":-118.128234},"type":"Feature","geometry":{"type":"Point","coordinates":[-118.128234,33.940035]}},{"properties":{"city":"Dublin","growth":0.3,"rownum":51,"id":"a65lpuanldwm","visits 2009":3238,"lat":37.703893,"state":"CA","long":-121.916698},"type":"Feature","geometry":{"type":"Point","coordinates":[-121.916698,37.703893]}},{"properties":{"city":"Ontario","growth":0.83,"rownum":52,"id":"a65lpue9lqts","visits 2009":3142,"lat":34.06457,"state":"CA","long":-117.647809},"type":"Feature","geometry":{"type":"Point","coordinates":[-117.647809,34.06457]}},{"properties":{"city":"Santa Fe Springs","growth":0.8,"rownum":53,"id":"a65lpujeo0rs","visits 2009":3117,"lat":33.945954,"state":"CA","long":-118.082481},"type":"Feature","geometry":{"type":"Point","coordinates":[-118.082481,33.945954]}},{"properties":{"city":"March Afb","growth":0.88,"rownum":54,"id":"a65lpufabbmh","visits 2009":3084,"lat":33.8806,"state":"CA","long":-117.258598},"type":"Feature","geometry":{"type":"Point","coordinates":[-117.258598,33.8806]}},{"properties":{"city":"Corona","growth":0.37,"rownum":55,"id":"a65lpumrocgv","visits 2009":3082,"lat":33.877895,"state":"CA","long":-117.575039},"type":"Feature","geometry":{"type":"Point","coordinates":[-117.575039,33.877895]}},{"properties":{"city":"Pasadena","growth":0.93,"rownum":56,"id":"a65lpul667ea","visits 2009":3080,"lat":34.147235,"state":"CA","long":-118.144264},"type":"Feature","geometry":{"type":"Point","coordinates":[-118.144264,34.147235]}},{"properties":{"city":"Palo Alto","growth":0.7,"rownum":57,"id":"a65lpua6t2hh","visits 2009":3043,"lat":37.44466,"state":"CA","long":-122.160794},"type":"Feature","geometry":{"type":"Point","coordinates":[-122.160794,37.44466]}},{"properties":{"city":"Encinitas","growth":0.6,"rownum":58,"id":"a65lpuamb33c","visits 2009":2990,"lat":33.045436,"state":"CA","long":-117.292518},"type":"Feature","geometry":{"type":"Point","coordinates":[-117.292518,33.045436]}},{"properties":{"city":"West Covina","growth":0.95,"rownum":59,"id":"a65lpug5neq3","visits 2009":2932,"lat":34.07215,"state":"CA","long":-117.939187},"type":"Feature","geometry":{"type":"Point","coordinates":[-117.939187,34.07215]}},{"properties":{"city":"Pleasant Hill","growth":0.59,"rownum":60,"id":"a65lpul46tpn","visits 2009":2883,"lat":37.947955,"state":"CA","long":-122.063379},"type":"Feature","geometry":{"type":"Point","coordinates":[-122.063379,37.947955]}},{"properties":{"city":"Mountain View","growth":0.9,"rownum":61,"id":"a65lpubygv8o","visits 2009":2870,"lat":37.389475,"state":"CA","long":-122.081694},"type":"Feature","geometry":{"type":"Point","coordinates":[-122.081694,37.389475]}},{"properties":{"city":"Escondido","growth":0.75,"rownum":62,"id":"a65lpufh932k","visits 2009":2866,"lat":33.12316,"state":"CA","long":-117.082169},"type":"Feature","geometry":{"type":"Point","coordinates":[-117.082169,33.12316]}},{"properties":{"city":"Culver City","growth":0.33,"rownum":63,"id":"a65lpugcny63","visits 2009":2851,"lat":34.02161,"state":"CA","long":-118.396209},"type":"Feature","geometry":{"type":"Point","coordinates":[-118.396209,34.02161]}},{"properties":{"city":"Monterey Park","growth":0.17,"rownum":64,"id":"a65lpuj54k3t","visits 2009":2841,"lat":34.059792,"state":"CA","long":-118.126514},"type":"Feature","geometry":{"type":"Point","coordinates":[-118.126514,34.059792]}},{"properties":{"city":"Lemon Grove","growth":0.9,"rownum":65,"id":"a65lpu9yhn38","visits 2009":2836,"lat":32.7408,"state":"CA","long":-117.031084},"type":"Feature","geometry":{"type":"Point","coordinates":[-117.031084,32.7408]}},{"properties":{"city":"Orange","growth":0.52,"rownum":66,"id":"a65lpubhvgvn","visits 2009":2824,"lat":33.787865,"state":"CA","long":-117.850399},"type":"Feature","geometry":{"type":"Point","coordinates":[-117.850399,33.787865]}},{"properties":{"city":"Fullerton","growth":0.1,"rownum":67,"id":"a65lpukagr5g","visits 2009":2778,"lat":33.870325,"state":"CA","long":-117.929104},"type":"Feature","geometry":{"type":"Point","coordinates":[-117.929104,33.870325]}},{"properties":{"city":"Rocklin","growth":0.13,"rownum":68,"id":"a65lpufxxsci","visits 2009":2773,"lat":38.790075,"state":"CA","long":-121.234404},"type":"Feature","geometry":{"type":"Point","coordinates":[-121.234404,38.790075]}},{"properties":{"city":"Fremont","growth":0.28,"rownum":69,"id":"a65lpuhpjasc","visits 2009":2724,"lat":37.55091,"state":"CA","long":-121.982169},"type":"Feature","geometry":{"type":"Point","coordinates":[-121.982169,37.55091]}},{"properties":{"city":"Aliso Viejo","growth":0.69,"rownum":70,"id":"a65lpue999dv","visits 2009":2666,"lat":33.567372,"state":"CA","long":-117.727804},"type":"Feature","geometry":{"type":"Point","coordinates":[-117.727804,33.567372]}},{"properties":{"city":"Chino","growth":0.47,"rownum":71,"id":"a65lpumd555a","visits 2009":2591,"lat":34.012811,"state":"CA","long":-117.689328},"type":"Feature","geometry":{"type":"Point","coordinates":[-117.689328,34.012811]}},{"properties":{"city":"Santa Ana","growth":0.48,"rownum":72,"id":"a65lpuhq1p2v","visits 2009":2577,"lat":33.748136,"state":"CA","long":-117.874491},"type":"Feature","geometry":{"type":"Point","coordinates":[-117.874491,33.748136]}},{"properties":{"city":"Santa Monica","growth":0.83,"rownum":73,"id":"a65lpu98npjd","visits 2009":2571,"lat":34.011565,"state":"CA","long":-118.492289},"type":"Feature","geometry":{"type":"Point","coordinates":[-118.492289,34.011565]}},{"properties":{"city":"Yuba City","growth":0.93,"rownum":74,"id":"a65lpub3p5h1","visits 2009":2571,"lat":39.14076,"state":"CA","long":-121.619399},"type":"Feature","geometry":{"type":"Point","coordinates":[-121.619399,39.14076]}},{"properties":{"city":"Oxnard","growth":0.83,"rownum":75,"id":"a65lpumptdtz","visits 2009":2553,"lat":34.20034,"state":"CA","long":-119.180439},"type":"Feature","geometry":{"type":"Point","coordinates":[-119.180439,34.20034]}},{"properties":{"city":"Murrieta","growth":0.61,"rownum":76,"id":"a65lpughppi8","visits 2009":2532,"lat":33.532644,"state":"CA","long":-117.180872},"type":"Feature","geometry":{"type":"Point","coordinates":[-117.180872,33.532644]}},{"properties":{"city":"Berkeley","growth":0.36,"rownum":77,"id":"a65lpugkju4s","visits 2009":2519,"lat":37.869505,"state":"CA","long":-122.270499},"type":"Feature","geometry":{"type":"Point","coordinates":[-122.270499,37.869505]}},{"properties":{"city":"La Mirada","growth":0.97,"rownum":78,"id":"a65lpumwqk5g","visits 2009":2515,"lat":33.90707,"state":"CA","long":-118.011719},"type":"Feature","geometry":{"type":"Point","coordinates":[-118.011719,33.90707]}},{"properties":{"city":"Vacaville","growth":0.44,"rownum":79,"id":"a65lpugd8hej","visits 2009":2505,"lat":38.35134,"state":"CA","long":-121.993394},"type":"Feature","geometry":{"type":"Point","coordinates":[-121.993394,38.35134]}},{"properties":{"city":"Rancho Cucamonga","growth":0.2,"rownum":80,"id":"a65lpulos5va","visits 2009":2453,"lat":34.102617,"state":"CA","long":-117.573839},"type":"Feature","geometry":{"type":"Point","coordinates":[-117.573839,34.102617]}},{"properties":{"city":"San Ramon","growth":0.62,"rownum":81,"id":"a65lpu7jda4o","visits 2009":2450,"lat":37.776864,"state":"CA","long":-121.967299},"type":"Feature","geometry":{"type":"Point","coordinates":[-121.967299,37.776864]}},{"properties":{"city":"Antioch","growth":0.95,"rownum":82,"id":"a65lpu93a8x5","visits 2009":2444,"lat":38.015825,"state":"CA","long":-121.819699},"type":"Feature","geometry":{"type":"Point","coordinates":[-121.819699,38.015825]}},{"properties":{"city":"Torrance","growth":0.97,"rownum":83,"id":"a65lpul7je3w","visits 2009":2439,"lat":33.836662,"state":"CA","long":-118.341662},"type":"Feature","geometry":{"type":"Point","coordinates":[-118.341662,33.836662]}},{"properties":{"city":"San Luis Obispo","growth":0.41,"rownum":84,"id":"a65lpu8xv3en","visits 2009":2415,"lat":35.28552,"state":"CA","long":-120.662554},"type":"Feature","geometry":{"type":"Point","coordinates":[-120.662554,35.28552]}},{"properties":{"city":"Rancho Cordova","growth":0.13,"rownum":85,"id":"a65lpuaoggin","visits 2009":2400,"lat":38.574484,"state":"CA","long":-121.30326},"type":"Feature","geometry":{"type":"Point","coordinates":[-121.30326,38.574484]}},{"properties":{"city":"Moreno Valley","growth":0.58,"rownum":86,"id":"a65lpullgm4i","visits 2009":2397,"lat":33.91658,"state":"CA","long":-117.261134},"type":"Feature","geometry":{"type":"Point","coordinates":[-117.261134,33.91658]}},{"properties":{"city":"Menifee","growth":0.75,"rownum":87,"id":"a65lpujizt2i","visits 2009":2351,"lat":33.685,"state":"CA","long":-117.153919},"type":"Feature","geometry":{"type":"Point","coordinates":[-117.153919,33.685]}},{"properties":{"city":"Davis","growth":0.25,"rownum":88,"id":"a65lpuenw1gb","visits 2009":2348,"lat":38.546663,"state":"CA","long":-121.744775},"type":"Feature","geometry":{"type":"Point","coordinates":[-121.744775,38.546663]}},{"properties":{"city":"Mission Viejo","growth":0.31,"rownum":89,"id":"a65lpud0h3lg","visits 2009":2264,"lat":33.61941,"state":"CA","long":-117.677638},"type":"Feature","geometry":{"type":"Point","coordinates":[-117.677638,33.61941]}},{"properties":{"city":"Huntington Beach","growth":0.47,"rownum":90,"id":"a65lpubg8mbb","visits 2009":2253,"lat":33.67889,"state":"CA","long":-118.001574},"type":"Feature","geometry":{"type":"Point","coordinates":[-118.001574,33.67889]}},{"properties":{"city":"Hemet","growth":0.96,"rownum":91,"id":"a65lpujuhy5i","visits 2009":2167,"lat":33.74937,"state":"CA","long":-116.967889},"type":"Feature","geometry":{"type":"Point","coordinates":[-116.967889,33.74937]}},{"properties":{"city":"Palmdale","growth":0.72,"rownum":92,"id":"a65lpu80l1yc","visits 2009":2154,"lat":34.578485,"state":"CA","long":-118.116454},"type":"Feature","geometry":{"type":"Point","coordinates":[-118.116454,34.578485]}},{"properties":{"city":"Costa Mesa","growth":0.77,"rownum":93,"id":"a65lpula6c16","visits 2009":2134,"lat":33.66388,"state":"CA","long":-117.903424},"type":"Feature","geometry":{"type":"Point","coordinates":[-117.903424,33.66388]}},{"properties":{"city":"Vista","growth":0.12,"rownum":94,"id":"a65lpu8g4rs7","visits 2009":2134,"lat":33.20204,"state":"CA","long":-117.233962},"type":"Feature","geometry":{"type":"Point","coordinates":[-117.233962,33.20204]}},{"properties":{"city":"Hesperia","growth":0.75,"rownum":95,"id":"a65lpu80ulv5","visits 2009":2133,"lat":34.424145,"state":"CA","long":-117.319209},"type":"Feature","geometry":{"type":"Point","coordinates":[-117.319209,34.424145]}},{"properties":{"city":"Pomona","growth":0.45,"rownum":96,"id":"a65lpuil5ubw","visits 2009":2127,"lat":34.054645,"state":"CA","long":-117.750024},"type":"Feature","geometry":{"type":"Point","coordinates":[-117.750024,34.054645]}},{"properties":{"city":"Burbank","growth":0.17,"rownum":97,"id":"a65lpugx4bko","visits 2009":2112,"lat":34.18147,"state":"CA","long":-118.308124},"type":"Feature","geometry":{"type":"Point","coordinates":[-118.308124,34.18147]}},{"properties":{"city":"Madera","growth":0.71,"rownum":98,"id":"a65lpuhwg7l9","visits 2009":2112,"lat":36.962055,"state":"CA","long":-120.063994},"type":"Feature","geometry":{"type":"Point","coordinates":[-120.063994,36.962055]}},{"properties":{"city":"Pleasanton","growth":0.85,"rownum":99,"id":"a65lpuab2bel","visits 2009":2060,"lat":37.658034,"state":"CA","long":-121.87722},"type":"Feature","geometry":{"type":"Point","coordinates":[-121.87722,37.658034]}},{"properties":{"city":"North Hollywood","growth":0.78,"rownum":100,"id":"a65lpuiiwarn","visits 2009":2013,"lat":34.16545,"state":"CA","long":-118.378979},"type":"Feature","geometry":{"type":"Point","coordinates":[-118.378979,34.16545]}},{"properties":{"city":"Norwalk","growth":0.26,"rownum":101,"id":"a65lpu7vewoh","visits 2009":1954,"lat":33.91561,"state":"CA","long":-118.072519},"type":"Feature","geometry":{"type":"Point","coordinates":[-118.072519,33.91561]}},{"properties":{"city":"Carson","growth":0.89,"rownum":102,"id":"a65lpue15iwq","visits 2009":1940,"lat":33.831602,"state":"CA","long":-118.262754},"type":"Feature","geometry":{"type":"Point","coordinates":[-118.262754,33.831602]}},{"properties":{"city":"Cathedral City","growth":0.75,"rownum":103,"id":"a65lpue8i1ny","visits 2009":1937,"lat":33.781015,"state":"CA","long":-116.464079},"type":"Feature","geometry":{"type":"Point","coordinates":[-116.464079,33.781015]}},{"properties":{"city":"Visalia","growth":0.46,"rownum":104,"id":"a65lpuh5xtuf","visits 2009":1914,"lat":36.33377,"state":"CA","long":-119.292914},"type":"Feature","geometry":{"type":"Point","coordinates":[-119.292914,36.33377]}},{"properties":{"city":"Mentone","growth":0.77,"rownum":105,"id":"a65lpuekf13g","visits 2009":1886,"lat":34.070025,"state":"CA","long":-117.131804},"type":"Feature","geometry":{"type":"Point","coordinates":[-117.131804,34.070025]}},{"properties":{"city":"Fontana","growth":0.99,"rownum":106,"id":"a65lpuf1ciod","visits 2009":1884,"lat":34.10205,"state":"CA","long":-117.435759},"type":"Feature","geometry":{"type":"Point","coordinates":[-117.435759,34.10205]}},{"properties":{"city":"Monterey","growth":1.0,"rownum":107,"id":"a65lpumjl6fh","visits 2009":1862,"lat":36.59758,"state":"CA","long":-121.896739},"type":"Feature","geometry":{"type":"Point","coordinates":[-121.896739,36.59758]}},{"properties":{"city":"Hayward","growth":0.14,"rownum":108,"id":"a65lpui0ev07","visits 2009":1850,"lat":37.671197,"state":"CA","long":-122.086137},"type":"Feature","geometry":{"type":"Point","coordinates":[-122.086137,37.671197]}},{"properties":{"city":"Perris","growth":0.63,"rownum":109,"id":"a65lpu7zihzu","visits 2009":1848,"lat":33.78237,"state":"CA","long":-117.227345},"type":"Feature","geometry":{"type":"Point","coordinates":[-117.227345,33.78237]}},{"properties":{"city":"Alviso","growth":1.0,"rownum":110,"id":"a65lpubhti1k","visits 2009":1830,"lat":37.42561,"state":"CA","long":-121.976089},"type":"Feature","geometry":{"type":"Point","coordinates":[-121.976089,37.42561]}},{"properties":{"city":"South Pasadena","growth":0.71,"rownum":111,"id":"a65lpudpwmbu","visits 2009":1828,"lat":34.115805,"state":"CA","long":-118.152129},"type":"Feature","geometry":{"type":"Point","coordinates":[-118.152129,34.115805]}},{"properties":{"city":"Belmont","growth":0.92,"rownum":112,"id":"a65lpu86f6wx","visits 2009":1819,"lat":37.51834,"state":"CA","long":-122.276209},"type":"Feature","geometry":{"type":"Point","coordinates":[-122.276209,37.51834]}},{"properties":{"city":"Northridge","growth":0.21,"rownum":113,"id":"a65lpuaevx74","visits 2009":1814,"lat":34.234773,"state":"CA","long":-118.533879},"type":"Feature","geometry":{"type":"Point","coordinates":[-118.533879,34.234773]}},{"properties":{"city":"Walnut Creek","growth":0.67,"rownum":114,"id":"a65lpu8hwtnq","visits 2009":1791,"lat":37.90118,"state":"CA","long":-122.061628},"type":"Feature","geometry":{"type":"Point","coordinates":[-122.061628,37.90118]}},{"properties":{"city":"El Centro","growth":0.49,"rownum":115,"id":"a65lpu8m76y9","visits 2009":1789,"lat":32.795805,"state":"CA","long":-115.569969},"type":"Feature","geometry":{"type":"Point","coordinates":[-115.569969,32.795805]}},{"properties":{"city":"Milpitas","growth":0.16,"rownum":116,"id":"a65lpu8mgpp9","visits 2009":1764,"lat":37.432539,"state":"CA","long":-121.898065},"type":"Feature","geometry":{"type":"Point","coordinates":[-121.898065,37.432539]}},{"properties":{"city":"Capistrano Beach","growth":0.67,"rownum":117,"id":"a65lpuh4f1or","visits 2009":1733,"lat":33.448965,"state":"CA","long":-117.656143},"type":"Feature","geometry":{"type":"Point","coordinates":[-117.656143,33.448965]}},{"properties":{"city":"Vallejo","growth":0.52,"rownum":118,"id":"a65lpulm9zo5","visits 2009":1717,"lat":38.10084,"state":"CA","long":-122.254919},"type":"Feature","geometry":{"type":"Point","coordinates":[-122.254919,38.10084]}},{"properties":{"city":"Woodland Hills","growth":0.96,"rownum":119,"id":"a65lpump88gl","visits 2009":1717,"lat":34.168807,"state":"CA","long":-118.610921},"type":"Feature","geometry":{"type":"Point","coordinates":[-118.610921,34.168807]}},{"properties":{"city":"Garden Grove","growth":0.78,"rownum":120,"id":"a65lpuhapr78","visits 2009":1715,"lat":33.77607,"state":"CA","long":-117.936794},"type":"Feature","geometry":{"type":"Point","coordinates":[-117.936794,33.77607]}},{"properties":{"city":"Thousand Oaks","growth":0.95,"rownum":121,"id":"a65lpunqrokj","visits 2009":1705,"lat":34.185003,"state":"CA","long":-118.894256},"type":"Feature","geometry":{"type":"Point","coordinates":[-118.894256,34.185003]}},{"properties":{"city":"Oceanside","growth":0.14,"rownum":122,"id":"a65lpuk9ciff","visits 2009":1701,"lat":33.19715,"state":"CA","long":-117.380584},"type":"Feature","geometry":{"type":"Point","coordinates":[-117.380584,33.19715]}},{"properties":{"city":"Campbell","growth":0.51,"rownum":123,"id":"a65lpuf0ckrj","visits 2009":1689,"lat":37.28848,"state":"CA","long":-121.944864},"type":"Feature","geometry":{"type":"Point","coordinates":[-121.944864,37.28848]}},{"properties":{"city":"Tustin","growth":0.16,"rownum":124,"id":"a65lpuj2oap9","visits 2009":1683,"lat":33.743325,"state":"CA","long":-117.818824},"type":"Feature","geometry":{"type":"Point","coordinates":[-117.818824,33.743325]}},{"properties":{"city":"San Leandro","growth":0.37,"rownum":125,"id":"a65lpudl0cxu","visits 2009":1647,"lat":37.72802,"state":"CA","long":-122.158344},"type":"Feature","geometry":{"type":"Point","coordinates":[-122.158344,37.72802]}},{"properties":{"city":"Simi Valley","growth":0.42,"rownum":126,"id":"a65lpulfr8rj","visits 2009":1612,"lat":34.28946,"state":"CA","long":-118.717659},"type":"Feature","geometry":{"type":"Point","coordinates":[-118.717659,34.28946]}},{"properties":{"city":"Rosemead","growth":0.85,"rownum":127,"id":"a65lpulktdbz","visits 2009":1599,"lat":34.08072,"state":"CA","long":-118.076539},"type":"Feature","geometry":{"type":"Point","coordinates":[-118.076539,34.08072]}},{"properties":{"city":"San Mateo","growth":0.28,"rownum":128,"id":"a65lpu9fx71f","visits 2009":1596,"lat":37.54703,"state":"CA","long":-122.314834},"type":"Feature","geometry":{"type":"Point","coordinates":[-122.314834,37.54703]}},{"properties":{"city":"Covina","growth":0.52,"rownum":129,"id":"a65lpubby62w","visits 2009":1570,"lat":34.087425,"state":"CA","long":-117.889024},"type":"Feature","geometry":{"type":"Point","coordinates":[-117.889024,34.087425]}},{"properties":{"city":"Merced","growth":0.48,"rownum":130,"id":"a65lpuc50syp","visits 2009":1566,"lat":37.30127,"state":"CA","long":-120.486199},"type":"Feature","geometry":{"type":"Point","coordinates":[-120.486199,37.30127]}},{"properties":{"city":"Camarillo","growth":0.47,"rownum":131,"id":"a65lpufbjn6m","visits 2009":1550,"lat":34.222915,"state":"CA","long":-119.050699},"type":"Feature","geometry":{"type":"Point","coordinates":[-119.050699,34.222915]}},{"properties":{"city":"Newark","growth":0.67,"rownum":132,"id":"a65lpufyh0x1","visits 2009":1549,"lat":37.5364,"state":"CA","long":-122.029684},"type":"Feature","geometry":{"type":"Point","coordinates":[-122.029684,37.5364]}},{"properties":{"city":"Mcclellan","growth":0.46,"rownum":133,"id":"a65lpunqk54y","visits 2009":1532,"lat":38.668696,"state":"CA","long":-121.394799},"type":"Feature","geometry":{"type":"Point","coordinates":[-121.394799,38.668696]}},{"properties":{"city":"Emeryville","growth":0.74,"rownum":134,"id":"a65lpuil3rgh","visits 2009":1494,"lat":37.83717,"state":"CA","long":-122.302084},"type":"Feature","geometry":{"type":"Point","coordinates":[-122.302084,37.83717]}},{"properties":{"city":"Turlock","growth":0.66,"rownum":135,"id":"a65lpuh75qmy","visits 2009":1484,"lat":37.495015,"state":"CA","long":-120.846419},"type":"Feature","geometry":{"type":"Point","coordinates":[-120.846419,37.495015]}},{"properties":{"city":"Salinas","growth":0.8,"rownum":136,"id":"a65lpuelserc","visits 2009":1480,"lat":36.670845,"state":"CA","long":-121.654834},"type":"Feature","geometry":{"type":"Point","coordinates":[-121.654834,36.670845]}},{"properties":{"city":"Buena Park","growth":0.43,"rownum":137,"id":"a65lpud4jftk","visits 2009":1479,"lat":33.86441,"state":"CA","long":-117.998044},"type":"Feature","geometry":{"type":"Point","coordinates":[-117.998044,33.86441]}},{"properties":{"city":"Rio Linda","growth":0.9,"rownum":138,"id":"a65lpulrvzi5","visits 2009":1475,"lat":38.676685,"state":"CA","long":-121.444539},"type":"Feature","geometry":{"type":"Point","coordinates":[-121.444539,38.676685]}},{"properties":{"city":"Pico Rivera","growth":0.9,"rownum":140,"id":"a65lpuesvir9","visits 2009":1453,"lat":33.982345,"state":"CA","long":-118.088034},"type":"Feature","geometry":{"type":"Point","coordinates":[-118.088034,33.982345]}},{"properties":{"city":"Concord","growth":0.27,"rownum":141,"id":"a65lpukavadn","visits 2009":1447,"lat":37.980816,"state":"CA","long":-122.025196},"type":"Feature","geometry":{"type":"Point","coordinates":[-122.025196,37.980816]}},{"properties":{"city":"Maywood","growth":0.66,"rownum":142,"id":"a65lpuimcplu","visits 2009":1432,"lat":33.987535,"state":"CA","long":-118.189469},"type":"Feature","geometry":{"type":"Point","coordinates":[-118.189469,33.987535]}},{"properties":{"city":"Canoga Park","growth":0.56,"rownum":143,"id":"a65lpucgnic4","visits 2009":1415,"lat":34.201965,"state":"CA","long":-118.601564},"type":"Feature","geometry":{"type":"Point","coordinates":[-118.601564,34.201965]}},{"properties":{"city":"Rancho Santa Fe","growth":0.16,"rownum":144,"id":"a65lpui1iyh6","visits 2009":1385,"lat":33.020037,"state":"CA","long":-117.203099},"type":"Feature","geometry":{"type":"Point","coordinates":[-117.203099,33.020037]}},{"properties":{"city":"Santa Rosa","growth":0.78,"rownum":145,"id":"a65lpucldklu","visits 2009":1379,"lat":38.437731,"state":"CA","long":-122.712427},"type":"Feature","geometry":{"type":"Point","coordinates":[-122.712427,38.437731]}},{"properties":{"city":"Seaside","growth":0.7,"rownum":146,"id":"a65lpuj5f691","visits 2009":1346,"lat":36.603883,"state":"CA","long":-121.852664},"type":"Feature","geometry":{"type":"Point","coordinates":[-121.852664,36.603883]}},{"properties":{"city":"La Puente","growth":0.66,"rownum":147,"id":"a65lpu9dsqts","visits 2009":1329,"lat":34.020115,"state":"CA","long":-117.950864},"type":"Feature","geometry":{"type":"Point","coordinates":[-117.950864,34.020115]}},{"properties":{"city":"Van Nuys","growth":0.79,"rownum":148,"id":"a65lpudgtvqt","visits 2009":1293,"lat":34.18416,"state":"CA","long":-118.446517},"type":"Feature","geometry":{"type":"Point","coordinates":[-118.446517,34.18416]}},{"properties":{"city":"Diamond Bar","growth":0.53,"rownum":149,"id":"a65lpuk2624b","visits 2009":1278,"lat":33.999257,"state":"CA","long":-117.831459},"type":"Feature","geometry":{"type":"Point","coordinates":[-117.831459,33.999257]}},{"properties":{"city":"Lawndale","growth":0.73,"rownum":150,"id":"a65lpun58g6g","visits 2009":1277,"lat":33.898625,"state":"CA","long":-118.353849},"type":"Feature","geometry":{"type":"Point","coordinates":[-118.353849,33.898625]}},{"properties":{"city":"Daly City","growth":0.26,"rownum":151,"id":"a65lpuckdt80","visits 2009":1276,"lat":37.691085,"state":"CA","long":-122.473349},"type":"Feature","geometry":{"type":"Point","coordinates":[-122.473349,37.691085]}},{"properties":{"city":"Chino Hills","growth":0.85,"rownum":152,"id":"a65lpubz4r22","visits 2009":1275,"lat":33.996047,"state":"CA","long":-117.75801},"type":"Feature","geometry":{"type":"Point","coordinates":[-117.75801,33.996047]}},{"properties":{"city":"Paradise","growth":0.63,"rownum":153,"id":"a65lpuhjc95f","visits 2009":1272,"lat":39.74975,"state":"CA","long":-121.607724},"type":"Feature","geometry":{"type":"Point","coordinates":[-121.607724,39.74975]}},{"properties":{"city":"Suisun City","growth":0.61,"rownum":154,"id":"a65lpun2qyfw","visits 2009":1256,"lat":38.238375,"state":"CA","long":-122.036609},"type":"Feature","geometry":{"type":"Point","coordinates":[-122.036609,38.238375]}},{"properties":{"city":"Fair Oaks","growth":0.27,"rownum":155,"id":"a65lpulolarp","visits 2009":1248,"lat":38.643035,"state":"CA","long":-121.270154},"type":"Feature","geometry":{"type":"Point","coordinates":[-121.270154,38.643035]}},{"properties":{"city":"Marina Del Rey","growth":0.9,"rownum":156,"id":"a65lpui17ce8","visits 2009":1241,"lat":33.985215,"state":"CA","long":-118.452109},"type":"Feature","geometry":{"type":"Point","coordinates":[-118.452109,33.985215]}},{"properties":{"city":"Union City","growth":0.47,"rownum":157,"id":"a65lpua1w96u","visits 2009":1231,"lat":37.588395,"state":"CA","long":-122.025924},"type":"Feature","geometry":{"type":"Point","coordinates":[-122.025924,37.588395]}},{"properties":{"city":"San Dimas","growth":0.32,"rownum":158,"id":"a65lpu9risrs","visits 2009":1229,"lat":34.10668,"state":"CA","long":-117.803839},"type":"Feature","geometry":{"type":"Point","coordinates":[-117.803839,34.10668]}},{"properties":{"city":"Bellflower","growth":0.38,"rownum":159,"id":"a65lpu9ih6nl","visits 2009":1206,"lat":33.882745,"state":"CA","long":-118.122289},"type":"Feature","geometry":{"type":"Point","coordinates":[-118.122289,33.882745]}},{"properties":{"city":"El Dorado Hills","growth":0.55,"rownum":160,"id":"a65lpund5u4d","visits 2009":1187,"lat":38.677049,"state":"CA","long":-121.07781},"type":"Feature","geometry":{"type":"Point","coordinates":[-121.07781,38.677049]}},{"properties":{"city":"Napa","growth":0.8,"rownum":161,"id":"a65lpul9x4ak","visits 2009":1182,"lat":38.298855,"state":"CA","long":-122.285194},"type":"Feature","geometry":{"type":"Point","coordinates":[-122.285194,38.298855]}},{"properties":{"city":"Folsom","growth":0.95,"rownum":162,"id":"a65lpugqa3dv","visits 2009":1175,"lat":38.68155,"state":"CA","long":-121.163264},"type":"Feature","geometry":{"type":"Point","coordinates":[-121.163264,38.68155]}},{"properties":{"city":"Whittier","growth":0.36,"rownum":163,"id":"a65lpulc7gaz","visits 2009":1164,"lat":33.97542,"state":"CA","long":-118.034424},"type":"Feature","geometry":{"type":"Point","coordinates":[-118.034424,33.97542]}},{"properties":{"city":"West Sacramento","growth":0.16,"rownum":164,"id":"a65lpuinuy00","visits 2009":1158,"lat":38.57101,"state":"CA","long":-121.550158},"type":"Feature","geometry":{"type":"Point","coordinates":[-121.550158,38.57101]}},{"properties":{"city":"El Segundo","growth":0.63,"rownum":165,"id":"a65lpulp9z3j","visits 2009":1155,"lat":33.919925,"state":"CA","long":-118.415964},"type":"Feature","geometry":{"type":"Point","coordinates":[-118.415964,33.919925]}},{"properties":{"city":"Valley Village","growth":0.3,"rownum":166,"id":"a65lpu91t33e","visits 2009":1145,"lat":34.164885,"state":"CA","long":-118.397399},"type":"Feature","geometry":{"type":"Point","coordinates":[-118.397399,34.164885]}},{"properties":{"city":"Rancho Santa Margarita","growth":0.85,"rownum":167,"id":"a65lpukhnzqd","visits 2009":1122,"lat":33.634317,"state":"CA","long":-117.603406},"type":"Feature","geometry":{"type":"Point","coordinates":[-117.603406,33.634317]}},{"properties":{"city":"Midway City","growth":0.77,"rownum":168,"id":"a65lpukipvl2","visits 2009":1118,"lat":33.74469,"state":"CA","long":-117.986929},"type":"Feature","geometry":{"type":"Point","coordinates":[-117.986929,33.74469]}},{"properties":{"city":"Rialto","growth":0.98,"rownum":169,"id":"a65lpumo41rb","visits 2009":1118,"lat":34.099655,"state":"CA","long":-117.372829},"type":"Feature","geometry":{"type":"Point","coordinates":[-117.372829,34.099655]}},{"properties":{"city":"Sun City","growth":0.62,"rownum":170,"id":"a65lpuh3oez3","visits 2009":1112,"lat":33.713416,"state":"CA","long":-117.190182},"type":"Feature","geometry":{"type":"Point","coordinates":[-117.190182,33.713416]}},{"properties":{"city":"Hanford","growth":0.86,"rownum":171,"id":"a65lpudvtdqj","visits 2009":1093,"lat":36.327175,"state":"CA","long":-119.645804},"type":"Feature","geometry":{"type":"Point","coordinates":[-119.645804,36.327175]}},{"properties":{"city":"Paramount","growth":0.72,"rownum":172,"id":"a65lpub0w4h8","visits 2009":1056,"lat":33.885,"state":"CA","long":-118.161399},"type":"Feature","geometry":{"type":"Point","coordinates":[-118.161399,33.885]}},{"properties":{"city":"Citrus Heights","growth":0.35,"rownum":173,"id":"a65lpukqpxog","visits 2009":1055,"lat":38.69784,"state":"CA","long":-121.271764},"type":"Feature","geometry":{"type":"Point","coordinates":[-121.271764,38.69784]}},{"properties":{"city":"Alhambra","growth":0.36,"rownum":174,"id":"a65lpucu5tmz","visits 2009":1054,"lat":34.0937,"state":"CA","long":-118.127269},"type":"Feature","geometry":{"type":"Point","coordinates":[-118.127269,34.0937]}},{"properties":{"city":"Lyoth","growth":0.3,"rownum":175,"id":"a65lpud2b1sx","visits 2009":1053,"lat":37.70706,"state":"CA","long":-121.452875},"type":"Feature","geometry":{"type":"Point","coordinates":[-121.452875,37.70706]}},{"properties":{"city":"Cerritos","growth":0.52,"rownum":176,"id":"a65lpuil2wu4","visits 2009":1049,"lat":33.868545,"state":"CA","long":-118.063704},"type":"Feature","geometry":{"type":"Point","coordinates":[-118.063704,33.868545]}},{"properties":{"city":"Novato","growth":0.2,"rownum":177,"id":"a65lpuftzkfy","visits 2009":1042,"lat":38.106075,"state":"CA","long":-122.567889},"type":"Feature","geometry":{"type":"Point","coordinates":[-122.567889,38.106075]}},{"properties":{"city":"Santa Cruz","growth":0.63,"rownum":178,"id":"a65lpuiumpzs","visits 2009":1030,"lat":36.974045,"state":"CA","long":-122.030909},"type":"Feature","geometry":{"type":"Point","coordinates":[-122.030909,36.974045]}},{"properties":{"city":"Santa Maria","growth":0.66,"rownum":179,"id":"a65lpuhvfzm8","visits 2009":1030,"lat":34.95313,"state":"CA","long":-120.434994},"type":"Feature","geometry":{"type":"Point","coordinates":[-120.434994,34.95313]}},{"properties":{"city":"Westminster","growth":0.18,"rownum":180,"id":"a65lpucxjffz","visits 2009":1015,"lat":33.759305,"state":"CA","long":-117.986499},"type":"Feature","geometry":{"type":"Point","coordinates":[-117.986499,33.759305]}},{"properties":{"city":"Newbury Park","growth":0.44,"rownum":181,"id":"a65lpue9df6f","visits 2009":991,"lat":34.188061,"state":"CA","long":-118.941513},"type":"Feature","geometry":{"type":"Point","coordinates":[-118.941513,34.188061]}},{"properties":{"city":"Lake Forest","growth":0.96,"rownum":182,"id":"a65lpueszscp","visits 2009":990,"lat":33.627647,"state":"CA","long":-117.717069},"type":"Feature","geometry":{"type":"Point","coordinates":[-117.717069,33.627647]}},{"properties":{"city":"Hermosa Beach","growth":0.94,"rownum":183,"id":"a65lpuj6jaoo","visits 2009":956,"lat":33.86404,"state":"CA","long":-118.395349},"type":"Feature","geometry":{"type":"Point","coordinates":[-118.395349,33.86404]}},{"properties":{"city":"Twentynine Palms","growth":0.92,"rownum":184,"id":"a65lpuif8jxj","visits 2009":955,"lat":34.13561,"state":"CA","long":-116.054879},"type":"Feature","geometry":{"type":"Point","coordinates":[-116.054879,34.13561]}},{"properties":{"city":"Montebello","growth":0.37,"rownum":185,"id":"a65lpu88mu4j","visits 2009":954,"lat":34.01958,"state":"CA","long":-118.116459},"type":"Feature","geometry":{"type":"Point","coordinates":[-118.116459,34.01958]}},{"properties":{"city":"Brentwood","growth":0.57,"rownum":186,"id":"a65lpuidci89","visits 2009":951,"lat":37.934055,"state":"CA","long":-121.692719},"type":"Feature","geometry":{"type":"Point","coordinates":[-121.692719,37.934055]}},{"properties":{"city":"Walnut","growth":0.61,"rownum":187,"id":"a65lpu7lvdkk","visits 2009":947,"lat":34.026081,"state":"CA","long":-117.841804},"type":"Feature","geometry":{"type":"Point","coordinates":[-117.841804,34.026081]}},{"properties":{"city":"Oroville","growth":0.47,"rownum":188,"id":"a65lpun4j3na","visits 2009":938,"lat":39.51388,"state":"CA","long":-121.556104},"type":"Feature","geometry":{"type":"Point","coordinates":[-121.556104,39.51388]}},{"properties":{"city":"Stanton","growth":0.8,"rownum":189,"id":"a65lpubz7bcy","visits 2009":933,"lat":33.80295,"state":"CA","long":-117.996239},"type":"Feature","geometry":{"type":"Point","coordinates":[-117.996239,33.80295]}},{"properties":{"city":"Gardena","growth":0.15,"rownum":190,"id":"a65lpuf1zi7a","visits 2009":932,"lat":33.88379,"state":"CA","long":-118.307504},"type":"Feature","geometry":{"type":"Point","coordinates":[-118.307504,33.88379]}},{"properties":{"city":"Indian Wells","growth":0.95,"rownum":191,"id":"a65lpuaj9ux4","visits 2009":925,"lat":33.723095,"state":"CA","long":-116.338809},"type":"Feature","geometry":{"type":"Point","coordinates":[-116.338809,33.723095]}},{"properties":{"city":"Norco","growth":0.95,"rownum":192,"id":"a65lpudpb2dy","visits 2009":922,"lat":33.922929,"state":"CA","long":-117.560987},"type":"Feature","geometry":{"type":"Point","coordinates":[-117.560987,33.922929]}},{"properties":{"city":"Fountain Valley","growth":0.81,"rownum":193,"id":"a65lpuarzt07","visits 2009":901,"lat":33.70907,"state":"CA","long":-117.950664},"type":"Feature","geometry":{"type":"Point","coordinates":[-117.950664,33.70907]}},{"properties":{"city":"Studio City","growth":0.23,"rownum":194,"id":"a65lpuipq297","visits 2009":895,"lat":34.150979,"state":"CA","long":-118.406323},"type":"Feature","geometry":{"type":"Point","coordinates":[-118.406323,34.150979]}},{"properties":{"city":"Reseda","growth":0.72,"rownum":195,"id":"a65lpuauqow0","visits 2009":885,"lat":34.19384,"state":"CA","long":-118.548059},"type":"Feature","geometry":{"type":"Point","coordinates":[-118.548059,34.19384]}},{"properties":{"city":"Rohnert Park","growth":0.61,"rownum":196,"id":"a65lpu9f7bx6","visits 2009":884,"lat":38.343688,"state":"CA","long":-122.712119},"type":"Feature","geometry":{"type":"Point","coordinates":[-122.712119,38.343688]}},{"properties":{"city":"South San Francisco","growth":0.75,"rownum":197,"id":"a65lpueaaf8c","visits 2009":883,"lat":37.65589,"state":"CA","long":-122.413374},"type":"Feature","geometry":{"type":"Point","coordinates":[-122.413374,37.65589]}},{"properties":{"city":"Brea","growth":0.43,"rownum":198,"id":"a65lpuna43dr","visits 2009":871,"lat":33.917421,"state":"CA","long":-117.888215},"type":"Feature","geometry":{"type":"Point","coordinates":[-117.888215,33.917421]}},{"properties":{"city":"La Habra","growth":0.46,"rownum":199,"id":"a65lpumoeggs","visits 2009":871,"lat":33.93187,"state":"CA","long":-117.944069},"type":"Feature","geometry":{"type":"Point","coordinates":[-117.944069,33.93187]}},{"properties":{"city":"Lodi","growth":0.73,"rownum":200,"id":"a65lpud8okot","visits 2009":857,"lat":38.130155,"state":"CA","long":-121.275969},"type":"Feature","geometry":{"type":"Point","coordinates":[-121.275969,38.130155]}},{"properties":{"city":"Pacoima","growth":0.12,"rownum":201,"id":"a65lpuncs972","visits 2009":842,"lat":34.26089,"state":"CA","long":-118.429249},"type":"Feature","geometry":{"type":"Point","coordinates":[-118.429249,34.26089]}},{"properties":{"city":"Glendora","growth":0.92,"rownum":202,"id":"a65lpunafi2h","visits 2009":825,"lat":34.136025,"state":"CA","long":-117.864829},"type":"Feature","geometry":{"type":"Point","coordinates":[-117.864829,34.136025]}},{"properties":{"city":"San Martin","growth":0.11,"rownum":203,"id":"a65lpumabnhr","visits 2009":821,"lat":37.084575,"state":"CA","long":-121.611359},"type":"Feature","geometry":{"type":"Point","coordinates":[-121.611359,37.084575]}},{"properties":{"city":"Upland","growth":1.0,"rownum":204,"id":"a65lpu93xxxs","visits 2009":820,"lat":34.099105,"state":"CA","long":-117.651014},"type":"Feature","geometry":{"type":"Point","coordinates":[-117.651014,34.099105]}},{"properties":{"city":"Villa Park","growth":0.37,"rownum":205,"id":"a65lpufe1xl7","visits 2009":819,"lat":33.814005,"state":"CA","long":-117.821229},"type":"Feature","geometry":{"type":"Point","coordinates":[-117.821229,33.814005]}},{"properties":{"city":"Windsor","growth":0.32,"rownum":206,"id":"a65lpues32pp","visits 2009":816,"lat":38.549095,"state":"CA","long":-122.812614},"type":"Feature","geometry":{"type":"Point","coordinates":[-122.812614,38.549095]}},{"properties":{"city":"Stevenson Ranch","growth":0.83,"rownum":207,"id":"a65lpuaduzh3","visits 2009":812,"lat":34.389825,"state":"CA","long":-118.578981},"type":"Feature","geometry":{"type":"Point","coordinates":[-118.578981,34.389825]}},{"properties":{"city":"Tracy","growth":0.43,"rownum":208,"id":"a65lpuedr2zr","visits 2009":812,"lat":37.73967,"state":"CA","long":-121.426374},"type":"Feature","geometry":{"type":"Point","coordinates":[-121.426374,37.73967]}},{"properties":{"city":"Hacienda Heights","growth":0.88,"rownum":209,"id":"a65lpujtbwpd","visits 2009":808,"lat":33.993639,"state":"CA","long":-117.970927},"type":"Feature","geometry":{"type":"Point","coordinates":[-117.970927,33.993639]}},{"properties":{"city":"Stanford","growth":0.7,"rownum":210,"id":"a65lpuju65tt","visits 2009":805,"lat":37.43137,"state":"CA","long":-122.168924},"type":"Feature","geometry":{"type":"Point","coordinates":[-122.168924,37.43137]}},{"properties":{"city":"Valencia","growth":0.46,"rownum":211,"id":"a65lpuhjv1ix","visits 2009":799,"lat":34.403655,"state":"CA","long":-118.552477},"type":"Feature","geometry":{"type":"Point","coordinates":[-118.552477,34.403655]}},{"properties":{"city":"Inglewood","growth":0.99,"rownum":212,"id":"a65lpua6tnh2","visits 2009":793,"lat":33.96178,"state":"CA","long":-118.356226},"type":"Feature","geometry":{"type":"Point","coordinates":[-118.356226,33.96178]}},{"properties":{"city":"Lemoore","growth":0.56,"rownum":213,"id":"a65lpu7n6xab","visits 2009":792,"lat":36.30101,"state":"CA","long":-119.786369},"type":"Feature","geometry":{"type":"Point","coordinates":[-119.786369,36.30101]}},{"properties":{"city":"El Cajon","growth":0.65,"rownum":214,"id":"a65lpuiojvct","visits 2009":788,"lat":32.79495,"state":"CA","long":-116.959469},"type":"Feature","geometry":{"type":"Point","coordinates":[-116.959469,32.79495]}},{"properties":{"city":"Redondo Beach","growth":0.28,"rownum":215,"id":"a65lpu7mr9hx","visits 2009":786,"lat":33.84445,"state":"CA","long":-118.387944},"type":"Feature","geometry":{"type":"Point","coordinates":[-118.387944,33.84445]}},{"properties":{"city":"Newport Beach","growth":0.71,"rownum":216,"id":"a65lpuchqwts","visits 2009":767,"lat":33.61655,"state":"CA","long":-117.930371},"type":"Feature","geometry":{"type":"Point","coordinates":[-117.930371,33.61655]}},{"properties":{"city":"Albany","growth":0.84,"rownum":217,"id":"a65lpu8lg5k0","visits 2009":745,"lat":37.887285,"state":"CA","long":-122.298004},"type":"Feature","geometry":{"type":"Point","coordinates":[-122.298004,37.887285]}},{"properties":{"city":"Beale Afb","growth":0.86,"rownum":218,"id":"a65lpu9mv30h","visits 2009":741,"lat":39.094325,"state":"CA","long":-121.337294},"type":"Feature","geometry":{"type":"Point","coordinates":[-121.337294,39.094325]}},{"properties":{"city":"Placentia","growth":0.56,"rownum":219,"id":"a65lpua1xg2v","visits 2009":741,"lat":33.871124,"state":"CA","long":-117.861401},"type":"Feature","geometry":{"type":"Point","coordinates":[-117.861401,33.871124]}},{"properties":{"city":"Encino","growth":0.71,"rownum":220,"id":"a65lpulg7o0s","visits 2009":737,"lat":34.164971,"state":"CA","long":-118.525809},"type":"Feature","geometry":{"type":"Point","coordinates":[-118.525809,34.164971]}},{"properties":{"city":"Brisbane","growth":0.29,"rownum":221,"id":"a65lpu8emy3q","visits 2009":736,"lat":37.686335,"state":"CA","long":-122.402419},"type":"Feature","geometry":{"type":"Point","coordinates":[-122.402419,37.686335]}},{"properties":{"city":"Azusa","growth":0.74,"rownum":222,"id":"a65lpumlv0n4","visits 2009":733,"lat":34.133605,"state":"CA","long":-117.905589},"type":"Feature","geometry":{"type":"Point","coordinates":[-117.905589,34.133605]}},{"properties":{"city":"Rancho Mirage","growth":0.79,"rownum":223,"id":"a65lpubjn3ft","visits 2009":721,"lat":33.770618,"state":"CA","long":-116.446766},"type":"Feature","geometry":{"type":"Point","coordinates":[-116.446766,33.770618]}},{"properties":{"city":"Mira Loma","growth":0.17,"rownum":224,"id":"a65lpufm943t","visits 2009":719,"lat":33.9927,"state":"CA","long":-117.518369},"type":"Feature","geometry":{"type":"Point","coordinates":[-117.518369,33.9927]}},{"properties":{"city":"Crockett","growth":0.1,"rownum":225,"id":"a65lpuiiyngn","visits 2009":714,"lat":38.055455,"state":"CA","long":-122.220969},"type":"Feature","geometry":{"type":"Point","coordinates":[-122.220969,38.055455]}},{"properties":{"city":"Newcastle","growth":0.89,"rownum":226,"id":"a65lpu9to1uq","visits 2009":704,"lat":38.872352,"state":"CA","long":-121.128085},"type":"Feature","geometry":{"type":"Point","coordinates":[-121.128085,38.872352]}},{"properties":{"city":"Sanger","growth":0.14,"rownum":227,"id":"a65lpujaqip1","visits 2009":704,"lat":36.708485,"state":"CA","long":-119.556349},"type":"Feature","geometry":{"type":"Point","coordinates":[-119.556349,36.708485]}},{"properties":{"city":"Indio","growth":0.83,"rownum":228,"id":"a65lpu83ym39","visits 2009":701,"lat":33.721702,"state":"CA","long":-116.219425},"type":"Feature","geometry":{"type":"Point","coordinates":[-116.219425,33.721702]}},{"properties":{"city":"Winnetka","growth":0.16,"rownum":229,"id":"a65lpucyo4c0","visits 2009":687,"lat":34.202305,"state":"CA","long":-118.570979},"type":"Feature","geometry":{"type":"Point","coordinates":[-118.570979,34.202305]}},{"properties":{"city":"Artesia","growth":0.76,"rownum":230,"id":"a65lpun15eal","visits 2009":680,"lat":33.860425,"state":"CA","long":-118.079679},"type":"Feature","geometry":{"type":"Point","coordinates":[-118.079679,33.860425]}},{"properties":{"city":"Canyon Country","growth":0.52,"rownum":231,"id":"a65lpub92heq","visits 2009":679,"lat":34.418843,"state":"CA","long":-118.439539},"type":"Feature","geometry":{"type":"Point","coordinates":[-118.439539,34.418843]}},{"properties":{"city":"Petaluma","growth":0.59,"rownum":232,"id":"a65lpugs45dv","visits 2009":670,"lat":38.232471,"state":"CA","long":-122.644448},"type":"Feature","geometry":{"type":"Point","coordinates":[-122.644448,38.232471]}},{"properties":{"city":"San Lorenzo","growth":0.82,"rownum":233,"id":"a65lpuilyic8","visits 2009":667,"lat":37.68049,"state":"CA","long":-122.127464},"type":"Feature","geometry":{"type":"Point","coordinates":[-122.127464,37.68049]}},{"properties":{"city":"Lafayette","growth":0.99,"rownum":234,"id":"a65lpubeptbd","visits 2009":666,"lat":37.890732,"state":"CA","long":-122.128111},"type":"Feature","geometry":{"type":"Point","coordinates":[-122.128111,37.890732]}},{"properties":{"city":"Orange County","growth":0.46,"rownum":235,"id":"a65lpu7uq5hf","visits 2009":666,"lat":33.66666,"state":"CA","long":-117.765121},"type":"Feature","geometry":{"type":"Point","coordinates":[-117.765121,33.66666]}},{"properties":{"city":"Lomita","growth":0.38,"rownum":236,"id":"a65lpucjec7i","visits 2009":651,"lat":33.80525,"state":"CA","long":-118.319899},"type":"Feature","geometry":{"type":"Point","coordinates":[-118.319899,33.80525]}},{"properties":{"city":"Sherman Oaks","growth":0.49,"rownum":237,"id":"a65lpu9bp1kx","visits 2009":650,"lat":34.15112,"state":"CA","long":-118.444584},"type":"Feature","geometry":{"type":"Point","coordinates":[-118.444584,34.15112]}},{"properties":{"city":"Baldwin Park","growth":0.48,"rownum":238,"id":"a65lpuh0d8bv","visits 2009":640,"lat":34.085189,"state":"CA","long":-117.960296},"type":"Feature","geometry":{"type":"Point","coordinates":[-117.960296,34.085189]}},{"properties":{"city":"Lompoc","growth":0.32,"rownum":239,"id":"a65lpu92eejo","visits 2009":627,"lat":34.639805,"state":"CA","long":-120.457879},"type":"Feature","geometry":{"type":"Point","coordinates":[-120.457879,34.639805]}},{"properties":{"city":"Farmersville","growth":0.35,"rownum":240,"id":"a65lpue3xrib","visits 2009":626,"lat":36.29922,"state":"CA","long":-119.207174},"type":"Feature","geometry":{"type":"Point","coordinates":[-119.207174,36.29922]}},{"properties":{"city":"Nevada City","growth":0.55,"rownum":241,"id":"a65lpuhrj9s7","visits 2009":626,"lat":39.262716,"state":"CA","long":-121.019149},"type":"Feature","geometry":{"type":"Point","coordinates":[-121.019149,39.262716]}},{"properties":{"city":"Barstow","growth":0.68,"rownum":242,"id":"a65lpujzewcp","visits 2009":624,"lat":34.892965,"state":"CA","long":-117.025827},"type":"Feature","geometry":{"type":"Point","coordinates":[-117.025827,34.892965]}},{"properties":{"city":"Laguna Hills","growth":0.93,"rownum":243,"id":"a65lpue17s3b","visits 2009":622,"lat":33.601723,"state":"CA","long":-117.690361},"type":"Feature","geometry":{"type":"Point","coordinates":[-117.690361,33.601723]}},{"properties":{"city":"Los Altos","growth":0.96,"rownum":244,"id":"a65lpu9bolmt","visits 2009":616,"lat":37.382315,"state":"CA","long":-122.114159},"type":"Feature","geometry":{"type":"Point","coordinates":[-122.114159,37.382315]}},{"properties":{"city":"Palos Verdes Peninsula","growth":0.88,"rownum":245,"id":"a65lpudc3gj0","visits 2009":614,"lat":33.801715,"state":"CA","long":-118.384744},"type":"Feature","geometry":{"type":"Point","coordinates":[-118.384744,33.801715]}},{"properties":{"city":"Patterson","growth":0.19,"rownum":246,"id":"a65lpuhn3s0q","visits 2009":612,"lat":37.47266,"state":"CA","long":-121.129359},"type":"Feature","geometry":{"type":"Point","coordinates":[-121.129359,37.47266]}},{"properties":{"city":"Beaumont","growth":0.49,"rownum":247,"id":"a65lpudjhhbi","visits 2009":611,"lat":33.929375,"state":"CA","long":-116.975059},"type":"Feature","geometry":{"type":"Point","coordinates":[-116.975059,33.929375]}},{"properties":{"city":"Cardiff by the Sea","growth":0.9,"rownum":248,"id":"a65lpu9gmpv3","visits 2009":611,"lat":33.031984,"state":"CA","long":-117.287735},"type":"Feature","geometry":{"type":"Point","coordinates":[-117.287735,33.031984]}},{"properties":{"city":"Travis Afb","growth":0.43,"rownum":249,"id":"a65lpu8j22q9","visits 2009":607,"lat":38.271235,"state":"CA","long":-121.933033},"type":"Feature","geometry":{"type":"Point","coordinates":[-121.933033,38.271235]}},{"properties":{"city":"Cypress","growth":0.6,"rownum":250,"id":"a65lpuapishc","visits 2009":606,"lat":33.824345,"state":"CA","long":-118.037489},"type":"Feature","geometry":{"type":"Point","coordinates":[-118.037489,33.824345]}},{"properties":{"city":"North Highlands","growth":0.75,"rownum":251,"id":"a65lpujvhq9x","visits 2009":604,"lat":38.690308,"state":"CA","long":-121.380859},"type":"Feature","geometry":{"type":"Point","coordinates":[-121.380859,38.690308]}},{"properties":{"city":"Redlands","growth":0.41,"rownum":252,"id":"a65lpugz4tik","visits 2009":603,"lat":34.055282,"state":"CA","long":-117.18258},"type":"Feature","geometry":{"type":"Point","coordinates":[-117.18258,34.055282]}},{"properties":{"city":"Kerman","growth":0.54,"rownum":253,"id":"a65lpuddpe78","visits 2009":600,"lat":36.72856,"state":"CA","long":-120.060269},"type":"Feature","geometry":{"type":"Point","coordinates":[-120.060269,36.72856]}},{"properties":{"city":"Rowland Heights","growth":0.88,"rownum":254,"id":"a65lpu7g378x","visits 2009":595,"lat":33.988445,"state":"CA","long":-117.904794},"type":"Feature","geometry":{"type":"Point","coordinates":[-117.904794,33.988445]}},{"properties":{"city":"Yorba Linda","growth":0.59,"rownum":255,"id":"a65lpuk23pv0","visits 2009":566,"lat":33.89117,"state":"CA","long":-117.824319},"type":"Feature","geometry":{"type":"Point","coordinates":[-117.824319,33.89117]}},{"properties":{"city":"Yucca Valley","growth":0.87,"rownum":256,"id":"a65lpu9oejk0","visits 2009":562,"lat":34.123164,"state":"CA","long":-116.415044},"type":"Feature","geometry":{"type":"Point","coordinates":[-116.415044,34.123164]}},{"properties":{"city":"Fallbrook","growth":0.68,"rownum":257,"id":"a65lpul1pkf9","visits 2009":561,"lat":33.384659,"state":"CA","long":-117.253124},"type":"Feature","geometry":{"type":"Point","coordinates":[-117.253124,33.384659]}},{"properties":{"city":"Goleta","growth":0.51,"rownum":258,"id":"a65lpuhal86x","visits 2009":559,"lat":34.435709,"state":"CA","long":-119.823765},"type":"Feature","geometry":{"type":"Point","coordinates":[-119.823765,34.435709]}},{"properties":{"city":"Brawley","growth":0.3,"rownum":259,"id":"a65lpudtm3hd","visits 2009":545,"lat":32.97863,"state":"CA","long":-115.534609},"type":"Feature","geometry":{"type":"Point","coordinates":[-115.534609,32.97863]}},{"properties":{"city":"Corte Madera","growth":0.57,"rownum":260,"id":"a65lpun7xa5z","visits 2009":545,"lat":37.925545,"state":"CA","long":-122.527224},"type":"Feature","geometry":{"type":"Point","coordinates":[-122.527224,37.925545]}},{"properties":{"city":"Pittsburg","growth":0.53,"rownum":261,"id":"a65lpufi0z4s","visits 2009":542,"lat":38.01905,"state":"CA","long":-121.888669},"type":"Feature","geometry":{"type":"Point","coordinates":[-121.888669,38.01905]}},{"properties":{"city":"La Quinta","growth":0.35,"rownum":262,"id":"a65lpuf7sjhh","visits 2009":536,"lat":33.67814,"state":"CA","long":-116.297229},"type":"Feature","geometry":{"type":"Point","coordinates":[-116.297229,33.67814]}},{"properties":{"city":"Palm Desert","growth":0.6,"rownum":263,"id":"a65lpun9x5hk","visits 2009":536,"lat":33.728913,"state":"CA","long":-116.380319},"type":"Feature","geometry":{"type":"Point","coordinates":[-116.380319,33.728913]}},{"properties":{"city":"o Neals","growth":1.0,"rownum":264,"id":"a65lpuionm6v","visits 2009":534,"lat":37.162033,"state":"CA","long":-119.64239},"type":"Feature","geometry":{"type":"Point","coordinates":[-119.64239,37.162033]}},{"properties":{"city":"Atascadero","growth":0.56,"rownum":265,"id":"a65lpuguefb3","visits 2009":530,"lat":35.48871,"state":"CA","long":-120.669054},"type":"Feature","geometry":{"type":"Point","coordinates":[-120.669054,35.48871]}},{"properties":{"city":"Castro Valley","growth":0.26,"rownum":266,"id":"a65lpubad04z","visits 2009":530,"lat":37.694496,"state":"CA","long":-122.085897},"type":"Feature","geometry":{"type":"Point","coordinates":[-122.085897,37.694496]}},{"properties":{"city":"Lincoln","growth":0.41,"rownum":267,"id":"a65lpuj43eku","visits 2009":527,"lat":38.89116,"state":"CA","long":-121.292809},"type":"Feature","geometry":{"type":"Point","coordinates":[-121.292809,38.89116]}},{"properties":{"city":"Antelope","growth":0.43,"rownum":268,"id":"a65lpu7pemvb","visits 2009":526,"lat":38.711999,"state":"CA","long":-121.364354},"type":"Feature","geometry":{"type":"Point","coordinates":[-121.364354,38.711999]}},{"properties":{"city":"Susanville","growth":0.99,"rownum":269,"id":"a65lpu9wuldt","visits 2009":525,"lat":40.415665,"state":"CA","long":-120.649724},"type":"Feature","geometry":{"type":"Point","coordinates":[-120.649724,40.415665]}},{"properties":{"city":"Seal Beach","growth":0.84,"rownum":270,"id":"a65lpu9zv3cm","visits 2009":524,"lat":33.742565,"state":"CA","long":-118.105169},"type":"Feature","geometry":{"type":"Point","coordinates":[-118.105169,33.742565]}},{"properties":{"city":"Placerville","growth":0.63,"rownum":271,"id":"a65lpufb0pz7","visits 2009":513,"lat":38.727815,"state":"CA","long":-120.803584},"type":"Feature","geometry":{"type":"Point","coordinates":[-120.803584,38.727815]}},{"properties":{"city":"San Jacinto","growth":0.29,"rownum":272,"id":"a65lpu9y8alu","visits 2009":504,"lat":33.783885,"state":"CA","long":-116.957189},"type":"Feature","geometry":{"type":"Point","coordinates":[-116.957189,33.783885]}},{"properties":{"city":"Montara","growth":0.96,"rownum":273,"id":"a65lpubxr4aq","visits 2009":501,"lat":37.542325,"state":"CA","long":-122.515024},"type":"Feature","geometry":{"type":"Point","coordinates":[-122.515024,37.542325]}},{"properties":{"city":"Arcadia","growth":0.72,"rownum":274,"id":"a65lpud88jtj","visits 2009":487,"lat":34.136165,"state":"CA","long":-118.038854},"type":"Feature","geometry":{"type":"Point","coordinates":[-118.038854,34.136165]}},{"properties":{"city":"Calexico","growth":0.72,"rownum":275,"id":"a65lpucyl0di","visits 2009":474,"lat":32.678645,"state":"CA","long":-115.498769},"type":"Feature","geometry":{"type":"Point","coordinates":[-115.498769,32.678645]}},{"properties":{"city":"San Gabriel","growth":0.46,"rownum":276,"id":"a65lpunbqlsc","visits 2009":471,"lat":34.097083,"state":"CA","long":-118.108248},"type":"Feature","geometry":{"type":"Point","coordinates":[-118.108248,34.097083]}},{"properties":{"city":"National City","growth":0.16,"rownum":277,"id":"a65lpuhwps7n","visits 2009":466,"lat":32.67194,"state":"CA","long":-117.105419},"type":"Feature","geometry":{"type":"Point","coordinates":[-117.105419,32.67194]}},{"properties":{"city":"Sunland","growth":0.34,"rownum":278,"id":"a65lpui8u6xd","visits 2009":466,"lat":34.25969,"state":"CA","long":-118.314429},"type":"Feature","geometry":{"type":"Point","coordinates":[-118.314429,34.25969]}},{"properties":{"city":"Redwood City","growth":0.93,"rownum":279,"id":"a65lpuc62hke","visits 2009":461,"lat":37.484175,"state":"CA","long":-122.227102},"type":"Feature","geometry":{"type":"Point","coordinates":[-122.227102,37.484175]}},{"properties":{"city":"San Rafael","growth":0.19,"rownum":280,"id":"a65lpufdnt68","visits 2009":453,"lat":37.97457,"state":"CA","long":-122.532474},"type":"Feature","geometry":{"type":"Point","coordinates":[-122.532474,37.97457]}},{"properties":{"city":"Marysville","growth":0.25,"rownum":281,"id":"a65lpul3cs3a","visits 2009":452,"lat":39.144961,"state":"CA","long":-121.587335},"type":"Feature","geometry":{"type":"Point","coordinates":[-121.587335,39.144961]}},{"properties":{"city":"Palm Springs","growth":0.79,"rownum":282,"id":"a65lpuk9xlim","visits 2009":450,"lat":33.823215,"state":"CA","long":-116.512114},"type":"Feature","geometry":{"type":"Point","coordinates":[-116.512114,33.823215]}},{"properties":{"city":"Highland","growth":0.56,"rownum":283,"id":"a65lpucdthqv","visits 2009":449,"lat":34.121255,"state":"CA","long":-117.216094},"type":"Feature","geometry":{"type":"Point","coordinates":[-117.216094,34.121255]}},{"properties":{"city":"El Cerrito","growth":0.79,"rownum":284,"id":"a65lpui37lep","visits 2009":447,"lat":37.91559,"state":"CA","long":-122.311549},"type":"Feature","geometry":{"type":"Point","coordinates":[-122.311549,37.91559]}},{"properties":{"city":"Panorama City","growth":0.13,"rownum":285,"id":"a65lpuli3kc5","visits 2009":440,"lat":34.223045,"state":"CA","long":-118.448754},"type":"Feature","geometry":{"type":"Point","coordinates":[-118.448754,34.223045]}},{"properties":{"city":"Calabasas","growth":0.15,"rownum":286,"id":"a65lpudltt1t","visits 2009":432,"lat":34.152267,"state":"CA","long":-118.693801},"type":"Feature","geometry":{"type":"Point","coordinates":[-118.693801,34.152267]}},{"properties":{"city":"Compton","growth":0.6,"rownum":287,"id":"a65lpuf44m2l","visits 2009":416,"lat":33.89413,"state":"CA","long":-118.224249},"type":"Feature","geometry":{"type":"Point","coordinates":[-118.224249,33.89413]}},{"properties":{"city":"Eureka","growth":0.46,"rownum":288,"id":"a65lpuc2658o","visits 2009":416,"lat":40.803255,"state":"CA","long":-124.159554},"type":"Feature","geometry":{"type":"Point","coordinates":[-124.159554,40.803255]}},{"properties":{"city":"Granada Hills","growth":0.92,"rownum":289,"id":"a65lpuet5mci","visits 2009":415,"lat":34.26394,"state":"CA","long":-118.497943},"type":"Feature","geometry":{"type":"Point","coordinates":[-118.497943,34.26394]}},{"properties":{"city":"Claremont","growth":0.33,"rownum":290,"id":"a65lpudt8h9f","visits 2009":412,"lat":34.0961,"state":"CA","long":-117.716404},"type":"Feature","geometry":{"type":"Point","coordinates":[-117.716404,34.0961]}},{"properties":{"city":"Corona Del Mar","growth":0.56,"rownum":291,"id":"a65lpui9gxn4","visits 2009":405,"lat":33.595387,"state":"CA","long":-117.869788},"type":"Feature","geometry":{"type":"Point","coordinates":[-117.869788,33.595387]}},{"properties":{"city":"Rescue","growth":0.56,"rownum":292,"id":"a65lpu948rcr","visits 2009":389,"lat":38.71168,"state":"CA","long":-120.951235},"type":"Feature","geometry":{"type":"Point","coordinates":[-120.951235,38.71168]}},{"properties":{"city":"Ramona","growth":0.15,"rownum":293,"id":"a65lpunq4q2c","visits 2009":383,"lat":33.04192,"state":"CA","long":-116.868769},"type":"Feature","geometry":{"type":"Point","coordinates":[-116.868769,33.04192]}},{"properties":{"city":"North Hills","growth":0.96,"rownum":294,"id":"a65lpuisgtx0","visits 2009":375,"lat":34.23563,"state":"CA","long":-118.484554},"type":"Feature","geometry":{"type":"Point","coordinates":[-118.484554,34.23563]}},{"properties":{"city":"City of Industry","growth":0.99,"rownum":295,"id":"a65lpum5y629","visits 2009":360,"lat":34.023099,"state":"CA","long":-117.955794},"type":"Feature","geometry":{"type":"Point","coordinates":[-117.955794,34.023099]}},{"properties":{"city":"Valley Center","growth":0.43,"rownum":296,"id":"a65lpuc0wc26","visits 2009":357,"lat":33.22227,"state":"CA","long":-117.039187},"type":"Feature","geometry":{"type":"Point","coordinates":[-117.039187,33.22227]}},{"properties":{"city":"Fulton","growth":0.28,"rownum":297,"id":"a65lpuj3sf4o","visits 2009":356,"lat":38.49609,"state":"CA","long":-122.770029},"type":"Feature","geometry":{"type":"Point","coordinates":[-122.770029,38.49609]}},{"properties":{"city":"Tarzana","growth":0.69,"rownum":298,"id":"a65lpueqxfnx","visits 2009":356,"lat":34.175001,"state":"CA","long":-118.550103},"type":"Feature","geometry":{"type":"Point","coordinates":[-118.550103,34.175001]}},{"properties":{"city":"Grover Beach","growth":0.68,"rownum":299,"id":"a65lpu8mpbpw","visits 2009":355,"lat":35.12104,"state":"CA","long":-120.621514},"type":"Feature","geometry":{"type":"Point","coordinates":[-120.621514,35.12104]}},{"properties":{"city":"La Palma","growth":0.54,"rownum":300,"id":"a65lpuc24tqy","visits 2009":354,"lat":33.848385,"state":"CA","long":-118.037284},"type":"Feature","geometry":{"type":"Point","coordinates":[-118.037284,33.848385]}},{"properties":{"city":"Manhattan Beach","growth":0.58,"rownum":301,"id":"a65lpum9spmg","visits 2009":354,"lat":33.887157,"state":"CA","long":-118.410843},"type":"Feature","geometry":{"type":"Point","coordinates":[-118.410843,33.887157]}},{"properties":{"city":"Harbor City","growth":0.85,"rownum":302,"id":"a65lpuit10ri","visits 2009":351,"lat":33.79781,"state":"CA","long":-118.301939},"type":"Feature","geometry":{"type":"Point","coordinates":[-118.301939,33.79781]}},{"properties":{"city":"Los Banos","growth":0.27,"rownum":303,"id":"a65lpujv3v1u","visits 2009":350,"lat":37.061395,"state":"CA","long":-120.847564},"type":"Feature","geometry":{"type":"Point","coordinates":[-120.847564,37.061395]}},{"properties":{"city":"Tehachapi","growth":0.78,"rownum":304,"id":"a65lpumytf0o","visits 2009":341,"lat":35.132245,"state":"CA","long":-118.449114},"type":"Feature","geometry":{"type":"Point","coordinates":[-118.449114,35.132245]}},{"properties":{"city":"Santa Clarita","growth":0.41,"rownum":305,"id":"a65lpuedwp74","visits 2009":329,"lat":34.413448,"state":"CA","long":-118.551875},"type":"Feature","geometry":{"type":"Point","coordinates":[-118.551875,34.413448]}},{"properties":{"city":"El Monte","growth":0.59,"rownum":306,"id":"a65lpufq4jtd","visits 2009":327,"lat":34.07064,"state":"CA","long":-118.030369},"type":"Feature","geometry":{"type":"Point","coordinates":[-118.030369,34.07064]}},{"properties":{"city":"Dana Point","growth":0.87,"rownum":307,"id":"a65lpua74yrq","visits 2009":323,"lat":33.479985,"state":"CA","long":-117.697649},"type":"Feature","geometry":{"type":"Point","coordinates":[-117.697649,33.479985]}},{"properties":{"city":"Colton","growth":0.44,"rownum":308,"id":"a65lpugkjy50","visits 2009":319,"lat":34.071735,"state":"CA","long":-117.323309},"type":"Feature","geometry":{"type":"Point","coordinates":[-117.323309,34.071735]}},{"properties":{"city":"Ladera Ranch","growth":0.29,"rownum":309,"id":"a65lpuf8h5g3","visits 2009":315,"lat":33.570467,"state":"CA","long":-117.639275},"type":"Feature","geometry":{"type":"Point","coordinates":[-117.639275,33.570467]}},{"properties":{"city":"Parlier","growth":0.83,"rownum":310,"id":"a65lpuaokhl3","visits 2009":314,"lat":36.613825,"state":"CA","long":-119.547751},"type":"Feature","geometry":{"type":"Point","coordinates":[-119.547751,36.613825]}},{"properties":{"city":"Laguna Niguel","growth":0.21,"rownum":311,"id":"a65lpua8l48q","visits 2009":312,"lat":33.559414,"state":"CA","long":-117.70837},"type":"Feature","geometry":{"type":"Point","coordinates":[-117.70837,33.559414]}},{"properties":{"city":"Ceres","growth":0.17,"rownum":312,"id":"a65lpuemzmuw","visits 2009":310,"lat":37.594785,"state":"CA","long":-120.956219},"type":"Feature","geometry":{"type":"Point","coordinates":[-120.956219,37.594785]}},{"properties":{"city":"Foothill Ranch","growth":0.47,"rownum":313,"id":"a65lpunp2wpc","visits 2009":307,"lat":33.679062,"state":"CA","long":-117.663677},"type":"Feature","geometry":{"type":"Point","coordinates":[-117.663677,33.679062]}},{"properties":{"city":"Atwater","growth":0.15,"rownum":314,"id":"a65lpumpgkes","visits 2009":305,"lat":37.345875,"state":"CA","long":-120.608809},"type":"Feature","geometry":{"type":"Point","coordinates":[-120.608809,37.345875]}},{"properties":{"city":"South El Monte","growth":0.47,"rownum":315,"id":"a65lpu7yev2y","visits 2009":303,"lat":34.04568,"state":"CA","long":-118.044184},"type":"Feature","geometry":{"type":"Point","coordinates":[-118.044184,34.04568]}},{"properties":{"city":"Big Bear Lake","growth":0.12,"rownum":316,"id":"a65lpu95mnma","visits 2009":302,"lat":34.238572,"state":"CA","long":-116.935526},"type":"Feature","geometry":{"type":"Point","coordinates":[-116.935526,34.238572]}},{"properties":{"city":"Delano","growth":0.68,"rownum":317,"id":"a65lpunqnfl3","visits 2009":297,"lat":35.770465,"state":"CA","long":-119.245284},"type":"Feature","geometry":{"type":"Point","coordinates":[-119.245284,35.770465]}},{"properties":{"city":"Oakley","growth":0.32,"rownum":318,"id":"a65lpuli6eft","visits 2009":295,"lat":37.99638,"state":"CA","long":-121.713374},"type":"Feature","geometry":{"type":"Point","coordinates":[-121.713374,37.99638]}},{"properties":{"city":"Galt","growth":0.21,"rownum":319,"id":"a65lpufwd2i5","visits 2009":293,"lat":38.252745,"state":"CA","long":-121.300814},"type":"Feature","geometry":{"type":"Point","coordinates":[-121.300814,38.252745]}},{"properties":{"city":"Canyon","growth":0.86,"rownum":320,"id":"a65lpu8qgr0l","visits 2009":291,"lat":37.829112,"state":"CA","long":-122.165361},"type":"Feature","geometry":{"type":"Point","coordinates":[-122.165361,37.829112]}},{"properties":{"city":"Tulare","growth":0.23,"rownum":321,"id":"a65lpu818fpg","visits 2009":291,"lat":36.206495,"state":"CA","long":-119.343049},"type":"Feature","geometry":{"type":"Point","coordinates":[-119.343049,36.206495]}},{"properties":{"city":"Crescent City","growth":0.24,"rownum":322,"id":"a65lpuclhqpm","visits 2009":285,"lat":41.752815,"state":"CA","long":-124.200459},"type":"Feature","geometry":{"type":"Point","coordinates":[-124.200459,41.752815]}},{"properties":{"city":"Moorpark","growth":0.39,"rownum":323,"id":"a65lpuhca8mu","visits 2009":284,"lat":34.286901,"state":"CA","long":-118.882139},"type":"Feature","geometry":{"type":"Point","coordinates":[-118.882139,34.286901]}},{"properties":{"city":"Calimesa","growth":0.91,"rownum":324,"id":"a65lpudzrsjh","visits 2009":276,"lat":34.00356,"state":"CA","long":-117.058424},"type":"Feature","geometry":{"type":"Point","coordinates":[-117.058424,34.00356]}},{"properties":{"city":"Bell Gardens","growth":0.25,"rownum":325,"id":"a65lpu8aeoh5","visits 2009":274,"lat":33.96893,"state":"CA","long":-118.149594},"type":"Feature","geometry":{"type":"Point","coordinates":[-118.149594,33.96893]}},{"properties":{"city":"Altadena","growth":0.33,"rownum":326,"id":"a65lpuddol6n","visits 2009":272,"lat":34.185405,"state":"CA","long":-118.131529},"type":"Feature","geometry":{"type":"Point","coordinates":[-118.131529,34.185405]}},{"properties":{"city":"Playa Del Rey","growth":0.91,"rownum":327,"id":"a65lpuc6x0cd","visits 2009":269,"lat":33.9591,"state":"CA","long":-118.448174},"type":"Feature","geometry":{"type":"Point","coordinates":[-118.448174,33.9591]}},{"properties":{"city":"San Carlos","growth":0.17,"rownum":328,"id":"a65lpueilutm","visits 2009":268,"lat":37.504505,"state":"CA","long":-122.262289},"type":"Feature","geometry":{"type":"Point","coordinates":[-122.262289,37.504505]}},{"properties":{"city":"Porterville","growth":0.61,"rownum":329,"id":"a65lpufizrjk","visits 2009":267,"lat":36.070965,"state":"CA","long":-119.016189},"type":"Feature","geometry":{"type":"Point","coordinates":[-119.016189,36.070965]}},{"properties":{"city":"Spring Valley","growth":0.8,"rownum":330,"id":"a65lpub36fny","visits 2009":264,"lat":32.739494,"state":"CA","long":-116.995631},"type":"Feature","geometry":{"type":"Point","coordinates":[-116.995631,32.739494]}},{"properties":{"city":"Burney","growth":0.14,"rownum":331,"id":"a65lpu97zgc8","visits 2009":263,"lat":40.882585,"state":"CA","long":-121.660939},"type":"Feature","geometry":{"type":"Point","coordinates":[-121.660939,40.882585]}},{"properties":{"city":"Monrovia","growth":0.57,"rownum":332,"id":"a65lpuf87nq3","visits 2009":259,"lat":34.147555,"state":"CA","long":-117.998779},"type":"Feature","geometry":{"type":"Point","coordinates":[-117.998779,34.147555]}},{"properties":{"city":"Sun Valley","growth":0.63,"rownum":333,"id":"a65lpunn70rd","visits 2009":258,"lat":34.2148,"state":"CA","long":-118.370339},"type":"Feature","geometry":{"type":"Point","coordinates":[-118.370339,34.2148]}},{"properties":{"city":"Pine Grove","growth":0.68,"rownum":334,"id":"a65lpulh2a64","visits 2009":253,"lat":38.413415,"state":"CA","long":-120.659349},"type":"Feature","geometry":{"type":"Point","coordinates":[-120.659349,38.413415]}},{"properties":{"city":"Clearlake","growth":0.74,"rownum":335,"id":"a65lpu9zy6cj","visits 2009":251,"lat":38.950685,"state":"CA","long":-122.622649},"type":"Feature","geometry":{"type":"Point","coordinates":[-122.622649,38.950685]}},{"properties":{"city":"Menlo Park","growth":0.78,"rownum":336,"id":"a65lpun12bpr","visits 2009":247,"lat":37.454697,"state":"CA","long":-122.177909},"type":"Feature","geometry":{"type":"Point","coordinates":[-122.177909,37.454697]}},{"properties":{"city":"Coronado","growth":0.45,"rownum":337,"id":"a65lpulddul1","visits 2009":245,"lat":32.676235,"state":"CA","long":-117.170959},"type":"Feature","geometry":{"type":"Point","coordinates":[-117.170959,32.676235]}},{"properties":{"city":"Woodland","growth":0.13,"rownum":338,"id":"a65lpua56pk0","visits 2009":245,"lat":38.678435,"state":"CA","long":-121.773124},"type":"Feature","geometry":{"type":"Point","coordinates":[-121.773124,38.678435]}},{"properties":{"city":"Ventura","growth":1.0,"rownum":339,"id":"a65lpuarypr9","visits 2009":241,"lat":34.28084,"state":"CA","long":-119.292324},"type":"Feature","geometry":{"type":"Point","coordinates":[-119.292324,34.28084]}},{"properties":{"city":"Valley Springs","growth":0.72,"rownum":340,"id":"a65lpu9rwrft","visits 2009":236,"lat":38.191096,"state":"CA","long":-120.82937},"type":"Feature","geometry":{"type":"Point","coordinates":[-120.82937,38.191096]}},{"properties":{"city":"Banning","growth":0.24,"rownum":341,"id":"a65lpu9jxp5a","visits 2009":232,"lat":33.925445,"state":"CA","long":-116.875649},"type":"Feature","geometry":{"type":"Point","coordinates":[-116.875649,33.925445]}},{"properties":{"city":"San Bruno","growth":0.83,"rownum":342,"id":"a65lpuelkek1","visits 2009":232,"lat":37.624421,"state":"CA","long":-122.413798},"type":"Feature","geometry":{"type":"Point","coordinates":[-122.413798,37.624421]}},{"properties":{"city":"Duarte","growth":0.19,"rownum":343,"id":"a65lpuimb1vz","visits 2009":231,"lat":34.139594,"state":"CA","long":-117.971494},"type":"Feature","geometry":{"type":"Point","coordinates":[-117.971494,34.139594]}},{"properties":{"city":"Coachella","growth":0.96,"rownum":344,"id":"a65lpu7drv7m","visits 2009":230,"lat":33.679095,"state":"CA","long":-116.175949},"type":"Feature","geometry":{"type":"Point","coordinates":[-116.175949,33.679095]}},{"properties":{"city":"Agoura Hills","growth":0.91,"rownum":345,"id":"a65lpucxb5ft","visits 2009":229,"lat":34.145843,"state":"CA","long":-118.777583},"type":"Feature","geometry":{"type":"Point","coordinates":[-118.777583,34.145843]}},{"properties":{"city":"Alpine","growth":0.79,"rownum":346,"id":"a65lpulvlggc","visits 2009":228,"lat":32.834664,"state":"CA","long":-116.752504},"type":"Feature","geometry":{"type":"Point","coordinates":[-116.752504,32.834664]}},{"properties":{"city":"San Fernando","growth":0.52,"rownum":347,"id":"a65lpuds8jqq","visits 2009":227,"lat":34.28389,"state":"CA","long":-118.438674},"type":"Feature","geometry":{"type":"Point","coordinates":[-118.438674,34.28389]}},{"properties":{"city":"Chatsworth","growth":0.82,"rownum":348,"id":"a65lpuaqrkls","visits 2009":226,"lat":34.257245,"state":"CA","long":-118.591844},"type":"Feature","geometry":{"type":"Point","coordinates":[-118.591844,34.257245]}},{"properties":{"city":"Ukiah","growth":0.94,"rownum":349,"id":"a65lpudg4jwn","visits 2009":224,"lat":39.150923,"state":"CA","long":-123.207829},"type":"Feature","geometry":{"type":"Point","coordinates":[-123.207829,39.150923]}},{"properties":{"city":"Marina","growth":0.71,"rownum":350,"id":"a65lpubqqo4d","visits 2009":221,"lat":36.68162,"state":"CA","long":-121.802309},"type":"Feature","geometry":{"type":"Point","coordinates":[-121.802309,36.68162]}},{"properties":{"city":"Rough And Ready","growth":0.53,"rownum":351,"id":"a65lpuhfuh4s","visits 2009":221,"lat":39.229887,"state":"CA","long":-121.136834},"type":"Feature","geometry":{"type":"Point","coordinates":[-121.136834,39.229887]}},{"properties":{"city":"Shafter","growth":0.65,"rownum":352,"id":"a65lpudr26vn","visits 2009":218,"lat":35.504725,"state":"CA","long":-119.276719},"type":"Feature","geometry":{"type":"Point","coordinates":[-119.276719,35.504725]}},{"properties":{"city":"Copperopolis","growth":0.92,"rownum":353,"id":"a65lpumnp801","visits 2009":211,"lat":37.982447,"state":"CA","long":-120.64538},"type":"Feature","geometry":{"type":"Point","coordinates":[-120.64538,37.982447]}},{"properties":{"city":"West Hills","growth":0.51,"rownum":354,"id":"a65lpumxxqh6","visits 2009":208,"lat":34.199436,"state":"CA","long":-118.630465},"type":"Feature","geometry":{"type":"Point","coordinates":[-118.630465,34.199436]}},{"properties":{"city":"Cupertino","growth":0.15,"rownum":355,"id":"a65lpu9zoj00","visits 2009":203,"lat":37.31884,"state":"CA","long":-122.029244},"type":"Feature","geometry":{"type":"Point","coordinates":[-122.029244,37.31884]}},{"properties":{"city":"Truckee","growth":0.12,"rownum":356,"id":"a65lpufgw83k","visits 2009":200,"lat":39.326125,"state":"CA","long":-120.212149},"type":"Feature","geometry":{"type":"Point","coordinates":[-120.212149,39.326125]}},{"properties":{"city":"Ft Irwin","growth":0.69,"rownum":357,"id":"a65lpuen7dmo","visits 2009":199,"lat":35.158164,"state":"CA","long":-116.76394},"type":"Feature","geometry":{"type":"Point","coordinates":[-116.76394,35.158164]}},{"properties":{"city":"Sonora","growth":0.21,"rownum":358,"id":"a65lpuca1s0j","visits 2009":197,"lat":37.98329,"state":"CA","long":-120.382174},"type":"Feature","geometry":{"type":"Point","coordinates":[-120.382174,37.98329]}},{"properties":{"city":"Burlingame","growth":0.39,"rownum":359,"id":"a65lpuc3a7vt","visits 2009":196,"lat":37.580157,"state":"CA","long":-122.350436},"type":"Feature","geometry":{"type":"Point","coordinates":[-122.350436,37.580157]}},{"properties":{"city":"Sonoma","growth":0.59,"rownum":360,"id":"a65lpu8fcju3","visits 2009":195,"lat":38.291877,"state":"CA","long":-122.457245},"type":"Feature","geometry":{"type":"Point","coordinates":[-122.457245,38.291877]}},{"properties":{"city":"Sunset Beach","growth":0.89,"rownum":361,"id":"a65lpunjhq6v","visits 2009":194,"lat":33.71775,"state":"CA","long":-118.070629},"type":"Feature","geometry":{"type":"Point","coordinates":[-118.070629,33.71775]}},{"properties":{"city":"Lynwood","growth":0.43,"rownum":362,"id":"a65lpuno267n","visits 2009":193,"lat":33.927838,"state":"CA","long":-118.199274},"type":"Feature","geometry":{"type":"Point","coordinates":[-118.199274,33.927838]}},{"properties":{"city":"San Clemente","growth":0.53,"rownum":363,"id":"a65lpubq9k19","visits 2009":192,"lat":33.428628,"state":"CA","long":-117.607327},"type":"Feature","geometry":{"type":"Point","coordinates":[-117.607327,33.428628]}},{"properties":{"city":"Oak View","growth":0.43,"rownum":364,"id":"a65lpuiyg4lr","visits 2009":190,"lat":34.396345,"state":"CA","long":-119.299749},"type":"Feature","geometry":{"type":"Point","coordinates":[-119.299749,34.396345]}},{"properties":{"city":"Ridgecrest","growth":0.15,"rownum":365,"id":"a65lpu7j7sbj","visits 2009":190,"lat":35.622485,"state":"CA","long":-117.668864},"type":"Feature","geometry":{"type":"Point","coordinates":[-117.668864,35.622485]}},{"properties":{"city":"Salida","growth":0.38,"rownum":366,"id":"a65lpum67y3n","visits 2009":187,"lat":37.706325,"state":"CA","long":-121.084529},"type":"Feature","geometry":{"type":"Point","coordinates":[-121.084529,37.706325]}},{"properties":{"city":"Lake Elsinore","growth":0.92,"rownum":367,"id":"a65lpug67wnk","visits 2009":185,"lat":33.667578,"state":"CA","long":-117.327868},"type":"Feature","geometry":{"type":"Point","coordinates":[-117.327868,33.667578]}},{"properties":{"city":"Lathrop","growth":0.99,"rownum":368,"id":"a65lpuawr4vf","visits 2009":181,"lat":37.804395,"state":"CA","long":-121.302544},"type":"Feature","geometry":{"type":"Point","coordinates":[-121.302544,37.804395]}},{"properties":{"city":"Colusa","growth":0.86,"rownum":369,"id":"a65lpuas5vmp","visits 2009":180,"lat":39.21418,"state":"CA","long":-122.008594},"type":"Feature","geometry":{"type":"Point","coordinates":[-122.008594,39.21418]}},{"properties":{"city":"Cambria","growth":0.81,"rownum":370,"id":"a65lpulb66ur","visits 2009":175,"lat":35.550861,"state":"CA","long":-121.072072},"type":"Feature","geometry":{"type":"Point","coordinates":[-121.072072,35.550861]}},{"properties":{"city":"Desert Hot Springs","growth":0.88,"rownum":371,"id":"a65lpuhrk2pv","visits 2009":175,"lat":33.9614,"state":"CA","long":-116.510729},"type":"Feature","geometry":{"type":"Point","coordinates":[-116.510729,33.9614]}},{"properties":{"city":"Solana Beach","growth":0.31,"rownum":372,"id":"a65lpuel2f3x","visits 2009":174,"lat":32.984567,"state":"CA","long":-117.270043},"type":"Feature","geometry":{"type":"Point","coordinates":[-117.270043,32.984567]}},{"properties":{"city":"Taft","growth":0.28,"rownum":373,"id":"a65lpuerd17f","visits 2009":174,"lat":35.142473,"state":"CA","long":-119.457435},"type":"Feature","geometry":{"type":"Point","coordinates":[-119.457435,35.142473]}},{"properties":{"city":"Malibu","growth":0.12,"rownum":374,"id":"a65lpucqizka","visits 2009":171,"lat":34.036175,"state":"CA","long":-118.689574},"type":"Feature","geometry":{"type":"Point","coordinates":[-118.689574,34.036175]}},{"properties":{"city":"Mission Hills","growth":0.89,"rownum":375,"id":"a65lpulcb653","visits 2009":169,"lat":34.27307,"state":"CA","long":-118.467644},"type":"Feature","geometry":{"type":"Point","coordinates":[-118.467644,34.27307]}},{"properties":{"city":"Moraga","growth":0.93,"rownum":376,"id":"a65lpu9sckj1","visits 2009":168,"lat":37.853475,"state":"CA","long":-122.127284},"type":"Feature","geometry":{"type":"Point","coordinates":[-122.127284,37.853475]}},{"properties":{"city":"Auburn","growth":0.67,"rownum":377,"id":"a65lpu9xauf6","visits 2009":166,"lat":38.896205,"state":"CA","long":-121.078869},"type":"Feature","geometry":{"type":"Point","coordinates":[-121.078869,38.896205]}},{"properties":{"city":"Kentfield","growth":0.66,"rownum":378,"id":"a65lpucpwkny","visits 2009":164,"lat":37.95608,"state":"CA","long":-122.548044},"type":"Feature","geometry":{"type":"Point","coordinates":[-122.548044,37.95608]}},{"properties":{"city":"Universal City","growth":0.12,"rownum":379,"id":"a65lpueaor02","visits 2009":160,"lat":34.13588,"state":"CA","long":-118.351196},"type":"Feature","geometry":{"type":"Point","coordinates":[-118.351196,34.13588]}},{"properties":{"city":"Templeton","growth":0.13,"rownum":380,"id":"a65lpu8o1b7d","visits 2009":156,"lat":35.554375,"state":"CA","long":-120.710254},"type":"Feature","geometry":{"type":"Point","coordinates":[-120.710254,35.554375]}},{"properties":{"city":"Arroyo Grande","growth":0.85,"rownum":381,"id":"a65lpuk4c7jz","visits 2009":154,"lat":35.124188,"state":"CA","long":-120.577248},"type":"Feature","geometry":{"type":"Point","coordinates":[-120.577248,35.124188]}},{"properties":{"city":"Chico","growth":0.63,"rownum":382,"id":"a65lpumyqsjm","visits 2009":153,"lat":39.73201,"state":"CA","long":-121.841985},"type":"Feature","geometry":{"type":"Point","coordinates":[-121.841985,39.73201]}},{"properties":{"city":"Penryn","growth":0.5,"rownum":383,"id":"a65lpuddupxz","visits 2009":153,"lat":38.853849,"state":"CA","long":-121.170186},"type":"Feature","geometry":{"type":"Point","coordinates":[-121.170186,38.853849]}},{"properties":{"city":"Blue Jay","growth":0.38,"rownum":384,"id":"a65lpu9sxy68","visits 2009":152,"lat":34.244652,"state":"CA","long":-117.212646},"type":"Feature","geometry":{"type":"Point","coordinates":[-117.212646,34.244652]}},{"properties":{"city":"Oak Park","growth":0.75,"rownum":385,"id":"a65lpu7i0xn9","visits 2009":150,"lat":34.18181,"state":"CA","long":-118.765314},"type":"Feature","geometry":{"type":"Point","coordinates":[-118.765314,34.18181]}},{"properties":{"city":"Corcoran","growth":0.34,"rownum":386,"id":"a65lpuebpc73","visits 2009":149,"lat":36.09805,"state":"CA","long":-119.559044},"type":"Feature","geometry":{"type":"Point","coordinates":[-119.559044,36.09805]}},{"properties":{"city":"Imperial","growth":0.91,"rownum":387,"id":"a65lpulstfn9","visits 2009":149,"lat":32.84748,"state":"CA","long":-115.569519},"type":"Feature","geometry":{"type":"Point","coordinates":[-115.569519,32.84748]}},{"properties":{"city":"Bell","growth":0.3,"rownum":388,"id":"a65lpueqlr4r","visits 2009":148,"lat":33.979325,"state":"CA","long":-118.188924},"type":"Feature","geometry":{"type":"Point","coordinates":[-118.188924,33.979325]}},{"properties":{"city":"Half Moon Bay","growth":0.85,"rownum":389,"id":"a65lpucihs2t","visits 2009":146,"lat":37.463105,"state":"CA","long":-122.429324},"type":"Feature","geometry":{"type":"Point","coordinates":[-122.429324,37.463105]}},{"properties":{"city":"San Marino","growth":0.77,"rownum":390,"id":"a65lpuigie89","visits 2009":146,"lat":34.12195,"state":"CA","long":-118.105574},"type":"Feature","geometry":{"type":"Point","coordinates":[-118.105574,34.12195]}},{"properties":{"city":"Winchester","growth":0.46,"rownum":391,"id":"a65lpuhayrbu","visits 2009":146,"lat":33.710555,"state":"CA","long":-117.084959},"type":"Feature","geometry":{"type":"Point","coordinates":[-117.084959,33.710555]}},{"properties":{"city":"Newport Coast","growth":0.28,"rownum":392,"id":"a65lpunbxwrk","visits 2009":142,"lat":33.606436,"state":"CA","long":-117.828551},"type":"Feature","geometry":{"type":"Point","coordinates":[-117.828551,33.606436]}},{"properties":{"city":"Bishop","growth":0.53,"rownum":393,"id":"a65lpugecpqz","visits 2009":141,"lat":37.366715,"state":"CA","long":-118.395354},"type":"Feature","geometry":{"type":"Point","coordinates":[-118.395354,37.366715]}},{"properties":{"city":"Livermore","growth":0.7,"rownum":394,"id":"a65lpua7hx82","visits 2009":137,"lat":37.675245,"state":"CA","long":-121.757829},"type":"Feature","geometry":{"type":"Point","coordinates":[-121.757829,37.675245]}},{"properties":{"city":"Millbrae","growth":0.66,"rownum":395,"id":"a65lpum58n3x","visits 2009":132,"lat":37.60276,"state":"CA","long":-122.395444},"type":"Feature","geometry":{"type":"Point","coordinates":[-122.395444,37.60276]}},{"properties":{"city":"Arcata","growth":0.64,"rownum":396,"id":"a65lpumirtsr","visits 2009":131,"lat":40.86743,"state":"CA","long":-124.085154},"type":"Feature","geometry":{"type":"Point","coordinates":[-124.085154,40.86743]}},{"properties":{"city":"Santa Paula","growth":0.95,"rownum":397,"id":"a65lpuip9x2p","visits 2009":131,"lat":34.352075,"state":"CA","long":-119.059734},"type":"Feature","geometry":{"type":"Point","coordinates":[-119.059734,34.352075]}},{"properties":{"city":"Meadow Vista","growth":0.31,"rownum":398,"id":"a65lpucek0a8","visits 2009":129,"lat":38.9973,"state":"CA","long":-121.022789},"type":"Feature","geometry":{"type":"Point","coordinates":[-121.022789,38.9973]}},{"properties":{"city":"San Pedro","growth":0.1,"rownum":399,"id":"a65lpuc4308x","visits 2009":128,"lat":33.73787,"state":"CA","long":-118.284664},"type":"Feature","geometry":{"type":"Point","coordinates":[-118.284664,33.73787]}},{"properties":{"city":"Newhall","growth":0.12,"rownum":400,"id":"a65lpubxum94","visits 2009":126,"lat":34.387,"state":"CA","long":-118.538499},"type":"Feature","geometry":{"type":"Point","coordinates":[-118.538499,34.387]}},{"properties":{"city":"Venice","growth":0.86,"rownum":401,"id":"a65lpucoew07","visits 2009":126,"lat":33.987545,"state":"CA","long":-118.472154},"type":"Feature","geometry":{"type":"Point","coordinates":[-118.472154,33.987545]}},{"properties":{"city":"Scotts Valley","growth":0.12,"rownum":402,"id":"a65lpueiw8yn","visits 2009":118,"lat":37.049908,"state":"CA","long":-122.018092},"type":"Feature","geometry":{"type":"Point","coordinates":[-122.018092,37.049908]}},{"properties":{"city":"Hoopa","growth":0.22,"rownum":403,"id":"a65lpuccy4qk","visits 2009":117,"lat":41.052247,"state":"CA","long":-123.678856},"type":"Feature","geometry":{"type":"Point","coordinates":[-123.678856,41.052247]}},{"properties":{"city":"Lake Arrowhead","growth":0.36,"rownum":404,"id":"a65lpuli7s5t","visits 2009":117,"lat":34.241529,"state":"CA","long":-117.184156},"type":"Feature","geometry":{"type":"Point","coordinates":[-117.184156,34.241529]}},{"properties":{"city":"Montrose","growth":0.82,"rownum":405,"id":"a65lpujjkhsf","visits 2009":117,"lat":34.20522,"state":"CA","long":-118.228029},"type":"Feature","geometry":{"type":"Point","coordinates":[-118.228029,34.20522]}},{"properties":{"city":"Temple City","growth":0.53,"rownum":406,"id":"a65lpu9uz1si","visits 2009":116,"lat":34.107195,"state":"CA","long":-118.057309},"type":"Feature","geometry":{"type":"Point","coordinates":[-118.057309,34.107195]}},{"properties":{"city":"Paso Robles","growth":0.22,"rownum":407,"id":"a65lpu9asjw6","visits 2009":115,"lat":35.625095,"state":"CA","long":-120.691264},"type":"Feature","geometry":{"type":"Point","coordinates":[-120.691264,35.625095]}},{"properties":{"city":"Sierra Madre","growth":0.65,"rownum":408,"id":"a65lpud4cz14","visits 2009":111,"lat":34.16186,"state":"CA","long":-118.057824},"type":"Feature","geometry":{"type":"Point","coordinates":[-118.057824,34.16186]}},{"properties":{"city":"Watsonville","growth":0.38,"rownum":409,"id":"a65lpul80me8","visits 2009":110,"lat":36.90872,"state":"CA","long":-121.755154},"type":"Feature","geometry":{"type":"Point","coordinates":[-121.755154,36.90872]}},{"properties":{"city":"Coalinga","growth":1.0,"rownum":410,"id":"a65lpublm3gm","visits 2009":107,"lat":36.13702,"state":"CA","long":-120.362889},"type":"Feature","geometry":{"type":"Point","coordinates":[-120.362889,36.13702]}},{"properties":{"city":"Sylmar","growth":0.9,"rownum":411,"id":"a65lpucqvpxl","visits 2009":107,"lat":34.31003,"state":"CA","long":-118.452854},"type":"Feature","geometry":{"type":"Point","coordinates":[-118.452854,34.31003]}},{"properties":{"city":"Capitola","growth":0.65,"rownum":412,"id":"a65lpugsijwi","visits 2009":106,"lat":36.9744,"state":"CA","long":-121.953539},"type":"Feature","geometry":{"type":"Point","coordinates":[-121.953539,36.9744]}},{"properties":{"city":"Port Hueneme Cbc Base","growth":0.66,"rownum":413,"id":"a65lpu82drmi","visits 2009":105,"lat":34.17548,"state":"CA","long":-119.20842},"type":"Feature","geometry":{"type":"Point","coordinates":[-119.20842,34.17548]}},{"properties":{"city":"Greenwood","growth":0.11,"rownum":414,"id":"a65lpullg2kq","visits 2009":97,"lat":38.900405,"state":"CA","long":-120.915649},"type":"Feature","geometry":{"type":"Point","coordinates":[-120.915649,38.900405]}},{"properties":{"city":"El Granada","growth":0.9,"rownum":415,"id":"a65lpum9m8wv","visits 2009":96,"lat":37.502165,"state":"CA","long":-122.469989},"type":"Feature","geometry":{"type":"Point","coordinates":[-122.469989,37.502165]}},{"properties":{"city":"Freedom","growth":0.27,"rownum":416,"id":"a65lpu807zuw","visits 2009":96,"lat":36.93799,"state":"CA","long":-121.777194},"type":"Feature","geometry":{"type":"Point","coordinates":[-121.777194,36.93799]}},{"properties":{"city":"South Gate","growth":0.62,"rownum":417,"id":"a65lpufleg1p","visits 2009":96,"lat":33.956305,"state":"CA","long":-118.205774},"type":"Feature","geometry":{"type":"Point","coordinates":[-118.205774,33.956305]}},{"properties":{"city":"Red Bluff","growth":0.49,"rownum":418,"id":"a65lpugqsl1p","visits 2009":93,"lat":40.177975,"state":"CA","long":-122.235314},"type":"Feature","geometry":{"type":"Point","coordinates":[-122.235314,40.177975]}},{"properties":{"city":"Greenbrae","growth":0.41,"rownum":419,"id":"a65lpumnr9iu","visits 2009":89,"lat":37.9459,"state":"CA","long":-122.519989},"type":"Feature","geometry":{"type":"Point","coordinates":[-122.519989,37.9459]}},{"properties":{"city":"Yucaipa","growth":0.82,"rownum":420,"id":"a65lpubods8k","visits 2009":89,"lat":34.033951,"state":"CA","long":-117.058407},"type":"Feature","geometry":{"type":"Point","coordinates":[-117.058407,34.033951]}},{"properties":{"city":"Guadalupe","growth":0.77,"rownum":421,"id":"a65lpu9b4thq","visits 2009":88,"lat":34.95884,"state":"CA","long":-120.573991},"type":"Feature","geometry":{"type":"Point","coordinates":[-120.573991,34.95884]}},{"properties":{"city":"Westlake Village","growth":0.15,"rownum":422,"id":"a65lpubvdyku","visits 2009":88,"lat":34.149368,"state":"CA","long":-118.818867},"type":"Feature","geometry":{"type":"Point","coordinates":[-118.818867,34.149368]}},{"properties":{"city":"Wilmington","growth":0.4,"rownum":423,"id":"a65lpud0ezwn","visits 2009":87,"lat":33.789425,"state":"CA","long":-118.263189},"type":"Feature","geometry":{"type":"Point","coordinates":[-118.263189,33.789425]}},{"properties":{"city":"Bonsall","growth":0.96,"rownum":424,"id":"a65lpudxhmn2","visits 2009":85,"lat":33.28621,"state":"CA","long":-117.245029},"type":"Feature","geometry":{"type":"Point","coordinates":[-117.245029,33.28621]}},{"properties":{"city":"El Dorado","growth":0.58,"rownum":425,"id":"a65lpuhnipq4","visits 2009":85,"lat":38.68216,"state":"CA","long":-120.846809},"type":"Feature","geometry":{"type":"Point","coordinates":[-120.846809,38.68216]}},{"properties":{"city":"Hollister","growth":0.85,"rownum":426,"id":"a65lpunjdtf1","visits 2009":85,"lat":36.852535,"state":"CA","long":-121.403259},"type":"Feature","geometry":{"type":"Point","coordinates":[-121.403259,36.852535]}},{"properties":{"city":"Wheatland","growth":0.92,"rownum":427,"id":"a65lpud5xbu8","visits 2009":85,"lat":39.009569,"state":"CA","long":-121.425155},"type":"Feature","geometry":{"type":"Point","coordinates":[-121.425155,39.009569]}},{"properties":{"city":"Yreka","growth":0.15,"rownum":428,"id":"a65lpuhhlakn","visits 2009":83,"lat":41.73123,"state":"CA","long":-122.635694},"type":"Feature","geometry":{"type":"Point","coordinates":[-122.635694,41.73123]}},{"properties":{"city":"Homeland","growth":0.53,"rownum":429,"id":"a65lpumhxm48","visits 2009":81,"lat":33.743255,"state":"CA","long":-117.114479},"type":"Feature","geometry":{"type":"Point","coordinates":[-117.114479,33.743255]}},{"properties":{"city":"Mammoth Lakes","growth":0.2,"rownum":430,"id":"a65lpugnfn4n","visits 2009":81,"lat":37.648682,"state":"CA","long":-118.979786},"type":"Feature","geometry":{"type":"Point","coordinates":[-118.979786,37.648682]}},{"properties":{"city":"San Juan Capistrano","growth":0.39,"rownum":431,"id":"a65lpucqo0vk","visits 2009":81,"lat":33.495588,"state":"CA","long":-117.665325},"type":"Feature","geometry":{"type":"Point","coordinates":[-117.665325,33.495588]}},{"properties":{"city":"Saratoga","growth":0.93,"rownum":432,"id":"a65lpuiox93a","visits 2009":81,"lat":37.271164,"state":"CA","long":-122.014213},"type":"Feature","geometry":{"type":"Point","coordinates":[-122.014213,37.271164]}},{"properties":{"city":"Orangevale","growth":0.1,"rownum":433,"id":"a65lpukt9cti","visits 2009":80,"lat":38.678546,"state":"CA","long":-121.227979},"type":"Feature","geometry":{"type":"Point","coordinates":[-121.227979,38.678546]}},{"properties":{"city":"Martinez","growth":0.92,"rownum":434,"id":"a65lpug1927g","visits 2009":79,"lat":38.013796,"state":"CA","long":-122.13512},"type":"Feature","geometry":{"type":"Point","coordinates":[-122.13512,38.013796]}},{"properties":{"city":"Sutter Creek","growth":0.13,"rownum":435,"id":"a65lpuckxxo9","visits 2009":79,"lat":38.393285,"state":"CA","long":-120.802989},"type":"Feature","geometry":{"type":"Point","coordinates":[-120.802989,38.393285]}},{"properties":{"city":"Jackson","growth":0.66,"rownum":436,"id":"a65lpu9gm5ri","visits 2009":78,"lat":38.347125,"state":"CA","long":-120.773409},"type":"Feature","geometry":{"type":"Point","coordinates":[-120.773409,38.347125]}},{"properties":{"city":"Kelseyville","growth":0.87,"rownum":437,"id":"a65lpumd08mw","visits 2009":78,"lat":38.976951,"state":"CA","long":-122.833916},"type":"Feature","geometry":{"type":"Point","coordinates":[-122.833916,38.976951]}},{"properties":{"city":"Rancho Palos Verdes","growth":0.94,"rownum":438,"id":"a65lpujz64xa","visits 2009":78,"lat":33.744905,"state":"CA","long":-118.403078},"type":"Feature","geometry":{"type":"Point","coordinates":[-118.403078,33.744905]}},{"properties":{"city":"Apple Valley","growth":0.44,"rownum":439,"id":"a65lpuikextl","visits 2009":77,"lat":34.523211,"state":"CA","long":-117.215742},"type":"Feature","geometry":{"type":"Point","coordinates":[-117.215742,34.523211]}},{"properties":{"city":"Hayfork","growth":0.9,"rownum":440,"id":"a65lpubjscfe","visits 2009":75,"lat":40.553998,"state":"CA","long":-123.184701},"type":"Feature","geometry":{"type":"Point","coordinates":[-123.184701,40.553998]}},{"properties":{"city":"Loomis","growth":0.14,"rownum":441,"id":"a65lpua6fdwx","visits 2009":75,"lat":38.819097,"state":"CA","long":-121.191332},"type":"Feature","geometry":{"type":"Point","coordinates":[-121.191332,38.819097]}},{"properties":{"city":"Pacific Grove","growth":0.39,"rownum":442,"id":"a65lpum6mymi","visits 2009":75,"lat":36.619315,"state":"CA","long":-121.918559},"type":"Feature","geometry":{"type":"Point","coordinates":[-121.918559,36.619315]}},{"properties":{"city":"Sunol","growth":0.34,"rownum":443,"id":"a65lpuds81rf","visits 2009":75,"lat":37.593844,"state":"CA","long":-121.886634},"type":"Feature","geometry":{"type":"Point","coordinates":[-121.886634,37.593844]}},{"properties":{"city":"Blythe","growth":0.9,"rownum":444,"id":"a65lpujapjyw","visits 2009":73,"lat":33.610395,"state":"CA","long":-114.598849},"type":"Feature","geometry":{"type":"Point","coordinates":[-114.598849,33.610395]}},{"properties":{"city":"Camp Pendleton","growth":0.46,"rownum":445,"id":"a65lpukognak","visits 2009":73,"lat":33.222236,"state":"CA","long":-117.391532},"type":"Feature","geometry":{"type":"Point","coordinates":[-117.391532,33.222236]}},{"properties":{"city":"Mill Valley","growth":0.24,"rownum":446,"id":"a65lpulhhsio","visits 2009":73,"lat":37.907625,"state":"CA","long":-122.548169},"type":"Feature","geometry":{"type":"Point","coordinates":[-122.548169,37.907625]}},{"properties":{"city":"Chowchilla","growth":0.25,"rownum":447,"id":"a65lpujyepza","visits 2009":72,"lat":37.123195,"state":"CA","long":-120.259619},"type":"Feature","geometry":{"type":"Point","coordinates":[-120.259619,37.123195]}},{"properties":{"city":"Edison","growth":0.24,"rownum":448,"id":"a65lpujjndnr","visits 2009":71,"lat":35.34896,"state":"CA","long":-118.876524},"type":"Feature","geometry":{"type":"Point","coordinates":[-118.876524,35.34896]}},{"properties":{"city":"Wasco","growth":0.6,"rownum":449,"id":"a65lpuddx1z4","visits 2009":71,"lat":35.59357,"state":"CA","long":-119.333739},"type":"Feature","geometry":{"type":"Point","coordinates":[-119.333739,35.59357]}},{"properties":{"city":"Rio Oso","growth":0.94,"rownum":450,"id":"a65lpuavelhc","visits 2009":66,"lat":38.957375,"state":"CA","long":-121.54358},"type":"Feature","geometry":{"type":"Point","coordinates":[-121.54358,38.957375]}},{"properties":{"city":"Sheep Ranch","growth":0.14,"rownum":451,"id":"a65lpukm4m8b","visits 2009":64,"lat":38.20937,"state":"CA","long":-120.462883},"type":"Feature","geometry":{"type":"Point","coordinates":[-120.462883,38.20937]}},{"properties":{"city":"Pismo Beach","growth":0.8,"rownum":452,"id":"a65lpuh6nb11","visits 2009":63,"lat":35.15665,"state":"CA","long":-120.667744},"type":"Feature","geometry":{"type":"Point","coordinates":[-120.667744,35.15665]}},{"properties":{"city":"La Canada Flintridge","growth":0.94,"rownum":453,"id":"a65lpujsbz2o","visits 2009":62,"lat":34.207257,"state":"CA","long":-118.206356},"type":"Feature","geometry":{"type":"Point","coordinates":[-118.206356,34.207257]}},{"properties":{"city":"Colfax","growth":0.39,"rownum":454,"id":"a65lpu9zglq4","visits 2009":61,"lat":39.095515,"state":"CA","long":-120.950714},"type":"Feature","geometry":{"type":"Point","coordinates":[-120.950714,39.095515]}},{"properties":{"city":"Larkspur","growth":0.98,"rownum":455,"id":"a65lpujsqgxm","visits 2009":60,"lat":37.934905,"state":"CA","long":-122.535519},"type":"Feature","geometry":{"type":"Point","coordinates":[-122.535519,37.934905]}},{"properties":{"city":"California City","growth":0.31,"rownum":456,"id":"a65lpuh7lrpr","visits 2009":59,"lat":35.12894,"state":"CA","long":-117.985629},"type":"Feature","geometry":{"type":"Point","coordinates":[-117.985629,35.12894]}},{"properties":{"city":"Hercules","growth":0.39,"rownum":457,"id":"a65lpueeouxx","visits 2009":59,"lat":38.010055,"state":"CA","long":-122.265424},"type":"Feature","geometry":{"type":"Point","coordinates":[-122.265424,38.010055]}},{"properties":{"city":"Atherton","growth":0.44,"rownum":458,"id":"a65lpul56j6t","visits 2009":58,"lat":37.462463,"state":"CA","long":-122.197813},"type":"Feature","geometry":{"type":"Point","coordinates":[-122.197813,37.462463]}},{"properties":{"city":"Woodlake","growth":0.26,"rownum":459,"id":"a65lpugjbu3v","visits 2009":58,"lat":36.416475,"state":"CA","long":-119.098889},"type":"Feature","geometry":{"type":"Point","coordinates":[-119.098889,36.416475]}},{"properties":{"city":"San Pablo","growth":0.8,"rownum":460,"id":"a65lpuhwmmfk","visits 2009":56,"lat":37.96023,"state":"CA","long":-122.342254},"type":"Feature","geometry":{"type":"Point","coordinates":[-122.342254,37.96023]}},{"properties":{"city":"Selma","growth":0.47,"rownum":461,"id":"a65lpu7ih9et","visits 2009":53,"lat":36.567544,"state":"CA","long":-119.610783},"type":"Feature","geometry":{"type":"Point","coordinates":[-119.610783,36.567544]}},{"properties":{"city":"Castroville","growth":0.72,"rownum":462,"id":"a65lpu9odm1e","visits 2009":51,"lat":36.762225,"state":"CA","long":-121.753279},"type":"Feature","geometry":{"type":"Point","coordinates":[-121.753279,36.762225]}},{"properties":{"city":"San Andreas","growth":0.12,"rownum":463,"id":"a65lpul45sbm","visits 2009":51,"lat":38.196373,"state":"CA","long":-120.681484},"type":"Feature","geometry":{"type":"Point","coordinates":[-120.681484,38.196373]}},{"properties":{"city":"Alamo","growth":0.31,"rownum":464,"id":"a65lpufm3a0a","visits 2009":49,"lat":37.84999,"state":"CA","long":-122.032329},"type":"Feature","geometry":{"type":"Point","coordinates":[-122.032329,37.84999]}},{"properties":{"city":"Bloomington","growth":0.18,"rownum":465,"id":"a65lpuh3b59v","visits 2009":49,"lat":34.068687,"state":"CA","long":-117.399949},"type":"Feature","geometry":{"type":"Point","coordinates":[-117.399949,34.068687]}},{"properties":{"city":"Fowler","growth":0.91,"rownum":466,"id":"a65lpufln8vl","visits 2009":49,"lat":36.629985,"state":"CA","long":-119.678344},"type":"Feature","geometry":{"type":"Point","coordinates":[-119.678344,36.629985]}},{"properties":{"city":"Pinole","growth":0.5,"rownum":467,"id":"a65lpucsu8n6","visits 2009":49,"lat":38.004427,"state":"CA","long":-122.291396},"type":"Feature","geometry":{"type":"Point","coordinates":[-122.291396,38.004427]}},{"properties":{"city":"Grand Terrace","growth":0.71,"rownum":468,"id":"a65lpunczfkd","visits 2009":48,"lat":34.0354,"state":"CA","long":-117.307471},"type":"Feature","geometry":{"type":"Point","coordinates":[-117.307471,34.0354]}},{"properties":{"city":"Elverta","growth":0.64,"rownum":469,"id":"a65lpuc14nur","visits 2009":47,"lat":38.70969,"state":"CA","long":-121.44573},"type":"Feature","geometry":{"type":"Point","coordinates":[-121.44573,38.70969]}},{"properties":{"city":"Palo Cedro","growth":0.45,"rownum":470,"id":"a65lpudvuwr0","visits 2009":47,"lat":40.56165,"state":"CA","long":-122.238672},"type":"Feature","geometry":{"type":"Point","coordinates":[-122.238672,40.56165]}},{"properties":{"city":"Benicia","growth":0.33,"rownum":471,"id":"a65lpuam70wy","visits 2009":45,"lat":38.05241,"state":"CA","long":-122.152539},"type":"Feature","geometry":{"type":"Point","coordinates":[-122.152539,38.05241]}},{"properties":{"city":"Phelan","growth":0.26,"rownum":472,"id":"a65lpudveg0f","visits 2009":45,"lat":34.425395,"state":"CA","long":-117.572544},"type":"Feature","geometry":{"type":"Point","coordinates":[-117.572544,34.425395]}},{"properties":{"city":"Reedley","growth":0.83,"rownum":473,"id":"a65lpugnpcmk","visits 2009":45,"lat":36.594355,"state":"CA","long":-119.452534},"type":"Feature","geometry":{"type":"Point","coordinates":[-119.452534,36.594355]}},{"properties":{"city":"Empire","growth":0.9,"rownum":474,"id":"a65lpu9m0qxv","visits 2009":44,"lat":37.638275,"state":"CA","long":-120.902764},"type":"Feature","geometry":{"type":"Point","coordinates":[-120.902764,37.638275]}},{"properties":{"city":"Esparto","growth":0.23,"rownum":475,"id":"a65lpuih1161","visits 2009":44,"lat":38.69337,"state":"CA","long":-122.016569},"type":"Feature","geometry":{"type":"Point","coordinates":[-122.016569,38.69337]}},{"properties":{"city":"Ft Bragg","growth":0.4,"rownum":476,"id":"a65lpuie9ueb","visits 2009":43,"lat":39.446125,"state":"CA","long":-123.805893},"type":"Feature","geometry":{"type":"Point","coordinates":[-123.805893,39.446125]}},{"properties":{"city":"Willits","growth":0.14,"rownum":477,"id":"a65lpublhzh6","visits 2009":43,"lat":39.404145,"state":"CA","long":-123.351819},"type":"Feature","geometry":{"type":"Point","coordinates":[-123.351819,39.404145]}},{"properties":{"city":"Willows","growth":0.38,"rownum":478,"id":"a65lpua73byp","visits 2009":43,"lat":39.521205,"state":"CA","long":-122.193904},"type":"Feature","geometry":{"type":"Point","coordinates":[-122.193904,39.521205]}},{"properties":{"city":"Pearblossom","growth":0.89,"rownum":479,"id":"a65lpudn0ou7","visits 2009":42,"lat":34.501915,"state":"CA","long":-117.914059},"type":"Feature","geometry":{"type":"Point","coordinates":[-117.914059,34.501915]}},{"properties":{"city":"Aptos","growth":0.65,"rownum":480,"id":"a65lpuav0m61","visits 2009":41,"lat":36.975547,"state":"CA","long":-121.892184},"type":"Feature","geometry":{"type":"Point","coordinates":[-121.892184,36.975547]}},{"properties":{"city":"Diablo","growth":0.49,"rownum":481,"id":"a65lpubc24j5","visits 2009":40,"lat":37.839634,"state":"CA","long":-121.959764},"type":"Feature","geometry":{"type":"Point","coordinates":[-121.959764,37.839634]}},{"properties":{"city":"Escalon","growth":0.82,"rownum":482,"id":"a65lpudqe3kb","visits 2009":40,"lat":37.796715,"state":"CA","long":-120.995064},"type":"Feature","geometry":{"type":"Point","coordinates":[-120.995064,37.796715]}},{"properties":{"city":"Mount Shasta","growth":0.74,"rownum":483,"id":"a65lpuh062ib","visits 2009":40,"lat":41.31297,"state":"CA","long":-122.312709},"type":"Feature","geometry":{"type":"Point","coordinates":[-122.312709,41.31297]}},{"properties":{"city":"Solvang","growth":0.21,"rownum":484,"id":"a65lpuhnntsb","visits 2009":39,"lat":34.59606,"state":"CA","long":-120.144561},"type":"Feature","geometry":{"type":"Point","coordinates":[-120.144561,34.59606]}},{"properties":{"city":"Angwin","growth":0.2,"rownum":485,"id":"a65lpu9qd6lx","visits 2009":38,"lat":38.57238,"state":"CA","long":-122.442215},"type":"Feature","geometry":{"type":"Point","coordinates":[-122.442215,38.57238]}},{"properties":{"city":"Twin Peaks","growth":0.22,"rownum":486,"id":"a65lpuh1q9gi","visits 2009":37,"lat":34.239193,"state":"CA","long":-117.234213},"type":"Feature","geometry":{"type":"Point","coordinates":[-117.234213,34.239193]}},{"properties":{"city":"Corning","growth":0.27,"rownum":487,"id":"a65lpu8g2exr","visits 2009":35,"lat":39.92789,"state":"CA","long":-122.179074},"type":"Feature","geometry":{"type":"Point","coordinates":[-122.179074,39.92789]}},{"properties":{"city":"Kingsburg","growth":0.32,"rownum":488,"id":"a65lpuhh9vsc","visits 2009":35,"lat":36.515155,"state":"CA","long":-119.552319},"type":"Feature","geometry":{"type":"Point","coordinates":[-119.552319,36.515155]}},{"properties":{"city":"St Helena","growth":0.94,"rownum":489,"id":"a65lpuldleno","visits 2009":35,"lat":38.505745,"state":"CA","long":-122.471084},"type":"Feature","geometry":{"type":"Point","coordinates":[-122.471084,38.505745]}},{"properties":{"city":"Auberry","growth":0.98,"rownum":490,"id":"a65lpul6pnem","visits 2009":34,"lat":37.078303,"state":"CA","long":-119.485254},"type":"Feature","geometry":{"type":"Point","coordinates":[-119.485254,37.078303]}},{"properties":{"city":"Danville","growth":0.52,"rownum":491,"id":"a65lpucfoh2x","visits 2009":34,"lat":37.831619,"state":"CA","long":-122.004775},"type":"Feature","geometry":{"type":"Point","coordinates":[-122.004775,37.831619]}},{"properties":{"city":"La Verne","growth":0.9,"rownum":492,"id":"a65lpucvorio","visits 2009":34,"lat":34.113325,"state":"CA","long":-117.765074},"type":"Feature","geometry":{"type":"Point","coordinates":[-117.765074,34.113325]}},{"properties":{"city":"Rodeo","growth":0.31,"rownum":493,"id":"a65lpufvk35h","visits 2009":34,"lat":38.031284,"state":"CA","long":-122.266668},"type":"Feature","geometry":{"type":"Point","coordinates":[-122.266668,38.031284]}},{"properties":{"city":"Acton","growth":0.72,"rownum":494,"id":"a65lpu7puvo2","visits 2009":33,"lat":34.468966,"state":"CA","long":-118.193866},"type":"Feature","geometry":{"type":"Point","coordinates":[-118.193866,34.468966]}},{"properties":{"city":"Byron","growth":0.43,"rownum":495,"id":"a65lpua0lu8k","visits 2009":33,"lat":37.869575,"state":"CA","long":-121.639899},"type":"Feature","geometry":{"type":"Point","coordinates":[-121.639899,37.869575]}},{"properties":{"city":"Garberville","growth":0.35,"rownum":496,"id":"a65lpu7llc78","visits 2009":33,"lat":40.10105,"state":"CA","long":-123.794887},"type":"Feature","geometry":{"type":"Point","coordinates":[-123.794887,40.10105]}},{"properties":{"city":"San Juan Bautista","growth":0.4,"rownum":497,"id":"a65lpuiphjh8","visits 2009":33,"lat":36.845845,"state":"CA","long":-121.538729},"type":"Feature","geometry":{"type":"Point","coordinates":[-121.538729,36.845845]}},{"properties":{"city":"Weaverville","growth":0.64,"rownum":498,"id":"a65lpu8lb0uw","visits 2009":33,"lat":40.727765,"state":"CA","long":-122.936699},"type":"Feature","geometry":{"type":"Point","coordinates":[-122.936699,40.727765]}},{"properties":{"city":"American Canyon","growth":0.5,"rownum":499,"id":"a65lpue9stul","visits 2009":32,"lat":38.167098,"state":"CA","long":-122.252657},"type":"Feature","geometry":{"type":"Point","coordinates":[-122.252657,38.167098]}},{"properties":{"city":"Cobb","growth":0.37,"rownum":500,"id":"a65lpug3qdec","visits 2009":32,"lat":38.82318,"state":"CA","long":-122.721049},"type":"Feature","geometry":{"type":"Point","coordinates":[-122.721049,38.82318]}},{"properties":{"city":"Lucerne","growth":0.87,"rownum":501,"id":"a65lpumn3c3r","visits 2009":31,"lat":39.091445,"state":"CA","long":-122.796984},"type":"Feature","geometry":{"type":"Point","coordinates":[-122.796984,39.091445]}},{"properties":{"city":"Forestville","growth":0.23,"rownum":502,"id":"a65lpulx5cne","visits 2009":30,"lat":38.47479,"state":"CA","long":-122.894859},"type":"Feature","geometry":{"type":"Point","coordinates":[-122.894859,38.47479]}},{"properties":{"city":"Cabazon","growth":0.31,"rownum":503,"id":"a65lpujydhrv","visits 2009":29,"lat":33.917321,"state":"CA","long":-116.785144},"type":"Feature","geometry":{"type":"Point","coordinates":[-116.785144,33.917321]}},{"properties":{"city":"Dinuba","growth":0.76,"rownum":504,"id":"a65lpua6prco","visits 2009":29,"lat":36.544245,"state":"CA","long":-119.385694},"type":"Feature","geometry":{"type":"Point","coordinates":[-119.385694,36.544245]}},{"properties":{"city":"Anderson","growth":0.58,"rownum":505,"id":"a65lpuitre8v","visits 2009":28,"lat":40.45054,"state":"CA","long":-122.301274},"type":"Feature","geometry":{"type":"Point","coordinates":[-122.301274,40.45054]}},{"properties":{"city":"La Crescenta","growth":0.28,"rownum":506,"id":"a65lpudywyfa","visits 2009":28,"lat":34.228875,"state":"CA","long":-118.247544},"type":"Feature","geometry":{"type":"Point","coordinates":[-118.247544,34.228875]}},{"properties":{"city":"Weed","growth":0.25,"rownum":507,"id":"a65lpumo4y5l","visits 2009":28,"lat":41.42506,"state":"CA","long":-122.384269},"type":"Feature","geometry":{"type":"Point","coordinates":[-122.384269,41.42506]}},{"properties":{"city":"Lake Isabella","growth":0.17,"rownum":508,"id":"a65lpu8ot34e","visits 2009":27,"lat":35.604065,"state":"CA","long":-118.486048},"type":"Feature","geometry":{"type":"Point","coordinates":[-118.486048,35.604065]}},{"properties":{"city":"Los Gatos","growth":0.59,"rownum":509,"id":"a65lpujof1ia","visits 2009":27,"lat":37.221245,"state":"CA","long":-121.978639},"type":"Feature","geometry":{"type":"Point","coordinates":[-121.978639,37.221245]}},{"properties":{"city":"Orland","growth":0.58,"rownum":510,"id":"a65lpumvy3jt","visits 2009":27,"lat":39.747395,"state":"CA","long":-122.194769},"type":"Feature","geometry":{"type":"Point","coordinates":[-122.194769,39.747395]}},{"properties":{"city":"Pacifica","growth":0.66,"rownum":511,"id":"a65lpufggyej","visits 2009":26,"lat":37.635265,"state":"CA","long":-122.491114},"type":"Feature","geometry":{"type":"Point","coordinates":[-122.491114,37.635265]}},{"properties":{"city":"Diamond Springs","growth":0.64,"rownum":512,"id":"a65lpug9w1o7","visits 2009":25,"lat":38.694863,"state":"CA","long":-120.812846},"type":"Feature","geometry":{"type":"Point","coordinates":[-120.812846,38.694863]}},{"properties":{"city":"Heber","growth":0.8,"rownum":513,"id":"a65lpu84xajn","visits 2009":25,"lat":32.73067,"state":"CA","long":-115.528174},"type":"Feature","geometry":{"type":"Point","coordinates":[-115.528174,32.73067]}},{"properties":{"city":"Shingle Springs","growth":0.52,"rownum":514,"id":"a65lpubqqmi4","visits 2009":25,"lat":38.66415,"state":"CA","long":-120.938379},"type":"Feature","geometry":{"type":"Point","coordinates":[-120.938379,38.66415]}},{"properties":{"city":"Sloughhouse","growth":0.11,"rownum":515,"id":"a65lpu7b5ex6","visits 2009":25,"lat":38.494284,"state":"CA","long":-121.182417},"type":"Feature","geometry":{"type":"Point","coordinates":[-121.182417,38.494284]}},{"properties":{"city":"Boyes Hot Springs","growth":0.38,"rownum":516,"id":"a65lpu886jnv","visits 2009":24,"lat":38.313455,"state":"CA","long":-122.481299},"type":"Feature","geometry":{"type":"Point","coordinates":[-122.481299,38.313455]}},{"properties":{"city":"Lebec","growth":0.64,"rownum":517,"id":"a65lpueupnys","visits 2009":24,"lat":34.837334,"state":"CA","long":-118.863628},"type":"Feature","geometry":{"type":"Point","coordinates":[-118.863628,34.837334]}},{"properties":{"city":"Raymond","growth":0.76,"rownum":518,"id":"a65lpumfvghd","visits 2009":24,"lat":37.217776,"state":"CA","long":-119.906377},"type":"Feature","geometry":{"type":"Point","coordinates":[-119.906377,37.217776]}},{"properties":{"city":"San Ysidro","growth":0.89,"rownum":519,"id":"a65lpub79hkl","visits 2009":24,"lat":32.543793,"state":"CA","long":-117.035492},"type":"Feature","geometry":{"type":"Point","coordinates":[-117.035492,32.543793]}},{"properties":{"city":"Warner Springs","growth":0.34,"rownum":520,"id":"a65lpuhkc79m","visits 2009":24,"lat":33.281482,"state":"CA","long":-116.624195},"type":"Feature","geometry":{"type":"Point","coordinates":[-116.624195,33.281482]}},{"properties":{"city":"Avenal","growth":0.26,"rownum":521,"id":"a65lpucs2fit","visits 2009":23,"lat":36.003583,"state":"CA","long":-120.130486},"type":"Feature","geometry":{"type":"Point","coordinates":[-120.130486,36.003583]}},{"properties":{"city":"Big sur","growth":0.66,"rownum":522,"id":"a65lpuij8ftj","visits 2009":23,"lat":36.267411,"state":"CA","long":-121.804249},"type":"Feature","geometry":{"type":"Point","coordinates":[-121.804249,36.267411]}},{"properties":{"city":"Joshua Tree","growth":0.31,"rownum":523,"id":"a65lpuj7yf7b","visits 2009":23,"lat":34.134965,"state":"CA","long":-116.314604},"type":"Feature","geometry":{"type":"Point","coordinates":[-116.314604,34.134965]}},{"properties":{"city":"South Lake Tahoe","growth":0.41,"rownum":524,"id":"a65lpu9atggm","visits 2009":23,"lat":38.910718,"state":"CA","long":-120.007104},"type":"Feature","geometry":{"type":"Point","coordinates":[-120.007104,38.910718]}},{"properties":{"city":"Borrego Springs","growth":0.89,"rownum":525,"id":"a65lpu7ix2s4","visits 2009":22,"lat":33.256535,"state":"CA","long":-116.379834},"type":"Feature","geometry":{"type":"Point","coordinates":[-116.379834,33.256535]}},{"properties":{"city":"Healdsburg","growth":0.86,"rownum":526,"id":"a65lpuc0rt63","visits 2009":22,"lat":38.610645,"state":"CA","long":-122.868834},"type":"Feature","geometry":{"type":"Point","coordinates":[-122.868834,38.610645]}},{"properties":{"city":"Ione","growth":0.44,"rownum":527,"id":"a65lpua49web","visits 2009":22,"lat":38.352375,"state":"CA","long":-120.933239},"type":"Feature","geometry":{"type":"Point","coordinates":[-120.933239,38.352375]}},{"properties":{"city":"Laguna Beach","growth":0.25,"rownum":528,"id":"a65lpulzvxud","visits 2009":22,"lat":33.545375,"state":"CA","long":-117.781537},"type":"Feature","geometry":{"type":"Point","coordinates":[-117.781537,33.545375]}},{"properties":{"city":"Mc Farland","growth":0.99,"rownum":529,"id":"a65lpuj0mty0","visits 2009":22,"lat":35.677465,"state":"CA","long":-119.227969},"type":"Feature","geometry":{"type":"Point","coordinates":[-119.227969,35.677465]}},{"properties":{"city":"Angels Camp","growth":0.87,"rownum":530,"id":"a65lpu7zx57r","visits 2009":21,"lat":38.070037,"state":"CA","long":-120.540737},"type":"Feature","geometry":{"type":"Point","coordinates":[-120.540737,38.070037]}},{"properties":{"city":"Dixon","growth":0.84,"rownum":531,"id":"a65lpu87btwa","visits 2009":21,"lat":38.4455,"state":"CA","long":-121.816109},"type":"Feature","geometry":{"type":"Point","coordinates":[-121.816109,38.4455]}},{"properties":{"city":"Morgan Hill","growth":0.42,"rownum":532,"id":"a65lpumh0l0e","visits 2009":21,"lat":37.125385,"state":"CA","long":-121.661324},"type":"Feature","geometry":{"type":"Point","coordinates":[-121.661324,37.125385]}},{"properties":{"city":"Nuevo","growth":0.52,"rownum":533,"id":"a65lpuc9ajec","visits 2009":21,"lat":33.80124,"state":"CA","long":-117.156614},"type":"Feature","geometry":{"type":"Point","coordinates":[-117.156614,33.80124]}},{"properties":{"city":"Sebastopol","growth":0.58,"rownum":534,"id":"a65lpuespfuy","visits 2009":21,"lat":38.40174,"state":"CA","long":-122.825254},"type":"Feature","geometry":{"type":"Point","coordinates":[-122.825254,38.40174]}},{"properties":{"city":"Altaville","growth":0.76,"rownum":535,"id":"a65lpub8hze4","visits 2009":20,"lat":38.083655,"state":"CA","long":-120.560453},"type":"Feature","geometry":{"type":"Point","coordinates":[-120.560453,38.083655]}},{"properties":{"city":"Carpinteria","growth":0.34,"rownum":536,"id":"a65lpudl88bf","visits 2009":20,"lat":34.389796,"state":"CA","long":-119.5033},"type":"Feature","geometry":{"type":"Point","coordinates":[-119.5033,34.389796]}},{"properties":{"city":"Clayton","growth":0.85,"rownum":537,"id":"a65lpuhqgpmw","visits 2009":20,"lat":37.942846,"state":"CA","long":-121.937255},"type":"Feature","geometry":{"type":"Point","coordinates":[-121.937255,37.942846]}},{"properties":{"city":"King City","growth":0.81,"rownum":538,"id":"a65lpuf1mnu8","visits 2009":20,"lat":36.21086,"state":"CA","long":-121.126604},"type":"Feature","geometry":{"type":"Point","coordinates":[-121.126604,36.21086]}},{"properties":{"city":"Mojave","growth":0.6,"rownum":539,"id":"a65lpuixln63","visits 2009":20,"lat":35.054245,"state":"CA","long":-118.174249},"type":"Feature","geometry":{"type":"Point","coordinates":[-118.174249,35.054245]}},{"properties":{"city":"Orinda","growth":0.51,"rownum":540,"id":"a65lpumdnac9","visits 2009":20,"lat":37.88334,"state":"CA","long":-122.189064},"type":"Feature","geometry":{"type":"Point","coordinates":[-122.189064,37.88334]}},{"properties":{"city":"Represa","growth":1.0,"rownum":541,"id":"a65lpu7tzc79","visits 2009":20,"lat":38.691681,"state":"CA","long":-121.131889},"type":"Feature","geometry":{"type":"Point","coordinates":[-121.131889,38.691681]}},{"properties":{"city":"Ripon","growth":0.94,"rownum":542,"id":"a65lpuc2okeu","visits 2009":20,"lat":37.740865,"state":"CA","long":-121.135454},"type":"Feature","geometry":{"type":"Point","coordinates":[-121.135454,37.740865]}},{"properties":{"city":"Tulelake","growth":0.85,"rownum":543,"id":"a65lpug6vtwc","visits 2009":20,"lat":41.95422,"state":"CA","long":-121.476739},"type":"Feature","geometry":{"type":"Point","coordinates":[-121.476739,41.95422]}},{"properties":{"city":"Olympic Valley","growth":0.31,"rownum":544,"id":"a65lpuf40suw","visits 2009":19,"lat":39.203762,"state":"CA","long":-120.211332},"type":"Feature","geometry":{"type":"Point","coordinates":[-120.211332,39.203762]}},{"properties":{"city":"Springville","growth":0.26,"rownum":545,"id":"a65lpu9pq1hi","visits 2009":19,"lat":36.13512,"state":"CA","long":-118.813711},"type":"Feature","geometry":{"type":"Point","coordinates":[-118.813711,36.13512]}},{"properties":{"city":"Sultana","growth":0.29,"rownum":546,"id":"a65lpuaxzgoj","visits 2009":19,"lat":36.54521,"state":"CA","long":-119.340149},"type":"Feature","geometry":{"type":"Point","coordinates":[-119.340149,36.54521]}},{"properties":{"city":"Carmel","growth":0.63,"rownum":547,"id":"a65lpuc78mc8","visits 2009":18,"lat":36.55443,"state":"CA","long":-121.924419},"type":"Feature","geometry":{"type":"Point","coordinates":[-121.924419,36.55443]}},{"properties":{"city":"Clovis","growth":0.37,"rownum":548,"id":"a65lpudu862s","visits 2009":18,"lat":36.823968,"state":"CA","long":-119.696589},"type":"Feature","geometry":{"type":"Point","coordinates":[-119.696589,36.823968]}},{"properties":{"city":"Gilroy","growth":0.51,"rownum":549,"id":"a65lpuhgy6t4","visits 2009":18,"lat":37.004385,"state":"CA","long":-121.571669},"type":"Feature","geometry":{"type":"Point","coordinates":[-121.571669,37.004385]}},{"properties":{"city":"Lakeport","growth":0.88,"rownum":550,"id":"a65lpukodk1h","visits 2009":18,"lat":39.043525,"state":"CA","long":-122.915164},"type":"Feature","geometry":{"type":"Point","coordinates":[-122.915164,39.043525]}},{"properties":{"city":"Middletown","growth":0.13,"rownum":551,"id":"a65lpu9rc26z","visits 2009":18,"lat":38.75199,"state":"CA","long":-122.615409},"type":"Feature","geometry":{"type":"Point","coordinates":[-122.615409,38.75199]}},{"properties":{"city":"Riverbank","growth":0.44,"rownum":552,"id":"a65lpugpwa75","visits 2009":18,"lat":37.736505,"state":"CA","long":-120.935744},"type":"Feature","geometry":{"type":"Point","coordinates":[-120.935744,37.736505]}},{"properties":{"city":"Tahoe Vista","growth":0.29,"rownum":553,"id":"a65lpumc3kpy","visits 2009":18,"lat":39.239975,"state":"CA","long":-120.050804},"type":"Feature","geometry":{"type":"Point","coordinates":[-120.050804,39.239975]}},{"properties":{"city":"Mariposa","growth":0.12,"rownum":554,"id":"a65lpubrj6gh","visits 2009":17,"lat":37.483912,"state":"CA","long":-119.964484},"type":"Feature","geometry":{"type":"Point","coordinates":[-119.964484,37.483912]}},{"properties":{"city":"San Anselmo","growth":0.26,"rownum":555,"id":"a65lpuc1c65z","visits 2009":17,"lat":37.974345,"state":"CA","long":-122.562324},"type":"Feature","geometry":{"type":"Point","coordinates":[-122.562324,37.974345]}},{"properties":{"city":"Fillmore","growth":0.86,"rownum":556,"id":"a65lpukwmh6d","visits 2009":16,"lat":34.39851,"state":"CA","long":-118.913314},"type":"Feature","geometry":{"type":"Point","coordinates":[-118.913314,34.39851]}},{"properties":{"city":"Lee Vining","growth":0.66,"rownum":557,"id":"a65lpufwcp3n","visits 2009":16,"lat":37.95634,"state":"CA","long":-119.119064},"type":"Feature","geometry":{"type":"Point","coordinates":[-119.119064,37.95634]}},{"properties":{"city":"Quincy","growth":0.27,"rownum":558,"id":"a65lpujnxr9b","visits 2009":16,"lat":39.936735,"state":"CA","long":-120.948119},"type":"Feature","geometry":{"type":"Point","coordinates":[-120.948119,39.936735]}},{"properties":{"city":"Sutter","growth":0.14,"rownum":559,"id":"a65lpuh0rjqd","visits 2009":16,"lat":39.15917,"state":"CA","long":-121.753718},"type":"Feature","geometry":{"type":"Point","coordinates":[-121.753718,39.15917]}},{"properties":{"city":"Topanga","growth":0.14,"rownum":560,"id":"a65lpucsbnik","visits 2009":16,"lat":34.09712,"state":"CA","long":-118.600536},"type":"Feature","geometry":{"type":"Point","coordinates":[-118.600536,34.09712]}},{"properties":{"city":"El Sobrante","growth":0.84,"rownum":561,"id":"a65lpu7zuc94","visits 2009":15,"lat":37.965091,"state":"CA","long":-122.313549},"type":"Feature","geometry":{"type":"Point","coordinates":[-122.313549,37.965091]}},{"properties":{"city":"Imperial Beach","growth":0.63,"rownum":562,"id":"a65lpuciwfzg","visits 2009":15,"lat":32.57656,"state":"CA","long":-117.115434},"type":"Feature","geometry":{"type":"Point","coordinates":[-117.115434,32.57656]}},{"properties":{"city":"Mendocino","growth":0.19,"rownum":563,"id":"a65lpue09qug","visits 2009":15,"lat":39.30757,"state":"CA","long":-123.798909},"type":"Feature","geometry":{"type":"Point","coordinates":[-123.798909,39.30757]}},{"properties":{"city":"Palomar Mountain","growth":0.21,"rownum":564,"id":"a65lpu9jpcon","visits 2009":15,"lat":33.322232,"state":"CA","long":-116.878933},"type":"Feature","geometry":{"type":"Point","coordinates":[-116.878933,33.322232]}},{"properties":{"city":"Point Reyes Station","growth":0.18,"rownum":565,"id":"a65lpu9ixlj1","visits 2009":15,"lat":38.0679,"state":"CA","long":-122.805739},"type":"Feature","geometry":{"type":"Point","coordinates":[-122.805739,38.0679]}},{"properties":{"city":"Livingston","growth":0.73,"rownum":566,"id":"a65lpudm88hs","visits 2009":14,"lat":37.38073,"state":"CA","long":-120.723399},"type":"Feature","geometry":{"type":"Point","coordinates":[-120.723399,37.38073]}},{"properties":{"city":"Lone Pine","growth":0.69,"rownum":567,"id":"a65lpuftoxnn","visits 2009":14,"lat":36.60452,"state":"CA","long":-118.062809},"type":"Feature","geometry":{"type":"Point","coordinates":[-118.062809,36.60452]}},{"properties":{"city":"Pacific Palisades","growth":0.6,"rownum":568,"id":"a65lpub0m3so","visits 2009":14,"lat":34.047045,"state":"CA","long":-118.526514},"type":"Feature","geometry":{"type":"Point","coordinates":[-118.526514,34.047045]}},{"properties":{"city":"Port Hueneme","growth":0.95,"rownum":569,"id":"a65lpugq5b6e","visits 2009":14,"lat":34.1497,"state":"CA","long":-119.195584},"type":"Feature","geometry":{"type":"Point","coordinates":[-119.195584,34.1497]}},{"properties":{"city":"Portola Valley","growth":0.92,"rownum":570,"id":"a65lpu9303nz","visits 2009":14,"lat":37.380964,"state":"CA","long":-122.226507},"type":"Feature","geometry":{"type":"Point","coordinates":[-122.226507,37.380964]}},{"properties":{"city":"Richmond","growth":0.72,"rownum":571,"id":"a65lpul0j0mu","visits 2009":14,"lat":37.93781,"state":"CA","long":-122.342709},"type":"Feature","geometry":{"type":"Point","coordinates":[-122.342709,37.93781]}},{"properties":{"city":"Dorris","growth":0.69,"rownum":572,"id":"a65lpu8uv8xv","visits 2009":13,"lat":41.966843,"state":"CA","long":-121.918261},"type":"Feature","geometry":{"type":"Point","coordinates":[-121.918261,41.966843]}},{"properties":{"city":"Idyllwild","growth":0.41,"rownum":573,"id":"a65lpulsg5tp","visits 2009":13,"lat":33.746083,"state":"CA","long":-116.714711},"type":"Feature","geometry":{"type":"Point","coordinates":[-116.714711,33.746083]}},{"properties":{"city":"Mecca","growth":0.96,"rownum":574,"id":"a65lpu8sxex5","visits 2009":13,"lat":33.57196,"state":"CA","long":-116.073419},"type":"Feature","geometry":{"type":"Point","coordinates":[-116.073419,33.57196]}},{"properties":{"city":"San Joaquin","growth":0.58,"rownum":575,"id":"a65lpud8ai07","visits 2009":13,"lat":36.60726,"state":"CA","long":-120.188319},"type":"Feature","geometry":{"type":"Point","coordinates":[-120.188319,36.60726]}},{"properties":{"city":"Tahoe City","growth":0.56,"rownum":576,"id":"a65lpuemuuty","visits 2009":13,"lat":39.170676,"state":"CA","long":-120.141353},"type":"Feature","geometry":{"type":"Point","coordinates":[-120.141353,39.170676]}},{"properties":{"city":"Ducor","growth":0.52,"rownum":577,"id":"a65lpuab178s","visits 2009":12,"lat":35.8917,"state":"CA","long":-119.049714},"type":"Feature","geometry":{"type":"Point","coordinates":[-119.049714,35.8917]}},{"properties":{"city":"Hilmar","growth":0.33,"rownum":578,"id":"a65lpugq9xuz","visits 2009":12,"lat":37.41003,"state":"CA","long":-120.850054},"type":"Feature","geometry":{"type":"Point","coordinates":[-120.850054,37.41003]}},{"properties":{"city":"Pebble Beach","growth":0.52,"rownum":579,"id":"a65lpuhnwxem","visits 2009":12,"lat":36.569027,"state":"CA","long":-121.948853},"type":"Feature","geometry":{"type":"Point","coordinates":[-121.948853,36.569027]}},{"properties":{"city":"Penn Valley","growth":0.98,"rownum":580,"id":"a65lpuiaeag2","visits 2009":12,"lat":39.197235,"state":"CA","long":-121.177649},"type":"Feature","geometry":{"type":"Point","coordinates":[-121.177649,39.197235]}},{"properties":{"city":"Rosamond","growth":0.72,"rownum":581,"id":"a65lpufy3nog","visits 2009":12,"lat":34.864375,"state":"CA","long":-118.163994},"type":"Feature","geometry":{"type":"Point","coordinates":[-118.163994,34.864375]}},{"properties":{"city":"Sausalito","growth":0.2,"rownum":582,"id":"a65lpungmost","visits 2009":12,"lat":37.859245,"state":"CA","long":-122.488589},"type":"Feature","geometry":{"type":"Point","coordinates":[-122.488589,37.859245]}},{"properties":{"city":"Strathmore","growth":0.9,"rownum":583,"id":"a65lpumskwmx","visits 2009":12,"lat":36.146855,"state":"CA","long":-119.061524},"type":"Feature","geometry":{"type":"Point","coordinates":[-119.061524,36.146855]}},{"properties":{"city":"Big Bear City","growth":0.71,"rownum":584,"id":"a65lpukrrcgy","visits 2009":11,"lat":34.26112,"state":"CA","long":-116.845599},"type":"Feature","geometry":{"type":"Point","coordinates":[-116.845599,34.26112]}},{"properties":{"city":"Grass Valley","growth":0.71,"rownum":585,"id":"a65lpum6zggq","visits 2009":11,"lat":39.219267,"state":"CA","long":-121.061503},"type":"Feature","geometry":{"type":"Point","coordinates":[-121.061503,39.219267]}},{"properties":{"city":"Nipomo","growth":0.94,"rownum":586,"id":"a65lpudu7pmv","visits 2009":11,"lat":35.042515,"state":"CA","long":-120.476589},"type":"Feature","geometry":{"type":"Point","coordinates":[-120.476589,35.042515]}},{"properties":{"city":"Ojai","growth":0.25,"rownum":587,"id":"a65lpu85gn7l","visits 2009":11,"lat":34.443377,"state":"CA","long":-119.246615},"type":"Feature","geometry":{"type":"Point","coordinates":[-119.246615,34.443377]}},{"properties":{"city":"Penngrove","growth":0.29,"rownum":588,"id":"a65lpucritri","visits 2009":11,"lat":38.29604,"state":"CA","long":-122.666445},"type":"Feature","geometry":{"type":"Point","coordinates":[-122.666445,38.29604]}},{"properties":{"city":"Point Mugu Nawc","growth":0.15,"rownum":589,"id":"a65lpujn9is7","visits 2009":11,"lat":34.136379,"state":"CA","long":-119.101346},"type":"Feature","geometry":{"type":"Point","coordinates":[-119.101346,34.136379]}},{"properties":{"city":"Ross","growth":0.56,"rownum":590,"id":"a65lpu8feex2","visits 2009":11,"lat":37.962715,"state":"CA","long":-122.555944},"type":"Feature","geometry":{"type":"Point","coordinates":[-122.555944,37.962715]}},{"properties":{"city":"Blairsden-Graeagle","growth":0.62,"rownum":591,"id":"a65lpujg1bo6","visits 2009":10,"lat":39.773536,"state":"CA","long":-120.620339},"type":"Feature","geometry":{"type":"Point","coordinates":[-120.620339,39.773536]}},{"properties":{"city":"Coloma","growth":0.18,"rownum":592,"id":"a65lpu8qqm7c","visits 2009":10,"lat":38.799595,"state":"CA","long":-120.889849},"type":"Feature","geometry":{"type":"Point","coordinates":[-120.889849,38.799595]}},{"properties":{"city":"Etna","growth":0.22,"rownum":593,"id":"a65lpui2b4el","visits 2009":10,"lat":41.457113,"state":"CA","long":-122.892827},"type":"Feature","geometry":{"type":"Point","coordinates":[-122.892827,41.457113]}},{"properties":{"city":"Greenfield","growth":0.57,"rownum":594,"id":"a65lpul2u05d","visits 2009":10,"lat":36.318599,"state":"CA","long":-121.241474},"type":"Feature","geometry":{"type":"Point","coordinates":[-121.241474,36.318599]}},{"properties":{"city":"Los Molinos","growth":0.74,"rownum":595,"id":"a65lpuh03shl","visits 2009":10,"lat":40.022535,"state":"CA","long":-122.099809},"type":"Feature","geometry":{"type":"Point","coordinates":[-122.099809,40.022535]}},{"properties":{"city":"Needles","growth":0.92,"rownum":596,"id":"a65lpuazd1tz","visits 2009":10,"lat":34.83847,"state":"CA","long":-114.604334},"type":"Feature","geometry":{"type":"Point","coordinates":[-114.604334,34.83847]}},{"properties":{"city":"Newman","growth":0.4,"rownum":597,"id":"a65lpujz5rdz","visits 2009":10,"lat":37.316845,"state":"CA","long":-121.021824},"type":"Feature","geometry":{"type":"Point","coordinates":[-121.021824,37.316845]}},{"properties":{"city":"Oakdale","growth":0.28,"rownum":598,"id":"a65lpu97yjyl","visits 2009":10,"lat":37.7684,"state":"CA","long":-120.848224},"type":"Feature","geometry":{"type":"Point","coordinates":[-120.848224,37.7684]}},{"properties":{"city":"Dos Palos","growth":0.12,"rownum":599,"id":"a65lpujzdfbp","visits 2009":9,"lat":36.98545,"state":"CA","long":-120.627789},"type":"Feature","geometry":{"type":"Point","coordinates":[-120.627789,36.98545]}},{"properties":{"city":"Frazier Park","growth":0.7,"rownum":600,"id":"a65lpunlu4ls","visits 2009":9,"lat":34.820347,"state":"CA","long":-118.944484},"type":"Feature","geometry":{"type":"Point","coordinates":[-118.944484,34.820347]}},{"properties":{"city":"Mendota","growth":0.67,"rownum":601,"id":"a65lpuh9s47d","visits 2009":9,"lat":36.753705,"state":"CA","long":-120.378424},"type":"Feature","geometry":{"type":"Point","coordinates":[-120.378424,36.753705]}},{"properties":{"city":"North Palm Springs","growth":0.45,"rownum":602,"id":"a65lpum9oc2j","visits 2009":9,"lat":33.90835,"state":"CA","long":-116.545373},"type":"Feature","geometry":{"type":"Point","coordinates":[-116.545373,33.90835]}},{"properties":{"city":"Pala","growth":0.12,"rownum":603,"id":"a65lpu7lbjm8","visits 2009":9,"lat":33.364075,"state":"CA","long":-117.076269},"type":"Feature","geometry":{"type":"Point","coordinates":[-117.076269,33.364075]}},{"properties":{"city":"Phillipsville","growth":1.0,"rownum":604,"id":"a65lpummf7ze","visits 2009":9,"lat":40.208555,"state":"CA","long":-123.785903},"type":"Feature","geometry":{"type":"Point","coordinates":[-123.785903,40.208555]}},{"properties":{"city":"Pinecrest","growth":0.3,"rownum":605,"id":"a65lpud6cs8v","visits 2009":9,"lat":38.18905,"state":"CA","long":-120.001834},"type":"Feature","geometry":{"type":"Point","coordinates":[-120.001834,38.18905]}},{"properties":{"city":"Port Costa","growth":0.61,"rownum":606,"id":"a65lpuaocaen","visits 2009":9,"lat":38.046136,"state":"CA","long":-122.183925},"type":"Feature","geometry":{"type":"Point","coordinates":[-122.183925,38.046136]}},{"properties":{"city":"Thornton","growth":0.11,"rownum":607,"id":"a65lpumdfrjn","visits 2009":9,"lat":38.225387,"state":"CA","long":-121.423358},"type":"Feature","geometry":{"type":"Point","coordinates":[-121.423358,38.225387]}},{"properties":{"city":"Woodbridge","growth":0.4,"rownum":608,"id":"a65lpuhip7l9","visits 2009":9,"lat":38.153369,"state":"CA","long":-121.300974},"type":"Feature","geometry":{"type":"Point","coordinates":[-121.300974,38.153369]}},{"properties":{"city":"(not set)","growth":0.58,"rownum":609,"id":"a65lpubmfhrx","visits 2009":8,"lat":37.271832,"state":"CA","long":-119.270203},"type":"Feature","geometry":{"type":"Point","coordinates":[-119.270203,37.271832]}},{"properties":{"city":"Alturas","growth":0.74,"rownum":610,"id":"a65lpujsgcr3","visits 2009":8,"lat":41.49407,"state":"CA","long":-120.542609},"type":"Feature","geometry":{"type":"Point","coordinates":[-120.542609,41.49407]}},{"properties":{"city":"Boron","growth":0.85,"rownum":611,"id":"a65lpuc0joy0","visits 2009":8,"lat":34.99946,"state":"CA","long":-117.647884},"type":"Feature","geometry":{"type":"Point","coordinates":[-117.647884,34.99946]}},{"properties":{"city":"Firebaugh","growth":0.88,"rownum":612,"id":"a65lpu7yo1vo","visits 2009":8,"lat":36.855705,"state":"CA","long":-120.454754},"type":"Feature","geometry":{"type":"Point","coordinates":[-120.454754,36.855705]}},{"properties":{"city":"Knightsen","growth":0.96,"rownum":613,"id":"a65lpu9r6b5y","visits 2009":8,"lat":37.96882,"state":"CA","long":-121.665199},"type":"Feature","geometry":{"type":"Point","coordinates":[-121.665199,37.96882]}},{"properties":{"city":"Live Oak","growth":0.36,"rownum":614,"id":"a65lpuhtb0fg","visits 2009":8,"lat":39.276825,"state":"CA","long":-121.661299},"type":"Feature","geometry":{"type":"Point","coordinates":[-121.661299,39.276825]}},{"properties":{"city":"Thermal","growth":0.15,"rownum":615,"id":"a65lpuje6dxp","visits 2009":8,"lat":33.64207,"state":"CA","long":-116.142314},"type":"Feature","geometry":{"type":"Point","coordinates":[-116.142314,33.64207]}},{"properties":{"city":"Westwood","growth":0.54,"rownum":616,"id":"a65lpul3nb44","visits 2009":8,"lat":40.303175,"state":"CA","long":-121.000575},"type":"Feature","geometry":{"type":"Point","coordinates":[-121.000575,40.303175]}},{"properties":{"city":"Edwards","growth":0.65,"rownum":617,"id":"a65lpunjquc9","visits 2009":7,"lat":34.92778,"state":"CA","long":-117.939074},"type":"Feature","geometry":{"type":"Point","coordinates":[-117.939074,34.92778]}},{"properties":{"city":"Loyalton","growth":0.86,"rownum":618,"id":"a65lpuhhdjuz","visits 2009":7,"lat":39.675957,"state":"CA","long":-120.244589},"type":"Feature","geometry":{"type":"Point","coordinates":[-120.244589,39.675957]}},{"properties":{"city":"North Fork","growth":0.38,"rownum":619,"id":"a65lpuk9vcxm","visits 2009":7,"lat":37.228106,"state":"CA","long":-119.509685},"type":"Feature","geometry":{"type":"Point","coordinates":[-119.509685,37.228106]}},{"properties":{"city":"Plymouth","growth":0.7,"rownum":620,"id":"a65lpu9ibutm","visits 2009":7,"lat":38.480303,"state":"CA","long":-120.845875},"type":"Feature","geometry":{"type":"Point","coordinates":[-120.845875,38.480303]}},{"properties":{"city":"San Lucas","growth":0.95,"rownum":621,"id":"a65lpud49jvk","visits 2009":7,"lat":36.128905,"state":"CA","long":-121.019664},"type":"Feature","geometry":{"type":"Point","coordinates":[-121.019664,36.128905]}},{"properties":{"city":"Trabuco Canyon","growth":0.95,"rownum":622,"id":"a65lpu99p9dy","visits 2009":7,"lat":33.660923,"state":"CA","long":-117.590219},"type":"Feature","geometry":{"type":"Point","coordinates":[-117.590219,33.660923]}},{"properties":{"city":"Yountville","growth":0.88,"rownum":623,"id":"a65lpukhsfxo","visits 2009":7,"lat":38.403455,"state":"CA","long":-122.361839},"type":"Feature","geometry":{"type":"Point","coordinates":[-122.361839,38.403455]}},{"properties":{"city":"Arnold","growth":0.59,"rownum":624,"id":"a65lpumbsi8w","visits 2009":6,"lat":38.256099,"state":"CA","long":-120.349537},"type":"Feature","geometry":{"type":"Point","coordinates":[-120.349537,38.256099]}},{"properties":{"city":"Arvin","growth":0.52,"rownum":625,"id":"a65lpucy3ka9","visits 2009":6,"lat":35.209027,"state":"CA","long":-118.828986},"type":"Feature","geometry":{"type":"Point","coordinates":[-118.828986,35.209027]}},{"properties":{"city":"Bridgeport","growth":0.97,"rownum":626,"id":"a65lpu8cf50g","visits 2009":6,"lat":38.25591,"state":"CA","long":-119.227639},"type":"Feature","geometry":{"type":"Point","coordinates":[-119.227639,38.25591]}},{"properties":{"city":"Felton","growth":0.66,"rownum":627,"id":"a65lpuanzaw7","visits 2009":6,"lat":37.05039,"state":"CA","long":-122.073254},"type":"Feature","geometry":{"type":"Point","coordinates":[-122.073254,37.05039]}},{"properties":{"city":"Five Points","growth":0.26,"rownum":628,"id":"a65lpuaxcfo6","visits 2009":6,"lat":36.42938,"state":"CA","long":-120.103069},"type":"Feature","geometry":{"type":"Point","coordinates":[-120.103069,36.42938]}},{"properties":{"city":"Greenville","growth":0.16,"rownum":629,"id":"a65lpumotcg6","visits 2009":6,"lat":40.139977,"state":"CA","long":-120.951252},"type":"Feature","geometry":{"type":"Point","coordinates":[-120.951252,40.139977]}},{"properties":{"city":"Hughson","growth":0.58,"rownum":630,"id":"a65lpumsr0w8","visits 2009":6,"lat":37.596785,"state":"CA","long":-120.863729},"type":"Feature","geometry":{"type":"Point","coordinates":[-120.863729,37.596785]}}],"is_temporal":false,"author":{"url":"","metadata":"","contact_name":"","contact_address":"","source":"","contact_phone":""},"source":"","pagination":{"sort":null,"start":0,"total":630,"limit":1000000},"state":"complete","tags":"","published":"2014-08-10T14:21:45-04:00","id":11864}