{"type":"FeatureCollection","data_type":"Dataset","url_type":null,"permissions":[{"permissions":{"download":true,"view":true},"group_id":"everyone"}],"classification":null,"title":"Ensign - Flagstone","count":17,"stream_id":11870,"contributor":{"url":"http://geocommons.com/users/618","name":"jusgra98"},"data_attributes":null,"calculation_params":null,"icon_link":null,"link":"http://geocommons.com/overlays/11870.json","extent":[-118.185,32.7373,-117.018,33.9674],"geometry_types":["point"],"unique_name":null,"name":"Ensign - Flagstone","feature_count":17,"description":"","next_feature":null,"is_raster":false,"short_classification":"Y","stats":{"zipcode":{"max":92648,"mean":91524.1764705882,"variance":812228.154411765,"stdev":901.237013449717,"min":90240,"median":91945},"lat":{"max":33.967392,"mean":33.5647755882353,"variance":0.185868401331007,"stdev":0.431124577507485,"min":32.737303,"median":33.689806},"long":{"max":-117.018375,"mean":-117.763052882353,"variance":0.202704267756111,"stdev":0.450226906965933,"min":-118.184943,"median":-117.991211}},"features":[{"properties":{"city":"Whittier","zipcode":90603,"facility":"Whittier Hills","url":"10.124.15.1","color":"Blue","phone":"(562) 947-7817","id":"a64y7lgwqz98","address":"10426 Bogardus Avenue","group":"Flagstone","lat":33.941878,"state":"CA","long":-117.98408},"type":"Feature","geometry":{"type":"Point","coordinates":[-117.98408,33.941878]}},{"properties":{"city":"Norwalk","zipcode":90650,"facility":"Southland","url":"10.124.9.1","color":"Blue","phone":"(562) 868-9761","id":"a64y7ldalwru","address":"11701 Studebaker Road","group":"Flagstone","lat":33.925851,"state":"CA","long":-118.099486},"type":"Feature","geometry":{"type":"Point","coordinates":[-118.099486,33.925851]}},{"properties":{"city":"Norwalk","zipcode":90650,"facility":"Southland Home","url":"10.124.9.1","color":"Blue","phone":"(562) 868-9761","id":"a64y7l3fxgqq","address":"11701 Studebaker Road","group":"Flagstone","lat":33.925851,"state":"CA","long":-118.099486},"type":"Feature","geometry":{"type":"Point","coordinates":[-118.099486,33.925851]}},{"properties":{"city":"San Diego","zipcode":92128,"facility":"Carmel Mountain","url":"10.124.55.1","color":"Blue","phone":"(858) 673-0101","id":"a64y7l6sgku3","address":"11895 Avenue of Industry","group":"Flagstone","lat":32.990563,"state":"CA","long":-117.075418},"type":"Feature","geometry":{"type":"Point","coordinates":[-117.075418,32.990563]}},{"properties":{"city":"Whittier","zipcode":90606,"facility":"Rose Villa","url":"10.124.30.1","color":"Blue","phone":"(562) 925-4252","id":"a64y7leb6izs","address":"12385 East Washington Blvd.","group":"Flagstone","lat":33.967392,"state":"CA","long":-118.048671},"type":"Feature","geometry":{"type":"Point","coordinates":[-118.048671,33.967392]}},{"properties":{"city":"Huntington Beach","zipcode":92648,"facility":"Sea Cliff","url":"10.124.33.1","color":"Blue","phone":"(714) 847-3515","id":"a64y7l7pfch8","address":"18811 Florida Street","group":"Flagstone","lat":33.689806,"state":"CA","long":-117.991211},"type":"Feature","geometry":{"type":"Point","coordinates":[-117.991211,33.689806]}},{"properties":{"city":"Huntington Beach","zipcode":92648,"facility":"Sea Cliff ALF","url":"10.124.33.1","color":"Blue","phone":"(714) 847-3515","id":"a64y7lhloh55","address":"18811 Florida Street","group":"Flagstone","lat":33.689806,"state":"CA","long":-117.991211},"type":"Feature","geometry":{"type":"Point","coordinates":[-117.991211,33.689806]}},{"properties":{"city":"Vista","zipcode":92083,"facility":"Vista Knoll","url":"10.124.44.1","color":"Blue","phone":"(760) 630-2273","id":"a64y7lbg3dnd","address":"2000 Westwood Road","group":"Flagstone","lat":33.191999,"state":"CA","long":-117.286144},"type":"Feature","geometry":{"type":"Point","coordinates":[-117.286144,33.191999]}},{"properties":{"city":"Escondido","zipcode":92025,"facility":"Palomar Vista","url":"10.124.34.1","color":"Blue","phone":"(760) 746-0303","id":"a64y7lhiikp1","address":"201 North Fig Street","group":"Flagstone","lat":33.125954,"state":"CA","long":-117.073436},"type":"Feature","geometry":{"type":"Point","coordinates":[-117.073436,33.125954]}},{"properties":{"city":"Laguna Hills","zipcode":92637,"facility":"Palm Terrace","url":"10.124.50.1","color":"Blue","phone":"(949) 587-9000","id":"a64y7lh74cl9","address":"24962 Calle Aragon","group":"Flagstone","lat":33.599582,"state":"CA","long":-117.715263},"type":"Feature","geometry":{"type":"Point","coordinates":[-117.715263,33.599582]}},{"properties":{"city":"Long Beach","zipcode":90806,"facility":"Atlantic Memorial","url":"10.124.26.1","color":"Blue","phone":"(562) 424-8101","id":"a64y7l57pkxg","address":"2750 Atlantic Avenue","group":"Flagstone","lat":33.807013,"state":"CA","long":-118.184943},"type":"Feature","geometry":{"type":"Point","coordinates":[-118.184943,33.807013]}},{"properties":{"city":"San Diego","zipcode":92105,"facility":"Arroyo Vista","url":"10.124.43.1","color":"Blue","phone":"(619) 283-5855","id":"a64y7l3d16wt","address":"3022 45th Street","group":"Flagstone","lat":32.737303,"state":"CA","long":-117.097933},"type":"Feature","geometry":{"type":"Point","coordinates":[-117.097933,32.737303]}},{"properties":{"city":"Costa Mesa","zipcode":92627,"facility":"Victoria Healthcare (AKA- Costa Mesa)","url":"10.124.35.1","color":"Blue","phone":"(949) 642-0387","id":"a64y7lgo2mu5","address":"340 Victoria Street","group":"Flagstone","lat":33.652762,"state":"CA","long":-117.914301},"type":"Feature","geometry":{"type":"Point","coordinates":[-117.914301,33.652762]}},{"properties":{"city":"Long Beach","zipcode":90804,"facility":"Shoreline","url":"10.124.27.1","color":"Blue","phone":"(562) 494-4421","id":"a64y7l8j59bf","address":"4029 East Anaheim Street","group":"Flagstone","lat":33.782762,"state":"CA","long":-118.145547},"type":"Feature","geometry":{"type":"Point","coordinates":[-118.145547,33.782762]}},{"properties":{"city":"Lemon Grove","zipcode":91945,"facility":"Lemon Grove","url":"10.124.32.1","color":"Blue","phone":"(619) 463-0294","id":"a64y7l4zlwk7","address":"8351 Broadway","group":"Flagstone","lat":32.746315,"state":"CA","long":-117.018375},"type":"Feature","geometry":{"type":"Point","coordinates":[-117.018375,32.746315]}},{"properties":{"city":"Bellflower","zipcode":90706,"facility":"Royal Court","url":"10.124.14.1","color":"Blue","phone":"(562) 693-7701","id":"a64y7l5u6ccm","address":"9028 Rose Street","group":"Flagstone","lat":33.86945,"state":"CA","long":-118.141979},"type":"Feature","geometry":{"type":"Point","coordinates":[-118.141979,33.86945]}},{"properties":{"city":"Downy","zipcode":90240,"facility":"Brookfield","url":"10.124.31.1","color":"Blue","phone":"(562) 869-2567","id":"a64y7l2z0mee","address":"9300 Telegraph Road","group":"Flagstone","lat":33.956898,"state":"CA","long":-118.104415},"type":"Feature","geometry":{"type":"Point","coordinates":[-118.104415,33.956898]}}],"is_temporal":false,"author":{"url":"","metadata":"","contact_name":"","contact_address":"","source":"","contact_phone":""},"source":"","pagination":{"sort":null,"start":0,"total":17,"limit":1000000},"state":"complete","tags":"ensign,flagstone","published":"2014-08-10T14:22:51-04:00","id":11870}