{"type":"FeatureCollection","data_type":"Dataset","url_type":null,"permissions":[{"permissions":{"download":true,"view":true},"group_id":"everyone"}],"classification":null,"title":"Ensign - No. Pioneer","count":9,"stream_id":11873,"contributor":{"url":"http://geocommons.com/users/618","name":"jusgra98"},"data_attributes":null,"calculation_params":null,"icon_link":null,"link":"http://geocommons.com/overlays/11873.json","extent":[-123.855,38.2786,-118.346,47.8285],"geometry_types":["point"],"unique_name":null,"name":"Ensign - No. Pioneer","feature_count":9,"description":"","next_feature":null,"is_raster":false,"short_classification":"Y","stats":{"zipcode":{"max":99362,"mean":95403.5555555556,"variance":16561859.2777778,"stdev":4069.62642975713,"min":85405,"median":95482},"lat":{"max":47.828495,"mean":41.4856842222222,"variance":17.1252727419362,"stdev":4.13826929306639,"min":38.278602,"median":39.130479},"long":{"max":-118.346226,"mean":-122.434058333333,"variance":2.58338582769175,"stdev":1.60729145698338,"min":-123.855499,"median":-122.674532}},"features":[{"properties":{"city":"Sonoma","zipcode":95476,"facility":"Sonoma","url":"10.124.22.1","color":"Green","phone":"(707) 938-8406","id":"a6ed4kv3aqis","address":"1250 Broadway","group":"Northern Pioneer","lat":38.278602,"state":"CA","long":-122.459706},"type":"Feature","geometry":{"type":"Point","coordinates":[-122.459706,38.278602]}},{"properties":{"city":"Santa Rosa","zipcode":85405,"facility":"Summerfield","url":"10.124.16.1","color":"Green","phone":"(707) 539-1515","id":"a6ed4kn7nswu","address":"1280 Summerfield Road","group":"Northern Pioneer","lat":38.445468,"state":"CA","long":-122.664385},"type":"Feature","geometry":{"type":"Point","coordinates":[-122.664385,38.445468]}},{"properties":{"city":"Ukiah","zipcode":95482,"facility":"Ukiah","url":"10.124.23.1","color":"Green","phone":"(707) 462-8864","id":"a6ed4kq7gniz","address":"1349 South Dora Street","group":"Northern Pioneer","lat":39.130479,"state":"CA","long":-123.208611},"type":"Feature","geometry":{"type":"Point","coordinates":[-123.208611,39.130479]}},{"properties":{"city":"Walla Walla","zipcode":99362,"facility":"Park Manor","url":"10.124.12.1","color":"Green","phone":"(509) 529-4218","id":"a6ed4kwl7wlq","address":"1710 Plaza Way","group":"Northern Pioneer","lat":46.048003,"state":"WA","long":-118.346226},"type":"Feature","geometry":{"type":"Point","coordinates":[-118.346226,46.048003]}},{"properties":{"city":"Cloverdale","zipcode":95425,"facility":"Cloverdale","url":"10.124.21.1","color":"Green","phone":"(707) 894-5201","id":"a6ed4kr3517m","address":"300 Cherry Creek Road","group":"Northern Pioneer","lat":38.794896,"state":"CA","long":-123.024644},"type":"Feature","geometry":{"type":"Point","coordinates":[-123.024644,38.794896]}},{"properties":{"city":"Hoquiam","zipcode":98550,"facility":"Pacific Care","url":"10.124.54.1","color":"Green","phone":"(360) 532-7882","id":"a6ed4kyfvvq0","address":"3035 Cherry Street","group":"Northern Pioneer","lat":46.977087,"state":"WA","long":-123.855499},"type":"Feature","geometry":{"type":"Point","coordinates":[-123.855499,46.977087]}},{"properties":{"city":"Santa Rosa","zipcode":95405,"facility":"Park View Gardens","url":"10.124.18.1","color":"Green","phone":"(707) 525-1250","id":"a6ed4kqh4h7b","address":"3751 Montgomery Drive","group":"Northern Pioneer","lat":38.452649,"state":"CA","long":-122.674532},"type":"Feature","geometry":{"type":"Point","coordinates":[-122.674532,38.452649]}},{"properties":{"city":"Lynnwood","zipcode":98037,"facility":"Emerald Hills","url":"10.124.57.1","color":"Green","phone":"(425) 776-5512","id":"a6ed4ku7vdo0","address":"5821 188th Street SW","group":"Northern Pioneer","lat":47.828495,"state":"WA","long":-122.311054},"type":"Feature","geometry":{"type":"Point","coordinates":[-122.311054,47.828495]}},{"properties":{"city":"Willits","zipcode":95490,"facility":"Northbrook","url":"10.124.20.1","color":"Green","phone":"(707) 459-5592","id":"a6ed4kjcnoue","address":"64 Northbrook Way","group":"Northern Pioneer","lat":39.415479,"state":"CA","long":-123.361868},"type":"Feature","geometry":{"type":"Point","coordinates":[-123.361868,39.415479]}}],"is_temporal":false,"author":{"url":"","metadata":"","contact_name":"","contact_address":"","source":"","contact_phone":""},"source":"","pagination":{"sort":null,"start":0,"total":9,"limit":1000000},"state":"complete","tags":"ensign","published":"2014-08-10T14:22:52-04:00","id":11873}