{"type":"FeatureCollection","data_type":"Dataset","url_type":null,"permissions":[{"permissions":{"download":true,"view":true},"group_id":"everyone"}],"classification":null,"title":"Enisgn - Touchstone","count":14,"stream_id":11874,"contributor":{"url":"http://geocommons.com/users/618","name":"jusgra98"},"data_attributes":null,"calculation_params":null,"icon_link":null,"link":"http://geocommons.com/overlays/11874.json","extent":[-120.64,33.4113,-111.816,35.2669],"geometry_types":["point"],"unique_name":null,"name":"Enisgn - Touchstone","feature_count":14,"description":"","next_feature":null,"is_raster":false,"short_classification":"Y","stats":{"zipcode":{"max":93401,"mean":91318.0714285714,"variance":7076077.3021978,"stdev":2660.08971694524,"min":85201,"median":92264},"lat":{"max":35.266938,"mean":34.092362,"variance":0.188214558561539,"stdev":0.433837018431506,"min":33.411321,"median":34.106883},"long":{"max":-111.815697,"mean":-117.3275645,"variance":6.51258083167597,"stdev":2.55197586816098,"min":-120.640395,"median":-117.74566}},"features":[{"properties":{"city":"Glendora","zipcode":91740,"facility":"Arbor Glen","url":"10.124.17.1","color":"Red","phone":"(626) 963-7531","id":"a6k5vjfadkdc","address":"1033 East Arrow Hwy","group":"Touchstone","lat":34.106883,"state":"CA","long":-117.84207},"type":"Feature","geometry":{"type":"Point","coordinates":[-117.84207,34.106883]}},{"properties":{"city":"Redlands","zipcode":92373,"facility":"Brookside","url":"10.124.36.1","color":"Red","phone":"(909) 793-2271","id":"a6k5vjdapq7o","address":"105 Terracina Blvd.","group":"Touchstone","lat":34.04185,"state":"CA","long":-117.209931},"type":"Feature","geometry":{"type":"Point","coordinates":[-117.209931,34.04185]}},{"properties":{"city":"Upland","zipcode":91786,"facility":"Upland","url":"10.124.52.1","color":"Red","phone":"(909) 985-1903","id":"a6k5vjndxv6e","address":"1221 East Arrow Highway","group":"Touchstone","lat":34.099925,"state":"CA","long":-117.634977},"type":"Feature","geometry":{"type":"Point","coordinates":[-117.634977,34.099925]}},{"properties":{"city":"Oxnard","zipcode":93030,"facility":"Glenwood (AKA- Oxnard)","url":"10.124.48.1","color":"Red","phone":"(805) 983-0305","id":"a6k5vjhieemh","address":"1300 North C Street","group":"Touchstone","lat":34.214121,"state":"CA","long":-119.180817},"type":"Feature","geometry":{"type":"Point","coordinates":[-119.180817,34.214121]}},{"properties":{"city":"Camarillo","zipcode":93010,"facility":"Camarillo Care","url":"10.124.53.1","color":"Red","phone":"(805) 482-9805","id":"a6k5vjp1t3k5","address":"205 Granada Street","group":"Touchstone","lat":34.215132,"state":"CA","long":-119.053644},"type":"Feature","geometry":{"type":"Point","coordinates":[-119.053644,34.215132]}},{"properties":{"city":"Pomona","zipcode":91768,"facility":"Claremont","url":"10.124.42.1","color":"Red","phone":"(909) 593-1391","id":"a6k5vjf8vpua","address":"219 E. Foothill Blvd.","group":"Touchstone","lat":34.107423,"state":"CA","long":-117.74566},"type":"Feature","geometry":{"type":"Point","coordinates":[-117.74566,34.107423]}},{"properties":{"city":"Mesa","zipcode":85201,"facility":"Grand Court Mesa","url":"10.124.28.1","color":"Red","phone":"(480) 844-7336","id":"a6k5vjhwvvcl","address":"262 East Brown Road","group":"Touchstone","lat":33.435226,"state":"AZ","long":-111.825504},"type":"Feature","geometry":{"type":"Point","coordinates":[-111.825504,33.435226]}},{"properties":{"city":"Palm Springs","zipcode":92264,"facility":"Premier Care","url":"10.124.19.1","color":"Red","phone":"(760) 323-2638","id":"a6k5vjo7b8f6","address":"2990 East Ramon Road","group":"Touchstone","lat":33.816186,"state":"CA","long":-116.513173},"type":"Feature","geometry":{"type":"Point","coordinates":[-116.513173,33.816186]}},{"properties":{"city":"San Luis Obispo","zipcode":93401,"facility":"Cabrillo","url":"10.124.72.1","color":"Red","phone":"(805) 544-5100","id":"a6k5vjhpuiq1","address":"3033 Augusta Street","group":"Touchstone","lat":35.266938,"state":"CA","long":-120.640395},"type":"Feature","geometry":{"type":"Point","coordinates":[-120.640395,35.266938]}},{"properties":{"city":"Riverside","zipcode":92501,"facility":"Plymouth Tower","url":"10.124.74.1","color":"Red","phone":"(951) 686-8204","id":"a6k5vjksv9qn","address":"3401 Lemon Street","group":"Touchstone","lat":33.984673,"state":"CA","long":-117.369712},"type":"Feature","geometry":{"type":"Point","coordinates":[-117.369712,33.984673]}},{"properties":{"city":"Rosemead","zipcode":91770,"facility":"Mission Care","url":"10.124.51.1","color":"Red","phone":"(626) 607-2400","id":"a6k5vjb2i1av","address":"4800 Delta Avenue","group":"Touchstone","lat":34.090585,"state":"CA","long":-118.086376},"type":"Feature","geometry":{"type":"Point","coordinates":[-118.086376,34.090585]}},{"properties":{"city":"Ventura","zipcode":93003,"facility":"Victoria Care (AKA- Ventura)","url":"10.124.49.1","color":"Red","phone":"(805) 642-1736","id":"a6k5vjf3nkhb","address":"5445 Everglades Street","group":"Touchstone","lat":34.258846,"state":"CA","long":-119.217546},"type":"Feature","geometry":{"type":"Point","coordinates":[-119.217546,34.258846]}},{"properties":{"city":"Mesa","zipcode":85204,"facility":"Greenfields ALF","url":"10.124.4.1","color":"Red","phone":"(480) 649-3911","id":"a6k5vjbihdpz","address":"723 East 2nd Ave.","group":"Touchstone","lat":33.411321,"state":"AZ","long":-111.815697},"type":"Feature","geometry":{"type":"Point","coordinates":[-111.815697,33.411321]}},{"properties":{"city":"Panorama City","zipcode":91402,"facility":"Panorama Gardens","url":"10.124.3.1","color":"Red","phone":"(818) 893-6385","id":"a6k5vjgfbtkh","address":"9541 Van Nuys Blvd.","group":"Touchstone","lat":34.243959,"state":"CA","long":-118.450401},"type":"Feature","geometry":{"type":"Point","coordinates":[-118.450401,34.243959]}}],"is_temporal":false,"author":{"url":"","metadata":"","contact_name":"","contact_address":"","source":"","contact_phone":""},"source":"","pagination":{"sort":null,"start":0,"total":14,"limit":1000000},"state":"complete","tags":"ensign,touchstone","published":"2014-08-10T14:22:53-04:00","id":11874}