{"type":"FeatureCollection","data_type":"Dataset","url_type":null,"permissions":[{"permissions":{"download":true,"view":true},"group_id":"everyone"}],"classification":null,"title":"GeoIQ100 ZIP+4","count":99,"stream_id":120317,"contributor":{"url":"http://geocommons.com/users/27467","name":"MegatronCupcakes"},"data_attributes":null,"calculation_params":null,"icon_link":null,"link":"http://geocommons.com/overlays/120317.json","extent":[-85.6491,38.2522,-85.6394,38.2572],"geometry_types":["point"],"unique_name":null,"name":"GeoIQ100 ZIP+4","feature_count":99,"description":"","next_feature":null,"is_raster":false,"short_classification":"Y","stats":{"id":{"max":99,"mean":50.0,"variance":825.0,"stdev":28.7228132326901,"min":1,"median":50},"4":{"max":5053,"mean":4342.0303030303,"variance":437415.968460112,"stdev":661.37430284228,"min":2250,"median":3916},"zipper":{"max":40207,"mean":40207.0,"variance":0.0,"stdev":0.0,"min":40207,"median":40207}},"features":[{"properties":{"unit #":"305","city":"LOUISVILLE","st":"KY","geo_score":0.911,"id":"a62fuu22jrgx","zip code":"40207-5038","address":"165 THIERMAN LN","4":5038,"geo_precision":"range","zipper":40207},"type":"Feature","geometry":{"type":"Point","coordinates":[-85.644686,38.255142]}},{"properties":{"unit #":null,"city":"LOUISVILLE","st":"KY","geo_score":0.911,"id":"a62futp5mwty","zip code":"40207-3902","address":"131 N HUBBARDS LN","4":3902,"geo_precision":"range","zipper":40207},"type":"Feature","geometry":{"type":"Point","coordinates":[-85.639897,38.252409]}},{"properties":{"unit #":null,"city":"LOUISVILLE","st":"KY","geo_score":0.911,"id":"a62fuu1f57zo","zip code":"40207-3908","address":"118 DON ALLEN RD","4":3908,"geo_precision":"range","zipper":40207},"type":"Feature","geometry":{"type":"Point","coordinates":[-85.641675,38.252764]}},{"properties":{"unit #":null,"city":"LOUISVILLE","st":"KY","geo_score":0.911,"id":"a62fuu21v3kt","zip code":"40207-3908","address":"118 DON ALLEN RD","4":3908,"geo_precision":"range","zipper":40207},"type":"Feature","geometry":{"type":"Point","coordinates":[-85.641675,38.252764]}},{"properties":{"unit #":null,"city":"LOUISVILLE","st":"KY","geo_score":0.911,"id":"a62futy1czbh","zip code":"40207-3910","address":"220 DON ALLEN RD","4":3910,"geo_precision":"range","zipper":40207},"type":"Feature","geometry":{"type":"Point","coordinates":[-85.640799,38.25464]}},{"properties":{"unit #":null,"city":"LOUISVILLE","st":"KY","geo_score":0.911,"id":"a62futtu5t3x","zip code":"40207-3910","address":"220 DON ALLEN RD","4":3910,"geo_precision":"range","zipper":40207},"type":"Feature","geometry":{"type":"Point","coordinates":[-85.640799,38.25464]}},{"properties":{"unit #":null,"city":"LOUISVILLE","st":"KY","geo_score":0.911,"id":"a62futyj2ynv","zip code":"40207-5004","address":"228 BROWN AVE","4":5004,"geo_precision":"range","zipper":40207},"type":"Feature","geometry":{"type":"Point","coordinates":[-85.647521,38.255235]}},{"properties":{"unit #":null,"city":"LOUISVILLE","st":"KY","geo_score":0.911,"id":"a62futrbdwul","zip code":"40207-5004","address":"228 BROWN AVE","4":5004,"geo_precision":"range","zipper":40207},"type":"Feature","geometry":{"type":"Point","coordinates":[-85.647521,38.255235]}},{"properties":{"unit #":null,"city":"LOUISVILLE","st":"KY","geo_score":0.911,"id":"a62futu3pqy9","zip code":"40207-5001","address":"121 BROWN AVE","4":5001,"geo_precision":"range","zipper":40207},"type":"Feature","geometry":{"type":"Point","coordinates":[-85.647815,38.25274]}},{"properties":{"unit #":null,"city":"LOUISVILLE","st":"KY","geo_score":0.911,"id":"a62futpg5wrj","zip code":"40207-5001","address":"121 BROWN AVE","4":5001,"geo_precision":"range","zipper":40207},"type":"Feature","geometry":{"type":"Point","coordinates":[-85.647815,38.25274]}},{"properties":{"unit #":null,"city":"LOUISVILLE","st":"KY","geo_score":0.911,"id":"a62futvfpc5e","zip code":"40207-3901","address":"111 DON ALLEN RD","4":3901,"geo_precision":"range","zipper":40207},"type":"Feature","geometry":{"type":"Point","coordinates":[-85.641861,38.25278]}},{"properties":{"unit #":null,"city":"LOUISVILLE","st":"KY","geo_score":0.911,"id":"a62futq9j17v","zip code":"40207-3901","address":"111 DON ALLEN RD","4":3901,"geo_precision":"range","zipper":40207},"type":"Feature","geometry":{"type":"Point","coordinates":[-85.641861,38.25278]}},{"properties":{"unit #":null,"city":"LOUISVILLE","st":"KY","geo_score":0.911,"id":"a62futoxhxfm","zip code":"40207-5021","address":"114 RIDGEWAY AVE","4":5021,"geo_precision":"range","zipper":40207},"type":"Feature","geometry":{"type":"Point","coordinates":[-85.649082,38.252697]}},{"properties":{"unit #":null,"city":"LOUISVILLE","st":"KY","geo_score":0.911,"id":"a62futusgkpi","zip code":"40207-2251","address":"220 N HUBBARDS LN","4":2251,"geo_precision":"range","zipper":40207},"type":"Feature","geometry":{"type":"Point","coordinates":[-85.639509,38.255843]}},{"properties":{"unit #":null,"city":"LOUISVILLE","st":"KY","geo_score":0.911,"id":"a62fuu1v27wn","zip code":"40207-5052","address":"4180 LYNDON WAY","4":5052,"geo_precision":"range","zipper":40207},"type":"Feature","geometry":{"type":"Point","coordinates":[-85.644016,38.256952]}},{"properties":{"unit #":null,"city":"LOUISVILLE","st":"KY","geo_score":0.911,"id":"a62futnq6gyo","zip code":"40207-5017","address":"219 RIDGEWAY AVE","4":5017,"geo_precision":"range","zipper":40207},"type":"Feature","geometry":{"type":"Point","coordinates":[-85.648765,38.255319]}},{"properties":{"unit #":null,"city":"LOUISVILLE","st":"KY","geo_score":0.911,"id":"a62futw31ptf","zip code":"40207-5004","address":"224 BROWN AVE","4":5004,"geo_precision":"range","zipper":40207},"type":"Feature","geometry":{"type":"Point","coordinates":[-85.647531,38.255131]}},{"properties":{"unit #":"203","city":"LOUISVILLE","st":"KY","geo_score":0.911,"id":"a62futytxtyn","zip code":"40207-5037","address":"4180 LYNDON WAY","4":5037,"geo_precision":"range","zipper":40207},"type":"Feature","geometry":{"type":"Point","coordinates":[-85.644016,38.256952]}},{"properties":{"unit #":"107","city":"LOUISVILLE","st":"KY","geo_score":0.911,"id":"a62futxj9zqz","zip code":"40207-5037","address":"4180 LYNDON WAY","4":5037,"geo_precision":"range","zipper":40207},"type":"Feature","geometry":{"type":"Point","coordinates":[-85.644016,38.256952]}},{"properties":{"unit #":"107","city":"LOUISVILLE","st":"KY","geo_score":0.911,"id":"a62futnvb1c3","zip code":"40207-5037","address":"4180 LYNDON WAY","4":5037,"geo_precision":"range","zipper":40207},"type":"Feature","geometry":{"type":"Point","coordinates":[-85.644016,38.256952]}},{"properties":{"unit #":null,"city":"LOUISVILLE","st":"KY","geo_score":0.911,"id":"a62fuu2dk9et","zip code":"40207-2250","address":"207 N HUBBARDS LN","4":2250,"geo_precision":"range","zipper":40207},"type":"Feature","geometry":{"type":"Point","coordinates":[-85.639624,38.254645]}},{"properties":{"unit #":null,"city":"LOUISVILLE","st":"KY","geo_score":0.911,"id":"a62futxx9cqo","zip code":"40207-5019","address":"202 RIDGEWAY AVE","4":5019,"geo_precision":"range","zipper":40207},"type":"Feature","geometry":{"type":"Point","coordinates":[-85.64883,38.254682]}},{"properties":{"unit #":null,"city":"LOUISVILLE","st":"KY","geo_score":0.911,"id":"a62futugjvdq","zip code":"40207-5019","address":"202 RIDGEWAY AVE","4":5019,"geo_precision":"range","zipper":40207},"type":"Feature","geometry":{"type":"Point","coordinates":[-85.64883,38.254682]}},{"properties":{"unit #":null,"city":"LOUISVILLE","st":"KY","geo_score":0.911,"id":"a62futvcal6v","zip code":"40207-3903","address":"122 N HUBBARDS LN","4":3903,"geo_precision":"range","zipper":40207},"type":"Feature","geometry":{"type":"Point","coordinates":[-85.639916,38.252206]}},{"properties":{"unit #":null,"city":"LOUISVILLE","st":"KY","geo_score":0.911,"id":"a62futoagt97","zip code":"40207-3920","address":"4120 LEDYARD RD","4":3920,"geo_precision":"range","zipper":40207},"type":"Feature","geometry":{"type":"Point","coordinates":[-85.642672,38.257179]}},{"properties":{"unit #":"2","city":"LOUISVILLE","st":"KY","geo_score":0.911,"id":"a62futs4jtq1","zip code":"40207-5024","address":"160 THIERMAN LN","4":5024,"geo_precision":"range","zipper":40207},"type":"Feature","geometry":{"type":"Point","coordinates":[-85.644693,38.255078]}},{"properties":{"unit #":"111","city":"LOUISVILLE","st":"KY","geo_score":0.911,"id":"a62futrpdcee","zip code":"40207-5031","address":"165 THIERMAN LN","4":5031,"geo_precision":"range","zipper":40207},"type":"Feature","geometry":{"type":"Point","coordinates":[-85.644686,38.255142]}},{"properties":{"unit #":null,"city":"LOUISVILLE","st":"KY","geo_score":0.911,"id":"a62futz2zynv","zip code":"40207-3918","address":"202 HEADY AVE","4":3918,"geo_precision":"range","zipper":40207},"type":"Feature","geometry":{"type":"Point","coordinates":[-85.641934,38.25435]}},{"properties":{"unit #":null,"city":"LOUISVILLE","st":"KY","geo_score":0.911,"id":"a62futyzsusi","zip code":"40207-3913","address":"211 GIBSON RD","4":3913,"geo_precision":"range","zipper":40207},"type":"Feature","geometry":{"type":"Point","coordinates":[-85.643012,38.254613]}},{"properties":{"unit #":"2H","city":"LOUISVILLE","st":"KY","geo_score":0.911,"id":"a62futrp5z3s","zip code":"40207-5035","address":"161 THIERMAN LN","4":5035,"geo_precision":"range","zipper":40207},"type":"Feature","geometry":{"type":"Point","coordinates":[-85.644708,38.254925]}},{"properties":{"unit #":"410","city":"LOUISVILLE","st":"KY","geo_score":0.911,"id":"a62futmmqfma","zip code":"40207-5042","address":"4180 LYNDON WAY","4":5042,"geo_precision":"range","zipper":40207},"type":"Feature","geometry":{"type":"Point","coordinates":[-85.644016,38.256952]}},{"properties":{"unit #":null,"city":"LOUISVILLE","st":"KY","geo_score":0.911,"id":"a62fuu0gute1","zip code":"40207-3910","address":"210 DON ALLEN RD","4":3910,"geo_precision":"range","zipper":40207},"type":"Feature","geometry":{"type":"Point","coordinates":[-85.640819,38.254431]}},{"properties":{"unit #":null,"city":"LOUISVILLE","st":"KY","geo_score":0.911,"id":"a62futmta05e","zip code":"40207-3910","address":"210 DON ALLEN RD","4":3910,"geo_precision":"range","zipper":40207},"type":"Feature","geometry":{"type":"Point","coordinates":[-85.640819,38.254431]}},{"properties":{"unit #":"305","city":"LOUISVILLE","st":"KY","geo_score":0.911,"id":"a62futlzm569","zip code":"40207-5038","address":"165 THIERMAN LN","4":5038,"geo_precision":"range","zipper":40207},"type":"Feature","geometry":{"type":"Point","coordinates":[-85.644686,38.255142]}},{"properties":{"unit #":null,"city":"LOUISVILLE","st":"KY","geo_score":0.911,"id":"a62futtfrb7k","zip code":"40207-3908","address":"132 DON ALLEN RD","4":3908,"geo_precision":"range","zipper":40207},"type":"Feature","geometry":{"type":"Point","coordinates":[-85.641183,38.252745]}},{"properties":{"unit #":null,"city":"LOUISVILLE","st":"KY","geo_score":0.911,"id":"a62futz1k08u","zip code":"40207-3901","address":"125 DON ALLEN RD","4":3901,"geo_precision":"range","zipper":40207},"type":"Feature","geometry":{"type":"Point","coordinates":[-85.641535,38.252752]}},{"properties":{"unit #":null,"city":"LOUISVILLE","st":"KY","geo_score":0.911,"id":"a62futq2x5k3","zip code":"40207-5003","address":"221 BROWN AVE","4":5003,"geo_precision":"range","zipper":40207},"type":"Feature","geometry":{"type":"Point","coordinates":[-85.647542,38.255026]}},{"properties":{"unit #":null,"city":"LOUISVILLE","st":"KY","geo_score":0.911,"id":"a62futnop8yy","zip code":"40207-5003","address":"221 BROWN AVE","4":5003,"geo_precision":"range","zipper":40207},"type":"Feature","geometry":{"type":"Point","coordinates":[-85.647542,38.255026]}},{"properties":{"unit #":null,"city":"LOUISVILLE","st":"KY","geo_score":0.911,"id":"a62futzhdl0c","zip code":"40207-3906","address":"4183 BLENHEIM RD","4":3906,"geo_precision":"range","zipper":40207},"type":"Feature","geometry":{"type":"Point","coordinates":[-85.643196,38.256642]}},{"properties":{"unit #":null,"city":"LOUISVILLE","st":"KY","geo_score":0.911,"id":"a62futwcau77","zip code":"40207-3906","address":"4183 BLENHEIM RD","4":3906,"geo_precision":"range","zipper":40207},"type":"Feature","geometry":{"type":"Point","coordinates":[-85.643196,38.256642]}},{"properties":{"unit #":null,"city":"LOUISVILLE","st":"KY","geo_score":0.911,"id":"a62futmfxmgm","zip code":"40207-5020","address":"107 RIDGEWAY AVE","4":5020,"geo_precision":"range","zipper":40207},"type":"Feature","geometry":{"type":"Point","coordinates":[-85.649118,38.252517]}},{"properties":{"unit #":null,"city":"LOUISVILLE","st":"KY","geo_score":0.878,"id":"a62futx06vpp","zip code":"40207-5004","address":"220 BROWN AVE  1","4":5004,"geo_precision":"range","zipper":40207},"type":"Feature","geometry":{"type":"Point","coordinates":[-85.647542,38.255026]}},{"properties":{"unit #":null,"city":"LOUISVILLE","st":"KY","geo_score":0.911,"id":"a62futwc57c1","zip code":"40207-3911","address":"123 GIBSON RD","4":3911,"geo_precision":"range","zipper":40207},"type":"Feature","geometry":{"type":"Point","coordinates":[-85.642691,38.252861]}},{"properties":{"unit #":null,"city":"LOUISVILLE","st":"KY","geo_score":0.911,"id":"a62futp2n7y7","zip code":"40207-5021","address":"110 RIDGEWAY AVE","4":5021,"geo_precision":"range","zipper":40207},"type":"Feature","geometry":{"type":"Point","coordinates":[-85.649103,38.252607]}},{"properties":{"unit #":null,"city":"LOUISVILLE","st":"KY","geo_score":0.911,"id":"a62futse413s","zip code":"40207-5021","address":"110 RIDGEWAY AVE","4":5021,"geo_precision":"range","zipper":40207},"type":"Feature","geometry":{"type":"Point","coordinates":[-85.649103,38.252607]}},{"properties":{"unit #":null,"city":"LOUISVILLE","st":"KY","geo_score":0.911,"id":"a62futopptkd","zip code":"40207-5021","address":"110 RIDGEWAY AVE","4":5021,"geo_precision":"range","zipper":40207},"type":"Feature","geometry":{"type":"Point","coordinates":[-85.649103,38.252607]}},{"properties":{"unit #":null,"city":"LOUISVILLE","st":"KY","geo_score":0.911,"id":"a62futohe2e3","zip code":"40207-3914","address":"204 GIBSON RD","4":3914,"geo_precision":"range","zipper":40207},"type":"Feature","geometry":{"type":"Point","coordinates":[-85.643025,38.254484]}},{"properties":{"unit #":null,"city":"LOUISVILLE","st":"KY","geo_score":0.911,"id":"a62futtv9xoa","zip code":"40207-3914","address":"204 GIBSON RD","4":3914,"geo_precision":"range","zipper":40207},"type":"Feature","geometry":{"type":"Point","coordinates":[-85.643025,38.254484]}},{"properties":{"unit #":null,"city":"LOUISVILLE","st":"KY","geo_score":0.911,"id":"a62fuu0iwcwe","zip code":"40207-3913","address":"215 GIBSON RD","4":3913,"geo_precision":"range","zipper":40207},"type":"Feature","geometry":{"type":"Point","coordinates":[-85.643004,38.2547]}},{"properties":{"unit #":"204","city":"LOUISVILLE","st":"KY","geo_score":0.911,"id":"a62futoof2yw","zip code":"40207-5037","address":"4180 LYNDON WAY","4":5037,"geo_precision":"range","zipper":40207},"type":"Feature","geometry":{"type":"Point","coordinates":[-85.644016,38.256952]}},{"properties":{"unit #":"101","city":"LOUISVILLE","st":"KY","geo_score":0.911,"id":"a62futxi45zs","zip code":"40207-5053","address":"153 THIERMAN LN","4":5053,"geo_precision":"range","zipper":40207},"type":"Feature","geometry":{"type":"Point","coordinates":[-85.64475,38.25449]}},{"properties":{"unit #":null,"city":"LOUISVILLE","st":"KY","geo_score":0.911,"id":"a62futqxyx7t","zip code":"40207-3903","address":"126 N HUBBARDS LN","4":3903,"geo_precision":"range","zipper":40207},"type":"Feature","geometry":{"type":"Point","coordinates":[-85.639906,38.252307]}},{"properties":{"unit #":null,"city":"LOUISVILLE","st":"KY","geo_score":0.911,"id":"a62fuu0xslad","zip code":"40207-3903","address":"126 N HUBBARDS LN","4":3903,"geo_precision":"range","zipper":40207},"type":"Feature","geometry":{"type":"Point","coordinates":[-85.639906,38.252307]}},{"properties":{"unit #":null,"city":"LOUISVILLE","st":"KY","geo_score":0.911,"id":"a62futmavtgj","zip code":"40207-2251","address":"224 N HUBBARDS LN","4":2251,"geo_precision":"range","zipper":40207},"type":"Feature","geometry":{"type":"Point","coordinates":[-85.63941,38.256184]}},{"properties":{"unit #":null,"city":"LOUISVILLE","st":"KY","geo_score":0.911,"id":"a62futxwecn0","zip code":"40207-5052","address":"4180 LYNDON WAY","4":5052,"geo_precision":"range","zipper":40207},"type":"Feature","geometry":{"type":"Point","coordinates":[-85.644016,38.256952]}},{"properties":{"unit #":"601","city":"LOUISVILLE","st":"KY","geo_score":0.911,"id":"a62futpyufeq","zip code":"40207-5053","address":"153 THIERMAN LN","4":5053,"geo_precision":"range","zipper":40207},"type":"Feature","geometry":{"type":"Point","coordinates":[-85.64475,38.25449]}},{"properties":{"unit #":null,"city":"LOUISVILLE","st":"KY","geo_score":0.911,"id":"a62futyot6fi","zip code":"40207-3913","address":"213 GIBSON RD","4":3913,"geo_precision":"range","zipper":40207},"type":"Feature","geometry":{"type":"Point","coordinates":[-85.643008,38.254657]}},{"properties":{"unit #":null,"city":"LOUISVILLE","st":"KY","geo_score":0.911,"id":"a62fuu154k06","zip code":"40207-3908","address":"126 DON ALLEN RD","4":3908,"geo_precision":"range","zipper":40207},"type":"Feature","geometry":{"type":"Point","coordinates":[-85.641488,38.252748]}},{"properties":{"unit #":null,"city":"LOUISVILLE","st":"KY","geo_score":0.911,"id":"a62futv3ry9p","zip code":"40207-3916","address":"128 HEADY AVE","4":3916,"geo_precision":"range","zipper":40207},"type":"Feature","geometry":{"type":"Point","coordinates":[-85.642101,38.25302]}},{"properties":{"unit #":null,"city":"LOUISVILLE","st":"KY","geo_score":0.911,"id":"a62futtgbihp","zip code":"40207-3916","address":"128 HEADY AVE","4":3916,"geo_precision":"range","zipper":40207},"type":"Feature","geometry":{"type":"Point","coordinates":[-85.642101,38.25302]}},{"properties":{"unit #":null,"city":"LOUISVILLE","st":"KY","geo_score":0.911,"id":"a62futqv746l","zip code":"40207-3916","address":"124 HEADY AVE","4":3916,"geo_precision":"range","zipper":40207},"type":"Feature","geometry":{"type":"Point","coordinates":[-85.642107,38.252947]}},{"properties":{"unit #":null,"city":"LOUISVILLE","st":"KY","geo_score":0.911,"id":"a62futs28n6h","zip code":"40207-3916","address":"124 HEADY AVE","4":3916,"geo_precision":"range","zipper":40207},"type":"Feature","geometry":{"type":"Point","coordinates":[-85.642107,38.252947]}},{"properties":{"unit #":"2H","city":"LOUISVILLE","st":"KY","geo_score":0.911,"id":"a62fuu1bsotm","zip code":"40207-5035","address":"161 THIERMAN LN","4":5035,"geo_precision":"range","zipper":40207},"type":"Feature","geometry":{"type":"Point","coordinates":[-85.644708,38.254925]}},{"properties":{"unit #":null,"city":"LOUISVILLE","st":"KY","geo_score":0.911,"id":"a62futw8hkmm","zip code":"40207-3914","address":"200 GIBSON RD","4":3914,"geo_precision":"range","zipper":40207},"type":"Feature","geometry":{"type":"Point","coordinates":[-85.643026,38.254397]}},{"properties":{"unit #":null,"city":"LOUISVILLE","st":"KY","geo_score":0.911,"id":"a62fuu0nnl8b","zip code":"40207-5004","address":"226 BROWN AVE","4":5004,"geo_precision":"range","zipper":40207},"type":"Feature","geometry":{"type":"Point","coordinates":[-85.647526,38.255183]}},{"properties":{"unit #":null,"city":"LOUISVILLE","st":"KY","geo_score":0.911,"id":"a62futw9mkvo","zip code":"40207-5002","address":"138 BROWN AVE","4":5002,"geo_precision":"range","zipper":40207},"type":"Feature","geometry":{"type":"Point","coordinates":[-85.647767,38.253147]}},{"properties":{"unit #":null,"city":"LOUISVILLE","st":"KY","geo_score":0.911,"id":"a62futyvsdks","zip code":"40207-3906","address":"4197 BLENHEIM RD","4":3906,"geo_precision":"range","zipper":40207},"type":"Feature","geometry":{"type":"Point","coordinates":[-85.643196,38.256642]}},{"properties":{"unit #":null,"city":"LOUISVILLE","st":"KY","geo_score":0.911,"id":"a62futyvy8f8","zip code":"40207-3906","address":"4197 BLENHEIM RD","4":3906,"geo_precision":"range","zipper":40207},"type":"Feature","geometry":{"type":"Point","coordinates":[-85.643196,38.256642]}},{"properties":{"unit #":null,"city":"LOUISVILLE","st":"KY","geo_score":0.911,"id":"a62fuu02rfi0","zip code":"40207-5002","address":"138 BROWN AVE","4":5002,"geo_precision":"range","zipper":40207},"type":"Feature","geometry":{"type":"Point","coordinates":[-85.647767,38.253147]}},{"properties":{"unit #":"105","city":"LOUISVILLE","st":"KY","geo_score":0.911,"id":"a62futpo3te2","zip code":"40207-5033","address":"153 THIERMAN LN","4":5033,"geo_precision":"range","zipper":40207},"type":"Feature","geometry":{"type":"Point","coordinates":[-85.64475,38.25449]}},{"properties":{"unit #":null,"city":"LOUISVILLE","st":"KY","geo_score":0.911,"id":"a62futtphbhn","zip code":"40207-3909","address":"205 DON ALLEN RD","4":3909,"geo_precision":"range","zipper":40207},"type":"Feature","geometry":{"type":"Point","coordinates":[-85.640831,38.254305]}},{"properties":{"unit #":null,"city":"LOUISVILLE","st":"KY","geo_score":0.911,"id":"a62futx4v4ih","zip code":"40207-3909","address":"205 DON ALLEN RD","4":3909,"geo_precision":"range","zipper":40207},"type":"Feature","geometry":{"type":"Point","coordinates":[-85.640831,38.254305]}},{"properties":{"unit #":null,"city":"LOUISVILLE","st":"KY","geo_score":0.911,"id":"a62futo3fwxm","zip code":"40207-3910","address":"212 DON ALLEN RD","4":3910,"geo_precision":"range","zipper":40207},"type":"Feature","geometry":{"type":"Point","coordinates":[-85.640815,38.254473]}},{"properties":{"unit #":null,"city":"LOUISVILLE","st":"KY","geo_score":0.911,"id":"a62futy9o3om","zip code":"40207-3910","address":"212 DON ALLEN RD","4":3910,"geo_precision":"range","zipper":40207},"type":"Feature","geometry":{"type":"Point","coordinates":[-85.640815,38.254473]}},{"properties":{"unit #":null,"city":"LOUISVILLE","st":"KY","geo_score":0.911,"id":"a62futsefmug","zip code":"40207-5027","address":"168 THIERMAN LN","4":5027,"geo_precision":"range","zipper":40207},"type":"Feature","geometry":{"type":"Point","coordinates":[-85.644652,38.25548]}},{"properties":{"unit #":null,"city":"LOUISVILLE","st":"KY","geo_score":0.911,"id":"a62futt6gr4e","zip code":"40207-3901","address":"119 DON ALLEN RD","4":3901,"geo_precision":"range","zipper":40207},"type":"Feature","geometry":{"type":"Point","coordinates":[-85.641675,38.252764]}},{"properties":{"unit #":null,"city":"LOUISVILLE","st":"KY","geo_score":0.911,"id":"a62futul2xgv","zip code":"40207-5001","address":"125 BROWN AVE","4":5001,"geo_precision":"range","zipper":40207},"type":"Feature","geometry":{"type":"Point","coordinates":[-85.647808,38.252831]}},{"properties":{"unit #":null,"city":"LOUISVILLE","st":"KY","geo_score":0.911,"id":"a62fuu1jbpca","zip code":"40207-5004","address":"230 BROWN AVE","4":5004,"geo_precision":"range","zipper":40207},"type":"Feature","geometry":{"type":"Point","coordinates":[-85.647516,38.255288]}},{"properties":{"unit #":null,"city":"LOUISVILLE","st":"KY","geo_score":0.911,"id":"a62futsb3znm","zip code":"40207-3906","address":"4189 BLENHEIM RD","4":3906,"geo_precision":"range","zipper":40207},"type":"Feature","geometry":{"type":"Point","coordinates":[-85.643196,38.256642]}},{"properties":{"unit #":null,"city":"LOUISVILLE","st":"KY","geo_score":0.911,"id":"a62futsav3ow","zip code":"40207-3906","address":"4189 BLENHEIM RD","4":3906,"geo_precision":"range","zipper":40207},"type":"Feature","geometry":{"type":"Point","coordinates":[-85.643196,38.256642]}},{"properties":{"unit #":null,"city":"LOUISVILLE","st":"KY","geo_score":0.911,"id":"a62futo4jlx4","zip code":"40207-3906","address":"4189 BLENHEIM RD","4":3906,"geo_precision":"range","zipper":40207},"type":"Feature","geometry":{"type":"Point","coordinates":[-85.643196,38.256642]}},{"properties":{"unit #":null,"city":"LOUISVILLE","st":"KY","geo_score":0.911,"id":"a62futo9xukh","zip code":"40207-3908","address":"130 DON ALLEN RD","4":3908,"geo_precision":"range","zipper":40207},"type":"Feature","geometry":{"type":"Point","coordinates":[-85.641252,38.252743]}},{"properties":{"unit #":null,"city":"LOUISVILLE","st":"KY","geo_score":0.911,"id":"a62fuu0t00lh","zip code":"40207-3902","address":"121 N HUBBARDS LN","4":3902,"geo_precision":"range","zipper":40207},"type":"Feature","geometry":{"type":"Point","coordinates":[-85.63992,38.252155]}},{"properties":{"unit #":null,"city":"LOUISVILLE","st":"KY","geo_score":0.911,"id":"a62futqkg1s7","zip code":"40207-3906","address":"4195 BLENHEIM RD","4":3906,"geo_precision":"range","zipper":40207},"type":"Feature","geometry":{"type":"Point","coordinates":[-85.643196,38.256642]}},{"properties":{"unit #":null,"city":"LOUISVILLE","st":"KY","geo_score":0.911,"id":"a62futnhofw4","zip code":"40207-3918","address":"202 HEADY AVE","4":3918,"geo_precision":"range","zipper":40207},"type":"Feature","geometry":{"type":"Point","coordinates":[-85.641934,38.25435]}},{"properties":{"unit #":null,"city":"LOUISVILLE","st":"KY","geo_score":0.911,"id":"a62futo793c0","zip code":"40207-3913","address":"215 GIBSON RD","4":3913,"geo_precision":"range","zipper":40207},"type":"Feature","geometry":{"type":"Point","coordinates":[-85.643004,38.2547]}},{"properties":{"unit #":null,"city":"LOUISVILLE","st":"KY","geo_score":0.911,"id":"a62futzssyxs","zip code":"40207-3913","address":"215 GIBSON RD","4":3913,"geo_precision":"range","zipper":40207},"type":"Feature","geometry":{"type":"Point","coordinates":[-85.643004,38.2547]}},{"properties":{"unit #":"2","city":"LOUISVILLE","st":"KY","geo_score":0.911,"id":"a62futnamp7f","zip code":"40207-5030","address":"172 THIERMAN LN","4":5030,"geo_precision":"range","zipper":40207},"type":"Feature","geometry":{"type":"Point","coordinates":[-85.644584,38.255679]}},{"properties":{"unit #":null,"city":"LOUISVILLE","st":"KY","geo_score":0.911,"id":"a62futmcvc9m","zip code":"40207-5004","address":"218 BROWN AVE","4":5004,"geo_precision":"range","zipper":40207},"type":"Feature","geometry":{"type":"Point","coordinates":[-85.647547,38.254974]}},{"properties":{"unit #":null,"city":"LOUISVILLE","st":"KY","geo_score":0.911,"id":"a62futqxg6lw","zip code":"40207-5004","address":"218 BROWN AVE","4":5004,"geo_precision":"range","zipper":40207},"type":"Feature","geometry":{"type":"Point","coordinates":[-85.647547,38.254974]}},{"properties":{"unit #":null,"city":"LOUISVILLE","st":"KY","geo_score":0.911,"id":"a62futv7o9pj","zip code":"40207-3914","address":"216 GIBSON RD","4":3914,"geo_precision":"range","zipper":40207},"type":"Feature","geometry":{"type":"Point","coordinates":[-85.643,38.254743]}},{"properties":{"unit #":null,"city":"LOUISVILLE","st":"KY","geo_score":0.911,"id":"a62futtvzq2h","zip code":"40207-5004","address":"218 BROWN AVE","4":5004,"geo_precision":"range","zipper":40207},"type":"Feature","geometry":{"type":"Point","coordinates":[-85.647547,38.254974]}},{"properties":{"unit #":null,"city":"LOUISVILLE","st":"KY","geo_score":0.911,"id":"a62fuu29yqd5","zip code":"40207-3914","address":"216 GIBSON RD","4":3914,"geo_precision":"range","zipper":40207},"type":"Feature","geometry":{"type":"Point","coordinates":[-85.643,38.254743]}},{"properties":{"unit #":null,"city":"LOUISVILLE","st":"KY","geo_score":0.911,"id":"a62futwleg24","zip code":"40207-3910","address":"218 DON ALLEN RD","4":3910,"geo_precision":"range","zipper":40207},"type":"Feature","geometry":{"type":"Point","coordinates":[-85.640803,38.254598]}},{"properties":{"unit #":null,"city":"LOUISVILLE","st":"KY","geo_score":0.911,"id":"a62futpo43oh","zip code":"40207-3910","address":"218 DON ALLEN RD","4":3910,"geo_precision":"range","zipper":40207},"type":"Feature","geometry":{"type":"Point","coordinates":[-85.640803,38.254598]}},{"properties":{"unit #":null,"city":"LOUISVILLE","st":"KY","geo_score":0.911,"id":"a62futnl5b7r","zip code":"40207-3914","address":"210 GIBSON RD","4":3914,"geo_precision":"range","zipper":40207},"type":"Feature","geometry":{"type":"Point","coordinates":[-85.643012,38.254613]}},{"properties":{"unit #":null,"city":"LOUISVILLE","st":"KY","geo_score":0.911,"id":"a62futv17lwc","zip code":"40207-3914","address":"210 GIBSON RD","4":3914,"geo_precision":"range","zipper":40207},"type":"Feature","geometry":{"type":"Point","coordinates":[-85.643012,38.254613]}},{"properties":{"unit #":null,"city":"LOUISVILLE","st":"KY","geo_score":0.911,"id":"a62futxbq7h2","zip code":"40207-3911","address":"111 GIBSON RD","4":3911,"geo_precision":"range","zipper":40207},"type":"Feature","geometry":{"type":"Point","coordinates":[-85.642412,38.252831]}},{"properties":{"unit #":null,"city":"LOUISVILLE","st":"KY","geo_score":0.911,"id":"a62futzqeozz","zip code":"40207-5002","address":"132 BROWN AVE","4":5002,"geo_precision":"range","zipper":40207},"type":"Feature","geometry":{"type":"Point","coordinates":[-85.647783,38.253012]}}],"is_temporal":false,"author":{"url":"","metadata":"","contact_name":"","contact_address":"","source":"","contact_phone":""},"source":"","pagination":{"sort":null,"start":0,"total":99,"limit":1000000},"state":"complete","tags":"","published":"2014-08-12T21:25:27-04:00","id":120317}