{"type":"FeatureCollection","data_type":"Dataset","url_type":null,"permissions":[{"permissions":{"download":true,"view":true},"group_id":"everyone"}],"classification":null,"title":"LEED buildings southern cali","count":75,"stream_id":12100,"contributor":{"url":"http://geocommons.com/users/6086","name":"pamcakes"},"data_attributes":null,"calculation_params":null,"icon_link":null,"link":"http://geocommons.com/overlays/12100.json","extent":[-120.433,32.7259,-116.766,34.9514],"geometry_types":["point"],"unique_name":null,"name":"LEED buildings southern cali","feature_count":75,"description":"","next_feature":null,"is_raster":false,"short_classification":"Y","stats":{"version certification":{"max":2.2,"mean":2.09677419354839,"variance":0.0043225806451613,"stdev":0.065746335602536,"min":2.0,"median":2.1},"latitude":{"max":34.951377,"mean":33.7278864893548,"variance":0.216903749848116,"stdev":0.465729266686254,"min":32.7259,"median":33.73542},"sqft":{"max":1760000.0,"mean":149883.967741935,"variance":99300370420.4323,"stdev":315119.612878082,"min":3996.0,"median":56300.0},"longitude":{"max":-116.766373,"mean":-117.897250064516,"variance":0.472846817136482,"stdev":0.687638580314166,"min":-120.433373,"median":-117.8824319}},"features":[{"properties":{"name":"","city":"","version certification":"","zip":"","latitude":"","sqft":"","type":"","street":"","longitude":"","id":"a68eox6hpv9b","state":""},"type":"Feature","geometry":null},{"properties":{"name":"","city":"","version certification":"","zip":"","latitude":"","sqft":"","type":"","street":"","longitude":"","id":"a68eox5id8nx","state":""},"type":"Feature","geometry":null},{"properties":{"name":"","city":"","version certification":"","zip":"","latitude":"","sqft":"","type":"","street":"","longitude":"","id":"a68eoxh099ou","state":""},"type":"Feature","geometry":null},{"properties":{"name":"","city":"","version certification":"","zip":"","latitude":"","sqft":"","type":"","street":"","longitude":"","id":"a68eox4uyfl4","state":""},"type":"Feature","geometry":null},{"properties":{"name":"","city":"","version certification":"","zip":"","latitude":"","sqft":"","type":"","street":"","longitude":"","id":"a68eox391wnr","state":""},"type":"Feature","geometry":null},{"properties":{"name":"","city":"","version certification":"","zip":"","latitude":"","sqft":"","type":"","street":"","longitude":"","id":"a68eoxj5ff02","state":""},"type":"Feature","geometry":null},{"properties":{"name":"","city":"","version certification":"","zip":"","latitude":"","sqft":"","type":"","street":"","longitude":"","id":"a68eoxc3u00h","state":""},"type":"Feature","geometry":null},{"properties":{"name":"","city":"","version certification":"","zip":"","latitude":"","sqft":"","type":"","street":"","longitude":"","id":"a68eox7dpcng","state":""},"type":"Feature","geometry":null},{"properties":{"name":"","city":"","version certification":"","zip":"","latitude":"","sqft":"","type":"","street":"","longitude":"","id":"a68eoxhx4jcx","state":""},"type":"Feature","geometry":null},{"properties":{"name":"","city":"","version certification":"","zip":"","latitude":"","sqft":"","type":"","street":"","longitude":"","id":"a68eoxhddh26","state":""},"type":"Feature","geometry":null},{"properties":{"name":"","city":"","version certification":"","zip":"","latitude":"","sqft":"","type":"","street":"","longitude":"","id":"a68eoxdciem5","state":""},"type":"Feature","geometry":null},{"properties":{"name":"","city":"","version certification":"","zip":"","latitude":"","sqft":"","type":"","street":"","longitude":"","id":"a68eoxe6dal9","state":""},"type":"Feature","geometry":null},{"properties":{"name":"","city":"","version certification":"","zip":"","latitude":"","sqft":"","type":"","street":"","longitude":"","id":"a68eoxda452n","state":""},"type":"Feature","geometry":null},{"properties":{"name":"","city":"","version certification":"","zip":"","latitude":"","sqft":"","type":"","street":"","longitude":"","id":"a68eoxbsvr3j","state":""},"type":"Feature","geometry":null},{"properties":{"name":"","city":"","version certification":"","zip":"","latitude":"","sqft":"","type":"","street":"","longitude":"","id":"a68eoxbsfwkd","state":""},"type":"Feature","geometry":null},{"properties":{"name":"","city":"","version certification":"","zip":"","latitude":"","sqft":"","type":"","street":"","longitude":"","id":"a68eoxfo73z5","state":""},"type":"Feature","geometry":null},{"properties":{"name":"","city":"","version certification":"","zip":"","latitude":"","sqft":"","type":"","street":"","longitude":"","id":"a68eox9ieevl","state":""},"type":"Feature","geometry":null},{"properties":{"name":"","city":"","version certification":"","zip":"","latitude":"","sqft":"","type":"","street":"","longitude":"","id":"a68eoxbc1wrr","state":""},"type":"Feature","geometry":null},{"properties":{"name":"","city":"","version certification":"","zip":"","latitude":"","sqft":"","type":"","street":"","longitude":"","id":"a68eoxb4tx3m","state":""},"type":"Feature","geometry":null},{"properties":{"name":"","city":"","version certification":"","zip":"","latitude":"","sqft":"","type":"","street":"","longitude":"","id":"a68eoxi1d6qa","state":""},"type":"Feature","geometry":null},{"properties":{"name":"","city":"","version certification":"","zip":"","latitude":"","sqft":"","type":"","street":"","longitude":"","id":"a68eox91or81","state":""},"type":"Feature","geometry":null},{"properties":{"name":"","city":"","version certification":"","zip":"","latitude":"","sqft":"","type":"","street":"","longitude":"","id":"a68eoxex58f7","state":""},"type":"Feature","geometry":null},{"properties":{"name":"","city":"","version certification":"","zip":"","latitude":"","sqft":"","type":"","street":"","longitude":"","id":"a68eox9lb5yk","state":""},"type":"Feature","geometry":null},{"properties":{"name":"","city":"","version certification":"","zip":"","latitude":"","sqft":"","type":"","street":"","longitude":"","id":"a68eox9sgdud","state":""},"type":"Feature","geometry":null},{"properties":{"name":"","city":"","version certification":"","zip":"","latitude":"","sqft":"","type":"","street":"","longitude":"","id":"a68eoxazzi34","state":""},"type":"Feature","geometry":null},{"properties":{"name":"","city":"","version certification":"","zip":"","latitude":"","sqft":"","type":"","street":"","longitude":"","id":"a68eox30rg4q","state":""},"type":"Feature","geometry":null},{"properties":{"name":"","city":"","version certification":"","zip":"","latitude":"","sqft":"","type":"","street":"","longitude":"","id":"a68eox9jmbff","state":""},"type":"Feature","geometry":null},{"properties":{"name":"","city":"","version certification":"","zip":"","latitude":"","sqft":"","type":"","street":"","longitude":"","id":"a68eoxai23ai","state":""},"type":"Feature","geometry":null},{"properties":{"name":"","city":"","version certification":"","zip":"","latitude":"","sqft":"","type":"","street":"","longitude":"","id":"a68eoxcnhwhj","state":""},"type":"Feature","geometry":null},{"properties":{"name":"","city":"","version certification":"","zip":"","latitude":"","sqft":"","type":"","street":"","longitude":"","id":"a68eoxhmesrg","state":""},"type":"Feature","geometry":null},{"properties":{"name":"","city":"","version certification":"","zip":"","latitude":"","sqft":"","type":"","street":"","longitude":"","id":"a68eox3sgbvn","state":""},"type":"Feature","geometry":null},{"properties":{"name":"","city":"","version certification":"","zip":"","latitude":"","sqft":"","type":"","street":"","longitude":"","id":"a68eox8im5nr","state":""},"type":"Feature","geometry":null},{"properties":{"name":"","city":"","version certification":"","zip":"","latitude":"","sqft":"","type":"","street":"","longitude":"","id":"a68eoxieahzx","state":""},"type":"Feature","geometry":null},{"properties":{"name":"","city":"","version certification":"","zip":"","latitude":"","sqft":"","type":"","street":"","longitude":"","id":"a68eox84h4ae","state":""},"type":"Feature","geometry":null},{"properties":{"name":"","city":"","version certification":"","zip":"","latitude":"","sqft":"","type":"","street":"","longitude":"","id":"a68eox68n9wc","state":""},"type":"Feature","geometry":null},{"properties":{"name":"","city":"","version certification":"","zip":"","latitude":"","sqft":"","type":"","street":"","longitude":"","id":"a68eoxfb3j5k","state":""},"type":"Feature","geometry":null},{"properties":{"name":"","city":"","version certification":"","zip":"","latitude":"","sqft":"","type":"","street":"","longitude":"","id":"a68eox3lru8k","state":""},"type":"Feature","geometry":null},{"properties":{"name":"","city":"","version certification":"","zip":"","latitude":"","sqft":"","type":"","street":"","longitude":"","id":"a68eox8pp8ib","state":""},"type":"Feature","geometry":null},{"properties":{"name":"","city":"","version certification":"","zip":"","latitude":"","sqft":"","type":"","street":"","longitude":"","id":"a68eox7wyvjf","state":""},"type":"Feature","geometry":null},{"properties":{"name":"","city":"","version certification":"","zip":"","latitude":"","sqft":"","type":"","street":"","longitude":"","id":"a68eoxgtfchn","state":""},"type":"Feature","geometry":null},{"properties":{"name":"","city":"","version certification":"","zip":"","latitude":"","sqft":"","type":"","street":"","longitude":"","id":"a68eox318e3k","state":""},"type":"Feature","geometry":null},{"properties":{"name":"","city":"","version certification":"","zip":"","latitude":"","sqft":"","type":"","street":"","longitude":"","id":"a68eoxgvrxgd","state":""},"type":"Feature","geometry":null},{"properties":{"name":"","city":"","version certification":"","zip":"","latitude":"","sqft":"","type":"","street":"","longitude":"","id":"a68eox5l0575","state":""},"type":"Feature","geometry":null},{"properties":{"name":"","city":"","version certification":"","zip":"","latitude":"","sqft":"","type":"","street":"","longitude":"","id":"a68eoxd9ju42","state":""},"type":"Feature","geometry":null},{"properties":{"name":"2211 MICHELSON","city":"Irvine","version certification":2.1,"zip":92612.0,"latitude":33.67711106,"sqft":195406.0,"type":"Retail","street":"2211 MICHELSON DRIVE","longitude":-117.8580184,"id":"a68eoxeb1pbc","state":"CA"},"type":"Feature","geometry":{"type":"Point","coordinates":[-117.8580184,33.67711106]}},{"properties":{"name":"45 EUREKA STREET","city":"Pasadena","version certification":2.0,"zip":91103.0,"latitude":34.166706,"sqft":45562.0,"type":"Commercial","street":"45 EUREKA STREET","longitude":-118.159004,"id":"a68eox79ixox","state":"CA"},"type":"Feature","geometry":{"type":"Point","coordinates":[-118.159004,34.166706]}},{"properties":{"name":"ATT Center Los Angeles","city":"Los Angeles","version certification":2.2,"zip":90015.0,"latitude":34.04019069,"sqft":25290.0,"type":"Retail","street":"1150 South Olive","longitude":-118.2616137,"id":"a68eox4wrtdv","state":"CA"},"type":"Feature","geometry":{"type":"Point","coordinates":[-118.2616137,34.04019069]}},{"properties":{"name":"Arrowhead Bottling Plant","city":"Cabazon","version certification":2.1,"zip":92230.0,"latitude":33.909086,"sqft":68000.0,"type":"Commercial","street":"Elm Street and Bonita Avenue","longitude":-116.766373,"id":"a68eoxf5503z","state":"CA"},"type":"Feature","geometry":{"type":"Point","coordinates":[-116.766373,33.909086]}},{"properties":{"name":"BP Carson One","city":"Carson","version certification":2.1,"zip":90745.0,"latitude":33.823765,"sqft":47715.0,"type":"Commercial","street":"223rd Street","longitude":-118.266804,"id":"a68eoxh69suk","state":"CA"},"type":"Feature","geometry":{"type":"Point","coordinates":[-118.266804,33.823765]}},{"properties":{"name":"Bentley Prince Street","city":"City Of Industry","version certification":2.1,"zip":91746.0,"latitude":34.02876241,"sqft":29297.0,"type":"Commercial","street":"14641 Don Julian Rd.","longitude":-117.9796899,"id":"a68eoxbnoj06","state":"CA"},"type":"Feature","geometry":{"type":"Point","coordinates":[-117.9796899,34.02876241]}},{"properties":{"name":"Center Tower","city":"Costa Mesa","version certification":2.1,"zip":92626.0,"latitude":33.69324481,"sqft":12319.0,"type":"Commercial","street":"650 Town Center Drive","longitude":-117.8824319,"id":"a68eoxbgyly3","state":"CA"},"type":"Feature","geometry":{"type":"Point","coordinates":[-117.8824319,33.69324481]}},{"properties":{"name":"Elleven South","city":"Los Angeles","version certification":2.1,"zip":90015.0,"latitude":33.73391596,"sqft":250000.0,"type":"Residential","street":"1111 S. Grand Ave","longitude":-118.2904431,"id":"a68eoxavt7dg","state":"CA"},"type":"Feature","geometry":{"type":"Point","coordinates":[-118.2904431,33.73391596]}},{"properties":{"name":"HERITAGE FIELDS Information Center","city":"Irvine","version certification":2.1,"zip":92618.0,"latitude":33.68199877,"sqft":23380.0,"type":"Commercial","street":"7130 TRABUCO ROAD","longitude":-117.7201867,"id":"a68eoxc6jwqn","state":"CA"},"type":"Feature","geometry":{"type":"Point","coordinates":[-117.7201867,33.68199877]}},{"properties":{"name":"Hayward Building Systems Plant","city":"Santa Maria","version certification":2.1,"zip":93454.0,"latitude":34.951377,"sqft":43000.0,"type":"Commercial","street":"1200 La Brea Ave.","longitude":-120.433373,"id":"a68eox4gz3n5","state":"CA"},"type":"Feature","geometry":{"type":"Point","coordinates":[-120.433373,34.951377]}},{"properties":{"name":"LA JOLLA COMMONS","city":"San Diego","version certification":2.2,"zip":92121.0,"latitude":32.899996,"sqft":19000.0,"type":"Commercial","street":"4750 LA JOLLA VILLAGE DRIVE","longitude":-117.207229,"id":"a68eoxhnd9a7","state":"CA"},"type":"Feature","geometry":{"type":"Point","coordinates":[-117.207229,32.899996]}},{"properties":{"name":"LADERA RANCH 777 CORPORATE DR","city":"Ladera Ranch","version certification":2.0,"zip":92694.0,"latitude":33.570763,"sqft":200000.0,"type":"Commercial","street":"777 CORPORATE DRIVE","longitude":-117.634634,"id":"a68eox9eyc3u","state":"CA"},"type":"Feature","geometry":{"type":"Point","coordinates":[-117.634634,33.570763]}},{"properties":{"name":"Ladera Ranch 999 Corporate Drive","city":"Ladera Ranch","version certification":2.1,"zip":92694.0,"latitude":33.570763,"sqft":3996.0,"type":"Commercial","street":"999 CORPORATE DRIVE","longitude":-117.634634,"id":"a68eox84nafv","state":"CA"},"type":"Feature","geometry":{"type":"Point","coordinates":[-117.634634,33.570763]}},{"properties":{"name":"Leavey 6 Loyola Marymount University","city":"Los Angeles","version certification":2.1,"zip":90045.0,"latitude":34.086159,"sqft":58392.0,"type":"Education","street":"1 Loyola Marymount Drive","longitude":-118.375984,"id":"a68eoxhp20ip","state":"CA"},"type":"Feature","geometry":{"type":"Point","coordinates":[-118.375984,34.086159]}},{"properties":{"name":"Luma South","city":"Los Angeles","version certification":2.1,"zip":90015.0,"latitude":34.04166752,"sqft":1760000.0,"type":"Residential","street":"1100 South Hope Street","longitude":-118.263104,"id":"a68eoxaykcmy","state":"CA"},"type":"Feature","geometry":{"type":"Point","coordinates":[-118.263104,34.04166752]}},{"properties":{"name":"Park Tower","city":"Costa Mesa","version certification":2.1,"zip":92626.0,"latitude":33.69304854,"sqft":56300.0,"type":"Commercial","street":"695 Town Center Drive","longitude":-117.8814081,"id":"a68eoxgcghuw","state":"CA"},"type":"Feature","geometry":{"type":"Point","coordinates":[-117.8814081,33.69304854]}},{"properties":{"name":"Plaza Tower","city":"Costa Mesa","version certification":2.0,"zip":92626.0,"latitude":33.69174509,"sqft":41430.0,"type":"Commercial","street":"600 Anton Boulevard","longitude":-117.8852511,"id":"a68eoxe4pys9","state":"CA"},"type":"Feature","geometry":{"type":"Point","coordinates":[-117.8852511,33.69174509]}},{"properties":{"name":"Premier Automotive Group North American","city":"Irvine","version certification":2.0,"zip":92618.0,"latitude":33.659639,"sqft":265000.0,"type":"Commercial","street":"1 Premier Place","longitude":-117.739481,"id":"a68eox7nat5w","state":"CA"},"type":"Feature","geometry":{"type":"Point","coordinates":[-117.739481,33.659639]}},{"properties":{"name":"SYMANTEC OFFICE BUILDING","city":"Culver City","version certification":2.1,"zip":90232.0,"latitude":34.021611,"sqft":321389.0,"type":"Commercial","street":"901 CORPORATE POINTE","longitude":-118.391688,"id":"a68eox3phbos","state":"CA"},"type":"Feature","geometry":{"type":"Point","coordinates":[-118.391688,34.021611]}},{"properties":{"name":"Sabre Springs  Phase III","city":"San Diego","version certification":2.2,"zip":92128.0,"latitude":32.998855,"sqft":115000.0,"type":"Commercial","street":"13490 Evening Creek Drive North","longitude":-117.07054,"id":"a68eoxh3eix8","state":"CA"},"type":"Feature","geometry":{"type":"Point","coordinates":[-117.07054,32.998855]}},{"properties":{"name":"Santa Monica Library","city":"Santa Monica","version certification":2.1,"zip":90405.0,"latitude":34.009276,"sqft":298786.0,"type":"Public","street":"333 CIVIC CENTER DRIVE","longitude":-118.472869,"id":"a68eoxgatfjn","state":"CA"},"type":"Feature","geometry":{"type":"Point","coordinates":[-118.472869,34.009276]}},{"properties":{"name":"Sempra Energy  Yukon Base Facility","city":"Hawthorne","version certification":2.1,"zip":90250.0,"latitude":33.91591486,"sqft":75000.0,"type":"Commercial","street":"3440 West El Segundo Blvd.","longitude":-118.3337696,"id":"a68eox8qoujy","state":"CA"},"type":"Feature","geometry":{"type":"Point","coordinates":[-118.3337696,33.91591486]}},{"properties":{"name":"South Campus Office Development","city":"Torrance","version certification":2.2,"zip":90509.0,"latitude":33.834815,"sqft":10000.0,"type":"Commercial","street":"1980  S. Western Ave.","longitude":-118.34133,"id":"a68eox80j5ra","state":"CA"},"type":"Feature","geometry":{"type":"Point","coordinates":[-118.34133,33.834815]}},{"properties":{"name":"Sun Harbor Marina","city":"San Diego","version certification":2.1,"zip":92106.0,"latitude":32.7259,"sqft":19350.0,"type":"Commercial","street":"5000 N. Harbor","longitude":-117.230793,"id":"a68eox6jkafr","state":"CA"},"type":"Feature","geometry":{"type":"Point","coordinates":[-117.230793,32.7259]}},{"properties":{"name":"Sunroad  Centrum 1","city":"San Diego","version certification":2.1,"zip":92123.0,"latitude":32.82720125,"sqft":66908.0,"type":"Commercial","street":"8620 Spectrum Center Blvd","longitude":-117.1426019,"id":"a68eoxj665at","state":"CA"},"type":"Feature","geometry":{"type":"Point","coordinates":[-117.1426019,32.82720125]}},{"properties":{"name":"TKG Consulting Engineers, Inc. Oberlin O","city":"San Diego","version certification":2.0,"zip":92121.0,"latitude":32.89233024,"sqft":24000.0,"type":"Commercial","street":"5670 Oberlin Drive","longitude":-117.196188,"id":"a68eox36uvoi","state":"CA"},"type":"Feature","geometry":{"type":"Point","coordinates":[-117.196188,32.89233024]}},{"properties":{"name":"The Ambrose","city":"Santa Monica","version certification":2.1,"zip":90404.0,"latitude":34.03041987,"sqft":72651.0,"type":"Hotel","street":"1255 20th Street","longitude":-118.4815194,"id":"a68eoxe9zlmz","state":"CA"},"type":"Feature","geometry":{"type":"Point","coordinates":[-118.4815194,34.03041987]}},{"properties":{"name":"The Gas Company - Murrieta Operating Bas","city":"Murrieta","version certification":2.0,"zip":92562.0,"latitude":33.5443554,"sqft":318800.0,"type":"Public","street":"25620 Jefferson Avenue","longitude":-117.1918545,"id":"a68eox8pxsim","state":"CA"},"type":"Feature","geometry":{"type":"Point","coordinates":[-117.1918545,33.5443554]}},{"properties":{"name":"Tricom","city":"Pasadena","version certification":2.0,"zip":91107.0,"latitude":34.1477366,"sqft":14162.0,"type":"Commercial","street":"2812 E. Walnut","longitude":-118.0922473,"id":"a68eoxh2l6av","state":"CA"},"type":"Feature","geometry":{"type":"Point","coordinates":[-118.0922473,34.1477366]}},{"properties":{"name":"WATER  LIFE","city":"Hemet","version certification":2.2,"zip":92543.0,"latitude":33.73542,"sqft":22500.0,"type":"Retail","street":"2325, 2345 Searl Parkway","longitude":-116.974011,"id":"a68eoxheabpa","state":"CA"},"type":"Feature","geometry":{"type":"Point","coordinates":[-116.974011,33.73542]}},{"properties":{"name":"WLC Legacy Building 816","city":"Chino","version certification":2.2,"zip":91710.0,"latitude":33.9607071,"sqft":143770.0,"type":"Commercial","street":"6810 Bickmore Avenue","longitude":-117.6556774,"id":"a68eox5ocdxy","state":"CA"},"type":"Feature","geometry":{"type":"Point","coordinates":[-117.6556774,33.9607071]}}],"is_temporal":false,"author":{"url":"","metadata":"","contact_name":"","contact_address":"","source":"","contact_phone":""},"source":"","pagination":{"sort":null,"start":0,"total":75,"limit":1000000},"state":"complete","tags":"","published":"2009-04-26T19:46:49Z","id":12100}