{"type":"FeatureCollection","data_type":"Dataset","url_type":null,"permissions":[{"permissions":{"download":true,"view":true},"group_id":"everyone"}],"classification":null,"title":"District_Data","count":573,"stream_id":123784,"contributor":{"url":"http://geocommons.com/users/27957","name":"anustubh"},"data_attributes":null,"calculation_params":null,"icon_link":null,"link":"http://geocommons.com/overlays/123784.json","extent":[69.7236,9.48132,95.6195,33.8471],"geometry_types":null,"unique_name":null,"name":"District_Data","feature_count":573,"description":"","next_feature":null,"is_raster":false,"short_classification":"Y","stats":{"v1":{"max":97.5,"mean":70.7397548161121,"variance":127.762820290657,"stdev":11.3032216774978,"min":31.5,"median":70.7}},"features":[{"properties":{"district":"Kheri","v1":57.2,"id":"a62v59l3uu7z","state":"Uttar Pradesh"},"type":"Feature","geometry":{"type":"Point","coordinates":[80.65605914,28.18681868]}},{"properties":{"district":"Sitapur","v1":54.9,"id":"a62v59t2f7dl","state":"Uttar Pradesh"},"type":"Feature","geometry":{"type":"Point","coordinates":[80.8498511,27.5086583]}},{"properties":{"district":"Unnao","v1":63.7,"id":"a62v59yxelcw","state":"Uttar Pradesh"},"type":"Feature","geometry":{"type":"Point","coordinates":[80.54188021,26.57738643]}},{"properties":{"district":"Lucknow","v1":74.4,"id":"a62v59sz4qkv","state":"Uttar Pradesh"},"type":"Feature","geometry":{"type":"Point","coordinates":[80.87995687,26.83540405]}},{"properties":{"district":"Rae Bareli","v1":62.2,"id":"a62v59nd98h9","state":"Uttar Pradesh"},"type":"Feature","geometry":{"type":"Point","coordinates":[81.1386435,26.21210307]}},{"properties":{"district":"Kanpur Dehat","v1":73.5,"id":"a62v59scjpeg","state":"Uttar Pradesh"},"type":"Feature","geometry":{"type":"Point","coordinates":[79.98035182,26.44425202]}},{"properties":{"district":"Kanpur Nagar","v1":81.6,"id":"a62v59ptigmr","state":"Uttar Pradesh"},"type":"Feature","geometry":{"type":"Point","coordinates":[80.33738397,26.41102417]}},{"properties":{"district":"Jalaun","v1":72.1,"id":"a62v59oebm1z","state":"Uttar Pradesh"},"type":"Feature","geometry":{"type":"Point","coordinates":[79.43644088,26.11130449]}},{"properties":{"district":"Jhansi","v1":72.9,"id":"a62v59nr9zve","state":"Uttar Pradesh"},"type":"Feature","geometry":{"type":"Point","coordinates":[78.85350395,25.53305067]}},{"properties":{"district":"Lalitpur","v1":64.7,"id":"a62v59pn0pke","state":"Uttar Pradesh"},"type":"Feature","geometry":{"type":"Point","coordinates":[78.57608484,24.70413843]}},{"properties":{"district":"Hamirpur","v1":68.6,"id":"a62v59wh5e6l","state":"Uttar Pradesh"},"type":"Feature","geometry":{"type":"Point","coordinates":[76.50057065,31.66013268]}},{"properties":{"district":"Mahoba","v1":62.1,"id":"a62v59qi61ez","state":"Uttar Pradesh"},"type":"Feature","geometry":{"type":"Point","coordinates":[79.70583179,25.36468136]}},{"properties":{"district":"Banda","v1":61.7,"id":"a62v59ubu2wc","state":"Uttar Pradesh"},"type":"Feature","geometry":{"type":"Point","coordinates":[80.82598949,25.45923578]}},{"properties":{"district":"Chitrakoot","v1":60.2,"id":"a62v59nn49cv","state":"Uttar Pradesh"},"type":"Feature","geometry":{"type":"Point","coordinates":[82.2351626,25.51186513]}},{"properties":{"district":"Fatehpur","v1":61.8,"id":"a62v59pzz6o8","state":"Uttar Pradesh"},"type":"Feature","geometry":{"type":"Point","coordinates":[80.76733899,25.8383455]}},{"properties":{"district":"Pratapgarh","v1":64.6,"id":"a62v59k6pso2","state":"Uttar Pradesh"},"type":"Feature","geometry":{"type":"Point","coordinates":[81.87300132,25.87714849]}},{"properties":{"district":"Kaushambi","v1":56.7,"id":"a62v59xx1too","state":"Uttar Pradesh"},"type":"Feature","geometry":{"type":"Point","coordinates":[81.52377437,25.53840281]}},{"properties":{"district":"Allahabad","v1":68.8,"id":"a62v59vqbsfg","state":"Uttar Pradesh"},"type":"Feature","geometry":{"type":"Point","coordinates":[81.92875275,25.28261526]}},{"properties":{"district":"Barabanki","v1":54.3,"id":"a62v59psx1a7","state":"Uttar Pradesh"},"type":"Feature","geometry":null},{"properties":{"district":"Faizabad","v1":61.5,"id":"a62v59oeef9v","state":"Uttar Pradesh"},"type":"Feature","geometry":{"type":"Point","coordinates":[82.27641866,26.50223351]}},{"properties":{"district":"Ambedkar Nagar","v1":68.4,"id":"a62v59uhzfe6","state":"Uttar Pradesh"},"type":"Feature","geometry":{"type":"Point","coordinates":[81.48229531,26.46833664]}},{"properties":{"district":"Sultanpur","v1":64.1,"id":"a62v59wg3f01","state":"Uttar Pradesh"},"type":"Feature","geometry":{"type":"Point","coordinates":[82.10581929,26.32115287]}},{"properties":{"district":"Bahraich","v1":42.8,"id":"a62v59stdubb","state":"Uttar Pradesh"},"type":"Feature","geometry":{"type":"Point","coordinates":[81.41628562,27.73657014]}},{"properties":{"district":"Shrawasti","v1":42.2,"id":"a62v59kmnbd2","state":"Uttar Pradesh"},"type":"Feature","geometry":{"type":"Point","coordinates":[81.8174729,27.60321272]}},{"properties":{"district":"Balrampur","v1":41.0,"id":"a62v59ss3lus","state":"Uttar Pradesh"},"type":"Feature","geometry":{"type":"Point","coordinates":[82.38591446,27.57645204]}},{"properties":{"district":"Gonda","v1":51.2,"id":"a62v59s4v0y3","state":"Uttar Pradesh"},"type":"Feature","geometry":{"type":"Point","coordinates":[82.05207491,27.11505321]}},{"properties":{"district":"Siddharthnagar","v1":54.1,"id":"a62v59u6s3xh","state":"Uttar Pradesh"},"type":"Feature","geometry":null},{"properties":{"district":"Basti","v1":61.9,"id":"a62v59kkbgu1","state":"Uttar Pradesh"},"type":"Feature","geometry":{"type":"Point","coordinates":[82.59130273,26.78210568]}},{"properties":{"district":"Sant Kabir Nagar","v1":61.3,"id":"a62v59o8rgbh","state":"Uttar Pradesh"},"type":"Feature","geometry":null},{"properties":{"district":"Mahrajganj","v1":54.0,"id":"a62v59wwgghp","state":"Uttar Pradesh"},"type":"Feature","geometry":{"type":"Point","coordinates":[83.51833748,27.18730706]}},{"properties":{"district":"Gorakhpur","v1":68.8,"id":"a62v59ll8fbt","state":"Uttar Pradesh"},"type":"Feature","geometry":{"type":"Point","coordinates":[83.36178747,26.61195232]}},{"properties":{"district":"Kushinagar","v1":55.6,"id":"a62v59mca54y","state":"Uttar Pradesh"},"type":"Feature","geometry":{"type":"Point","coordinates":[83.96657897,26.92527535]}},{"properties":{"district":"Deoria","v1":63.9,"id":"a62v59ou98g0","state":"Uttar Pradesh"},"type":"Feature","geometry":{"type":"Point","coordinates":[83.82586236,26.42663457]}},{"properties":{"district":"Azamgarh","v1":67.3,"id":"a62v5a0e22th","state":"Uttar Pradesh"},"type":"Feature","geometry":{"type":"Point","coordinates":[83.07923923,26.04618682]}},{"properties":{"district":"Mau","v1":69.4,"id":"a62v59lvhv82","state":"Uttar Pradesh"},"type":"Feature","geometry":{"type":"Point","coordinates":[83.60151861,26.09078797]}},{"properties":{"district":"Ballia","v1":64.8,"id":"a62v59ucuccc","state":"Uttar Pradesh"},"type":"Feature","geometry":{"type":"Point","coordinates":[84.14966666,25.87804051]}},{"properties":{"district":"Jaunpur","v1":68.6,"id":"a62v59yqw1ra","state":"Uttar Pradesh"},"type":"Feature","geometry":{"type":"Point","coordinates":[82.59710087,25.79842747]}},{"properties":{"district":"Ghazipur","v1":67.7,"id":"a62v59wvifs7","state":"Uttar Pradesh"},"type":"Feature","geometry":{"type":"Point","coordinates":[83.50562616,25.60240545]}},{"properties":{"district":"Chandauli","v1":69.0,"id":"a62v59sdd602","state":"Uttar Pradesh"},"type":"Feature","geometry":{"type":"Point","coordinates":[83.27593027,25.12539623]}},{"properties":{"district":"Varanasi","v1":70.5,"id":"a62v59xkwv42","state":"Uttar Pradesh"},"type":"Feature","geometry":{"type":"Point","coordinates":[82.92447326,25.37605465]}},{"properties":{"district":"Sant Ravidas Nagar","v1":66.2,"id":"a62v59mqdvlu","state":"Uttar Pradesh"},"type":"Feature","geometry":null},{"properties":{"district":"Mirzapur","v1":66.6,"id":"a62v59jyyatd","state":"Uttar Pradesh"},"type":"Feature","geometry":{"type":"Point","coordinates":[82.62564561,24.93740241]}},{"properties":{"district":"Sonbhadra","v1":62.8,"id":"a62v59qgbbfi","state":"Uttar Pradesh"},"type":"Feature","geometry":{"type":"Point","coordinates":[83.02995497,24.38992338]}},{"properties":{"district":"Saharanpur","v1":65.8,"id":"a62v59n2huts","state":"Uttar Pradesh"},"type":"Feature","geometry":{"type":"Point","coordinates":[77.52238284,29.98937387]}},{"properties":{"district":"Muzaffarnagar","v1":66.1,"id":"a62v59r4jh3i","state":"Uttar Pradesh"},"type":"Feature","geometry":{"type":"Point","coordinates":[77.60534096,29.45014605]}},{"properties":{"district":"Bijnor","v1":65.2,"id":"a62v59kda8au","state":"Uttar Pradesh"},"type":"Feature","geometry":{"type":"Point","coordinates":[78.45276268,29.41558016]}},{"properties":{"district":"Moradabad","v1":59.9,"id":"a62v59za5v9g","state":"Uttar Pradesh"},"type":"Feature","geometry":{"type":"Point","coordinates":[78.67554539,28.81391074]}},{"properties":{"district":"Rampur","v1":55.7,"id":"a62v59odzr58","state":"Uttar Pradesh"},"type":"Feature","geometry":{"type":"Point","coordinates":[79.11464364,28.78157492]}},{"properties":{"district":"JP Nagar","v1":66.0,"id":"a62v59plgyej","state":"Uttar Pradesh"},"type":"Feature","geometry":null},{"properties":{"district":"Meerut","v1":74.9,"id":"a62v59ux3c2t","state":"Uttar Pradesh"},"type":"Feature","geometry":{"type":"Point","coordinates":[77.7201889,29.00480364]}},{"properties":{"district":"Baghpat","v1":71.3,"id":"a62v59nuhg4e","state":"Uttar Pradesh"},"type":"Feature","geometry":{"type":"Point","coordinates":[77.29737007,29.04159958]}},{"properties":{"district":"Ghaziabad","v1":75.3,"id":"a62v59pke7eg","state":"Uttar Pradesh"},"type":"Feature","geometry":{"type":"Point","coordinates":[77.6967733,28.6834524]}},{"properties":{"district":"G B Nagar","v1":75.5,"id":"a62v59wob6mw","state":"Uttar Pradesh"},"type":"Feature","geometry":null},{"properties":{"district":"Bulandshahar","v1":69.2,"id":"a62v59wj930x","state":"Uttar Pradesh"},"type":"Feature","geometry":null},{"properties":{"district":"Aligarh","v1":69.9,"id":"a62v59vlo62l","state":"Uttar Pradesh"},"type":"Feature","geometry":{"type":"Point","coordinates":[78.0402021,27.87996281]}},{"properties":{"district":"Hathras","v1":73.3,"id":"a62v59qog44v","state":"Uttar Pradesh"},"type":"Feature","geometry":{"type":"Point","coordinates":[78.19452206,27.68639385]}},{"properties":{"district":"Mathura","v1":71.9,"id":"a62v59t8ts0l","state":"Uttar Pradesh"},"type":"Feature","geometry":{"type":"Point","coordinates":[77.73802936,27.60499677]}},{"properties":{"district":"Agra","v1":72.5,"id":"a62v59ypfaqc","state":"Uttar Pradesh"},"type":"Feature","geometry":{"type":"Point","coordinates":[78.13007341,27.02406688]}},{"properties":{"district":"Firozabad","v1":74.3,"id":"a62v59p2hdbq","state":"Uttar Pradesh"},"type":"Feature","geometry":{"type":"Point","coordinates":[78.38363091,27.19845735]}},{"properties":{"district":"Etah","v1":68.1,"id":"a62v59uajgdl","state":"Uttar Pradesh"},"type":"Feature","geometry":{"type":"Point","coordinates":[78.71791647,27.68394079]}},{"properties":{"district":"Mainpuri","v1":77.2,"id":"a62v59vukavk","state":"Uttar Pradesh"},"type":"Feature","geometry":{"type":"Point","coordinates":[78.92954889,27.20537053]}},{"properties":{"district":"Budaun","v1":52.0,"id":"a62v59rma7r0","state":"Uttar Pradesh"},"type":"Feature","geometry":null},{"properties":{"district":"Bareily","v1":57.3,"id":"a62v59x6fk6z","state":"Uttar Pradesh"},"type":"Feature","geometry":null},{"properties":{"district":"Pilibhit","v1":63.9,"id":"a62v59ldyf3z","state":"Uttar Pradesh"},"type":"Feature","geometry":{"type":"Point","coordinates":[80.00510546,28.5077239]}},{"properties":{"district":"Shahjahanpur","v1":58.5,"id":"a62v59wqolso","state":"Uttar Pradesh"},"type":"Feature","geometry":{"type":"Point","coordinates":[79.84008123,27.97005712]}},{"properties":{"district":"Hardoi","v1":64.7,"id":"a62v59vx0l42","state":"Uttar Pradesh"},"type":"Feature","geometry":{"type":"Point","coordinates":[80.24773567,27.34162702]}},{"properties":{"district":"Farrukhabad","v1":65.8,"id":"a62v59rrtygf","state":"Uttar Pradesh"},"type":"Feature","geometry":{"type":"Point","coordinates":[79.43889395,27.29323478]}},{"properties":{"district":"Kannauj","v1":74.6,"id":"a62v59xbzkjz","state":"Uttar Pradesh"},"type":"Feature","geometry":{"type":"Point","coordinates":[79.80863742,26.98793995]}},{"properties":{"district":"Etawah","v1":77.2,"id":"a62v59xgq3tz","state":"Uttar Pradesh"},"type":"Feature","geometry":{"type":"Point","coordinates":[79.03770667,26.74932384]}},{"properties":{"district":"Auraiya","v1":77.1,"id":"a62v59ogjyvn","state":"Uttar Pradesh"},"type":"Feature","geometry":{"type":"Point","coordinates":[79.39919893,26.66079057]}},{"properties":{"district":"Adilabad","v1":56.3,"id":"a62v59ntkkfq","state":"Andhra Pradesh"},"type":"Feature","geometry":{"type":"Point","coordinates":[78.86510024,19.2980339]}},{"properties":{"district":"Anantapur","v1":59.4,"id":"a62v59nw9mvj","state":"Andhra Pradesh"},"type":"Feature","geometry":{"type":"Point","coordinates":[77.60913206,14.45055869]}},{"properties":{"district":"Chittoor","v1":65.0,"id":"a62v59zsvzy3","state":"Andhra Pradesh"},"type":"Feature","geometry":{"type":"Point","coordinates":[79.04907996,13.29828816]}},{"properties":{"district":"East Godavari","v1":70.1,"id":"a62v59whejy4","state":"Andhra Pradesh"},"type":"Feature","geometry":{"type":"Point","coordinates":[82.04672277,17.15784806]}},{"properties":{"district":"Guntur","v1":63.8,"id":"a62v59pbngf7","state":"Andhra Pradesh"},"type":"Feature","geometry":{"type":"Point","coordinates":[80.04413146,16.27920554]}},{"properties":{"district":"Hyderabad","v1":82.7,"id":"a62v59uuqn7d","state":"Andhra Pradesh"},"type":"Feature","geometry":{"type":"Point","coordinates":[78.45989886,17.38442187]}},{"properties":{"district":"Kadapa","v1":62.7,"id":"a62v59p2twpq","state":"Andhra Pradesh"},"type":"Feature","geometry":null},{"properties":{"district":"Karimnagar","v1":60.6,"id":"a62v59mab3ms","state":"Andhra Pradesh"},"type":"Feature","geometry":{"type":"Point","coordinates":[79.42685164,18.52308904]}},{"properties":{"district":"Khammam","v1":56.2,"id":"a62v59nqdqsl","state":"Andhra Pradesh"},"type":"Feature","geometry":{"type":"Point","coordinates":[80.78986256,17.69462281]}},{"properties":{"district":"Krishna","v1":71.0,"id":"a62v59w4vj3c","state":"Andhra Pradesh"},"type":"Feature","geometry":{"type":"Point","coordinates":[80.78116534,16.42371325]}},{"properties":{"district":"Kurnool","v1":54.3,"id":"a62v59pjmctn","state":"Andhra Pradesh"},"type":"Feature","geometry":{"type":"Point","coordinates":[77.94810074,15.52566924]}},{"properties":{"district":"Mahbubnagar","v1":49.6,"id":"a62v59q4ltmq","state":"Andhra Pradesh"},"type":"Feature","geometry":{"type":"Point","coordinates":[78.23154101,16.53030998]}},{"properties":{"district":"Medak","v1":57.3,"id":"a62v59x64brc","state":"Andhra Pradesh"},"type":"Feature","geometry":{"type":"Point","coordinates":[78.28461637,17.84961179]}},{"properties":{"district":"Nalgonda","v1":60.7,"id":"a62v59orffi9","state":"Andhra Pradesh"},"type":"Feature","geometry":{"type":"Point","coordinates":[79.33854137,17.08381016]}},{"properties":{"district":"Nellore","v1":65.8,"id":"a62v59r48l08","state":"Andhra Pradesh"},"type":"Feature","geometry":{"type":"Point","coordinates":[79.69022139,14.23870326]}},{"properties":{"district":"Nizamabad","v1":57.1,"id":"a62v59pwx47n","state":"Andhra Pradesh"},"type":"Feature","geometry":{"type":"Point","coordinates":[78.09662255,18.53825343]}},{"properties":{"district":"Prakasam","v1":60.4,"id":"a62v59rwtzsp","state":"Andhra Pradesh"},"type":"Feature","geometry":{"type":"Point","coordinates":[79.60347216,15.62691383]}},{"properties":{"district":"Rangareddy","v1":70.4,"id":"a62v59xyiikr","state":"Andhra Pradesh"},"type":"Feature","geometry":{"type":"Point","coordinates":[78.10442775,17.27581808]}},{"properties":{"district":"Srikakulam","v1":59.0,"id":"a62v59zwjkn1","state":"Andhra Pradesh"},"type":"Feature","geometry":{"type":"Point","coordinates":[84.08343396,18.61608243]}},{"properties":{"district":"Visakhapatnam","v1":62.4,"id":"a62v59vw1kul","state":"Andhra Pradesh"},"type":"Feature","geometry":null},{"properties":{"district":"Vizianagaram","v1":54.1,"id":"a62v59xbkl4m","state":"Andhra Pradesh"},"type":"Feature","geometry":{"type":"Point","coordinates":[83.40282052,18.48696212]}},{"properties":{"district":"Warangal","v1":63.3,"id":"a62v59xdfx77","state":"Andhra Pradesh"},"type":"Feature","geometry":{"type":"Point","coordinates":[79.73861363,17.95910759]}},{"properties":{"district":"West Godavari","v1":66.3,"id":"a62v59wnlbi6","state":"Andhra Pradesh"},"type":"Feature","geometry":{"type":"Point","coordinates":[81.35652008,16.90495958]}},{"properties":{"district":"Karaikal","v1":88.0,"id":"a62v59x3uw94","state":"Pondecherry"},"type":"Feature","geometry":{"type":"Point","coordinates":[79.77920067,10.90008471]}},{"properties":{"district":"Mahefact","v1":null,"id":"a62v59zggzmi","state":"Pondecherry"},"type":"Feature","geometry":null},{"properties":{"district":"Puducherry","v1":87.7,"id":"a62v59ofmcsd","state":"Pondecherry"},"type":"Feature","geometry":null},{"properties":{"district":"Yanam","v1":82.5,"id":"a62v59n4tc17","state":"Pondecherry"},"type":"Feature","geometry":{"type":"Point","coordinates":[82.23783867,16.72008784]}},{"properties":{"district":"Chennai","v1":92.0,"id":"a62v59yb7z00","state":"Tamil Nadu"},"type":"Feature","geometry":{"type":"Point","coordinates":[80.23792342,13.04272361]}},{"properties":{"district":"Coimbatore","v1":77.0,"id":"a62v59piljs2","state":"Tamil Nadu"},"type":"Feature","geometry":{"type":"Point","coordinates":[77.06945823,10.80263121]}},{"properties":{"district":"Cuddalore","v1":80.1,"id":"a62v59jzpejp","state":"Tamil Nadu"},"type":"Feature","geometry":{"type":"Point","coordinates":[79.33764935,11.50420719]}},{"properties":{"district":"Dharmapuri","v1":69.5,"id":"a62v59sh941l","state":"Tamil Nadu"},"type":"Feature","geometry":{"type":"Point","coordinates":[78.0984066,12.31929307]}},{"properties":{"district":"Dindigul","v1":72.3,"id":"a62v59lx63fm","state":"Tamil Nadu"},"type":"Feature","geometry":{"type":"Point","coordinates":[77.78597559,10.41504728]}},{"properties":{"district":"Erode","v1":68.7,"id":"a62v59oz2j9k","state":"Tamil Nadu"},"type":"Feature","geometry":{"type":"Point","coordinates":[77.37363802,11.26982818]}},{"properties":{"district":"Kancheepuram","v1":81.2,"id":"a62v59rtjcc3","state":"Tamil Nadu"},"type":"Feature","geometry":{"type":"Point","coordinates":[79.90051578,12.59693519]}},{"properties":{"district":"Kaniyakumari","v1":92.4,"id":"a62v59vmnxcz","state":"Tamil Nadu"},"type":"Feature","geometry":null},{"properties":{"district":"Karur","v1":72.7,"id":"a62v59qk2x9d","state":"Tamil Nadu"},"type":"Feature","geometry":{"type":"Point","coordinates":[78.15415802,10.80865236]}},{"properties":{"district":"Krishnagiri","v1":71.3,"id":"a62v59ze6hdy","state":"Tamil Nadu"},"type":"Feature","geometry":null},{"properties":{"district":"Madurai","v1":80.3,"id":"a62v59zquyi4","state":"Tamil Nadu"},"type":"Feature","geometry":{"type":"Point","coordinates":[77.95122282,9.924880716]}},{"properties":{"district":"Nagapattinam","v1":84.4,"id":"a62v5a0850bl","state":"Tamil Nadu"},"type":"Feature","geometry":{"type":"Point","coordinates":[79.65900059,10.84700934]}},{"properties":{"district":"Namakkal","v1":70.9,"id":"a62v59qrn14i","state":"Tamil Nadu"},"type":"Feature","geometry":{"type":"Point","coordinates":[78.07209192,11.29079072]}},{"properties":{"district":"The Nilgiris","v1":82.8,"id":"a62v59yhjol3","state":"Tamil Nadu"},"type":"Feature","geometry":null},{"properties":{"district":"Perambalur","v1":70.7,"id":"a62v59vi73mp","state":"Tamil Nadu"},"type":"Feature","geometry":{"type":"Point","coordinates":[78.88628579,11.27317327]}},{"properties":{"district":"Pudukottai","v1":70.8,"id":"a62v59kw6hzc","state":"Tamil Nadu"},"type":"Feature","geometry":null},{"properties":{"district":"Ramanathapuram","v1":77.5,"id":"a62v59ktkzxj","state":"Tamil Nadu"},"type":"Feature","geometry":{"type":"Point","coordinates":[78.86309319,9.506298989]}},{"properties":{"district":"Salem","v1":70.4,"id":"a62v59ne5ipp","state":"Tamil Nadu"},"type":"Feature","geometry":{"type":"Point","coordinates":[78.23444008,11.63310449]}},{"properties":{"district":"Sivaganga","v1":79.2,"id":"a62v59of441m","state":"Tamil Nadu"},"type":"Feature","geometry":{"type":"Point","coordinates":[78.55244623,9.950303367]}},{"properties":{"district":"Thanjavur","v1":83.3,"id":"a62v59r5un0z","state":"Tamil Nadu"},"type":"Feature","geometry":{"type":"Point","coordinates":[79.15969079,10.64563518]}},{"properties":{"district":"Theni","v1":77.9,"id":"a62v59pgyjgs","state":"Tamil Nadu"},"type":"Feature","geometry":{"type":"Point","coordinates":[77.43295754,9.856863973]}},{"properties":{"district":"Tirunelveli","v1":83.9,"id":"a62v59piz2fq","state":"Tamil Nadu"},"type":"Feature","geometry":null},{"properties":{"district":"Thiruvallur","v1":84.4,"id":"a62v59r4gxfe","state":"Tamil Nadu"},"type":"Feature","geometry":{"type":"Point","coordinates":[79.81019846,13.15400346]}},{"properties":{"district":"Thiruvarur","v1":82.2,"id":"a62v59upy45s","state":"Tamil Nadu"},"type":"Feature","geometry":{"type":"Point","coordinates":[79.55106582,10.70763077]}},{"properties":{"district":"Thoothukudi","v1":84.3,"id":"a62v59shjpjo","state":"Tamil Nadu"},"type":"Feature","geometry":null},{"properties":{"district":"Tiruvannamalai","v1":73.4,"id":"a62v5a0gjlqt","state":"Tamil Nadu"},"type":"Feature","geometry":null},{"properties":{"district":"Tiruchirappalli","v1":80.5,"id":"a62v59w30y2n","state":"Tamil Nadu"},"type":"Feature","geometry":null},{"properties":{"district":"Vellore","v1":80.4,"id":"a62v59ms10dt","state":"Tamil Nadu"},"type":"Feature","geometry":{"type":"Point","coordinates":[79.08654492,12.72092636]}},{"properties":{"district":"Viluppuram","v1":69.9,"id":"a62v59x6fsiq","state":"Tamil Nadu"},"type":"Feature","geometry":{"type":"Point","coordinates":[79.31021965,11.96292994]}},{"properties":{"district":"Virudhunagar","v1":73.7,"id":"a62v59w9yaol","state":"Tamil Nadu"},"type":"Feature","geometry":{"type":"Point","coordinates":[77.86202054,9.481322349]}},{"properties":{"district":"Bokaro","v1":72.8,"id":"a62v59v672j7","state":"Jharkhand"},"type":"Feature","geometry":{"type":"Point","coordinates":[86.23811518,23.68321827]}},{"properties":{"district":"Chatra","v1":58.7,"id":"a62v5a0ehcsb","state":"Jharkhand"},"type":"Feature","geometry":{"type":"Point","coordinates":[84.89138367,24.10336104]}},{"properties":{"district":"Deoghar","v1":62.5,"id":"a62v59uu7uit","state":"Jharkhand"},"type":"Feature","geometry":{"type":"Point","coordinates":[86.75883352,24.33127288]}},{"properties":{"district":"Dhanbad","v1":72.7,"id":"a62v59ywjacd","state":"Jharkhand"},"type":"Feature","geometry":{"type":"Point","coordinates":[86.55188422,23.84333637]}},{"properties":{"district":"Dumka","v1":61.5,"id":"a62v59l8pnlo","state":"Jharkhand"},"type":"Feature","geometry":{"type":"Point","coordinates":[87.08085377,24.218878]}},{"properties":{"district":"East Singh Bhumi","v1":76.5,"id":"a62v5a0ct64p","state":"Jharkhand"},"type":"Feature","geometry":null},{"properties":{"district":"Garhwa","v1":58.5,"id":"a62v59o4trjc","state":"Jharkhand"},"type":"Feature","geometry":{"type":"Point","coordinates":[83.69295096,24.05028568]}},{"properties":{"district":"Girdih","v1":57.2,"id":"a62v59m5a2vs","state":"Jharkhand"},"type":"Feature","geometry":null},{"properties":{"district":"Godda","v1":50.3,"id":"a62v59sthbw7","state":"Jharkhand"},"type":"Feature","geometry":{"type":"Point","coordinates":[87.2808899,24.86403353]}},{"properties":{"district":"Gumla","v1":62.4,"id":"a62v59z03yhx","state":"Jharkhand"},"type":"Feature","geometry":{"type":"Point","coordinates":[84.53725059,22.97272207]}},{"properties":{"district":"Hazaribag","v1":69.5,"id":"a62v59rvs6l0","state":"Jharkhand"},"type":"Feature","geometry":null},{"properties":{"district":"Jamtara","v1":57.2,"id":"a62v59qzm3qt","state":"Jharkhand"},"type":"Feature","geometry":null},{"properties":{"district":"Kodarma","v1":63.7,"id":"a62v59s9u37e","state":"Jharkhand"},"type":"Feature","geometry":{"type":"Point","coordinates":[85.49193805,24.45905515]}},{"properties":{"district":"Latehar","v1":63.3,"id":"a62v59q4rt7s","state":"Jharkhand"},"type":"Feature","geometry":null},{"properties":{"district":"Lohardaga","v1":65.6,"id":"a62v59kjpc28","state":"Jharkhand"},"type":"Feature","geometry":{"type":"Point","coordinates":[84.66369483,23.47693799]}},{"properties":{"district":"Pakur","v1":44.0,"id":"a62v59q3dab9","state":"Jharkhand"},"type":"Feature","geometry":null},{"properties":{"district":"Palamu","v1":62.9,"id":"a62v59tvl7fa","state":"Jharkhand"},"type":"Feature","geometry":{"type":"Point","coordinates":[84.3813696,23.98070789]}},{"properties":{"district":"Ranchi","v1":70.4,"id":"a62v59wnnwdb","state":"Jharkhand"},"type":"Feature","geometry":{"type":"Point","coordinates":[85.37954317,23.14086837]}},{"properties":{"district":"Sahebganj","v1":45.9,"id":"a62v59oblm6a","state":"Jharkhand"},"type":"Feature","geometry":null},{"properties":{"district":"Saraikela","v1":67.4,"id":"a62v59m5yylj","state":"Jharkhand"},"type":"Feature","geometry":null},{"properties":{"district":"Simdega","v1":64.9,"id":"a62v59pitt1w","state":"Jharkhand"},"type":"Feature","geometry":null},{"properties":{"district":"West Singh Bhumi","v1":69.1,"id":"a62v59zvso2g","state":"Jharkhand"},"type":"Feature","geometry":null},{"properties":{"district":"North Goa","v1":89.0,"id":"a62v59zyj4be","state":"Goa"},"type":"Feature","geometry":{"type":"Point","coordinates":[73.98372816,15.53302842]}},{"properties":{"district":"South Goa","v1":86.8,"id":"a62v59nza32n","state":"Goa"},"type":"Feature","geometry":{"type":"Point","coordinates":[74.05107588,15.1924987]}},{"properties":{"district":"Belgaum","v1":72.6,"id":"a62v59swxet7","state":"Karnataka"},"type":"Feature","geometry":{"type":"Point","coordinates":[74.77896654,16.15499136]}},{"properties":{"district":"Bagalkot","v1":64.6,"id":"a62v59n76c6x","state":"Karnataka"},"type":"Feature","geometry":{"type":"Point","coordinates":[75.66496824,16.28767976]}},{"properties":{"district":"Bijapur","v1":66.3,"id":"a62v59s4h3o9","state":"Karnataka"},"type":"Feature","geometry":{"type":"Point","coordinates":[75.90246933,16.8121892]}},{"properties":{"district":"Gulbarga","v1":58.4,"id":"a62v59sk9rnp","state":"Karnataka"},"type":"Feature","geometry":{"type":"Point","coordinates":[76.87611228,16.97810545]}},{"properties":{"district":"Bidar","v1":71.4,"id":"a62v59pv70ne","state":"Karnataka"},"type":"Feature","geometry":{"type":"Point","coordinates":[77.17181785,18.01731208]}},{"properties":{"district":"Raichur","v1":60.0,"id":"a62v59pyg82o","state":"Karnataka"},"type":"Feature","geometry":{"type":"Point","coordinates":[76.91290822,16.04861764]}},{"properties":{"district":"Koppal","v1":63.3,"id":"a62v59sbuvqu","state":"Karnataka"},"type":"Feature","geometry":{"type":"Point","coordinates":[76.2916143,15.57004737]}},{"properties":{"district":"Gadag","v1":70.8,"id":"a62v59sk74bc","state":"Karnataka"},"type":"Feature","geometry":{"type":"Point","coordinates":[75.66073113,15.41215933]}},{"properties":{"district":"Chitradurga","v1":null,"id":"a62v59r3gqp7","state":"Karnataka"},"type":"Feature","geometry":{"type":"Point","coordinates":[76.72558342,14.35332819]}},{"properties":{"district":"Dharwad","v1":75.9,"id":"a62v59rl4akn","state":"Karnataka"},"type":"Feature","geometry":{"type":"Point","coordinates":[75.1444729,15.36711217]}},{"properties":{"district":"Uttara Kannada","v1":82.9,"id":"a62v59lzocky","state":"Karnataka"},"type":"Feature","geometry":null},{"properties":{"district":"Haveri","v1":76.4,"id":"a62v59x8a4ar","state":"Karnataka"},"type":"Feature","geometry":{"type":"Point","coordinates":[75.41966195,14.77726206]}},{"properties":{"district":"Bellary","v1":64.9,"id":"a62v59v2ra9z","state":"Karnataka"},"type":"Feature","geometry":{"type":"Point","coordinates":[76.41493646,15.16596102]}},{"properties":{"district":"Davanagere","v1":70.5,"id":"a62v59ta6dcg","state":"Karnataka"},"type":"Feature","geometry":{"type":"Point","coordinates":[76.10228245,14.13411358]}},{"properties":{"district":"Shimoga","v1":80.3,"id":"a62v59nt65fj","state":"Karnataka"},"type":"Feature","geometry":{"type":"Point","coordinates":[75.35008417,14.05405453]}},{"properties":{"district":"Udupi","v1":84.0,"id":"a62v59n2o6r2","state":"Karnataka"},"type":"Feature","geometry":{"type":"Point","coordinates":[74.89203043,13.48048383]}},{"properties":{"district":"Chikmagalur","v1":79.5,"id":"a62v59ndy6ej","state":"Karnataka"},"type":"Feature","geometry":{"type":"Point","coordinates":[75.72027366,13.40220882]}},{"properties":{"district":"Tumkur","v1":73.0,"id":"a62v59o8kwrw","state":"Karnataka"},"type":"Feature","geometry":{"type":"Point","coordinates":[76.92628856,13.53735028]}},{"properties":{"district":"Kolar","v1":68.6,"id":"a62v59k40gb1","state":"Karnataka"},"type":"Feature","geometry":{"type":"Point","coordinates":[77.96705623,13.35136352]}},{"properties":{"district":"Bangalore Urban","v1":88.3,"id":"a62v59pux12o","state":"Karnataka"},"type":"Feature","geometry":{"type":"Point","coordinates":[77.57389716,12.93568087]}},{"properties":{"district":"Bangalore Rural","v1":71.1,"id":"a62v59knr008","state":"Karnataka"},"type":"Feature","geometry":{"type":"Point","coordinates":[77.51056353,12.86409603]}},{"properties":{"district":"Mandya","v1":68.3,"id":"a62v59rfx00y","state":"Karnataka"},"type":"Feature","geometry":{"type":"Point","coordinates":[76.82615899,12.62904801]}},{"properties":{"district":"Hassan","v1":72.7,"id":"a62v59yfhve5","state":"Karnataka"},"type":"Feature","geometry":{"type":"Point","coordinates":[76.09046314,13.02376812]}},{"properties":{"district":"Dakshina Kannada","v1":85.7,"id":"a62v59wvcjhu","state":"Karnataka"},"type":"Feature","geometry":null},{"properties":{"district":"Kodagu","v1":80.5,"id":"a62v59qzfn70","state":"Karnataka"},"type":"Feature","geometry":{"type":"Point","coordinates":[75.77446405,12.37549051]}},{"properties":{"district":"Mysore","v1":72.3,"id":"a62v59wtpi1r","state":"Karnataka"},"type":"Feature","geometry":{"type":"Point","coordinates":[76.51618105,12.18994976]}},{"properties":{"district":"Chamarajnagar","v1":63.9,"id":"a62v59yvced8","state":"Karnataka"},"type":"Feature","geometry":null},{"properties":{"district":"Hugli","v1":79.7,"id":"a62v59y3yi3x","state":"West Bengal"},"type":"Feature","geometry":{"type":"Point","coordinates":[88.00365142,22.90938844]}},{"properties":{"district":"Darjiling","v1":80.1,"id":"a62v5a0ewuvs","state":"West Bengal"},"type":"Feature","geometry":{"type":"Point","coordinates":[88.43182239,26.83428902]}},{"properties":{"district":"Haora","v1":80.4,"id":"a62v59z3r24m","state":"West Bengal"},"type":"Feature","geometry":{"type":"Point","coordinates":[88.10333497,22.4981659]}},{"properties":{"district":"Jalpaiguri","v1":73.3,"id":"a62v59lo2xgl","state":"West Bengal"},"type":"Feature","geometry":{"type":"Point","coordinates":[89.13384438,26.66458167]}},{"properties":{"district":"Kolkata","v1":82.6,"id":"a62v59r5pilw","state":"West Bengal"},"type":"Feature","geometry":null},{"properties":{"district":"Nadia","v1":72.3,"id":"a62v59kqp4hh","state":"West Bengal"},"type":"Feature","geometry":{"type":"Point","coordinates":[88.46683429,23.48496619]}},{"properties":{"district":"North 24 Parganas","v1":81.2,"id":"a62v59ztd45y","state":"West Bengal"},"type":"Feature","geometry":{"type":"Point","coordinates":[88.71347861,22.39982038]}},{"properties":{"district":"Puruliya","v1":61.9,"id":"a62v59sk8j6b","state":"West Bengal"},"type":"Feature","geometry":{"type":"Point","coordinates":[86.36032231,23.19795784]}},{"properties":{"district":"Bankura","v1":64.1,"id":"a62v59qizy5c","state":"West Bengal"},"type":"Feature","geometry":{"type":"Point","coordinates":[87.18410542,23.13061011]}},{"properties":{"district":"Barddhaman","v1":75.0,"id":"a62v59yt0pip","state":"West Bengal"},"type":"Feature","geometry":{"type":"Point","coordinates":[87.60335616,23.40535315]}},{"properties":{"district":"Birbhum","v1":65.8,"id":"a62v59rjd9nz","state":"West Bengal"},"type":"Feature","geometry":{"type":"Point","coordinates":[87.55340288,24.05965192]}},{"properties":{"district":"Dakshin Dinajpurr","v1":70.0,"id":"a62v59ushrip","state":"West Bengal"},"type":"Feature","geometry":null},{"properties":{"district":"Koch Bihar","v1":71.8,"id":"a62v59wj2t8m","state":"West Bengal"},"type":"Feature","geometry":null},{"properties":{"district":"Malda","v1":64.2,"id":"a62v59vyhwkj","state":"West Bengal"},"type":"Feature","geometry":null},{"properties":{"district":"Murshidabad","v1":68.8,"id":"a62v59m41nru","state":"West Bengal"},"type":"Feature","geometry":{"type":"Point","coordinates":[88.27594139,24.28622572]}},{"properties":{"district":"Paschim Medinipur","v1":69.2,"id":"a62v59o7azw2","state":"West Bengal"},"type":"Feature","geometry":null},{"properties":{"district":"Purba Medinipur","v1":79.8,"id":"a62v59ue1jq3","state":"West Bengal"},"type":"Feature","geometry":null},{"properties":{"district":"South 24 Parganas","v1":78.3,"id":"a62v59m8fqx4","state":"West Bengal"},"type":"Feature","geometry":{"type":"Point","coordinates":[88.41821904,22.08181424]}},{"properties":{"district":"Uttar Dinajpur","v1":60.2,"id":"a62v59pg35xm","state":"West Bengal"},"type":"Feature","geometry":null},{"properties":{"district":"East Sikkim","v1":84.0,"id":"a62v59y623xh","state":"Sikkim"},"type":"Feature","geometry":null},{"properties":{"district":"South Sikkim","v1":77.8,"id":"a62v59sthbu5","state":"Sikkim"},"type":"Feature","geometry":null},{"properties":{"district":"West Sikkim","v1":71.3,"id":"a62v59xvhs4y","state":"Sikkim"},"type":"Feature","geometry":null},{"properties":{"district":"North Sikkim","v1":78.3,"id":"a62v59nehv8h","state":"Sikkim"},"type":"Feature","geometry":null},{"properties":{"district":"Balaghat","v1":72.8,"id":"a62v59pj516u","state":"Madhya Pradesh"},"type":"Feature","geometry":{"type":"Point","coordinates":[80.27315832,21.85880852]}},{"properties":{"district":"Barwani","v1":37.7,"id":"a62v59mq6jni","state":"Madhya Pradesh"},"type":"Feature","geometry":{"type":"Point","coordinates":[75.03319305,21.75444185]}},{"properties":{"district":"Betul","v1":61.6,"id":"a62v59p8ioik","state":"Madhya Pradesh"},"type":"Feature","geometry":{"type":"Point","coordinates":[77.79890992,21.88200112]}},{"properties":{"district":"Bhind","v1":73.0,"id":"a62v59t89axy","state":"Madhya Pradesh"},"type":"Feature","geometry":{"type":"Point","coordinates":[78.66885521,26.35638777]}},{"properties":{"district":"Bhopal","v1":73.0,"id":"a62v59zahrcs","state":"Madhya Pradesh"},"type":"Feature","geometry":{"type":"Point","coordinates":[77.40575085,23.49656249]}},{"properties":{"district":"Chhatarpur","v1":61.5,"id":"a62v59wrtcr0","state":"Madhya Pradesh"},"type":"Feature","geometry":{"type":"Point","coordinates":[79.70293271,24.76680304]}},{"properties":{"district":"Chhindwara","v1":66.0,"id":"a62v59w2ey0k","state":"Madhya Pradesh"},"type":"Feature","geometry":{"type":"Point","coordinates":[78.82339817,22.14113376]}},{"properties":{"district":"Damoh","v1":70.9,"id":"a62v59qhwnoc","state":"Madhya Pradesh"},"type":"Feature","geometry":{"type":"Point","coordinates":[79.49999751,23.80007327]}},{"properties":{"district":"Datia","v1":70.1,"id":"a62v59pag6nk","state":"Madhya Pradesh"},"type":"Feature","geometry":{"type":"Point","coordinates":[78.52278647,25.92308767]}},{"properties":{"district":"Dewas","v1":65.4,"id":"a62v59zvi8ud","state":"Madhya Pradesh"},"type":"Feature","geometry":{"type":"Point","coordinates":[76.51172094,22.81059691]}},{"properties":{"district":"Dhar","v1":47.1,"id":"a62v5a0cpxdx","state":"Madhya Pradesh"},"type":"Feature","geometry":{"type":"Point","coordinates":[75.09429662,22.58067802]}},{"properties":{"district":"Dindori","v1":61.2,"id":"a62v59pk65l1","state":"Madhya Pradesh"},"type":"Feature","geometry":{"type":"Point","coordinates":[81.27601502,22.86612533]}},{"properties":{"district":"East Nimar","v1":59.8,"id":"a62v59scatix","state":"Madhya Pradesh"},"type":"Feature","geometry":{"type":"Point","coordinates":[76.58352878,21.74663665]}},{"properties":{"district":"Guna","v1":60.5,"id":"a62v59xhs04c","state":"Madhya Pradesh"},"type":"Feature","geometry":{"type":"Point","coordinates":[77.53554017,24.50432531]}},{"properties":{"district":"Gwalior","v1":71.9,"id":"a62v59tbpdip","state":"Madhya Pradesh"},"type":"Feature","geometry":{"type":"Point","coordinates":[78.27458111,25.95876858]}},{"properties":{"district":"Harda","v1":68.0,"id":"a62v59k6drhs","state":"Madhya Pradesh"},"type":"Feature","geometry":{"type":"Point","coordinates":[77.13948202,22.24795349]}},{"properties":{"district":"Hosangabad","v1":67.6,"id":"a62v59klwn6j","state":"Madhya Pradesh"},"type":"Feature","geometry":null},{"properties":{"district":"Indore","v1":74.4,"id":"a62v59zp7pve","state":"Madhya Pradesh"},"type":"Feature","geometry":{"type":"Point","coordinates":[75.83356056,22.71314341]}},{"properties":{"district":"Jabalpur","v1":78.1,"id":"a62v59vq9w3g","state":"Madhya Pradesh"},"type":"Feature","geometry":{"type":"Point","coordinates":[79.98079783,23.33666739]}},{"properties":{"district":"Jhabua","v1":31.5,"id":"a62v59ml8tgd","state":"Madhya Pradesh"},"type":"Feature","geometry":{"type":"Point","coordinates":[74.52451702,22.58335409]}},{"properties":{"district":"Katni","v1":70.0,"id":"a62v59tyyofq","state":"Madhya Pradesh"},"type":"Feature","geometry":{"type":"Point","coordinates":[80.44241966,23.86965105]}},{"properties":{"district":"Mandla","v1":66.7,"id":"a62v59rgg1i7","state":"Madhya Pradesh"},"type":"Feature","geometry":{"type":"Point","coordinates":[80.56641084,22.78874235]}},{"properties":{"district":"Mandsaur","v1":59.6,"id":"a62v59xu0o6a","state":"Madhya Pradesh"},"type":"Feature","geometry":{"type":"Point","coordinates":[75.40315953,24.2657092]}},{"properties":{"district":"Morena","v1":70.0,"id":"a62v59u33tsj","state":"Madhya Pradesh"},"type":"Feature","geometry":{"type":"Point","coordinates":[77.82232552,26.39117666]}},{"properties":{"district":"Narasimhapur","v1":66.5,"id":"a62v5a0cv6lk","state":"Madhya Pradesh"},"type":"Feature","geometry":null},{"properties":{"district":"Neemuch","v1":60.8,"id":"a62v59wqxk7x","state":"Madhya Pradesh"},"type":"Feature","geometry":{"type":"Point","coordinates":[75.16075232,24.64972504]}},{"properties":{"district":"Panna","v1":63.0,"id":"a62v59wc3s55","state":"Madhya Pradesh"},"type":"Feature","geometry":{"type":"Point","coordinates":[80.20023546,24.45236498]}},{"properties":{"district":"Raisen","v1":63.1,"id":"a62v59r5z25l","state":"Madhya Pradesh"},"type":"Feature","geometry":{"type":"Point","coordinates":[78.08324221,23.27088071]}},{"properties":{"district":"Rajgarh","v1":53.6,"id":"a62v59r08yle","state":"Madhya Pradesh"},"type":"Feature","geometry":{"type":"Point","coordinates":[76.71220307,23.87255012]}},{"properties":{"district":"Ratlam","v1":56.7,"id":"a62v5a02gxsb","state":"Madhya Pradesh"},"type":"Feature","geometry":{"type":"Point","coordinates":[75.10388586,23.50548272]}},{"properties":{"district":"Rewa","v1":69.2,"id":"a62v59lsg326","state":"Madhya Pradesh"},"type":"Feature","geometry":{"type":"Point","coordinates":[81.66872809,24.76055888]}},{"properties":{"district":"Sagar","v1":75.3,"id":"a62v59psnr8m","state":"Madhya Pradesh"},"type":"Feature","geometry":{"type":"Point","coordinates":[78.699407,23.81345361]}},{"properties":{"district":"Satna","v1":70.3,"id":"a62v59mgkuvv","state":"Madhya Pradesh"},"type":"Feature","geometry":{"type":"Point","coordinates":[80.86635352,24.5817083]}},{"properties":{"district":"Sehore","v1":58.8,"id":"a62v59qhuu6k","state":"Madhya Pradesh"},"type":"Feature","geometry":{"type":"Point","coordinates":[77.23648951,23.12659601]}},{"properties":{"district":"Seoni","v1":66.9,"id":"a62v59zk58mm","state":"Madhya Pradesh"},"type":"Feature","geometry":{"type":"Point","coordinates":[79.73905964,22.27382216]}},{"properties":{"district":"Shahdol","v1":61.0,"id":"a62v59q9el9y","state":"Madhya Pradesh"},"type":"Feature","geometry":{"type":"Point","coordinates":[81.59246013,23.46556469]}},{"properties":{"district":"Shajapur","v1":58.9,"id":"a62v59uwiy87","state":"Madhya Pradesh"},"type":"Feature","geometry":{"type":"Point","coordinates":[76.36632121,23.72023722]}},{"properties":{"district":"Sheopur","v1":52.8,"id":"a62v59y1ovf0","state":"Madhya Pradesh"},"type":"Feature","geometry":{"type":"Point","coordinates":[77.06945823,25.75048124]}},{"properties":{"district":"Shivpuri","v1":56.5,"id":"a62v59tlr7ii","state":"Madhya Pradesh"},"type":"Feature","geometry":{"type":"Point","coordinates":[77.73356925,25.38073777]}},{"properties":{"district":"Sidhi","v1":59.2,"id":"a62v59o6brs1","state":"Madhya Pradesh"},"type":"Feature","geometry":{"type":"Point","coordinates":[82.05318994,24.24519267]}},{"properties":{"district":"Tikamgarh","v1":62.4,"id":"a62v59x7bk1g","state":"Madhya Pradesh"},"type":"Feature","geometry":{"type":"Point","coordinates":[78.88539376,25.00207407]}},{"properties":{"district":"Ujjain","v1":63.9,"id":"a62v59r1jzzn","state":"Madhya Pradesh"},"type":"Feature","geometry":{"type":"Point","coordinates":[75.69195193,23.2978644]}},{"properties":{"district":"Umaria","v1":62.9,"id":"a62v59mvrmzi","state":"Madhya Pradesh"},"type":"Feature","geometry":{"type":"Point","coordinates":[80.89199918,23.64553031]}},{"properties":{"district":"Vidisha","v1":66.2,"id":"a62v59ur4j5h","state":"Madhya Pradesh"},"type":"Feature","geometry":{"type":"Point","coordinates":[77.77415629,23.85091857]}},{"properties":{"district":"West Nimar","v1":57.3,"id":"a62v59y73zug","state":"Madhya Pradesh"},"type":"Feature","geometry":{"type":"Point","coordinates":[75.72361874,21.9633982]}},{"properties":{"district":"Koriya","v1":66.6,"id":"a62v59s9gez7","state":"Chattisgarh"},"type":"Feature","geometry":{"type":"Point","coordinates":[82.16045569,23.43211384]}},{"properties":{"district":"Sarguja","v1":57.5,"id":"a62v59tqg97r","state":"Chattisgarh"},"type":"Feature","geometry":null},{"properties":{"district":"Jashpur","v1":67.4,"id":"a62v59mn5o9t","state":"Chattisgarh"},"type":"Feature","geometry":{"type":"Point","coordinates":[83.88830396,22.7671108]}},{"properties":{"district":"Raigarh","v1":69.2,"id":"a62v59k96el3","state":"Chattisgarh"},"type":"Feature","geometry":{"type":"Point","coordinates":[83.35866539,22.06419678]}},{"properties":{"district":"Korba","v1":66.9,"id":"a62v59v57ai8","state":"Chattisgarh"},"type":"Feature","geometry":{"type":"Point","coordinates":[82.62386156,22.51645237]}},{"properties":{"district":"Janjgir","v1":70.1,"id":"a62v59sy2hgu","state":"Chattisgarh"},"type":"Feature","geometry":{"type":"Point","coordinates":[82.80761827,21.96696629]}},{"properties":{"district":"Bilaspur","v1":66.7,"id":"a62v59shtkki","state":"Chattisgarh"},"type":"Feature","geometry":{"type":"Point","coordinates":[79.45316631,26.65633046]}},{"properties":{"district":"Kawardha","v1":56.8,"id":"a62v59v72mzn","state":"Chattisgarh"},"type":"Feature","geometry":{"type":"Point","coordinates":[81.14734072,22.0958636]}},{"properties":{"district":"Rajnand Gaon","v1":69.9,"id":"a62v59krroer","state":"Chattisgarh"},"type":"Feature","geometry":null},{"properties":{"district":"Durg","v1":76.2,"id":"a62v59t91zsx","state":"Chattisgarh"},"type":"Feature","geometry":{"type":"Point","coordinates":[81.36700135,21.19938062]}},{"properties":{"district":"Raipur","v1":71.6,"id":"a62v59ranhda","state":"Chattisgarh"},"type":"Feature","geometry":{"type":"Point","coordinates":[82.12232171,20.82673807]}},{"properties":{"district":"Mahasamund","v1":68.9,"id":"a62v59xhv1wi","state":"Chattisgarh"},"type":"Feature","geometry":{"type":"Point","coordinates":[82.6294367,21.27431054]}},{"properties":{"district":"Dhamtari","v1":76.2,"id":"a62v59yc3bxg","state":"Chattisgarh"},"type":"Feature","geometry":{"type":"Point","coordinates":[81.78602909,20.53326255]}},{"properties":{"district":"Kanker","v1":66.3,"id":"a62v59p1kx2m","state":"Chattisgarh"},"type":"Feature","geometry":{"type":"Point","coordinates":[81.10207056,20.12181701]}},{"properties":{"district":"Bastar","v1":51.9,"id":"a62v59wyn8c7","state":"Chattisgarh"},"type":"Feature","geometry":{"type":"Point","coordinates":[81.44817543,19.39593341]}},{"properties":{"district":"Dantewara","v1":42.8,"id":"a62v59oc7p7o","state":"Chattisgarh"},"type":"Feature","geometry":null},{"properties":{"district":"Nuapada","v1":57.8,"id":"a62v59zzlvoq","state":"Orissa"},"type":"Feature","geometry":{"type":"Point","coordinates":[82.58951868,20.53616163]}},{"properties":{"district":"Puri","v1":80.6,"id":"a62v59rmaelu","state":"Orissa"},"type":"Feature","geometry":{"type":"Point","coordinates":[85.72609405,19.82521941]}},{"properties":{"district":"Rayagada","v1":43.8,"id":"a62v59xt07kp","state":"Orissa"},"type":"Feature","geometry":{"type":"Point","coordinates":[83.25407571,19.28264651]}},{"properties":{"district":"Sambalpur","v1":77.4,"id":"a62v59kyaalu","state":"Orissa"},"type":"Feature","geometry":{"type":"Point","coordinates":[84.27945598,21.5535137]}},{"properties":{"district":"Sonapur","v1":75.4,"id":"a62v59s1wdvh","state":"Orissa"},"type":"Feature","geometry":{"type":"Point","coordinates":[83.85975923,20.84948466]}},{"properties":{"district":"Sundargarh","v1":73.7,"id":"a62v59whk5tz","state":"Orissa"},"type":"Feature","geometry":{"type":"Point","coordinates":[84.4518394,22.05661459]}},{"properties":{"district":"Angul","v1":73.9,"id":"a62v59zidyve","state":"Orissa"},"type":"Feature","geometry":null},{"properties":{"district":"Balangir","v1":69.0,"id":"a62v59zarubv","state":"Orissa"},"type":"Feature","geometry":{"type":"Point","coordinates":[83.17490868,20.60417837]}},{"properties":{"district":"Baleshwar","v1":80.7,"id":"a62v59nzub7p","state":"Orissa"},"type":"Feature","geometry":{"type":"Point","coordinates":[86.91716758,21.51426469]}},{"properties":{"district":"Bargarh","v1":73.1,"id":"a62v59w9e8vx","state":"Orissa"},"type":"Feature","geometry":{"type":"Point","coordinates":[83.26901709,21.23082443]}},{"properties":{"district":"Baudh","v1":70.9,"id":"a62v59p6hob3","state":"Orissa"},"type":"Feature","geometry":{"type":"Point","coordinates":[84.17731937,20.63874426]}},{"properties":{"district":"Bhadrak","v1":81.8,"id":"a62v59vnrm3g","state":"Orissa"},"type":"Feature","geometry":{"type":"Point","coordinates":[86.64376257,20.97882797]}},{"properties":{"district":"Cuttack","v1":84.0,"id":"a62v59vncrfx","state":"Orissa"},"type":"Feature","geometry":{"type":"Point","coordinates":[85.56196185,20.36244018]}},{"properties":{"district":"Debagarh","v1":71.8,"id":"a62v59qzeefh","state":"Orissa"},"type":"Feature","geometry":{"type":"Point","coordinates":[84.84120738,21.43219859]}},{"properties":{"district":"Dhenkanal","v1":75.7,"id":"a62v59tckm2o","state":"Orissa"},"type":"Feature","geometry":{"type":"Point","coordinates":[85.56842901,20.82919114]}},{"properties":{"district":"Gajapati","v1":52.0,"id":"a62v59nz7h50","state":"Orissa"},"type":"Feature","geometry":{"type":"Point","coordinates":[84.11443176,19.18630804]}},{"properties":{"district":"Ganjam","v1":66.4,"id":"a62v59xh15jz","state":"Orissa"},"type":"Feature","geometry":{"type":"Point","coordinates":[84.65187553,19.62496028]}},{"properties":{"district":"Jagatsinghpur","v1":84.6,"id":"a62v59lsewnw","state":"Orissa"},"type":"Feature","geometry":null},{"properties":{"district":"Jajapur","v1":79.8,"id":"a62v59zf84m1","state":"Orissa"},"type":"Feature","geometry":{"type":"Point","coordinates":[86.15002792,20.86710211]}},{"properties":{"district":"Jharsuguda","v1":80.0,"id":"a62v59t9hd8y","state":"Orissa"},"type":"Feature","geometry":{"type":"Point","coordinates":[83.90302234,21.79859698]}},{"properties":{"district":"Kalahandi","v1":56.7,"id":"a62v59zn4iiv","state":"Orissa"},"type":"Feature","geometry":{"type":"Point","coordinates":[83.15193909,19.8129541]}},{"properties":{"district":"Kendrapara","v1":85.6,"id":"a62v59zz2ymp","state":"Orissa"},"type":"Feature","geometry":{"type":"Point","coordinates":[86.66985424,20.54307481]}},{"properties":{"district":"Kendujhar","v1":66.6,"id":"a62v59nt14qc","state":"Orissa"},"type":"Feature","geometry":{"type":"Point","coordinates":[85.77560132,21.58339646]}},{"properties":{"district":"Khandamal","v1":60.4,"id":"a62v59mm2vvr","state":"Orissa"},"type":"Feature","geometry":null},{"properties":{"district":"Khordha","v1":84.0,"id":"a62v59vtkm53","state":"Orissa"},"type":"Feature","geometry":{"type":"Point","coordinates":[85.50331135,20.0471101]}},{"properties":{"district":"Koraput","v1":41.8,"id":"a62v59vsfmjz","state":"Orissa"},"type":"Feature","geometry":{"type":"Point","coordinates":[83.05493161,19.09755176]}},{"properties":{"district":"Malkangiri","v1":35.1,"id":"a62v59y1fbvq","state":"Orissa"},"type":"Feature","geometry":{"type":"Point","coordinates":[81.91269634,18.2677475]}},{"properties":{"district":"Mayurbhanj","v1":64.9,"id":"a62v59o3hfi0","state":"Orissa"},"type":"Feature","geometry":{"type":"Point","coordinates":[86.4187498,21.91188388]}},{"properties":{"district":"Nabarangapur","v1":43.3,"id":"a62v59zqvahg","state":"Orissa"},"type":"Feature","geometry":{"type":"Point","coordinates":[82.34309737,19.62161519]}},{"properties":{"district":"Nayagarh","v1":73.8,"id":"a62v59nxx5rp","state":"Orissa"},"type":"Feature","geometry":{"type":"Point","coordinates":[84.96475255,20.23242785]}},{"properties":{"district":"Ganganagar","v1":69.7,"id":"a62v59w4soez","state":"Rajasthan"},"type":"Feature","geometry":{"type":"Point","coordinates":[74.08006663,29.45326813]}},{"properties":{"district":"Hanumangarh","v1":68.0,"id":"a62v59mx1u37","state":"Rajasthan"},"type":"Feature","geometry":{"type":"Point","coordinates":[74.53700534,29.38480537]}},{"properties":{"district":"Bikaner","v1":62.4,"id":"a62v59x0ir8b","state":"Rajasthan"},"type":"Feature","geometry":{"type":"Point","coordinates":[73.04197503,28.11880193]}},{"properties":{"district":"Churu","v1":62.3,"id":"a62v59tog027","state":"Rajasthan"},"type":"Feature","geometry":{"type":"Point","coordinates":[74.6487312,28.20688919]}},{"properties":{"district":"Jhunjhunu","v1":72.5,"id":"a62v59tuowrt","state":"Rajasthan"},"type":"Feature","geometry":null},{"properties":{"district":"Alwar","v1":67.1,"id":"a62v59s1b18q","state":"Rajasthan"},"type":"Feature","geometry":{"type":"Point","coordinates":[76.65979673,27.64313074]}},{"properties":{"district":"Bharatpur","v1":66.4,"id":"a62v59ok0c5b","state":"Rajasthan"},"type":"Feature","geometry":{"type":"Point","coordinates":[77.3140955,27.26714311]}},{"properties":{"district":"Dhaulpur","v1":63.8,"id":"a62v59sujtte","state":"Rajasthan"},"type":"Feature","geometry":{"type":"Point","coordinates":[77.74070543,26.65989855]}},{"properties":{"district":"Karauli","v1":60.9,"id":"a62v59vf3zz6","state":"Rajasthan"},"type":"Feature","geometry":{"type":"Point","coordinates":[76.9160303,26.72256315]}},{"properties":{"district":"Sawai Madhopur","v1":60.0,"id":"a62v59nixwgf","state":"Rajasthan"},"type":"Feature","geometry":{"type":"Point","coordinates":[76.60917443,26.20028377]}},{"properties":{"district":"Dausa","v1":63.4,"id":"a62v59kte1ou","state":"Rajasthan"},"type":"Feature","geometry":{"type":"Point","coordinates":[76.49053539,26.78210568]}},{"properties":{"district":"Jaipur","v1":70.3,"id":"a62v59tcv8hg","state":"Rajasthan"},"type":"Feature","geometry":{"type":"Point","coordinates":[75.59940456,27.15586326]}},{"properties":{"district":"Sikar","v1":70.8,"id":"a62v59mrqqir","state":"Rajasthan"},"type":"Feature","geometry":{"type":"Point","coordinates":[75.38242,27.66520831]}},{"properties":{"district":"Nagaur","v1":59.8,"id":"a62v59z7r3pr","state":"Rajasthan"},"type":"Feature","geometry":{"type":"Point","coordinates":[74.23817768,27.05952479]}},{"properties":{"district":"Jodhpur","v1":61.3,"id":"a62v59ljeyiu","state":"Rajasthan"},"type":"Feature","geometry":{"type":"Point","coordinates":[72.83123463,26.73371344]}},{"properties":{"district":"Jaisalmer","v1":58.8,"id":"a62v59ykxm7l","state":"Rajasthan"},"type":"Feature","geometry":{"type":"Point","coordinates":[70.91717658,27.01938376]}},{"properties":{"district":"Barmer","v1":53.5,"id":"a62v59oz4blw","state":"Rajasthan"},"type":"Feature","geometry":{"type":"Point","coordinates":[71.47268381,25.57542176]}},{"properties":{"district":"Jalor","v1":51.5,"id":"a62v59ze16qw","state":"Rajasthan"},"type":"Feature","geometry":{"type":"Point","coordinates":[72.14794512,25.20590129]}},{"properties":{"district":"Sirohi","v1":55.2,"id":"a62v59wjlx50","state":"Rajasthan"},"type":"Feature","geometry":{"type":"Point","coordinates":[72.70880449,24.80627505]}},{"properties":{"district":"Pali","v1":58.6,"id":"a62v59shsscf","state":"Rajasthan"},"type":"Feature","geometry":{"type":"Point","coordinates":[73.58945405,25.61065666]}},{"properties":{"district":"Ajmer","v1":68.6,"id":"a62v59ll41sg","state":"Rajasthan"},"type":"Feature","geometry":{"type":"Point","coordinates":[74.62843768,26.31557773]}},{"properties":{"district":"Tonk","v1":56.2,"id":"a62v59vbnnmf","state":"Rajasthan"},"type":"Feature","geometry":{"type":"Point","coordinates":[75.71603655,26.12446183]}},{"properties":{"district":"Bundi","v1":55.8,"id":"a62v59lrmmnh","state":"Rajasthan"},"type":"Feature","geometry":{"type":"Point","coordinates":[75.79118947,25.44317937]}},{"properties":{"district":"Bhilwara","v1":52.1,"id":"a62v59rn974b","state":"Rajasthan"},"type":"Feature","geometry":{"type":"Point","coordinates":[74.73637244,25.49157161]}},{"properties":{"district":"Rajsamand","v1":58.5,"id":"a62v59mmiztp","state":"Rajasthan"},"type":"Feature","geometry":{"type":"Point","coordinates":[73.89831697,25.26811988]}},{"properties":{"district":"Udaipur","v1":52.6,"id":"a62v59zvmkf5","state":"Rajasthan"},"type":"Feature","geometry":{"type":"Point","coordinates":[73.79573434,24.45838614]}},{"properties":{"district":"Dungarpur","v1":61.3,"id":"a62v59rco9fe","state":"Rajasthan"},"type":"Feature","geometry":{"type":"Point","coordinates":[73.87334033,23.67942717]}},{"properties":{"district":"Banswara","v1":52.2,"id":"a62v59xopqsv","state":"Rajasthan"},"type":"Feature","geometry":{"type":"Point","coordinates":[74.3757722,23.49455544]}},{"properties":{"district":"Chittaurgarh","v1":53.9,"id":"a62v59ybilwc","state":"Rajasthan"},"type":"Feature","geometry":{"type":"Point","coordinates":[74.96294625,24.37721205]}},{"properties":{"district":"Kota","v1":65.4,"id":"a62v59u7jbxl","state":"Rajasthan"},"type":"Feature","geometry":{"type":"Point","coordinates":[76.09982938,25.19519702]}},{"properties":{"district":"Baran","v1":61.4,"id":"a62v59tfdy3j","state":"Rajasthan"},"type":"Feature","geometry":{"type":"Point","coordinates":[76.81701576,24.92290704]}},{"properties":{"district":"Jhalawar","v1":54.1,"id":"a62v59xw5rti","state":"Rajasthan"},"type":"Feature","geometry":{"type":"Point","coordinates":[76.20085097,24.31811554]}},{"properties":{"district":"Alappuzha","v1":94.4,"id":"a62v59p6ko2j","state":"Kerala"},"type":"Feature","geometry":null},{"properties":{"district":"Ernakulam","v1":94.8,"id":"a62v59txljyt","state":"Kerala"},"type":"Feature","geometry":{"type":"Point","coordinates":[76.49700256,10.04329675]}},{"properties":{"district":"Idukki","v1":91.7,"id":"a62v59skmvfd","state":"Kerala"},"type":"Feature","geometry":{"type":"Point","coordinates":[77.00723964,9.80445763]}},{"properties":{"district":"Kannur","v1":95.2,"id":"a62v59sce4er","state":"Kerala"},"type":"Feature","geometry":null},{"properties":{"district":"Kasargod","v1":88.0,"id":"a62v59y4hzon","state":"Kerala"},"type":"Feature","geometry":null},{"properties":{"district":"Kollam","v1":93.1,"id":"a62v59qyson3","state":"Kerala"},"type":"Feature","geometry":null},{"properties":{"district":"Kottayam","v1":96.1,"id":"a62v59wzd5fz","state":"Kerala"},"type":"Feature","geometry":{"type":"Point","coordinates":[76.66916297,9.621592944]}},{"properties":{"district":"Kozhikode","v1":94.7,"id":"a62v59pqpp0h","state":"Kerala"},"type":"Feature","geometry":{"type":"Point","coordinates":[75.83289154,11.46161309]}},{"properties":{"district":"Lakshadweep","v1":89.2,"id":"a62v59o09g6o","state":"Kerala"},"type":"Feature","geometry":null},{"properties":{"district":"Malappuram","v1":93.7,"id":"a62v59qdp8b8","state":"Kerala"},"type":"Feature","geometry":{"type":"Point","coordinates":[76.1825645,11.0990058]}},{"properties":{"district":"Palakkad","v1":89.9,"id":"a62v59pb8aoj","state":"Kerala"},"type":"Feature","geometry":null},{"properties":{"district":"Pathanamthitta","v1":96.6,"id":"a62v59nnkyff","state":"Kerala"},"type":"Feature","geometry":null},{"properties":{"district":"Thiruvananthapuram","v1":92.8,"id":"a62v59qusurx","state":"Kerala"},"type":"Feature","geometry":null},{"properties":{"district":"Thrissur","v1":93.8,"id":"a62v59t8lby5","state":"Kerala"},"type":"Feature","geometry":null},{"properties":{"district":"Wayanad","v1":86.1,"id":"a62v59rqf1wo","state":"Kerala"},"type":"Feature","geometry":{"type":"Point","coordinates":[76.10384349,11.70669637]}},{"properties":{"district":"Araria","v1":50.6,"id":"a62v59o2trjl","state":"Bihar"},"type":"Feature","geometry":{"type":"Point","coordinates":[87.36050294,26.26517843]}},{"properties":{"district":"Aurangabad","v1":67.6,"id":"a62v59wqhvcf","state":"Bihar"},"type":"Feature","geometry":{"type":"Point","coordinates":[75.24549449,20.02614756]}},{"properties":{"district":"Banka","v1":51.4,"id":"a62v59y53gds","state":"Bihar"},"type":"Feature","geometry":{"type":"Point","coordinates":[86.82751928,24.83035967]}},{"properties":{"district":"Begusarai","v1":59.0,"id":"a62v59pgy84p","state":"Bihar"},"type":"Feature","geometry":{"type":"Point","coordinates":[86.11858411,25.51275715]}},{"properties":{"district":"Bhagalpur","v1":59.3,"id":"a62v59qecl0u","state":"Bihar"},"type":"Feature","geometry":{"type":"Point","coordinates":[87.089997,25.28618335]}},{"properties":{"district":"Bhojpur","v1":66.5,"id":"a62v59tp2tvj","state":"Bihar"},"type":"Feature","geometry":{"type":"Point","coordinates":[84.55642908,25.45076156]}},{"properties":{"district":"Buxar","v1":68.3,"id":"a62v59k01415","state":"Bihar"},"type":"Feature","geometry":{"type":"Point","coordinates":[84.07518275,25.50584398]}},{"properties":{"district":"Darbhanga","v1":56.5,"id":"a62v59mt90sd","state":"Bihar"},"type":"Feature","geometry":{"type":"Point","coordinates":[86.0322809,26.1583587]}},{"properties":{"district":"Gaya","v1":59.2,"id":"a62v59mjkqh0","state":"Bihar"},"type":"Feature","geometry":{"type":"Point","coordinates":[84.83741628,24.68027682]}},{"properties":{"district":"Gopalgunj","v1":63.2,"id":"a62v59uzkbmo","state":"Bihar"},"type":"Feature","geometry":null},{"properties":{"district":"Jamui","v1":52.4,"id":"a62v59t6ct8d","state":"Bihar"},"type":"Feature","geometry":{"type":"Point","coordinates":[86.21626062,24.75632177]}},{"properties":{"district":"Jehanabad","v1":64.8,"id":"a62v59u3qnvw","state":"Bihar"},"type":"Feature","geometry":null},{"properties":{"district":"Kaimur","v1":67.1,"id":"a62v59o6sk8q","state":"Bihar"},"type":"Feature","geometry":{"type":"Point","coordinates":[83.60397168,24.97642841]}},{"properties":{"district":"Katihar","v1":51.3,"id":"a62v59z90n2s","state":"Bihar"},"type":"Feature","geometry":{"type":"Point","coordinates":[87.63591499,25.54040986]}},{"properties":{"district":"Khagaria","v1":55.8,"id":"a62v59r260yl","state":"Bihar"},"type":"Feature","geometry":{"type":"Point","coordinates":[86.56370352,25.4913486]}},{"properties":{"district":"Kishangunj","v1":54.4,"id":"a62v59sfda40","state":"Bihar"},"type":"Feature","geometry":null},{"properties":{"district":"Lakhisarai","v1":59.2,"id":"a62v59p6qmta","state":"Bihar"},"type":"Feature","geometry":{"type":"Point","coordinates":[86.15292699,25.15817807]}},{"properties":{"district":"Madhepura","v1":51.0,"id":"a62v59z2si8r","state":"Bihar"},"type":"Feature","geometry":{"type":"Point","coordinates":[86.85539499,25.78214806]}},{"properties":{"district":"Madhubani","v1":53.0,"id":"a62v59ww56c4","state":"Bihar"},"type":"Feature","geometry":{"type":"Point","coordinates":[86.23164801,26.35616477]}},{"properties":{"district":"Munger","v1":70.5,"id":"a62v59lshjzh","state":"Bihar"},"type":"Feature","geometry":{"type":"Point","coordinates":[86.51419625,25.22240371]}},{"properties":{"district":"Muzaffarpur","v1":60.0,"id":"a62v59ntcfbb","state":"Bihar"},"type":"Feature","geometry":{"type":"Point","coordinates":[85.30706632,26.14876945]}},{"properties":{"district":"Nalanda","v1":62.7,"id":"a62v5a06f5uj","state":"Bihar"},"type":"Feature","geometry":{"type":"Point","coordinates":[85.53787723,25.2139295]}},{"properties":{"district":"Nawada","v1":56.3,"id":"a62v59nf7whd","state":"Bihar"},"type":"Feature","geometry":{"type":"Point","coordinates":[85.65696228,24.81898638]}},{"properties":{"district":"Paschim Champaran","v1":53.4,"id":"a62v59zoyqs5","state":"Bihar"},"type":"Feature","geometry":null},{"properties":{"district":"Patna","v1":70.0,"id":"a62v59o4n74k","state":"Bihar"},"type":"Feature","geometry":{"type":"Point","coordinates":[85.37106896,25.46771]}},{"properties":{"district":"Purba Champaran","v1":55.9,"id":"a62v59r8l6mz","state":"Bihar"},"type":"Feature","geometry":{"type":"Point","coordinates":[84.88380147,26.64005104]}},{"properties":{"district":"Purnia","v1":49.0,"id":"a62v59jxufzt","state":"Bihar"},"type":"Feature","geometry":{"type":"Point","coordinates":[87.42205251,25.77880297]}},{"properties":{"district":"Rohtas","v1":69.7,"id":"a62v59nnx87v","state":"Bihar"},"type":"Feature","geometry":{"type":"Point","coordinates":[83.9754992,24.94030148]}},{"properties":{"district":"Saharsa","v1":47.9,"id":"a62v59w4oxfq","state":"Bihar"},"type":"Feature","geometry":{"type":"Point","coordinates":[86.58600409,25.83700746]}},{"properties":{"district":"Samastipur","v1":60.1,"id":"a62v59v1cklt","state":"Bihar"},"type":"Feature","geometry":{"type":"Point","coordinates":[85.96760924,25.77768794]}},{"properties":{"district":"Saran","v1":65.5,"id":"a62v59w88o41","state":"Bihar"},"type":"Feature","geometry":{"type":"Point","coordinates":[84.79839028,25.92375668]}},{"properties":{"district":"Sheikhpura","v1":60.3,"id":"a62v59twyn5d","state":"Bihar"},"type":"Feature","geometry":{"type":"Point","coordinates":[85.77827739,25.12561923]}},{"properties":{"district":"Sheohar","v1":45.3,"id":"a62v59psqf1j","state":"Bihar"},"type":"Feature","geometry":{"type":"Point","coordinates":[85.31933163,26.48662311]}},{"properties":{"district":"Sitamarhi","v1":48.5,"id":"a62v59qtt7yt","state":"Bihar"},"type":"Feature","geometry":{"type":"Point","coordinates":[85.5249429,26.57381834]}},{"properties":{"district":"Siwan","v1":67.6,"id":"a62v59kmc2zb","state":"Bihar"},"type":"Feature","geometry":{"type":"Point","coordinates":[84.38739075,26.13338206]}},{"properties":{"district":"Sapaul","v1":52.0,"id":"a62v59tzbhq2","state":"Bihar"},"type":"Feature","geometry":{"type":"Point","coordinates":[86.74790624,26.28034282]}},{"properties":{"district":"Vaishali","v1":66.3,"id":"a62v5a08vzbj","state":"Bihar"},"type":"Feature","geometry":{"type":"Point","coordinates":[85.34520029,25.75048124]}},{"properties":{"district":"North West","v1":84.0,"id":"a62v59mejm8t","state":"Delhi"},"type":"Feature","geometry":null},{"properties":{"district":"North Delhi","v1":84.2,"id":"a62v59wzk6e4","state":"Delhi"},"type":"Feature","geometry":{"type":"Point","coordinates":[77.19278039,28.72337042]}},{"properties":{"district":"North East","v1":83.6,"id":"a62v59lsyteo","state":"Delhi"},"type":"Feature","geometry":null},{"properties":{"district":"East","v1":86.4,"id":"a62v5a076ke6","state":"Delhi"},"type":"Feature","geometry":{"type":"Point","coordinates":[88.67935873,27.28074646]}},{"properties":{"district":"New Delhi","v1":87.9,"id":"a62v59q7m0st","state":"Delhi"},"type":"Feature","geometry":{"type":"Point","coordinates":[77.18452918,28.60071728]}},{"properties":{"district":"Central","v1":88.5,"id":"a62v59qit6qa","state":"Delhi"},"type":"Feature","geometry":null},{"properties":{"district":"West","v1":88.0,"id":"a62v59ov5s8t","state":"Delhi"},"type":"Feature","geometry":null},{"properties":{"district":"South West","v1":87.2,"id":"a62v59ussdzn","state":"Delhi"},"type":"Feature","geometry":null},{"properties":{"district":"South","v1":84.3,"id":"a62v59nd7fdv","state":"Delhi"},"type":"Feature","geometry":null},{"properties":{"district":"Ahmedabad","v1":81.8,"id":"a62v59ot9qd9","state":"Gujrat"},"type":"Feature","geometry":null},{"properties":{"district":"Amreli","v1":73.4,"id":"a62v59l1zddd","state":"Gujrat"},"type":"Feature","geometry":{"type":"Point","coordinates":[71.2380818,21.42617744]}},{"properties":{"district":"Anand","v1":80.7,"id":"a62v59to1o24","state":"Gujrat"},"type":"Feature","geometry":{"type":"Point","coordinates":[72.79421568,22.4669451]}},{"properties":{"district":"Banaskantha","v1":62.3,"id":"a62v59n2bxg6","state":"Gujrat"},"type":"Feature","geometry":null},{"properties":{"district":"Bharuch","v1":76.4,"id":"a62v59v12xyk","state":"Gujrat"},"type":"Feature","geometry":{"type":"Point","coordinates":[73.24825531,21.82156657]}},{"properties":{"district":"Bhavnagar","v1":72.8,"id":"a62v59m4qq9o","state":"Gujrat"},"type":"Feature","geometry":{"type":"Point","coordinates":[71.81700464,21.67215274]}},{"properties":{"district":"Dahod","v1":59.7,"id":"a62v59qqz08x","state":"Gujrat"},"type":"Feature","geometry":{"type":"Point","coordinates":[74.17774313,22.85475204]}},{"properties":{"district":"Gandhinagar","v1":81.7,"id":"a62v59zl2rk3","state":"Gujrat"},"type":"Feature","geometry":{"type":"Point","coordinates":[72.67624565,23.21490627]}},{"properties":{"district":"Jamnagar","v1":71.8,"id":"a62v59y74vob","state":"Gujrat"},"type":"Feature","geometry":{"type":"Point","coordinates":[69.80683113,22.32778954]}},{"properties":{"district":"junagadh","v1":73.2,"id":"a62v59uorybe","state":"Gujrat"},"type":"Feature","geometry":{"type":"Point","coordinates":[70.57174073,21.25379402]}},{"properties":{"district":"Kachchh","v1":62.0,"id":"a62v5a006ffo","state":"Gujrat"},"type":"Feature","geometry":{"type":"Point","coordinates":[69.95579894,23.70440381]}},{"properties":{"district":"Kheda","v1":80.9,"id":"a62v59zz6ol0","state":"Gujrat"},"type":"Feature","geometry":{"type":"Point","coordinates":[73.0486652,22.89422405]}},{"properties":{"district":"Mahesana","v1":80.3,"id":"a62v59vhoska","state":"Gujrat"},"type":"Feature","geometry":{"type":"Point","coordinates":[72.41019984,23.56569426]}},{"properties":{"district":"Narmada","v1":67.3,"id":"a62v59uhtkpi","state":"Gujrat"},"type":"Feature","geometry":{"type":"Point","coordinates":[73.62825705,21.72612012]}},{"properties":{"district":"Navsari","v1":80.1,"id":"a62v59ov9l47","state":"Gujrat"},"type":"Feature","geometry":{"type":"Point","coordinates":[73.11556691,20.82562305]}},{"properties":{"district":"Panch Mahals","v1":70.2,"id":"a62v59q4l1cm","state":"Gujrat"},"type":"Feature","geometry":{"type":"Point","coordinates":[73.74823412,22.8725925]}},{"properties":{"district":"Patan","v1":68.6,"id":"a62v59wwxoln","state":"Gujrat"},"type":"Feature","geometry":{"type":"Point","coordinates":[71.78979794,23.76840645]}},{"properties":{"district":"Porbandar","v1":73.4,"id":"a62v5a0b9z7k","state":"Gujrat"},"type":"Feature","geometry":{"type":"Point","coordinates":[69.72364999,21.58741057]}},{"properties":{"district":"Rajkot","v1":78.2,"id":"a62v59nqn3r8","state":"Gujrat"},"type":"Feature","geometry":{"type":"Point","coordinates":[70.78582621,22.34339994]}},{"properties":{"district":"Sabarkantha","v1":72.1,"id":"a62v59k2ca9m","state":"Gujrat"},"type":"Feature","geometry":null},{"properties":{"district":"Surat","v1":79.9,"id":"a62v59pehjtv","state":"Gujrat"},"type":"Feature","geometry":{"type":"Point","coordinates":[73.46144877,21.19023739]}},{"properties":{"district":"Surendranagar","v1":67.5,"id":"a62v59ng1ida","state":"Gujrat"},"type":"Feature","geometry":{"type":"Point","coordinates":[71.57861153,22.82353124]}},{"properties":{"district":"The Dangs","v1":60.9,"id":"a62v59k2phhd","state":"Gujrat"},"type":"Feature","geometry":{"type":"Point","coordinates":[73.7123302,20.78615103]}},{"properties":{"district":"Vadodara","v1":70.1,"id":"a62v59nsah3r","state":"Gujrat"},"type":"Feature","geometry":{"type":"Point","coordinates":[73.58410192,22.31485521]}},{"properties":{"district":"Valsad","v1":78.8,"id":"a62v59zejbf5","state":"Gujrat"},"type":"Feature","geometry":{"type":"Point","coordinates":[73.11935801,20.43335599]}},{"properties":{"district":"Bilaspur","v1":83.9,"id":"a62v59yhvku4","state":"Himachal Pradesh"},"type":"Feature","geometry":{"type":"Point","coordinates":[79.45316631,26.65633046]}},{"properties":{"district":"Chamba","v1":72.4,"id":"a62v59za97if","state":"Himachal Pradesh"},"type":"Feature","geometry":{"type":"Point","coordinates":[76.32707221,32.69532521]}},{"properties":{"district":"Hamirpur","v1":87.9,"id":"a62v59nye8tz","state":"Himachal Pradesh"},"type":"Feature","geometry":{"type":"Point","coordinates":[76.50057065,31.66013268]}},{"properties":{"district":"Kangra","v1":84.3,"id":"a62v59opu4ra","state":"Himachal Pradesh"},"type":"Feature","geometry":{"type":"Point","coordinates":[76.32038203,32.08027545]}},{"properties":{"district":"Kinaur","v1":80.4,"id":"a62v5a0520zt","state":"Himachal Pradesh"},"type":"Feature","geometry":null},{"properties":{"district":"Kullu","v1":80.6,"id":"a62v5a0f1i57","state":"Himachal Pradesh"},"type":"Feature","geometry":{"type":"Point","coordinates":[77.38791039,31.88202336]}},{"properties":{"district":"Lahul spith","v1":76.4,"id":"a62v59yqd1bi","state":"Himachal Pradesh"},"type":"Feature","geometry":null},{"properties":{"district":"Mandi","v1":79.1,"id":"a62v59oxpd27","state":"Himachal Pradesh"},"type":"Feature","geometry":{"type":"Point","coordinates":[76.99118322,31.65433453]}},{"properties":{"district":"Shimla","v1":82.3,"id":"a62v59mq5p1r","state":"Himachal Pradesh"},"type":"Feature","geometry":{"type":"Point","coordinates":[77.64347494,31.24378101]}},{"properties":{"district":"Sirmaur","v1":78.8,"id":"a62v59rsu69p","state":"Himachal Pradesh"},"type":"Feature","geometry":{"type":"Point","coordinates":[77.4077579,30.70544522]}},{"properties":{"district":"Solan","v1":83.0,"id":"a62v59q9h1ml","state":"Himachal Pradesh"},"type":"Feature","geometry":{"type":"Point","coordinates":[76.94836613,31.06113933]}},{"properties":{"district":"Una","v1":87.9,"id":"a62v59s97bmp","state":"Himachal Pradesh"},"type":"Feature","geometry":{"type":"Point","coordinates":[76.19349178,31.58542576]}},{"properties":{"district":"Gurdaspur","v1":83.0,"id":"a62v59uilyim","state":"Punjab"},"type":"Feature","geometry":{"type":"Point","coordinates":[75.40472057,32.08540458]}},{"properties":{"district":"Amritsar","v1":78.6,"id":"a62v59ujwr4h","state":"Punjab"},"type":"Feature","geometry":{"type":"Point","coordinates":[74.93194846,31.56825432]}},{"properties":{"district":"Kapurthala","v1":80.4,"id":"a62v59xen86p","state":"Punjab"},"type":"Feature","geometry":{"type":"Point","coordinates":[75.41698589,31.38583565]}},{"properties":{"district":"Jalandhar","v1":79.7,"id":"a62v59ykq35f","state":"Punjab"},"type":"Feature","geometry":{"type":"Point","coordinates":[75.50284309,31.29284227]}},{"properties":{"district":"Hoshiarpur","v1":86.3,"id":"a62v59ztdiuj","state":"Punjab"},"type":"Feature","geometry":{"type":"Point","coordinates":[75.89979326,31.60906437]}},{"properties":{"district":"Nawanshahr","v1":80.4,"id":"a62v59ug4zzd","state":"Punjab"},"type":"Feature","geometry":{"type":"Point","coordinates":[76.13907839,31.12937908]}},{"properties":{"district":"Rupnagar","v1":82.4,"id":"a62v59li138l","state":"Punjab"},"type":"Feature","geometry":{"type":"Point","coordinates":[76.56212023,31.00717195]}},{"properties":{"district":"Fatehgarh Sahib","v1":80.1,"id":"a62v59s539c1","state":"Punjab"},"type":"Feature","geometry":{"type":"Point","coordinates":[76.41493646,30.5914893]}},{"properties":{"district":"Ludhiana","v1":83.1,"id":"a62v59kvo6o9","state":"Punjab"},"type":"Feature","geometry":{"type":"Point","coordinates":[75.87503962,30.79286346]}},{"properties":{"district":"Moga","v1":70.7,"id":"a62v59rysfzu","state":"Punjab"},"type":"Feature","geometry":{"type":"Point","coordinates":[75.15116307,30.69585597]}},{"properties":{"district":"Firozpur","v1":72.0,"id":"a62v59vbotyy","state":"Punjab"},"type":"Feature","geometry":{"type":"Point","coordinates":[74.63512785,30.55424734]}},{"properties":{"district":"Muktsar","v1":68.3,"id":"a62v59phgavm","state":"Punjab"},"type":"Feature","geometry":{"type":"Point","coordinates":[74.52630106,30.28597147]}},{"properties":{"district":"Faridkot","v1":68.6,"id":"a62v59ymc7if","state":"Punjab"},"type":"Feature","geometry":{"type":"Point","coordinates":[74.75198284,30.59907149]}},{"properties":{"district":"Bhatinda","v1":69.3,"id":"a62v59t1k3v4","state":"Punjab"},"type":"Feature","geometry":null},{"properties":{"district":"Mansa","v1":62.7,"id":"a62v59mr72mk","state":"Punjab"},"type":"Feature","geometry":{"type":"Point","coordinates":[75.46181003,29.87920904]}},{"properties":{"district":"Sangrur","v1":71.7,"id":"a62v59sw8evn","state":"Punjab"},"type":"Feature","geometry":{"type":"Point","coordinates":[75.71915863,30.21126455]}},{"properties":{"district":"Patiala","v1":76.9,"id":"a62v59qkantz","state":"Punjab"},"type":"Feature","geometry":{"type":"Point","coordinates":[76.45128639,30.24404639]}},{"properties":{"district":"Taran Taaran","v1":65.7,"id":"a62v59t2bwal","state":"Punjab"},"type":"Feature","geometry":null},{"properties":{"district":"SAS Nagar","v1":83.6,"id":"a62v59zke5hc","state":"Punjab"},"type":"Feature","geometry":null},{"properties":{"district":"Barnala","v1":67.9,"id":"a62v59kdm1zs","state":"Punjab"},"type":"Feature","geometry":null},{"properties":{"district":"Chandigarh","v1":89.3,"id":"a62v59wgp0py","state":"Punjab"},"type":"Feature","geometry":{"type":"Point","coordinates":[76.76349439,30.73488197]}},{"properties":{"district":"Almora","v1":81.3,"id":"a62v59v37fyd","state":"Uttarakhand"},"type":"Feature","geometry":{"type":"Point","coordinates":[79.54192259,29.71083973]}},{"properties":{"district":"Bageshwar","v1":80.9,"id":"a62v59yl03zs","state":"Uttarakhand"},"type":"Feature","geometry":{"type":"Point","coordinates":[79.80194725,30.00543028]}},{"properties":{"district":"Chamoli","v1":82.6,"id":"a62v59yh67tw","state":"Uttarakhand"},"type":"Feature","geometry":{"type":"Point","coordinates":[79.55329588,30.50607811]}},{"properties":{"district":"Champawat","v1":76.4,"id":"a62v59wlfjdt","state":"Uttarakhand"},"type":"Feature","geometry":{"type":"Point","coordinates":[80.04636151,29.292035]}},{"properties":{"district":"Dehradun","v1":81.8,"id":"a62v59m1opph","state":"Uttarakhand"},"type":"Feature","geometry":null},{"properties":{"district":"Hardwar","v1":73.3,"id":"a62v59k7cl37","state":"Uttarakhand"},"type":"Feature","geometry":null},{"properties":{"district":"Nainital","v1":83.1,"id":"a62v59m7m2b6","state":"Uttarakhand"},"type":"Feature","geometry":null},{"properties":{"district":"Pauri Garhwal","v1":82.3,"id":"a62v59r7mnbz","state":"Uttarakhand"},"type":"Feature","geometry":null},{"properties":{"district":"Pithoragarh","v1":82.4,"id":"a62v5a0gf1lh","state":"Uttarakhand"},"type":"Feature","geometry":{"type":"Point","coordinates":[80.41878106,30.12986747]}},{"properties":{"district":"Rudraprayag","v1":83.6,"id":"a62v59yp6moh","state":"Uttarakhand"},"type":"Feature","geometry":{"type":"Point","coordinates":[79.11977277,30.55335532]}},{"properties":{"district":"Tehri Garhwal","v1":77.2,"id":"a62v59qc32xn","state":"Uttarakhand"},"type":"Feature","geometry":{"type":"Point","coordinates":[78.48688255,30.47151222]}},{"properties":{"district":"Udham Singh Nagar","v1":73.7,"id":"a62v59pmx83k","state":"Uttarakhand"},"type":"Feature","geometry":{"type":"Point","coordinates":[79.43264979,29.15421747]}},{"properties":{"district":"Uttarkashi","v1":74.5,"id":"a62v59r0qk8y","state":"Uttarakhand"},"type":"Feature","geometry":{"type":"Point","coordinates":[78.56337351,30.97305207]}},{"properties":{"district":"Anantnag","v1":67.1,"id":"a62v59mnmg3r","state":"J &amp; K"},"type":"Feature","geometry":null},{"properties":{"district":"Badgam","v1":59.3,"id":"a62v59psyef0","state":"J &amp; K"},"type":"Feature","geometry":null},{"properties":{"district":"Baramula","v1":65.5,"id":"a62v59t43hlm","state":"J &amp; K"},"type":"Feature","geometry":null},{"properties":{"district":"Doda","v1":67.1,"id":"a62v59u5b5a6","state":"J &amp; K"},"type":"Feature","geometry":{"type":"Point","coordinates":[76.1667311,33.5378408]}},{"properties":{"district":"Kargil","v1":70.4,"id":"a62v59rejkwv","state":"J &amp; K"},"type":"Feature","geometry":{"type":"Point","coordinates":[76.50101666,33.7760109]}},{"properties":{"district":"Kathua","v1":80.7,"id":"a62v59u9dczc","state":"J &amp; K"},"type":"Feature","geometry":{"type":"Point","coordinates":[75.56149359,32.57244906]}},{"properties":{"district":"Kupwara","v1":67.2,"id":"a62v5a0b5hlc","state":"J &amp; K"},"type":"Feature","geometry":null},{"properties":{"district":"Pulwama","v1":68.9,"id":"a62v59uffrqs","state":"J &amp; K"},"type":"Feature","geometry":{"type":"Point","coordinates":[74.98301676,33.84714972]}},{"properties":{"district":"Punch","v1":74.1,"id":"a62v59mqe5kb","state":"J &amp; K"},"type":"Feature","geometry":{"type":"Point","coordinates":[74.3055254,33.74300605]}},{"properties":{"district":"Rajauri","v1":78.5,"id":"a62v59z7tfuo","state":"J &amp; K"},"type":"Feature","geometry":{"type":"Point","coordinates":[74.81442444,33.22251071]}},{"properties":{"district":"Udhampur","v1":72.7,"id":"a62v59rsz4y1","state":"J &amp; K"},"type":"Feature","geometry":{"type":"Point","coordinates":[75.49838297,33.10387167]}},{"properties":{"district":"Kokrajhar","v1":68.7,"id":"a62v59pj04qc","state":"Assam"},"type":"Feature","geometry":{"type":"Point","coordinates":[90.15052743,26.59767995]}},{"properties":{"district":"Dubri","v1":69.1,"id":"a62v59ynso89","state":"Assam"},"type":"Feature","geometry":null},{"properties":{"district":"Goalpara","v1":77.7,"id":"a62v59ssu2l5","state":"Assam"},"type":"Feature","geometry":{"type":"Point","coordinates":[90.60880417,26.06447329]}},{"properties":{"district":"Bongaigaon","v1":73.4,"id":"a62v59tclwk7","state":"Assam"},"type":"Feature","geometry":{"type":"Point","coordinates":[90.64114,26.48193999]}},{"properties":{"district":"Barpeta","v1":74.6,"id":"a62v59mna8fc","state":"Assam"},"type":"Feature","geometry":{"type":"Point","coordinates":[90.97587158,26.45473329]}},{"properties":{"district":"Kamrup","v1":87.9,"id":"a62v59yv82uy","state":"Assam"},"type":"Feature","geometry":{"type":"Point","coordinates":[91.55680147,26.26049531]}},{"properties":{"district":"Nalbari","v1":82.5,"id":"a62v59p5njmf","state":"Assam"},"type":"Feature","geometry":{"type":"Point","coordinates":[91.46090901,26.4861771]}},{"properties":{"district":"Darrang","v1":76.2,"id":"a62v59lu84ys","state":"Assam"},"type":"Feature","geometry":{"type":"Point","coordinates":[92.04362294,26.56735118]}},{"properties":{"district":"Marigaon","v1":78.8,"id":"a62v59vihb28","state":"Assam"},"type":"Feature","geometry":{"type":"Point","coordinates":[92.23429283,26.29060109]}},{"properties":{"district":"Nagaon","v1":79.6,"id":"a62v59v3t61f","state":"Assam"},"type":"Feature","geometry":{"type":"Point","coordinates":[92.8538027,26.20853498]}},{"properties":{"district":"Sonitpur","v1":73.1,"id":"a62v59niozlv","state":"Assam"},"type":"Feature","geometry":{"type":"Point","coordinates":[93.05562287,26.76783331]}},{"properties":{"district":"Likhimpur","v1":79.5,"id":"a62v59orgnej","state":"Assam"},"type":"Feature","geometry":null},{"properties":{"district":"Dhemaji","v1":77.2,"id":"a62v59zo9cmo","state":"Assam"},"type":"Feature","geometry":{"type":"Point","coordinates":[94.86531425,27.47788351]}},{"properties":{"district":"Tinsukia","v1":71.5,"id":"a62v59wf8390","state":"Assam"},"type":"Feature","geometry":{"type":"Point","coordinates":[95.61951957,27.60343573]}},{"properties":{"district":"Dibrugarh","v1":80.9,"id":"a62v59s7tvtf","state":"Assam"},"type":"Feature","geometry":{"type":"Point","coordinates":[95.03011547,27.40607567]}},{"properties":{"district":"Sibsagar","v1":85.4,"id":"a62v59x9ghwc","state":"Assam"},"type":"Feature","geometry":{"type":"Point","coordinates":[94.88672279,26.99931325]}},{"properties":{"district":"Jorhat","v1":84.7,"id":"a62v59kqyat2","state":"Assam"},"type":"Feature","geometry":{"type":"Point","coordinates":[94.28237731,26.76939435]}},{"properties":{"district":"Golaghat","v1":76.8,"id":"a62v59yv7d7m","state":"Assam"},"type":"Feature","geometry":{"type":"Point","coordinates":[93.73333724,26.37222118]}},{"properties":{"district":"Karbianglong","v1":84.7,"id":"a62v59qp92fy","state":"Assam"},"type":"Feature","geometry":null},{"properties":{"district":"North Cachar Hills","v1":85.3,"id":"a62v59y915ma","state":"Assam"},"type":"Feature","geometry":{"type":"Point","coordinates":[93.00143248,25.39857823]}},{"properties":{"district":"Cacher","v1":79.5,"id":"a62v59oaxvy8","state":"Assam"},"type":"Feature","geometry":null},{"properties":{"district":"Karimganj","v1":76.6,"id":"a62v59mi1jxa","state":"Assam"},"type":"Feature","geometry":{"type":"Point","coordinates":[92.4008781,24.58483038]}},{"properties":{"district":"Hailakandi","v1":79.7,"id":"a62v59t9n3ck","state":"Assam"},"type":"Feature","geometry":{"type":"Point","coordinates":[92.59979919,24.5076704]}},{"properties":{"district":"Chirang","v1":69.0,"id":"a62v59v897go","state":"Assam"},"type":"Feature","geometry":null},{"properties":{"district":"Baska","v1":79.2,"id":"a62v59zooiy0","state":"Assam"},"type":"Feature","geometry":null},{"properties":{"district":"Kamrup metro","v1":84.1,"id":"a62v59k8u3xr","state":"Assam"},"type":"Feature","geometry":null},{"properties":{"district":"Udalguri","v1":73.3,"id":"a62v59wxsa31","state":"Assam"},"type":"Feature","geometry":null},{"properties":{"district":"W.Garo Hills","v1":73.5,"id":"a62v59sj816g","state":"Meghalaya"},"type":"Feature","geometry":null},{"properties":{"district":"E.Garo Hills","v1":80.7,"id":"a62v59t4rqgb","state":"Meghalaya"},"type":"Feature","geometry":null},{"properties":{"district":"S.Garo Hills","v1":79.3,"id":"a62v5a035m4z","state":"Meghalaya"},"type":"Feature","geometry":null},{"properties":{"district":"W.Khasi Hills","v1":79.3,"id":"a62v59r5n5yt","state":"Meghalaya"},"type":"Feature","geometry":null},{"properties":{"district":"Ribhoi","v1":75.6,"id":"a62v59qdkiin","state":"Meghalaya"},"type":"Feature","geometry":null},{"properties":{"district":"E. Khasi Hills","v1":86.1,"id":"a62v59y3ywuk","state":"Meghalaya"},"type":"Feature","geometry":null},{"properties":{"district":"Jaintia","v1":68.9,"id":"a62v59q3nois","state":"Meghalaya"},"type":"Feature","geometry":null},{"properties":{"district":"Kolasib","v1":92.8,"id":"a62v59wk4f0x","state":"Mizoram"},"type":"Feature","geometry":{"type":"Point","coordinates":[92.71620818,24.2385025]}},{"properties":{"district":"Saiha","v1":94.1,"id":"a62v59rsz1nt","state":"Mizoram"},"type":"Feature","geometry":{"type":"Point","coordinates":[93.0177119,22.37841184]}},{"properties":{"district":"Aizawl","v1":97.5,"id":"a62v59o8nzz9","state":"Mizoram"},"type":"Feature","geometry":{"type":"Point","coordinates":[92.83462421,23.85470967]}},{"properties":{"district":"Champhai","v1":95.0,"id":"a62v59zf8cuu","state":"Mizoram"},"type":"Feature","geometry":{"type":"Point","coordinates":[93.20838179,23.56101114]}},{"properties":{"district":"Serchhip","v1":96.7,"id":"a62v59lvyv9f","state":"Mizoram"},"type":"Feature","geometry":{"type":"Point","coordinates":[92.94278198,23.31793491]}},{"properties":{"district":"Lunglei","v1":92.2,"id":"a62v59wi9f4c","state":"Mizoram"},"type":"Feature","geometry":{"type":"Point","coordinates":[92.76460042,22.95332057]}},{"properties":{"district":"Lawngtlai","v1":86.4,"id":"a62v59r4eo04","state":"Mizoram"},"type":"Feature","geometry":{"type":"Point","coordinates":[92.7367247,22.37105265]}},{"properties":{"district":"Mamit","v1":85.4,"id":"a62v59uzhi62","state":"Mizoram"},"type":"Feature","geometry":{"type":"Point","coordinates":[92.46800282,23.75569513]}},{"properties":{"district":"Ahmadnagar","v1":77.0,"id":"a62v59kr3fav","state":"Maharashtra"},"type":"Feature","geometry":{"type":"Point","coordinates":[74.6097052,19.15954735]}},{"properties":{"district":"Akola","v1":81.8,"id":"a62v59oyp1w8","state":"Maharashtra"},"type":"Feature","geometry":{"type":"Point","coordinates":[77.15509242,20.76385046]}},{"properties":{"district":"Amravati","v1":76.7,"id":"a62v59nnq0dg","state":"Maharashtra"},"type":"Feature","geometry":{"type":"Point","coordinates":[77.53420214,21.1554485]}},{"properties":{"district":"Aurangabad","v1":73.0,"id":"a62v59lg8yv9","state":"Maharashtra"},"type":"Feature","geometry":{"type":"Point","coordinates":[75.24549449,20.02614756]}},{"properties":{"district":"Bhandara","v1":80.9,"id":"a62v59w537nj","state":"Maharashtra"},"type":"Feature","geometry":{"type":"Point","coordinates":[80.05795781,21.12110562]}},{"properties":{"district":"Bid","v1":67.1,"id":"a62v59l5zys7","state":"Maharashtra"},"type":"Feature","geometry":{"type":"Point","coordinates":[75.77580208,18.94746892]}},{"properties":{"district":"Buldana","v1":74.5,"id":"a62v59llile2","state":"Maharashtra"},"type":"Feature","geometry":{"type":"Point","coordinates":[76.41627449,20.56492937]}},{"properties":{"district":"Chandrapur","v1":79.2,"id":"a62v59px11cw","state":"Maharashtra"},"type":"Feature","geometry":{"type":"Point","coordinates":[79.39295477,20.09461031]}},{"properties":{"district":"Dhule","v1":66.9,"id":"a62v59ngn781","state":"Maharashtra"},"type":"Feature","geometry":{"type":"Point","coordinates":[74.53232222,21.13470897]}},{"properties":{"district":"Gadchiroli","v1":59.4,"id":"a62v59qwsasp","state":"Maharashtra"},"type":"Feature","geometry":null},{"properties":{"district":"Gondiya","v1":79.8,"id":"a62v5a08910x","state":"Maharashtra"},"type":"Feature","geometry":{"type":"Point","coordinates":[80.20313453,21.14296018]}},{"properties":{"district":"Hingoli","v1":66.8,"id":"a62v59sc38u9","state":"Maharashtra"},"type":"Feature","geometry":{"type":"Point","coordinates":[77.08283857,19.54222516]}},{"properties":{"district":"Jalgaon","v1":75.1,"id":"a62v59mg21az","state":"Maharashtra"},"type":"Feature","geometry":{"type":"Point","coordinates":[75.5813411,20.8434635]}},{"properties":{"district":"Jalna","v1":68.7,"id":"a62v59zukacb","state":"Maharashtra"},"type":"Feature","geometry":{"type":"Point","coordinates":[76.06169541,19.96169891]}},{"properties":{"district":"Kolhapur","v1":81.1,"id":"a62v59v5m2ht","state":"Maharashtra"},"type":"Feature","geometry":{"type":"Point","coordinates":[74.20227376,16.45917116]}},{"properties":{"district":"Latur","v1":74.7,"id":"a62v59ypjyzy","state":"Maharashtra"},"type":"Feature","geometry":{"type":"Point","coordinates":[76.74899902,18.35137464]}},{"properties":{"district":"Mumbai","v1":86.4,"id":"a62v59r1p574","state":"Maharashtra"},"type":"Feature","geometry":{"type":"Point","coordinates":[72.8419389,18.9820348]}},{"properties":{"district":"Mumbai Sub-urban","v1":89.0,"id":"a62v59unzmsv","state":"Maharashtra"},"type":"Feature","geometry":null},{"properties":{"district":"Nagpur","v1":86.3,"id":"a62v59lzp8vi","state":"Maharashtra"},"type":"Feature","geometry":{"type":"Point","coordinates":[78.95073444,21.15098838]}},{"properties":{"district":"Nanded","v1":70.5,"id":"a62v59tk3gwm","state":"Maharashtra"},"type":"Feature","geometry":{"type":"Point","coordinates":[77.6499421,19.09532171]}},{"properties":{"district":"Nandurbar","v1":51.8,"id":"a62v59rolid1","state":"Maharashtra"},"type":"Feature","geometry":{"type":"Point","coordinates":[74.18175723,21.51359568]}},{"properties":{"district":"Nashik","v1":74.5,"id":"a62v59ratbmg","state":"Maharashtra"},"type":"Feature","geometry":{"type":"Point","coordinates":[74.09902211,20.22618369]}},{"properties":{"district":"Osmanabad","v1":71.4,"id":"a62v59o6r8cu","state":"Maharashtra"},"type":"Feature","geometry":{"type":"Point","coordinates":[76.0380568,18.16940198]}},{"properties":{"district":"Parbhani","v1":68.0,"id":"a62v59mv1xeo","state":"Maharashtra"},"type":"Feature","geometry":{"type":"Point","coordinates":[76.66358783,19.30784615]}},{"properties":{"district":"Pune","v1":83.6,"id":"a62v59st8844","state":"Maharashtra"},"type":"Feature","geometry":{"type":"Point","coordinates":[74.24977398,18.64306612]}},{"properties":{"district":"Raigarh","v1":78.8,"id":"a62v59k3xohq","state":"Maharashtra"},"type":"Feature","geometry":{"type":"Point","coordinates":[83.35866539,22.06419678]}},{"properties":{"district":"Ratnagiri","v1":78.1,"id":"a62v59njo0oy","state":"Maharashtra"},"type":"Feature","geometry":{"type":"Point","coordinates":[73.45163652,17.2802782]}},{"properties":{"district":"Sangli","v1":80.9,"id":"a62v5a05k2qr","state":"Maharashtra"},"type":"Feature","geometry":{"type":"Point","coordinates":[74.69087928,17.17167441]}},{"properties":{"district":"Satara","v1":80.4,"id":"a62v59p4xcgt","state":"Maharashtra"},"type":"Feature","geometry":{"type":"Point","coordinates":[74.22791942,17.63597231]}},{"properties":{"district":"Sindhudurg","v1":84.7,"id":"a62v59zfcuml","state":"Maharashtra"},"type":"Feature","geometry":{"type":"Point","coordinates":[73.76384452,16.13135276]}},{"properties":{"district":"Solapur","v1":73.9,"id":"a62v59vepxv2","state":"Maharashtra"},"type":"Feature","geometry":{"type":"Point","coordinates":[75.52135256,17.83355537]}},{"properties":{"district":"Thane","v1":78.9,"id":"a62v59m34f1z","state":"Maharashtra"},"type":"Feature","geometry":{"type":"Point","coordinates":[73.22796179,19.64458478]}},{"properties":{"district":"Wardha","v1":84.3,"id":"a62v59shzb0o","state":"Maharashtra"},"type":"Feature","geometry":{"type":"Point","coordinates":[78.63495835,20.82406201]}},{"properties":{"district":"Washim","v1":75.2,"id":"a62v59ros0a6","state":"Maharashtra"},"type":"Feature","geometry":{"type":"Point","coordinates":[77.14661821,20.30401268]}},{"properties":{"district":"Yavatmal","v1":73.1,"id":"a62v59qnel8o","state":"Maharashtra"},"type":"Feature","geometry":{"type":"Point","coordinates":[78.21459257,20.06428154]}},{"properties":{"district":"North Tripura","v1":83.4,"id":"a62v59xle05i","state":"Tripura"},"type":"Feature","geometry":{"type":"Point","coordinates":[92.20262602,24.09555584]}},{"properties":{"district":"West Tripura","v1":81.7,"id":"a62v59wg567a","state":"Tripura"},"type":"Feature","geometry":{"type":"Point","coordinates":[91.47094427,23.75212704]}},{"properties":{"district":"Dhalai","v1":73.4,"id":"a62v59r5dnrs","state":"Tripura"},"type":"Feature","geometry":{"type":"Point","coordinates":[91.95977279,24.01861887]}},{"properties":{"district":"South Tripura","v1":76.7,"id":"a62v59ttrayq","state":"Tripura"},"type":"Feature","geometry":{"type":"Point","coordinates":[91.64600375,23.35406184]}},{"properties":{"district":"Panchkula","v1":81.6,"id":"a62v59k2wgi2","state":"Haryana"},"type":"Feature","geometry":{"type":"Point","coordinates":[76.96241549,30.72752278]}},{"properties":{"district":"Ambala","v1":80.0,"id":"a62v59s3xpz7","state":"Haryana"},"type":"Feature","geometry":{"type":"Point","coordinates":[76.92160544,30.38186392]}},{"properties":{"district":"Yamunanagar","v1":76.7,"id":"a62v59n27od4","state":"Haryana"},"type":"Feature","geometry":{"type":"Point","coordinates":[77.32747584,30.25675772]}},{"properties":{"district":"Kurukshetra","v1":75.7,"id":"a62v59sadvtq","state":"Haryana"},"type":"Feature","geometry":{"type":"Point","coordinates":[76.84288442,30.05761361]}},{"properties":{"district":"Kaithal","v1":66.4,"id":"a62v59sea4kb","state":"Haryana"},"type":"Feature","geometry":{"type":"Point","coordinates":[76.45507749,29.88857528]}},{"properties":{"district":"Karnal","v1":75.0,"id":"a62v59pnaj2h","state":"Haryana"},"type":"Feature","geometry":{"type":"Point","coordinates":[76.84667552,29.72042897]}},{"properties":{"district":"Panipat","v1":75.4,"id":"a62v59rpejx9","state":"Haryana"},"type":"Feature","geometry":{"type":"Point","coordinates":[76.88949262,29.33173001]}},{"properties":{"district":"Sonipat","v1":80.5,"id":"a62v59m0x6e0","state":"Haryana"},"type":"Feature","geometry":{"type":"Point","coordinates":[76.84399945,29.05743299]}},{"properties":{"district":"Jind","v1":70.4,"id":"a62v59k6tel8","state":"Haryana"},"type":"Feature","geometry":{"type":"Point","coordinates":[76.33554642,29.45482917]}},{"properties":{"district":"Fatehabad","v1":66.2,"id":"a62v59qlw1g6","state":"Haryana"},"type":"Feature","geometry":{"type":"Point","coordinates":[75.58178711,29.53867932]}},{"properties":{"district":"Sirsa","v1":69.0,"id":"a62v59rdpmk2","state":"Haryana"},"type":"Feature","geometry":{"type":"Point","coordinates":[74.87820408,29.60981814]}},{"properties":{"district":"Hisar","v1":69.7,"id":"a62v59lbaapl","state":"Haryana"},"type":"Feature","geometry":{"type":"Point","coordinates":[75.78115422,29.24319675]}},{"properties":{"district":"Bhiwani","v1":72.5,"id":"a62v59z9gl5v","state":"Haryana"},"type":"Feature","geometry":{"type":"Point","coordinates":[75.96111983,28.73608175]}},{"properties":{"district":"Rohtak","v1":79.0,"id":"a62v59ndcp41","state":"Haryana"},"type":"Feature","geometry":{"type":"Point","coordinates":[76.55096994,28.89731488]}},{"properties":{"district":"Jhajjar","v1":77.0,"id":"a62v59l5wh4r","state":"Haryana"},"type":"Feature","geometry":{"type":"Point","coordinates":[76.61519559,28.59848722]}},{"properties":{"district":"Mahendragarh","v1":75.4,"id":"a62v59km1su3","state":"Haryana"},"type":"Feature","geometry":{"type":"Point","coordinates":[76.13885538,28.13954146]}},{"properties":{"district":"Rewari","v1":78.7,"id":"a62v59qzxjdl","state":"Haryana"},"type":"Feature","geometry":{"type":"Point","coordinates":[76.57706161,28.20220607]}},{"properties":{"district":"Gurgaon","v1":80.4,"id":"a62v59nb6zyo","state":"Haryana"},"type":"Feature","geometry":{"type":"Point","coordinates":[76.98270901,28.09940044]}},{"properties":{"district":"Faridabad","v1":74.8,"id":"a62v59qu0jlq","state":"Haryana"},"type":"Feature","geometry":{"type":"Point","coordinates":[77.30383724,28.18035151]}},{"properties":{"district":"Mewat","v1":53.6,"id":"a62v59nu22ta","state":"Haryana"},"type":"Feature","geometry":null},{"properties":{"district":"Chandigarh","v1":89.3,"id":"a62v59tf62dr","state":"Chandigarh"},"type":"Feature","geometry":{"type":"Point","coordinates":[76.76349439,30.73488197]}},{"properties":{"district":"Dadra &amp; Nagar Haveli","v1":69.8,"id":"a62v59q3jt6c","state":"Dadra &amp; Nagar Haveli"},"type":"Feature","geometry":null},{"properties":{"district":"Daman","v1":86.0,"id":"a62v59k4jlfx","state":"Daman and Diu"},"type":"Feature","geometry":{"type":"Point","coordinates":[72.84862907,20.41975265]}},{"properties":{"district":"Diu","v1":79.2,"id":"a62v59qoyxur","state":"Daman and Diu"},"type":"Feature","geometry":{"type":"Point","coordinates":[70.83555649,20.84011842]}},{"properties":{"district":"Lakshadweep","v1":89.2,"id":"a62v59v29tva","state":"Lakshadweep"},"type":"Feature","geometry":null}],"is_temporal":false,"author":{"url":"","metadata":"","contact_name":"","contact_address":"","source":"","contact_phone":""},"source":"","pagination":{"sort":null,"start":0,"total":573,"limit":1000000},"state":"complete","tags":"data,district,india","published":"2014-08-13T03:07:34-04:00","id":123784}