{"type":"FeatureCollection","data_type":"Dataset","url_type":null,"permissions":[{"permissions":{"download":true,"view":true},"group_id":"everyone"}],"classification":null,"title":"CommunityWalk 0(1)","count":114,"stream_id":124643,"contributor":{"url":"http://geocommons.com/users/28328","name":"ireneusz.sudol@snet.net"},"data_attributes":null,"calculation_params":null,"icon_link":null,"link":"http://geocommons.com/overlays/124643.json","extent":[0.0,0.0,0.0,0.0],"geometry_types":null,"unique_name":null,"name":"CommunityWalk 0(1)","feature_count":114,"description":"","next_feature":null,"is_raster":false,"short_classification":"Y","stats":{},"features":[{"properties":{"city":"MILFORD","category":"L","zipcode":"06460","street1":"365 BOSTON POST RD.","geo_score":0.0,"country":"USA","street2":null,"id":"a70an6ulb04l","geo_precision":"unmatched","state":"CT"},"type":"Feature","geometry":null},{"properties":{"city":"Milford","category":"L","zipcode":"06460","street1":"Wheelers Farms Rd","geo_score":0.0,"country":"USA","street2":null,"id":"a70an6l7beu6","geo_precision":"unmatched","state":"CT"},"type":"Feature","geometry":null},{"properties":{"city":"MILFORD","category":"L","zipcode":"06460","street1":"351 BOSTON POST RD.","geo_score":0.0,"country":"USA","street2":null,"id":"a70an6ig9esb","geo_precision":"unmatched","state":"CT"},"type":"Feature","geometry":null},{"properties":{"city":"MILFORD","category":"L","zipcode":"06460","street1":"350 BOSTON POST RD.","geo_score":0.0,"country":"USA","street2":null,"id":"a70an6szdofq","geo_precision":"unmatched","state":"CT"},"type":"Feature","geometry":null},{"properties":{"city":"MILFORD","category":"L","zipcode":"06460","street1":"304 BOSTON POSR RD.","geo_score":0.0,"country":"USA","street2":null,"id":"a70an6kkekmv","geo_precision":"unmatched","state":"CT"},"type":"Feature","geometry":null},{"properties":{"city":"MILFORD","category":"L","zipcode":"06460","street1":"6 DAYTONA AVE.","geo_score":0.0,"country":"USA","street2":null,"id":"a70an6gf1vcw","geo_precision":"unmatched","state":"CT"},"type":"Feature","geometry":null},{"properties":{"city":"MILFORD","category":"L","zipcode":"06460","street1":"97 FORD ST","geo_score":0.0,"country":"USA","street2":null,"id":"a70an6hor9je","geo_precision":"unmatched","state":"CT"},"type":"Feature","geometry":null},{"properties":{"city":"MILFORD","category":"L","zipcode":"06460","street1":"889 BRIDGEPORT AVE.","geo_score":0.0,"country":"USA","street2":null,"id":"a70an6rp85s5","geo_precision":"unmatched","state":"CT"},"type":"Feature","geometry":null},{"properties":{"city":"MILFORD","category":"L","zipcode":"06460","street1":"300 SEASIDE AVE.","geo_score":0.0,"country":"USA","street2":null,"id":"a70an6s8x9yu","geo_precision":"unmatched","state":"CT"},"type":"Feature","geometry":null},{"properties":{"city":"MILFORD","category":"L","zipcode":"06460","street1":"470 BOSTON POST RD","geo_score":0.0,"country":"USA","street2":null,"id":"a70an6qtqapt","geo_precision":"unmatched","state":"CT"},"type":"Feature","geometry":null},{"properties":{"city":"Milford","category":"L","zipcode":"06460","street1":"Wheelers Farms Rd","geo_score":0.0,"country":"USA","street2":null,"id":"a70an6nddjr1","geo_precision":"unmatched","state":"CT"},"type":"Feature","geometry":null},{"properties":{"city":"MILFORD","category":"L","zipcode":"06460","street1":"GORDON RD.","geo_score":0.0,"country":"USA","street2":null,"id":"a70an6k5f80v","geo_precision":"unmatched","state":"CT"},"type":"Feature","geometry":null},{"properties":{"city":"MILFORD","category":"L","zipcode":"06460","street1":"EAST MAIN STREET","geo_score":0.0,"country":"USA","street2":null,"id":"a70an6wag1l0","geo_precision":"unmatched","state":"CT"},"type":"Feature","geometry":null},{"properties":{"city":"MILFORD","category":"L","zipcode":"06460","street1":"488 WHEELERS FARMS RD.","geo_score":0.0,"country":"USA","street2":null,"id":"a70an6l4zfi8","geo_precision":"unmatched","state":"CT"},"type":"Feature","geometry":null},{"properties":{"city":"MILFORD","category":"L","zipcode":"06460","street1":"AVON ST","geo_score":0.0,"country":"USA","street2":null,"id":"a70an6ku0zja","geo_precision":"unmatched","state":"CT"},"type":"Feature","geometry":null},{"properties":{"city":"MILFORD","category":"L","zipcode":"06460","street1":"PLAINS RD","geo_score":0.0,"country":"USA","street2":null,"id":"a70an6m1wvk1","geo_precision":"unmatched","state":"CT"},"type":"Feature","geometry":null},{"properties":{"city":"MILFORD","category":"L","zipcode":"06460","street1":"75 NAUGATUCK AVE.","geo_score":0.0,"country":"USA","street2":null,"id":"a70an6lq2ryx","geo_precision":"unmatched","state":"CT"},"type":"Feature","geometry":null},{"properties":{"city":"MILFORD","category":"L","zipcode":"06460","street1":"771 CARSDALE AVE.","geo_score":0.0,"country":"USA","street2":null,"id":"a70an6jmtt5q","geo_precision":"unmatched","state":"CT"},"type":"Feature","geometry":null},{"properties":{"city":"MILFORD","category":"L","zipcode":"06460","street1":"767 BRIDGEPORT AVE.","geo_score":0.0,"country":"USA","street2":null,"id":"a70an6tkadk4","geo_precision":"unmatched","state":"CT"},"type":"Feature","geometry":null},{"properties":{"city":"MILFORD","category":"L","zipcode":"06460","street1":"370 BOSTON POST RD","geo_score":0.0,"country":"USA","street2":null,"id":"a70an6lt7t3e","geo_precision":"unmatched","state":"CT"},"type":"Feature","geometry":null},{"properties":{"city":"MILFORD","category":"L","zipcode":"06460","street1":"275 BOSTON POST RD","geo_score":0.0,"country":"USA","street2":null,"id":"a70an6n7xt0b","geo_precision":"unmatched","state":"CT"},"type":"Feature","geometry":null},{"properties":{"city":"MILFORD","category":"L","zipcode":"06460","street1":"430 BOSTON POST RD","geo_score":0.0,"country":"USA","street2":null,"id":"a70an6sdc4yz","geo_precision":"unmatched","state":"CT"},"type":"Feature","geometry":null},{"properties":{"city":"MILFORD","category":"L","zipcode":"06460","street1":"95 WOLF HARBOR RD","geo_score":0.0,"country":"USA","street2":null,"id":"a70an6qbu30w","geo_precision":"unmatched","state":"CT"},"type":"Feature","geometry":null},{"properties":{"city":"MILFORD","category":"L","zipcode":"06460","street1":"655 BRIDGEPORT AVE.","geo_score":0.0,"country":"USA","street2":null,"id":"a70an6lou9qa","geo_precision":"unmatched","state":"CT"},"type":"Feature","geometry":null},{"properties":{"city":"MILFORD","category":"L","zipcode":"06460","street1":"WEST MAIN ST.","geo_score":0.0,"country":"USA","street2":null,"id":"a70an6npy7f1","geo_precision":"unmatched","state":"CT"},"type":"Feature","geometry":null},{"properties":{"city":"MILFORD","category":"L","zipcode":"06460","street1":"860 BRIDGEPORT AVE.","geo_score":0.0,"country":"USA","street2":null,"id":"a70an6w7blz5","geo_precision":"unmatched","state":"CT"},"type":"Feature","geometry":null},{"properties":{"city":"MILFORD","category":"L","zipcode":"06460","street1":"77 PLAINS RD.","geo_score":0.0,"country":"USA","street2":null,"id":"a70an6mn3vcx","geo_precision":"unmatched","state":"CT"},"type":"Feature","geometry":null},{"properties":{"city":"MILFORD","category":"L","zipcode":"06460","street1":"370 BOSTON POST RD","geo_score":0.0,"country":"USA","street2":null,"id":"a70an6uxnhy3","geo_precision":"unmatched","state":"CT"},"type":"Feature","geometry":null},{"properties":{"city":"MILFORD","category":"L","zipcode":"06460","street1":"488 WHEELERS FARMS RD.","geo_score":0.0,"country":"USA","street2":null,"id":"a70an6fxfbnz","geo_precision":"unmatched","state":"CT"},"type":"Feature","geometry":null},{"properties":{"city":"MILFORD","category":"L","zipcode":"06460","street1":"625 ROSES MILL RD.","geo_score":0.0,"country":"USA","street2":null,"id":"a70an6p4ufho","geo_precision":"unmatched","state":"CT"},"type":"Feature","geometry":null},{"properties":{"city":"MILFORD","category":"L","zipcode":"06460","street1":"300 SEASIDE AVE.","geo_score":0.0,"country":"USA","street2":null,"id":"a70an6lgck80","geo_precision":"unmatched","state":"CT"},"type":"Feature","geometry":null},{"properties":{"city":"MILFORD","category":"L","zipcode":"06460","street1":"1718 BOSTON POST RD","geo_score":0.0,"country":"USA","street2":null,"id":"a70an6pwtd2v","geo_precision":"unmatched","state":"CT"},"type":"Feature","geometry":null},{"properties":{"city":"MILFORD","category":"L","zipcode":"06460","street1":"MONROE ST","geo_score":0.0,"country":"USA","street2":null,"id":"a70an6s38pll","geo_precision":"unmatched","state":"CT"},"type":"Feature","geometry":null},{"properties":{"city":"FAIRFIELD","category":"L","zipcode":"06824","street1":"1478 POST RD.","geo_score":0.0,"country":"USA","street2":null,"id":"a70an6fxj8fg","geo_precision":"unmatched","state":"CT"},"type":"Feature","geometry":null},{"properties":{"city":"MILFORD","category":"L","zipcode":"06460","street1":"NAUGATUCK Ave.","geo_score":0.0,"country":"USA","street2":null,"id":"a70an6l1ycbh","geo_precision":"unmatched","state":"CT"},"type":"Feature","geometry":null},{"properties":{"city":"MILFORD","category":"L","zipcode":"06460","street1":"420 EAST MAIN ST","geo_score":0.0,"country":"USA","street2":null,"id":"a70an6kocskw","geo_precision":"unmatched","state":"CT"},"type":"Feature","geometry":null},{"properties":{"city":"MILFORD","category":"L","zipcode":"06460","street1":"855 BRIDGEPORT AVE.","geo_score":0.0,"country":"USA","street2":null,"id":"a70an6n49nhk","geo_precision":"unmatched","state":"CT"},"type":"Feature","geometry":null},{"properties":{"city":"MILFORD","category":"L","zipcode":"06460","street1":"PRIMROSE ST","geo_score":0.0,"country":"USA","street2":null,"id":"a70an6u7fuzo","geo_precision":"unmatched","state":"CT"},"type":"Feature","geometry":null},{"properties":{"city":"MILFORD","category":"L","zipcode":"06460","street1":"516 BOSTON POST RD","geo_score":0.0,"country":"USA","street2":null,"id":"a70an6hdqtmj","geo_precision":"unmatched","state":"CT"},"type":"Feature","geometry":null},{"properties":{"city":"MILFORD","category":"L","zipcode":"06460","street1":"379 MEADOWSIDE RD.","geo_score":0.0,"country":"USA","street2":null,"id":"a70an6pwzxwy","geo_precision":"unmatched","state":"CT"},"type":"Feature","geometry":null},{"properties":{"city":"MILFORD","category":"L","zipcode":"06460","street1":"113 EAST BROADWAY","geo_score":0.0,"country":"USA","street2":null,"id":"a70an6lzw6nw","geo_precision":"unmatched","state":"CT"},"type":"Feature","geometry":null},{"properties":{"city":"MILFORD","category":"L","zipcode":"06460","street1":"351 BOSTON POST RD.","geo_score":0.0,"country":"USA","street2":null,"id":"a70an6hdjpkp","geo_precision":"unmatched","state":"CT"},"type":"Feature","geometry":null},{"properties":{"city":"MILFORD","category":"L","zipcode":"06460","street1":"351 BOSTON POST RD.","geo_score":0.0,"country":"USA","street2":null,"id":"a70an6tqmsk7","geo_precision":"unmatched","state":"CT"},"type":"Feature","geometry":null},{"properties":{"city":"MILFORD","category":"L","zipcode":"06460","street1":"20 LANSDALE AVE","geo_score":0.0,"country":"USA","street2":null,"id":"a70an6tsj6ls","geo_precision":"unmatched","state":"CT"},"type":"Feature","geometry":null},{"properties":{"city":"MILFORD","category":"L","zipcode":"06460","street1":"370 BOSTON POST RD","geo_score":0.0,"country":"USA","street2":null,"id":"a70an6j3ope4","geo_precision":"unmatched","state":"CT"},"type":"Feature","geometry":null},{"properties":{"city":"MILFORD","category":"L","zipcode":"06460","street1":"LEXINGTON GREEN","geo_score":0.0,"country":"USA","street2":null,"id":"a70an6vw1mj1","geo_precision":"unmatched","state":"CT"},"type":"Feature","geometry":null},{"properties":{"city":"MILFORD","category":"L","zipcode":"06460","street1":"127 BRIDGEPORT AVE.","geo_score":0.0,"country":"USA","street2":null,"id":"a70an6st3i8s","geo_precision":"unmatched","state":"CT"},"type":"Feature","geometry":null},{"properties":{"city":"MILFORD","category":"L","zipcode":"06460","street1":"408 BOSTON POST RD.","geo_score":0.0,"country":"USA","street2":null,"id":"a70an6gnvc5z","geo_precision":"unmatched","state":"CT"},"type":"Feature","geometry":null},{"properties":{"city":"MILFORD","category":"L","zipcode":"06460","street1":"430 BOSTON POST RD.","geo_score":0.0,"country":"USA","street2":null,"id":"a70an6w8vsvd","geo_precision":"unmatched","state":"CT"},"type":"Feature","geometry":null},{"properties":{"city":"MILFORD","category":"D","zipcode":"06460","street1":"FORD ST","geo_score":0.0,"country":"USA","street2":null,"id":"a70an6m82l91","geo_precision":"unmatched","state":"CT"},"type":"Feature","geometry":null},{"properties":{"city":"MILFORD","category":"D","zipcode":"06460","street1":"21 SOUTWICK RD","geo_score":0.0,"country":"USA","street2":null,"id":"a70an6mxzq3j","geo_precision":"unmatched","state":"CT"},"type":"Feature","geometry":null},{"properties":{"city":"MILFORD","category":"D","zipcode":"06460","street1":"691 WHEELERS FARMS RD","geo_score":0.0,"country":"USA","street2":null,"id":"a70an6vxpz1j","geo_precision":"unmatched","state":"CT"},"type":"Feature","geometry":null},{"properties":{"city":"MILFORD","category":"D","zipcode":"06460","street1":"PARKWAY TERRACE","geo_score":0.0,"country":"USA","street2":null,"id":"a70an6mdy2lp","geo_precision":"unmatched","state":"CT"},"type":"Feature","geometry":null},{"properties":{"city":"MILFORD","category":"D","zipcode":"06460","street1":"27 PARKWAY TERRACE","geo_score":0.0,"country":"USA","street2":null,"id":"a70an6t93jkw","geo_precision":"unmatched","state":"CT"},"type":"Feature","geometry":null},{"properties":{"city":"MILFORD","category":"D","zipcode":"06460","street1":"75 NAUGATUCK AVE.","geo_score":0.0,"country":"USA","street2":null,"id":"a70an6ll57zq","geo_precision":"unmatched","state":"CT"},"type":"Feature","geometry":null},{"properties":{"city":"MILFORD","category":"D","zipcode":"06460","street1":"700 WHEELERS FARMS RD","geo_score":0.0,"country":"USA","street2":null,"id":"a70an6pff2x7","geo_precision":"unmatched","state":"CT"},"type":"Feature","geometry":null},{"properties":{"city":"MILFORD","category":"D","zipcode":"06460","street1":"1440 NAUGATUCK AVE.","geo_score":0.0,"country":"USA","street2":null,"id":"a70an6qpn2b9","geo_precision":"unmatched","state":"CT"},"type":"Feature","geometry":null},{"properties":{"city":"MILFORD","category":"D","zipcode":"06460","street1":"60 CORNFIELD RD","geo_score":0.0,"country":"USA","street2":null,"id":"a70an6vklh1z","geo_precision":"unmatched","state":"CT"},"type":"Feature","geometry":null},{"properties":{"city":"MILFORD","category":"D","zipcode":"06460","street1":"696 MILFORD POINT RD","geo_score":0.0,"country":"USA","street2":null,"id":"a70an6mzv79l","geo_precision":"unmatched","state":"CT"},"type":"Feature","geometry":null},{"properties":{"city":"MILFORD","category":"D","zipcode":"06460","street1":"WELCHS POINT RD","geo_score":0.0,"country":"USA","street2":null,"id":"a70an6n8mn1k","geo_precision":"unmatched","state":"CT"},"type":"Feature","geometry":null},{"properties":{"city":"MILFORD","category":"D","zipcode":"06460","street1":"NEW HAVEN AVE.","geo_score":0.0,"country":"USA","street2":null,"id":"a70an6rodqo4","geo_precision":"unmatched","state":"CT"},"type":"Feature","geometry":null},{"properties":{"city":"MILFORD","category":"D","zipcode":"06460","street1":"76 MILFORD POINT RD","geo_score":0.0,"country":"USA","street2":null,"id":"a70an6lklzzq","geo_precision":"unmatched","state":"CT"},"type":"Feature","geometry":null},{"properties":{"city":"MILFORD","category":"D","zipcode":"06460","street1":"720 NAUGATUCK AVE.","geo_score":0.0,"country":"USA","street2":null,"id":"a70an6u98hzb","geo_precision":"unmatched","state":"CT"},"type":"Feature","geometry":null},{"properties":{"city":"MILFORD","category":"D","zipcode":"06460","street1":"704 WHEELERS FARMS RD","geo_score":0.0,"country":"USA","street2":null,"id":"a70an6qq5xo1","geo_precision":"unmatched","state":"CT"},"type":"Feature","geometry":null},{"properties":{"city":"MILFORD","category":"D","zipcode":"06460","street1":"121 OAK RIDGE LANE","geo_score":0.0,"country":"USA","street2":null,"id":"a70an6r51j7y","geo_precision":"unmatched","state":"CT"},"type":"Feature","geometry":null},{"properties":{"city":"MILFORD","category":"D","zipcode":"06460","street1":"123 MONROE ST","geo_score":0.0,"country":"USA","street2":null,"id":"a70an6nyhkz8","geo_precision":"unmatched","state":"CT"},"type":"Feature","geometry":null},{"properties":{"city":"MILFORD","category":"D","zipcode":"06460","street1":"16 WINSTON COURT","geo_score":0.0,"country":"USA","street2":null,"id":"a70an6nbr52h","geo_precision":"unmatched","state":"CT"},"type":"Feature","geometry":null},{"properties":{"city":"MILFORD","category":"D","zipcode":"06460","street1":"1137 NAUGATUCK AVE","geo_score":0.0,"country":"USA","street2":null,"id":"a70an6o2tg6l","geo_precision":"unmatched","state":"CT"},"type":"Feature","geometry":null},{"properties":{"city":"MILFORD","category":"D","zipcode":"06460","street1":"78 MILFORD POINT RD","geo_score":0.0,"country":"USA","street2":null,"id":"a70an6os68rk","geo_precision":"unmatched","state":"CT"},"type":"Feature","geometry":null},{"properties":{"city":"MILFORD","category":"D","zipcode":"06460","street1":"710 WHEELERS FARMS RD.","geo_score":0.0,"country":"USA","street2":null,"id":"a70an6jvi0ql","geo_precision":"unmatched","state":"CT"},"type":"Feature","geometry":null},{"properties":{"city":"MILFORD","category":"D","zipcode":"06460","street1":"109 RIVER ST","geo_score":0.0,"country":"USA","street2":null,"id":"a70an6kkp0se","geo_precision":"unmatched","state":"CT"},"type":"Feature","geometry":null},{"properties":{"city":"MILFORD","category":"D","zipcode":"06460","street1":"767 BRIDGEPORT AVE.","geo_score":0.0,"country":"USA","street2":null,"id":"a70an6om1thd","geo_precision":"unmatched","state":"CT"},"type":"Feature","geometry":null},{"properties":{"city":"MILFORD","category":"D","zipcode":"06460","street1":"800 WHEELERS FARMS RD","geo_score":0.0,"country":"USA","street2":null,"id":"a70an6jd93v6","geo_precision":"unmatched","state":"CT"},"type":"Feature","geometry":null},{"properties":{"city":"MILFORD","category":"D","zipcode":"06460","street1":"100 AVON ST","geo_score":0.0,"country":"USA","street2":null,"id":"a70an6vq0leo","geo_precision":"unmatched","state":"CT"},"type":"Feature","geometry":null},{"properties":{"city":"MILFORD","category":"D","zipcode":"06460","street1":"810 WHEELERS FARMS RD","geo_score":0.0,"country":"USA","street2":null,"id":"a70an6ioliiu","geo_precision":"unmatched","state":"CT"},"type":"Feature","geometry":null},{"properties":{"city":"MILFORD","category":"D","zipcode":"06460","street1":"65 PLAINS RD.","geo_score":0.0,"country":"USA","street2":null,"id":"a70an6onexfl","geo_precision":"unmatched","state":"CT"},"type":"Feature","geometry":null},{"properties":{"city":"MILFORD","category":"D","zipcode":"06460","street1":"279 NAUGATUCK AVE.","geo_score":0.0,"country":"USA","street2":null,"id":"a70an6ulv7je","geo_precision":"unmatched","state":"CT"},"type":"Feature","geometry":null},{"properties":{"city":"MILFORD","category":"D","zipcode":"06460","street1":"795 ROSES MILL RD","geo_score":0.0,"country":"USA","street2":null,"id":"a70an6j9on8e","geo_precision":"unmatched","state":"CT"},"type":"Feature","geometry":null},{"properties":{"city":"MILFORD","category":"D","zipcode":"06460","street1":"812 WHEELERS FARMS RD","geo_score":0.0,"country":"USA","street2":null,"id":"a70an6nk4n3t","geo_precision":"unmatched","state":"CT"},"type":"Feature","geometry":null},{"properties":{"city":"MILFORD","category":"D","zipcode":"06460","street1":"53 NUTMEG LANE","geo_score":0.0,"country":"USA","street2":null,"id":"a70an6oie92x","geo_precision":"unmatched","state":"CT"},"type":"Feature","geometry":null},{"properties":{"city":"STRATFORD","category":"D","zipcode":"06614","street1":"294 SUNNYBANK AVE","geo_score":0.0,"country":"USA","street2":null,"id":"a70an6izjbsj","geo_precision":"unmatched","state":"CT"},"type":"Feature","geometry":null},{"properties":{"city":"MILFORD","category":"D","zipcode":"06460","street1":"27 MONROE ST","geo_score":0.0,"country":"USA","street2":null,"id":"a70an6sr2yi2","geo_precision":"unmatched","state":"CT"},"type":"Feature","geometry":null},{"properties":{"city":"MILFORD","category":"D","zipcode":"06460","street1":"80 MILFORD POINT RD","geo_score":0.0,"country":"USA","street2":null,"id":"a70an6fyjzde","geo_precision":"unmatched","state":"CT"},"type":"Feature","geometry":null},{"properties":{"city":"MILFORD","category":"D","zipcode":"06460","street1":"98 WALNUT ST","geo_score":0.0,"country":"USA","street2":null,"id":"a70an6hyfwki","geo_precision":"unmatched","state":"CT"},"type":"Feature","geometry":null},{"properties":{"city":"MILFORD","category":"D","zipcode":"06460","street1":"81 JEPSON DR","geo_score":0.0,"country":"USA","street2":null,"id":"a70an6sslkyk","geo_precision":"unmatched","state":"CT"},"type":"Feature","geometry":null},{"properties":{"city":"MILFORD","category":"D","zipcode":"06460","street1":"230 HIGH ST","geo_score":0.0,"country":"USA","street2":null,"id":"a70an6v5rfgj","geo_precision":"unmatched","state":"CT"},"type":"Feature","geometry":null},{"properties":{"city":"MILFORD","category":"D","zipcode":"06460","street1":"54 WINTHROP CT","geo_score":0.0,"country":"USA","street2":null,"id":"a70an6o03lqj","geo_precision":"unmatched","state":"CT"},"type":"Feature","geometry":null},{"properties":{"city":"MILFORD","category":"D","zipcode":"06460","street1":"62 MAPLE ST","geo_score":0.0,"country":"USA","street2":null,"id":"a70an6n524av","geo_precision":"unmatched","state":"CT"},"type":"Feature","geometry":null},{"properties":{"city":"MILFORD","category":"D","zipcode":"06460","street1":"29 GUNN ST","geo_score":0.0,"country":"USA","street2":null,"id":"a70an6k0p24d","geo_precision":"unmatched","state":"CT"},"type":"Feature","geometry":null},{"properties":{"city":"MILFORD","category":"L","zipcode":"06460","street1":"81 MEADOWSIDE RD","geo_score":0.0,"country":"USA","street2":null,"id":"a70an6vtux5b","geo_precision":"unmatched","state":"CT"},"type":"Feature","geometry":null},{"properties":{"city":"MILFORD","category":"L","zipcode":"06460","street1":"55 PECK ST","geo_score":0.0,"country":"USA","street2":null,"id":"a70an6vd87nd","geo_precision":"unmatched","state":"CT"},"type":"Feature","geometry":null},{"properties":{"city":"MILFORD","category":"L","zipcode":"06460","street1":"110 VICTORY DR","geo_score":0.0,"country":"USA","street2":null,"id":"a70an6jy2fhn","geo_precision":"unmatched","state":"CT"},"type":"Feature","geometry":null},{"properties":{"city":"MILFORD","category":"L","zipcode":"06460","street1":"28 TOWER ST","geo_score":0.0,"country":"USA","street2":null,"id":"a70an6rah5yl","geo_precision":"unmatched","state":"CT"},"type":"Feature","geometry":null},{"properties":{"city":"MILFORD","category":"L","zipcode":"06460","street1":"381 WHEELERS FARMS RD","geo_score":0.0,"country":"USA","street2":null,"id":"a70an6k0hbtb","geo_precision":"unmatched","state":"CT"},"type":"Feature","geometry":null},{"properties":{"city":"MILFORD","category":"L","zipcode":"06460","street1":"290 WEST MAIN ST","geo_score":0.0,"country":"USA","street2":null,"id":"a70an6o18f4i","geo_precision":"unmatched","state":"CT"},"type":"Feature","geometry":null},{"properties":{"city":"MILFORD","category":"L","zipcode":"06460","street1":"70 WEST RIVER ST","geo_score":0.0,"country":"USA","street2":null,"id":"a70an6ickyy1","geo_precision":"unmatched","state":"CT"},"type":"Feature","geometry":null},{"properties":{"city":"MILFORD","category":"L","zipcode":"06460","street1":"769 Bridgeport ave","geo_score":0.0,"country":"USA","street2":null,"id":"a70an6shkq6q","geo_precision":"unmatched","state":"CT"},"type":"Feature","geometry":null},{"properties":{"city":"MILFORD","category":"L","zipcode":"06460","street1":"514 BOSTON POST RD","geo_score":0.0,"country":"USA","street2":null,"id":"a70an6guo9h7","geo_precision":"unmatched","state":"CT"},"type":"Feature","geometry":null},{"properties":{"city":"MILFORD","category":"L","zipcode":"06460","street1":"121 WOLF HARBOR RD","geo_score":0.0,"country":"USA","street2":null,"id":"a70an6o2dyrd","geo_precision":"unmatched","state":"CT"},"type":"Feature","geometry":null},{"properties":{"city":"MILFORD","category":"L","zipcode":"06460","street1":"360 BOSTON POST RD","geo_score":0.0,"country":"USA","street2":null,"id":"a70an6p1eine","geo_precision":"unmatched","state":"CT"},"type":"Feature","geometry":null},{"properties":{"city":"MILFORD","category":"L","zipcode":"06460","street1":"1 BOSTON POST RD","geo_score":0.0,"country":"USA","street2":null,"id":"a70an6uwfns7","geo_precision":"unmatched","state":"CT"},"type":"Feature","geometry":null},{"properties":{"city":"MILFORD","category":"L","zipcode":"06460","street1":"432 BOSTON POST RD","geo_score":0.0,"country":"USA","street2":null,"id":"a70an6li4kdz","geo_precision":"unmatched","state":"CT"},"type":"Feature","geometry":null},{"properties":{"city":"MILFORD","category":"L","zipcode":"06460","street1":"123 WOLF HARBOR RD","geo_score":0.0,"country":"USA","street2":null,"id":"a70an6vyhzlm","geo_precision":"unmatched","state":"CT"},"type":"Feature","geometry":null},{"properties":{"city":"MILFORD","category":"L","zipcode":"06460","street1":"372 BOSTON POST RD","geo_score":0.0,"country":"USA","street2":null,"id":"a70an6pz3jey","geo_precision":"unmatched","state":"CT"},"type":"Feature","geometry":null},{"properties":{"city":"MILFORD","category":"L","zipcode":"06460","street1":"18 NUTMEG DR","geo_score":0.0,"country":"USA","street2":null,"id":"a70an6l4b3vc","geo_precision":"unmatched","state":"CT"},"type":"Feature","geometry":null},{"properties":{"city":"MILFORD","category":"L","zipcode":"06460","street1":"302 SEASIDE AVE.","geo_score":0.0,"country":"USA","street2":null,"id":"a70an6rag3l6","geo_precision":"unmatched","state":"CT"},"type":"Feature","geometry":null},{"properties":{"city":"MILFORD","category":"L","zipcode":"06460","street1":"831 BOSTON POST RD","geo_score":0.0,"country":"USA","street2":null,"id":"a70an6ivl0v1","geo_precision":"unmatched","state":"CT"},"type":"Feature","geometry":null},{"properties":{"city":"MILFORD","category":"L","zipcode":"06460","street1":"325 BIC DR","geo_score":0.0,"country":"USA","street2":null,"id":"a70an6i595qx","geo_precision":"unmatched","state":"CT"},"type":"Feature","geometry":null},{"properties":{"city":"MILFORD","category":"L","zipcode":"06460","street1":"276 BOSTON POST RD","geo_score":0.0,"country":"USA","street2":null,"id":"a70an6pqcjll","geo_precision":"unmatched","state":"CT"},"type":"Feature","geometry":null},{"properties":{"city":"MILFORD","category":"L","zipcode":"06460","street1":"390 WHEELERS FARMS RD","geo_score":0.0,"country":"USA","street2":null,"id":"a70an6lo4a3z","geo_precision":"unmatched","state":"CT"},"type":"Feature","geometry":null},{"properties":{"city":"MILFORD","category":"L","zipcode":"06460","street1":"304 SEASIDE AVE","geo_score":0.0,"country":"USA","street2":null,"id":"a70an6jea6jf","geo_precision":"unmatched","state":"CT"},"type":"Feature","geometry":null},{"properties":{"city":"MILFORD","category":"L","zipcode":"06460","street1":"392 WHEELERS FARMSD RD","geo_score":0.0,"country":"USA","street2":null,"id":"a70an6kj7faz","geo_precision":"unmatched","state":"CT"},"type":"Feature","geometry":null},{"properties":{"city":"MILFORD","category":"L","zipcode":"06460","street1":"79 NUTMEG RD","geo_score":0.0,"country":"USA","street2":null,"id":"a70an6gmrc66","geo_precision":"unmatched","state":"CT"},"type":"Feature","geometry":null},{"properties":{"city":"MILFORD","category":"L","zipcode":"06460","street1":"291 HIGH ST","geo_score":0.0,"country":"USA","street2":null,"id":"a70an6wb5kw3","geo_precision":"unmatched","state":"CT"},"type":"Feature","geometry":null}],"is_temporal":false,"author":{"url":null,"metadata":null,"contact_name":null,"contact_address":null,"source":null,"contact_phone":null},"source":null,"pagination":{"sort":null,"start":0,"total":114,"limit":1000000},"state":"complete","tags":"","published":"2014-08-13T04:33:04-04:00","id":124643}