{"type":"FeatureCollection","data_type":"Dataset","url_type":null,"permissions":[{"permissions":{"download":true,"view":true},"group_id":"everyone"}],"classification":null,"title":"CommunityWalk 0(1)","count":114,"stream_id":124644,"contributor":{"url":"http://geocommons.com/users/28328","name":"ireneusz.sudol@snet.net"},"data_attributes":null,"calculation_params":null,"icon_link":null,"link":"http://geocommons.com/overlays/124644.json","extent":[0.0,0.0,0.0,0.0],"geometry_types":null,"unique_name":null,"name":"CommunityWalk 0(1)","feature_count":114,"description":"","next_feature":null,"is_raster":false,"short_classification":"Y","stats":{},"features":[{"properties":{"city":"MILFORD","category":"L","zipcode":"06460","street1":"365 BOSTON POST RD.","geo_score":0.0,"country":"USA","street2":null,"id":"a7xa7wln27jw","geo_precision":"unmatched","state":"CT"},"type":"Feature","geometry":null},{"properties":{"city":"Milford","category":"L","zipcode":"06460","street1":"Wheelers Farms Rd","geo_score":0.0,"country":"USA","street2":null,"id":"a7xa7why9f78","geo_precision":"unmatched","state":"CT"},"type":"Feature","geometry":null},{"properties":{"city":"MILFORD","category":"L","zipcode":"06460","street1":"351 BOSTON POST RD.","geo_score":0.0,"country":"USA","street2":null,"id":"a7xa7whrdzgh","geo_precision":"unmatched","state":"CT"},"type":"Feature","geometry":null},{"properties":{"city":"MILFORD","category":"L","zipcode":"06460","street1":"350 BOSTON POST RD.","geo_score":0.0,"country":"USA","street2":null,"id":"a7xa7wcns19h","geo_precision":"unmatched","state":"CT"},"type":"Feature","geometry":null},{"properties":{"city":"MILFORD","category":"L","zipcode":"06460","street1":"304 BOSTON POSR RD.","geo_score":0.0,"country":"USA","street2":null,"id":"a7xa7wphr5ea","geo_precision":"unmatched","state":"CT"},"type":"Feature","geometry":null},{"properties":{"city":"MILFORD","category":"L","zipcode":"06460","street1":"6 DAYTONA AVE.","geo_score":0.0,"country":"USA","street2":null,"id":"a7xa7wh2o690","geo_precision":"unmatched","state":"CT"},"type":"Feature","geometry":null},{"properties":{"city":"MILFORD","category":"L","zipcode":"06460","street1":"97 FORD ST","geo_score":0.0,"country":"USA","street2":null,"id":"a7xa7wqbxgh2","geo_precision":"unmatched","state":"CT"},"type":"Feature","geometry":null},{"properties":{"city":"MILFORD","category":"L","zipcode":"06460","street1":"889 BRIDGEPORT AVE.","geo_score":0.0,"country":"USA","street2":null,"id":"a7xa7we0m3x1","geo_precision":"unmatched","state":"CT"},"type":"Feature","geometry":null},{"properties":{"city":"MILFORD","category":"L","zipcode":"06460","street1":"300 SEASIDE AVE.","geo_score":0.0,"country":"USA","street2":null,"id":"a7xa7wnkgt5o","geo_precision":"unmatched","state":"CT"},"type":"Feature","geometry":null},{"properties":{"city":"MILFORD","category":"L","zipcode":"06460","street1":"470 BOSTON POST RD","geo_score":0.0,"country":"USA","street2":null,"id":"a7xa7wk4dh9p","geo_precision":"unmatched","state":"CT"},"type":"Feature","geometry":null},{"properties":{"city":"Milford","category":"L","zipcode":"06460","street1":"Wheelers Farms Rd","geo_score":0.0,"country":"USA","street2":null,"id":"a7xa7wq0uk7f","geo_precision":"unmatched","state":"CT"},"type":"Feature","geometry":null},{"properties":{"city":"MILFORD","category":"L","zipcode":"06460","street1":"GORDON RD.","geo_score":0.0,"country":"USA","street2":null,"id":"a7xa7wco8aeo","geo_precision":"unmatched","state":"CT"},"type":"Feature","geometry":null},{"properties":{"city":"MILFORD","category":"L","zipcode":"06460","street1":"EAST MAIN STREET","geo_score":0.0,"country":"USA","street2":null,"id":"a7xa7wdb8kq4","geo_precision":"unmatched","state":"CT"},"type":"Feature","geometry":null},{"properties":{"city":"MILFORD","category":"L","zipcode":"06460","street1":"488 WHEELERS FARMS RD.","geo_score":0.0,"country":"USA","street2":null,"id":"a7xa7wlv5xhm","geo_precision":"unmatched","state":"CT"},"type":"Feature","geometry":null},{"properties":{"city":"MILFORD","category":"L","zipcode":"06460","street1":"AVON ST","geo_score":0.0,"country":"USA","street2":null,"id":"a7xa7wqr6t8r","geo_precision":"unmatched","state":"CT"},"type":"Feature","geometry":null},{"properties":{"city":"MILFORD","category":"L","zipcode":"06460","street1":"PLAINS RD","geo_score":0.0,"country":"USA","street2":null,"id":"a7xa7wac3faa","geo_precision":"unmatched","state":"CT"},"type":"Feature","geometry":null},{"properties":{"city":"MILFORD","category":"L","zipcode":"06460","street1":"75 NAUGATUCK AVE.","geo_score":0.0,"country":"USA","street2":null,"id":"a7xa7wjg8zsb","geo_precision":"unmatched","state":"CT"},"type":"Feature","geometry":null},{"properties":{"city":"MILFORD","category":"L","zipcode":"06460","street1":"771 CARSDALE AVE.","geo_score":0.0,"country":"USA","street2":null,"id":"a7xa7wk2kpcl","geo_precision":"unmatched","state":"CT"},"type":"Feature","geometry":null},{"properties":{"city":"MILFORD","category":"L","zipcode":"06460","street1":"767 BRIDGEPORT AVE.","geo_score":0.0,"country":"USA","street2":null,"id":"a7xa7wpstofg","geo_precision":"unmatched","state":"CT"},"type":"Feature","geometry":null},{"properties":{"city":"MILFORD","category":"L","zipcode":"06460","street1":"370 BOSTON POST RD","geo_score":0.0,"country":"USA","street2":null,"id":"a7xa7wapzchm","geo_precision":"unmatched","state":"CT"},"type":"Feature","geometry":null},{"properties":{"city":"MILFORD","category":"L","zipcode":"06460","street1":"275 BOSTON POST RD","geo_score":0.0,"country":"USA","street2":null,"id":"a7xa7weum8ps","geo_precision":"unmatched","state":"CT"},"type":"Feature","geometry":null},{"properties":{"city":"MILFORD","category":"L","zipcode":"06460","street1":"430 BOSTON POST RD","geo_score":0.0,"country":"USA","street2":null,"id":"a7xa7wdu6fer","geo_precision":"unmatched","state":"CT"},"type":"Feature","geometry":null},{"properties":{"city":"MILFORD","category":"L","zipcode":"06460","street1":"95 WOLF HARBOR RD","geo_score":0.0,"country":"USA","street2":null,"id":"a7xa7wpl6m30","geo_precision":"unmatched","state":"CT"},"type":"Feature","geometry":null},{"properties":{"city":"MILFORD","category":"L","zipcode":"06460","street1":"655 BRIDGEPORT AVE.","geo_score":0.0,"country":"USA","street2":null,"id":"a7xa7wbd9qwu","geo_precision":"unmatched","state":"CT"},"type":"Feature","geometry":null},{"properties":{"city":"MILFORD","category":"L","zipcode":"06460","street1":"WEST MAIN ST.","geo_score":0.0,"country":"USA","street2":null,"id":"a7xa7watnkj6","geo_precision":"unmatched","state":"CT"},"type":"Feature","geometry":null},{"properties":{"city":"MILFORD","category":"L","zipcode":"06460","street1":"860 BRIDGEPORT AVE.","geo_score":0.0,"country":"USA","street2":null,"id":"a7xa7wn6764y","geo_precision":"unmatched","state":"CT"},"type":"Feature","geometry":null},{"properties":{"city":"MILFORD","category":"L","zipcode":"06460","street1":"77 PLAINS RD.","geo_score":0.0,"country":"USA","street2":null,"id":"a7xa7wojwpk2","geo_precision":"unmatched","state":"CT"},"type":"Feature","geometry":null},{"properties":{"city":"MILFORD","category":"L","zipcode":"06460","street1":"370 BOSTON POST RD","geo_score":0.0,"country":"USA","street2":null,"id":"a7xa7wqcsy33","geo_precision":"unmatched","state":"CT"},"type":"Feature","geometry":null},{"properties":{"city":"MILFORD","category":"L","zipcode":"06460","street1":"488 WHEELERS FARMS RD.","geo_score":0.0,"country":"USA","street2":null,"id":"a7xa7wcszqf6","geo_precision":"unmatched","state":"CT"},"type":"Feature","geometry":null},{"properties":{"city":"MILFORD","category":"L","zipcode":"06460","street1":"625 ROSES MILL RD.","geo_score":0.0,"country":"USA","street2":null,"id":"a7xa7wm42fmb","geo_precision":"unmatched","state":"CT"},"type":"Feature","geometry":null},{"properties":{"city":"MILFORD","category":"L","zipcode":"06460","street1":"300 SEASIDE AVE.","geo_score":0.0,"country":"USA","street2":null,"id":"a7xa7wardunh","geo_precision":"unmatched","state":"CT"},"type":"Feature","geometry":null},{"properties":{"city":"MILFORD","category":"L","zipcode":"06460","street1":"1718 BOSTON POST RD","geo_score":0.0,"country":"USA","street2":null,"id":"a7xa7wehh0gz","geo_precision":"unmatched","state":"CT"},"type":"Feature","geometry":null},{"properties":{"city":"MILFORD","category":"L","zipcode":"06460","street1":"MONROE ST","geo_score":0.0,"country":"USA","street2":null,"id":"a7xa7wli74yp","geo_precision":"unmatched","state":"CT"},"type":"Feature","geometry":null},{"properties":{"city":"FAIRFIELD","category":"L","zipcode":"06824","street1":"1478 POST RD.","geo_score":0.0,"country":"USA","street2":null,"id":"a7xa7whr8apf","geo_precision":"unmatched","state":"CT"},"type":"Feature","geometry":null},{"properties":{"city":"MILFORD","category":"L","zipcode":"06460","street1":"NAUGATUCK Ave.","geo_score":0.0,"country":"USA","street2":null,"id":"a7xa7wgps1dh","geo_precision":"unmatched","state":"CT"},"type":"Feature","geometry":null},{"properties":{"city":"MILFORD","category":"L","zipcode":"06460","street1":"420 EAST MAIN ST","geo_score":0.0,"country":"USA","street2":null,"id":"a7xa7whjoy8c","geo_precision":"unmatched","state":"CT"},"type":"Feature","geometry":null},{"properties":{"city":"MILFORD","category":"L","zipcode":"06460","street1":"855 BRIDGEPORT AVE.","geo_score":0.0,"country":"USA","street2":null,"id":"a7xa7wb6b891","geo_precision":"unmatched","state":"CT"},"type":"Feature","geometry":null},{"properties":{"city":"MILFORD","category":"L","zipcode":"06460","street1":"PRIMROSE ST","geo_score":0.0,"country":"USA","street2":null,"id":"a7xa7wpbev9h","geo_precision":"unmatched","state":"CT"},"type":"Feature","geometry":null},{"properties":{"city":"MILFORD","category":"L","zipcode":"06460","street1":"516 BOSTON POST RD","geo_score":0.0,"country":"USA","street2":null,"id":"a7xa7wpuicfd","geo_precision":"unmatched","state":"CT"},"type":"Feature","geometry":null},{"properties":{"city":"MILFORD","category":"L","zipcode":"06460","street1":"379 MEADOWSIDE RD.","geo_score":0.0,"country":"USA","street2":null,"id":"a7xa7wikd6cw","geo_precision":"unmatched","state":"CT"},"type":"Feature","geometry":null},{"properties":{"city":"MILFORD","category":"L","zipcode":"06460","street1":"113 EAST BROADWAY","geo_score":0.0,"country":"USA","street2":null,"id":"a7xa7wbbxd6z","geo_precision":"unmatched","state":"CT"},"type":"Feature","geometry":null},{"properties":{"city":"MILFORD","category":"L","zipcode":"06460","street1":"351 BOSTON POST RD.","geo_score":0.0,"country":"USA","street2":null,"id":"a7xa7wjs8yb6","geo_precision":"unmatched","state":"CT"},"type":"Feature","geometry":null},{"properties":{"city":"MILFORD","category":"L","zipcode":"06460","street1":"351 BOSTON POST RD.","geo_score":0.0,"country":"USA","street2":null,"id":"a7xa7wal6muk","geo_precision":"unmatched","state":"CT"},"type":"Feature","geometry":null},{"properties":{"city":"MILFORD","category":"L","zipcode":"06460","street1":"20 LANSDALE AVE","geo_score":0.0,"country":"USA","street2":null,"id":"a7xa7war6qi5","geo_precision":"unmatched","state":"CT"},"type":"Feature","geometry":null},{"properties":{"city":"MILFORD","category":"L","zipcode":"06460","street1":"370 BOSTON POST RD","geo_score":0.0,"country":"USA","street2":null,"id":"a7xa7wothn4i","geo_precision":"unmatched","state":"CT"},"type":"Feature","geometry":null},{"properties":{"city":"MILFORD","category":"L","zipcode":"06460","street1":"LEXINGTON GREEN","geo_score":0.0,"country":"USA","street2":null,"id":"a7xa7wklkjpo","geo_precision":"unmatched","state":"CT"},"type":"Feature","geometry":null},{"properties":{"city":"MILFORD","category":"L","zipcode":"06460","street1":"127 BRIDGEPORT AVE.","geo_score":0.0,"country":"USA","street2":null,"id":"a7xa7wn5jbgm","geo_precision":"unmatched","state":"CT"},"type":"Feature","geometry":null},{"properties":{"city":"MILFORD","category":"L","zipcode":"06460","street1":"408 BOSTON POST RD.","geo_score":0.0,"country":"USA","street2":null,"id":"a7xa7wmrdsgs","geo_precision":"unmatched","state":"CT"},"type":"Feature","geometry":null},{"properties":{"city":"MILFORD","category":"L","zipcode":"06460","street1":"430 BOSTON POST RD.","geo_score":0.0,"country":"USA","street2":null,"id":"a7xa7wnrpckf","geo_precision":"unmatched","state":"CT"},"type":"Feature","geometry":null},{"properties":{"city":"MILFORD","category":"D","zipcode":"06460","street1":"FORD ST","geo_score":0.0,"country":"USA","street2":null,"id":"a7xa7wil3ggl","geo_precision":"unmatched","state":"CT"},"type":"Feature","geometry":null},{"properties":{"city":"MILFORD","category":"D","zipcode":"06460","street1":"21 SOUTWICK RD","geo_score":0.0,"country":"USA","street2":null,"id":"a7xa7wj3ip0e","geo_precision":"unmatched","state":"CT"},"type":"Feature","geometry":null},{"properties":{"city":"MILFORD","category":"D","zipcode":"06460","street1":"691 WHEELERS FARMS RD","geo_score":0.0,"country":"USA","street2":null,"id":"a7xa7whzre7k","geo_precision":"unmatched","state":"CT"},"type":"Feature","geometry":null},{"properties":{"city":"MILFORD","category":"D","zipcode":"06460","street1":"PARKWAY TERRACE","geo_score":0.0,"country":"USA","street2":null,"id":"a7xa7wcvrvlm","geo_precision":"unmatched","state":"CT"},"type":"Feature","geometry":null},{"properties":{"city":"MILFORD","category":"D","zipcode":"06460","street1":"27 PARKWAY TERRACE","geo_score":0.0,"country":"USA","street2":null,"id":"a7xa7wpyz0sz","geo_precision":"unmatched","state":"CT"},"type":"Feature","geometry":null},{"properties":{"city":"MILFORD","category":"D","zipcode":"06460","street1":"75 NAUGATUCK AVE.","geo_score":0.0,"country":"USA","street2":null,"id":"a7xa7whu7712","geo_precision":"unmatched","state":"CT"},"type":"Feature","geometry":null},{"properties":{"city":"MILFORD","category":"D","zipcode":"06460","street1":"700 WHEELERS FARMS RD","geo_score":0.0,"country":"USA","street2":null,"id":"a7xa7wgp8pne","geo_precision":"unmatched","state":"CT"},"type":"Feature","geometry":null},{"properties":{"city":"MILFORD","category":"D","zipcode":"06460","street1":"1440 NAUGATUCK AVE.","geo_score":0.0,"country":"USA","street2":null,"id":"a7xa7wfxa32g","geo_precision":"unmatched","state":"CT"},"type":"Feature","geometry":null},{"properties":{"city":"MILFORD","category":"D","zipcode":"06460","street1":"60 CORNFIELD RD","geo_score":0.0,"country":"USA","street2":null,"id":"a7xa7wpfi5fy","geo_precision":"unmatched","state":"CT"},"type":"Feature","geometry":null},{"properties":{"city":"MILFORD","category":"D","zipcode":"06460","street1":"696 MILFORD POINT RD","geo_score":0.0,"country":"USA","street2":null,"id":"a7xa7wcuakra","geo_precision":"unmatched","state":"CT"},"type":"Feature","geometry":null},{"properties":{"city":"MILFORD","category":"D","zipcode":"06460","street1":"WELCHS POINT RD","geo_score":0.0,"country":"USA","street2":null,"id":"a7xa7wb3u744","geo_precision":"unmatched","state":"CT"},"type":"Feature","geometry":null},{"properties":{"city":"MILFORD","category":"D","zipcode":"06460","street1":"NEW HAVEN AVE.","geo_score":0.0,"country":"USA","street2":null,"id":"a7xa7wg8ry5g","geo_precision":"unmatched","state":"CT"},"type":"Feature","geometry":null},{"properties":{"city":"MILFORD","category":"D","zipcode":"06460","street1":"76 MILFORD POINT RD","geo_score":0.0,"country":"USA","street2":null,"id":"a7xa7waw3by5","geo_precision":"unmatched","state":"CT"},"type":"Feature","geometry":null},{"properties":{"city":"MILFORD","category":"D","zipcode":"06460","street1":"720 NAUGATUCK AVE.","geo_score":0.0,"country":"USA","street2":null,"id":"a7xa7wpab8sz","geo_precision":"unmatched","state":"CT"},"type":"Feature","geometry":null},{"properties":{"city":"MILFORD","category":"D","zipcode":"06460","street1":"704 WHEELERS FARMS RD","geo_score":0.0,"country":"USA","street2":null,"id":"a7xa7wjo29iv","geo_precision":"unmatched","state":"CT"},"type":"Feature","geometry":null},{"properties":{"city":"MILFORD","category":"D","zipcode":"06460","street1":"121 OAK RIDGE LANE","geo_score":0.0,"country":"USA","street2":null,"id":"a7xa7wkcrep2","geo_precision":"unmatched","state":"CT"},"type":"Feature","geometry":null},{"properties":{"city":"MILFORD","category":"D","zipcode":"06460","street1":"123 MONROE ST","geo_score":0.0,"country":"USA","street2":null,"id":"a7xa7wc8xlkz","geo_precision":"unmatched","state":"CT"},"type":"Feature","geometry":null},{"properties":{"city":"MILFORD","category":"D","zipcode":"06460","street1":"16 WINSTON COURT","geo_score":0.0,"country":"USA","street2":null,"id":"a7xa7wim3n67","geo_precision":"unmatched","state":"CT"},"type":"Feature","geometry":null},{"properties":{"city":"MILFORD","category":"D","zipcode":"06460","street1":"1137 NAUGATUCK AVE","geo_score":0.0,"country":"USA","street2":null,"id":"a7xa7wldxn3t","geo_precision":"unmatched","state":"CT"},"type":"Feature","geometry":null},{"properties":{"city":"MILFORD","category":"D","zipcode":"06460","street1":"78 MILFORD POINT RD","geo_score":0.0,"country":"USA","street2":null,"id":"a7xa7wl30wfe","geo_precision":"unmatched","state":"CT"},"type":"Feature","geometry":null},{"properties":{"city":"MILFORD","category":"D","zipcode":"06460","street1":"710 WHEELERS FARMS RD.","geo_score":0.0,"country":"USA","street2":null,"id":"a7xa7wqn62ag","geo_precision":"unmatched","state":"CT"},"type":"Feature","geometry":null},{"properties":{"city":"MILFORD","category":"D","zipcode":"06460","street1":"109 RIVER ST","geo_score":0.0,"country":"USA","street2":null,"id":"a7xa7wldpppt","geo_precision":"unmatched","state":"CT"},"type":"Feature","geometry":null},{"properties":{"city":"MILFORD","category":"D","zipcode":"06460","street1":"767 BRIDGEPORT AVE.","geo_score":0.0,"country":"USA","street2":null,"id":"a7xa7wf1g9ap","geo_precision":"unmatched","state":"CT"},"type":"Feature","geometry":null},{"properties":{"city":"MILFORD","category":"D","zipcode":"06460","street1":"800 WHEELERS FARMS RD","geo_score":0.0,"country":"USA","street2":null,"id":"a7xa7wcna14v","geo_precision":"unmatched","state":"CT"},"type":"Feature","geometry":null},{"properties":{"city":"MILFORD","category":"D","zipcode":"06460","street1":"100 AVON ST","geo_score":0.0,"country":"USA","street2":null,"id":"a7xa7wk4hky1","geo_precision":"unmatched","state":"CT"},"type":"Feature","geometry":null},{"properties":{"city":"MILFORD","category":"D","zipcode":"06460","street1":"810 WHEELERS FARMS RD","geo_score":0.0,"country":"USA","street2":null,"id":"a7xa7wl1hk1b","geo_precision":"unmatched","state":"CT"},"type":"Feature","geometry":null},{"properties":{"city":"MILFORD","category":"D","zipcode":"06460","street1":"65 PLAINS RD.","geo_score":0.0,"country":"USA","street2":null,"id":"a7xa7wqtab80","geo_precision":"unmatched","state":"CT"},"type":"Feature","geometry":null},{"properties":{"city":"MILFORD","category":"D","zipcode":"06460","street1":"279 NAUGATUCK AVE.","geo_score":0.0,"country":"USA","street2":null,"id":"a7xa7wig04ut","geo_precision":"unmatched","state":"CT"},"type":"Feature","geometry":null},{"properties":{"city":"MILFORD","category":"D","zipcode":"06460","street1":"795 ROSES MILL RD","geo_score":0.0,"country":"USA","street2":null,"id":"a7xa7wg8242q","geo_precision":"unmatched","state":"CT"},"type":"Feature","geometry":null},{"properties":{"city":"MILFORD","category":"D","zipcode":"06460","street1":"812 WHEELERS FARMS RD","geo_score":0.0,"country":"USA","street2":null,"id":"a7xa7wkbvrpg","geo_precision":"unmatched","state":"CT"},"type":"Feature","geometry":null},{"properties":{"city":"MILFORD","category":"D","zipcode":"06460","street1":"53 NUTMEG LANE","geo_score":0.0,"country":"USA","street2":null,"id":"a7xa7wft9uv2","geo_precision":"unmatched","state":"CT"},"type":"Feature","geometry":null},{"properties":{"city":"STRATFORD","category":"D","zipcode":"06614","street1":"294 SUNNYBANK AVE","geo_score":0.0,"country":"USA","street2":null,"id":"a7xa7wmjzfro","geo_precision":"unmatched","state":"CT"},"type":"Feature","geometry":null},{"properties":{"city":"MILFORD","category":"D","zipcode":"06460","street1":"27 MONROE ST","geo_score":0.0,"country":"USA","street2":null,"id":"a7xa7wjtipaw","geo_precision":"unmatched","state":"CT"},"type":"Feature","geometry":null},{"properties":{"city":"MILFORD","category":"D","zipcode":"06460","street1":"80 MILFORD POINT RD","geo_score":0.0,"country":"USA","street2":null,"id":"a7xa7wp1x7xs","geo_precision":"unmatched","state":"CT"},"type":"Feature","geometry":null},{"properties":{"city":"MILFORD","category":"D","zipcode":"06460","street1":"98 WALNUT ST","geo_score":0.0,"country":"USA","street2":null,"id":"a7xa7wf9kzv1","geo_precision":"unmatched","state":"CT"},"type":"Feature","geometry":null},{"properties":{"city":"MILFORD","category":"D","zipcode":"06460","street1":"81 JEPSON DR","geo_score":0.0,"country":"USA","street2":null,"id":"a7xa7wf9yb1u","geo_precision":"unmatched","state":"CT"},"type":"Feature","geometry":null},{"properties":{"city":"MILFORD","category":"D","zipcode":"06460","street1":"230 HIGH ST","geo_score":0.0,"country":"USA","street2":null,"id":"a7xa7wnlzn92","geo_precision":"unmatched","state":"CT"},"type":"Feature","geometry":null},{"properties":{"city":"MILFORD","category":"D","zipcode":"06460","street1":"54 WINTHROP CT","geo_score":0.0,"country":"USA","street2":null,"id":"a7xa7wk6sqlh","geo_precision":"unmatched","state":"CT"},"type":"Feature","geometry":null},{"properties":{"city":"MILFORD","category":"D","zipcode":"06460","street1":"62 MAPLE ST","geo_score":0.0,"country":"USA","street2":null,"id":"a7xa7wahqpd9","geo_precision":"unmatched","state":"CT"},"type":"Feature","geometry":null},{"properties":{"city":"MILFORD","category":"D","zipcode":"06460","street1":"29 GUNN ST","geo_score":0.0,"country":"USA","street2":null,"id":"a7xa7wiwyvdk","geo_precision":"unmatched","state":"CT"},"type":"Feature","geometry":null},{"properties":{"city":"MILFORD","category":"L","zipcode":"06460","street1":"81 MEADOWSIDE RD","geo_score":0.0,"country":"USA","street2":null,"id":"a7xa7wketxaw","geo_precision":"unmatched","state":"CT"},"type":"Feature","geometry":null},{"properties":{"city":"MILFORD","category":"L","zipcode":"06460","street1":"55 PECK ST","geo_score":0.0,"country":"USA","street2":null,"id":"a7xa7woxsc69","geo_precision":"unmatched","state":"CT"},"type":"Feature","geometry":null},{"properties":{"city":"MILFORD","category":"L","zipcode":"06460","street1":"110 VICTORY DR","geo_score":0.0,"country":"USA","street2":null,"id":"a7xa7wiwz6y0","geo_precision":"unmatched","state":"CT"},"type":"Feature","geometry":null},{"properties":{"city":"MILFORD","category":"L","zipcode":"06460","street1":"28 TOWER ST","geo_score":0.0,"country":"USA","street2":null,"id":"a7xa7wou1mp7","geo_precision":"unmatched","state":"CT"},"type":"Feature","geometry":null},{"properties":{"city":"MILFORD","category":"L","zipcode":"06460","street1":"381 WHEELERS FARMS RD","geo_score":0.0,"country":"USA","street2":null,"id":"a7xa7wqpu8n3","geo_precision":"unmatched","state":"CT"},"type":"Feature","geometry":null},{"properties":{"city":"MILFORD","category":"L","zipcode":"06460","street1":"290 WEST MAIN ST","geo_score":0.0,"country":"USA","street2":null,"id":"a7xa7wdalxal","geo_precision":"unmatched","state":"CT"},"type":"Feature","geometry":null},{"properties":{"city":"MILFORD","category":"L","zipcode":"06460","street1":"70 WEST RIVER ST","geo_score":0.0,"country":"USA","street2":null,"id":"a7xa7wc2xiw3","geo_precision":"unmatched","state":"CT"},"type":"Feature","geometry":null},{"properties":{"city":"MILFORD","category":"L","zipcode":"06460","street1":"769 Bridgeport ave","geo_score":0.0,"country":"USA","street2":null,"id":"a7xa7wk1ml9b","geo_precision":"unmatched","state":"CT"},"type":"Feature","geometry":null},{"properties":{"city":"MILFORD","category":"L","zipcode":"06460","street1":"514 BOSTON POST RD","geo_score":0.0,"country":"USA","street2":null,"id":"a7xa7wo0yq9x","geo_precision":"unmatched","state":"CT"},"type":"Feature","geometry":null},{"properties":{"city":"MILFORD","category":"L","zipcode":"06460","street1":"121 WOLF HARBOR RD","geo_score":0.0,"country":"USA","street2":null,"id":"a7xa7wer18li","geo_precision":"unmatched","state":"CT"},"type":"Feature","geometry":null},{"properties":{"city":"MILFORD","category":"L","zipcode":"06460","street1":"360 BOSTON POST RD","geo_score":0.0,"country":"USA","street2":null,"id":"a7xa7wpju1mu","geo_precision":"unmatched","state":"CT"},"type":"Feature","geometry":null},{"properties":{"city":"MILFORD","category":"L","zipcode":"06460","street1":"1 BOSTON POST RD","geo_score":0.0,"country":"USA","street2":null,"id":"a7xa7wbz2on7","geo_precision":"unmatched","state":"CT"},"type":"Feature","geometry":null},{"properties":{"city":"MILFORD","category":"L","zipcode":"06460","street1":"432 BOSTON POST RD","geo_score":0.0,"country":"USA","street2":null,"id":"a7xa7wboz5mc","geo_precision":"unmatched","state":"CT"},"type":"Feature","geometry":null},{"properties":{"city":"MILFORD","category":"L","zipcode":"06460","street1":"123 WOLF HARBOR RD","geo_score":0.0,"country":"USA","street2":null,"id":"a7xa7wgqnczz","geo_precision":"unmatched","state":"CT"},"type":"Feature","geometry":null},{"properties":{"city":"MILFORD","category":"L","zipcode":"06460","street1":"372 BOSTON POST RD","geo_score":0.0,"country":"USA","street2":null,"id":"a7xa7we0qd9b","geo_precision":"unmatched","state":"CT"},"type":"Feature","geometry":null},{"properties":{"city":"MILFORD","category":"L","zipcode":"06460","street1":"18 NUTMEG DR","geo_score":0.0,"country":"USA","street2":null,"id":"a7xa7wgez6nq","geo_precision":"unmatched","state":"CT"},"type":"Feature","geometry":null},{"properties":{"city":"MILFORD","category":"L","zipcode":"06460","street1":"302 SEASIDE AVE.","geo_score":0.0,"country":"USA","street2":null,"id":"a7xa7wdurkwu","geo_precision":"unmatched","state":"CT"},"type":"Feature","geometry":null},{"properties":{"city":"MILFORD","category":"L","zipcode":"06460","street1":"831 BOSTON POST RD","geo_score":0.0,"country":"USA","street2":null,"id":"a7xa7wi2wjbw","geo_precision":"unmatched","state":"CT"},"type":"Feature","geometry":null},{"properties":{"city":"MILFORD","category":"L","zipcode":"06460","street1":"325 BIC DR","geo_score":0.0,"country":"USA","street2":null,"id":"a7xa7wq56bkg","geo_precision":"unmatched","state":"CT"},"type":"Feature","geometry":null},{"properties":{"city":"MILFORD","category":"L","zipcode":"06460","street1":"276 BOSTON POST RD","geo_score":0.0,"country":"USA","street2":null,"id":"a7xa7wovpf0b","geo_precision":"unmatched","state":"CT"},"type":"Feature","geometry":null},{"properties":{"city":"MILFORD","category":"L","zipcode":"06460","street1":"390 WHEELERS FARMS RD","geo_score":0.0,"country":"USA","street2":null,"id":"a7xa7wapdhni","geo_precision":"unmatched","state":"CT"},"type":"Feature","geometry":null},{"properties":{"city":"MILFORD","category":"L","zipcode":"06460","street1":"304 SEASIDE AVE","geo_score":0.0,"country":"USA","street2":null,"id":"a7xa7wh1hl9k","geo_precision":"unmatched","state":"CT"},"type":"Feature","geometry":null},{"properties":{"city":"MILFORD","category":"L","zipcode":"06460","street1":"392 WHEELERS FARMSD RD","geo_score":0.0,"country":"USA","street2":null,"id":"a7xa7wmbdex7","geo_precision":"unmatched","state":"CT"},"type":"Feature","geometry":null},{"properties":{"city":"MILFORD","category":"L","zipcode":"06460","street1":"79 NUTMEG RD","geo_score":0.0,"country":"USA","street2":null,"id":"a7xa7wl9wx8w","geo_precision":"unmatched","state":"CT"},"type":"Feature","geometry":null},{"properties":{"city":"MILFORD","category":"L","zipcode":"06460","street1":"291 HIGH ST","geo_score":0.0,"country":"USA","street2":null,"id":"a7xa7wqmkhob","geo_precision":"unmatched","state":"CT"},"type":"Feature","geometry":null}],"is_temporal":false,"author":{"url":null,"metadata":null,"contact_name":null,"contact_address":null,"source":null,"contact_phone":null},"source":null,"pagination":{"sort":null,"start":0,"total":114,"limit":1000000},"state":"complete","tags":"","published":"2014-08-13T04:33:10-04:00","id":124644}