{"type":"FeatureCollection","data_type":"Dataset","url_type":null,"permissions":[{"permissions":{"download":true,"view":true},"group_id":"everyone"}],"classification":null,"title":"CommunityWalk 0(1)","count":114,"stream_id":124645,"contributor":{"url":"http://geocommons.com/users/28328","name":"ireneusz.sudol@snet.net"},"data_attributes":null,"calculation_params":null,"icon_link":null,"link":"http://geocommons.com/overlays/124645.json","extent":[0.0,0.0,0.0,0.0],"geometry_types":null,"unique_name":null,"name":"CommunityWalk 0(1)","feature_count":114,"description":"","next_feature":null,"is_raster":false,"short_classification":"Y","stats":{},"features":[{"properties":{"city":"MILFORD","category":"L","zipcode":"06460","street1":"365 BOSTON POST RD.","geo_score":0.0,"country":"USA","street2":null,"id":"a6g8vobvle1g","geo_precision":"unmatched","state":"CT"},"type":"Feature","geometry":null},{"properties":{"city":"Milford","category":"L","zipcode":"06460","street1":"Wheelers Farms Rd","geo_score":0.0,"country":"USA","street2":null,"id":"a6g8voiyi7s1","geo_precision":"unmatched","state":"CT"},"type":"Feature","geometry":null},{"properties":{"city":"MILFORD","category":"L","zipcode":"06460","street1":"351 BOSTON POST RD.","geo_score":0.0,"country":"USA","street2":null,"id":"a6g8vob82pkp","geo_precision":"unmatched","state":"CT"},"type":"Feature","geometry":null},{"properties":{"city":"MILFORD","category":"L","zipcode":"06460","street1":"350 BOSTON POST RD.","geo_score":0.0,"country":"USA","street2":null,"id":"a6g8vo7e0wbj","geo_precision":"unmatched","state":"CT"},"type":"Feature","geometry":null},{"properties":{"city":"MILFORD","category":"L","zipcode":"06460","street1":"304 BOSTON POSR RD.","geo_score":0.0,"country":"USA","street2":null,"id":"a6g8vo5g8kz6","geo_precision":"unmatched","state":"CT"},"type":"Feature","geometry":null},{"properties":{"city":"MILFORD","category":"L","zipcode":"06460","street1":"6 DAYTONA AVE.","geo_score":0.0,"country":"USA","street2":null,"id":"a6g8vod038yv","geo_precision":"unmatched","state":"CT"},"type":"Feature","geometry":null},{"properties":{"city":"MILFORD","category":"L","zipcode":"06460","street1":"97 FORD ST","geo_score":0.0,"country":"USA","street2":null,"id":"a6g8vo6eo0ir","geo_precision":"unmatched","state":"CT"},"type":"Feature","geometry":null},{"properties":{"city":"MILFORD","category":"L","zipcode":"06460","street1":"889 BRIDGEPORT AVE.","geo_score":0.0,"country":"USA","street2":null,"id":"a6g8vo6nr1dg","geo_precision":"unmatched","state":"CT"},"type":"Feature","geometry":null},{"properties":{"city":"MILFORD","category":"L","zipcode":"06460","street1":"300 SEASIDE AVE.","geo_score":0.0,"country":"USA","street2":null,"id":"a6g8vodkejcg","geo_precision":"unmatched","state":"CT"},"type":"Feature","geometry":null},{"properties":{"city":"MILFORD","category":"L","zipcode":"06460","street1":"470 BOSTON POST RD","geo_score":0.0,"country":"USA","street2":null,"id":"a6g8vojlircj","geo_precision":"unmatched","state":"CT"},"type":"Feature","geometry":null},{"properties":{"city":"Milford","category":"L","zipcode":"06460","street1":"Wheelers Farms Rd","geo_score":0.0,"country":"USA","street2":null,"id":"a6g8voj7465g","geo_precision":"unmatched","state":"CT"},"type":"Feature","geometry":null},{"properties":{"city":"MILFORD","category":"L","zipcode":"06460","street1":"GORDON RD.","geo_score":0.0,"country":"USA","street2":null,"id":"a6g8voej4vzv","geo_precision":"unmatched","state":"CT"},"type":"Feature","geometry":null},{"properties":{"city":"MILFORD","category":"L","zipcode":"06460","street1":"EAST MAIN STREET","geo_score":0.0,"country":"USA","street2":null,"id":"a6g8vof77cbn","geo_precision":"unmatched","state":"CT"},"type":"Feature","geometry":null},{"properties":{"city":"MILFORD","category":"L","zipcode":"06460","street1":"488 WHEELERS FARMS RD.","geo_score":0.0,"country":"USA","street2":null,"id":"a6g8vof8zgvo","geo_precision":"unmatched","state":"CT"},"type":"Feature","geometry":null},{"properties":{"city":"MILFORD","category":"L","zipcode":"06460","street1":"AVON ST","geo_score":0.0,"country":"USA","street2":null,"id":"a6g8vo6isbdo","geo_precision":"unmatched","state":"CT"},"type":"Feature","geometry":null},{"properties":{"city":"MILFORD","category":"L","zipcode":"06460","street1":"PLAINS RD","geo_score":0.0,"country":"USA","street2":null,"id":"a6g8vo8fy2lg","geo_precision":"unmatched","state":"CT"},"type":"Feature","geometry":null},{"properties":{"city":"MILFORD","category":"L","zipcode":"06460","street1":"75 NAUGATUCK AVE.","geo_score":0.0,"country":"USA","street2":null,"id":"a6g8vo94f3hk","geo_precision":"unmatched","state":"CT"},"type":"Feature","geometry":null},{"properties":{"city":"MILFORD","category":"L","zipcode":"06460","street1":"771 CARSDALE AVE.","geo_score":0.0,"country":"USA","street2":null,"id":"a6g8vofoxpqv","geo_precision":"unmatched","state":"CT"},"type":"Feature","geometry":null},{"properties":{"city":"MILFORD","category":"L","zipcode":"06460","street1":"767 BRIDGEPORT AVE.","geo_score":0.0,"country":"USA","street2":null,"id":"a6g8voh30kvz","geo_precision":"unmatched","state":"CT"},"type":"Feature","geometry":null},{"properties":{"city":"MILFORD","category":"L","zipcode":"06460","street1":"370 BOSTON POST RD","geo_score":0.0,"country":"USA","street2":null,"id":"a6g8vodc7n77","geo_precision":"unmatched","state":"CT"},"type":"Feature","geometry":null},{"properties":{"city":"MILFORD","category":"L","zipcode":"06460","street1":"275 BOSTON POST RD","geo_score":0.0,"country":"USA","street2":null,"id":"a6g8vo817kwl","geo_precision":"unmatched","state":"CT"},"type":"Feature","geometry":null},{"properties":{"city":"MILFORD","category":"L","zipcode":"06460","street1":"430 BOSTON POST RD","geo_score":0.0,"country":"USA","street2":null,"id":"a6g8voia2vcl","geo_precision":"unmatched","state":"CT"},"type":"Feature","geometry":null},{"properties":{"city":"MILFORD","category":"L","zipcode":"06460","street1":"95 WOLF HARBOR RD","geo_score":0.0,"country":"USA","street2":null,"id":"a6g8vojefakt","geo_precision":"unmatched","state":"CT"},"type":"Feature","geometry":null},{"properties":{"city":"MILFORD","category":"L","zipcode":"06460","street1":"655 BRIDGEPORT AVE.","geo_score":0.0,"country":"USA","street2":null,"id":"a6g8vo7fo0w8","geo_precision":"unmatched","state":"CT"},"type":"Feature","geometry":null},{"properties":{"city":"MILFORD","category":"L","zipcode":"06460","street1":"WEST MAIN ST.","geo_score":0.0,"country":"USA","street2":null,"id":"a6g8voe35lnu","geo_precision":"unmatched","state":"CT"},"type":"Feature","geometry":null},{"properties":{"city":"MILFORD","category":"L","zipcode":"06460","street1":"860 BRIDGEPORT AVE.","geo_score":0.0,"country":"USA","street2":null,"id":"a6g8voiqu3vz","geo_precision":"unmatched","state":"CT"},"type":"Feature","geometry":null},{"properties":{"city":"MILFORD","category":"L","zipcode":"06460","street1":"77 PLAINS RD.","geo_score":0.0,"country":"USA","street2":null,"id":"a6g8vohfylv6","geo_precision":"unmatched","state":"CT"},"type":"Feature","geometry":null},{"properties":{"city":"MILFORD","category":"L","zipcode":"06460","street1":"370 BOSTON POST RD","geo_score":0.0,"country":"USA","street2":null,"id":"a6g8vo9yjyue","geo_precision":"unmatched","state":"CT"},"type":"Feature","geometry":null},{"properties":{"city":"MILFORD","category":"L","zipcode":"06460","street1":"488 WHEELERS FARMS RD.","geo_score":0.0,"country":"USA","street2":null,"id":"a6g8vo53gkvj","geo_precision":"unmatched","state":"CT"},"type":"Feature","geometry":null},{"properties":{"city":"MILFORD","category":"L","zipcode":"06460","street1":"625 ROSES MILL RD.","geo_score":0.0,"country":"USA","street2":null,"id":"a6g8vogwg0su","geo_precision":"unmatched","state":"CT"},"type":"Feature","geometry":null},{"properties":{"city":"MILFORD","category":"L","zipcode":"06460","street1":"300 SEASIDE AVE.","geo_score":0.0,"country":"USA","street2":null,"id":"a6g8vo9q2b8d","geo_precision":"unmatched","state":"CT"},"type":"Feature","geometry":null},{"properties":{"city":"MILFORD","category":"L","zipcode":"06460","street1":"1718 BOSTON POST RD","geo_score":0.0,"country":"USA","street2":null,"id":"a6g8vo5rz78w","geo_precision":"unmatched","state":"CT"},"type":"Feature","geometry":null},{"properties":{"city":"MILFORD","category":"L","zipcode":"06460","street1":"MONROE ST","geo_score":0.0,"country":"USA","street2":null,"id":"a6g8vo5gyo0y","geo_precision":"unmatched","state":"CT"},"type":"Feature","geometry":null},{"properties":{"city":"FAIRFIELD","category":"L","zipcode":"06824","street1":"1478 POST RD.","geo_score":0.0,"country":"USA","street2":null,"id":"a6g8vo5wsm8u","geo_precision":"unmatched","state":"CT"},"type":"Feature","geometry":null},{"properties":{"city":"MILFORD","category":"L","zipcode":"06460","street1":"NAUGATUCK Ave.","geo_score":0.0,"country":"USA","street2":null,"id":"a6g8vodi3i0e","geo_precision":"unmatched","state":"CT"},"type":"Feature","geometry":null},{"properties":{"city":"MILFORD","category":"L","zipcode":"06460","street1":"420 EAST MAIN ST","geo_score":0.0,"country":"USA","street2":null,"id":"a6g8vo8gdygw","geo_precision":"unmatched","state":"CT"},"type":"Feature","geometry":null},{"properties":{"city":"MILFORD","category":"L","zipcode":"06460","street1":"855 BRIDGEPORT AVE.","geo_score":0.0,"country":"USA","street2":null,"id":"a6g8vobxthzl","geo_precision":"unmatched","state":"CT"},"type":"Feature","geometry":null},{"properties":{"city":"MILFORD","category":"L","zipcode":"06460","street1":"PRIMROSE ST","geo_score":0.0,"country":"USA","street2":null,"id":"a6g8voep3gyu","geo_precision":"unmatched","state":"CT"},"type":"Feature","geometry":null},{"properties":{"city":"MILFORD","category":"L","zipcode":"06460","street1":"516 BOSTON POST RD","geo_score":0.0,"country":"USA","street2":null,"id":"a6g8vodimioc","geo_precision":"unmatched","state":"CT"},"type":"Feature","geometry":null},{"properties":{"city":"MILFORD","category":"L","zipcode":"06460","street1":"379 MEADOWSIDE RD.","geo_score":0.0,"country":"USA","street2":null,"id":"a6g8voahdyhu","geo_precision":"unmatched","state":"CT"},"type":"Feature","geometry":null},{"properties":{"city":"MILFORD","category":"L","zipcode":"06460","street1":"113 EAST BROADWAY","geo_score":0.0,"country":"USA","street2":null,"id":"a6g8vo9o86g7","geo_precision":"unmatched","state":"CT"},"type":"Feature","geometry":null},{"properties":{"city":"MILFORD","category":"L","zipcode":"06460","street1":"351 BOSTON POST RD.","geo_score":0.0,"country":"USA","street2":null,"id":"a6g8vo4lm87n","geo_precision":"unmatched","state":"CT"},"type":"Feature","geometry":null},{"properties":{"city":"MILFORD","category":"L","zipcode":"06460","street1":"351 BOSTON POST RD.","geo_score":0.0,"country":"USA","street2":null,"id":"a6g8vohiw7n3","geo_precision":"unmatched","state":"CT"},"type":"Feature","geometry":null},{"properties":{"city":"MILFORD","category":"L","zipcode":"06460","street1":"20 LANSDALE AVE","geo_score":0.0,"country":"USA","street2":null,"id":"a6g8vo5ulggd","geo_precision":"unmatched","state":"CT"},"type":"Feature","geometry":null},{"properties":{"city":"MILFORD","category":"L","zipcode":"06460","street1":"370 BOSTON POST RD","geo_score":0.0,"country":"USA","street2":null,"id":"a6g8vo4emlrj","geo_precision":"unmatched","state":"CT"},"type":"Feature","geometry":null},{"properties":{"city":"MILFORD","category":"L","zipcode":"06460","street1":"LEXINGTON GREEN","geo_score":0.0,"country":"USA","street2":null,"id":"a6g8vo4nk3fo","geo_precision":"unmatched","state":"CT"},"type":"Feature","geometry":null},{"properties":{"city":"MILFORD","category":"L","zipcode":"06460","street1":"127 BRIDGEPORT AVE.","geo_score":0.0,"country":"USA","street2":null,"id":"a6g8voa20m39","geo_precision":"unmatched","state":"CT"},"type":"Feature","geometry":null},{"properties":{"city":"MILFORD","category":"L","zipcode":"06460","street1":"408 BOSTON POST RD.","geo_score":0.0,"country":"USA","street2":null,"id":"a6g8voge5mdx","geo_precision":"unmatched","state":"CT"},"type":"Feature","geometry":null},{"properties":{"city":"MILFORD","category":"L","zipcode":"06460","street1":"430 BOSTON POST RD.","geo_score":0.0,"country":"USA","street2":null,"id":"a6g8vobddu5j","geo_precision":"unmatched","state":"CT"},"type":"Feature","geometry":null},{"properties":{"city":"MILFORD","category":"D","zipcode":"06460","street1":"FORD ST","geo_score":0.0,"country":"USA","street2":null,"id":"a6g8vo8yhlt8","geo_precision":"unmatched","state":"CT"},"type":"Feature","geometry":null},{"properties":{"city":"MILFORD","category":"D","zipcode":"06460","street1":"21 SOUTWICK RD","geo_score":0.0,"country":"USA","street2":null,"id":"a6g8voc01hll","geo_precision":"unmatched","state":"CT"},"type":"Feature","geometry":null},{"properties":{"city":"MILFORD","category":"D","zipcode":"06460","street1":"691 WHEELERS FARMS RD","geo_score":0.0,"country":"USA","street2":null,"id":"a6g8vof7fror","geo_precision":"unmatched","state":"CT"},"type":"Feature","geometry":null},{"properties":{"city":"MILFORD","category":"D","zipcode":"06460","street1":"PARKWAY TERRACE","geo_score":0.0,"country":"USA","street2":null,"id":"a6g8vo40edg6","geo_precision":"unmatched","state":"CT"},"type":"Feature","geometry":null},{"properties":{"city":"MILFORD","category":"D","zipcode":"06460","street1":"27 PARKWAY TERRACE","geo_score":0.0,"country":"USA","street2":null,"id":"a6g8vogamt5s","geo_precision":"unmatched","state":"CT"},"type":"Feature","geometry":null},{"properties":{"city":"MILFORD","category":"D","zipcode":"06460","street1":"75 NAUGATUCK AVE.","geo_score":0.0,"country":"USA","street2":null,"id":"a6g8vo62841h","geo_precision":"unmatched","state":"CT"},"type":"Feature","geometry":null},{"properties":{"city":"MILFORD","category":"D","zipcode":"06460","street1":"700 WHEELERS FARMS RD","geo_score":0.0,"country":"USA","street2":null,"id":"a6g8vo8phulr","geo_precision":"unmatched","state":"CT"},"type":"Feature","geometry":null},{"properties":{"city":"MILFORD","category":"D","zipcode":"06460","street1":"1440 NAUGATUCK AVE.","geo_score":0.0,"country":"USA","street2":null,"id":"a6g8vod8eo9x","geo_precision":"unmatched","state":"CT"},"type":"Feature","geometry":null},{"properties":{"city":"MILFORD","category":"D","zipcode":"06460","street1":"60 CORNFIELD RD","geo_score":0.0,"country":"USA","street2":null,"id":"a6g8voenhv2i","geo_precision":"unmatched","state":"CT"},"type":"Feature","geometry":null},{"properties":{"city":"MILFORD","category":"D","zipcode":"06460","street1":"696 MILFORD POINT RD","geo_score":0.0,"country":"USA","street2":null,"id":"a6g8voc1c7p0","geo_precision":"unmatched","state":"CT"},"type":"Feature","geometry":null},{"properties":{"city":"MILFORD","category":"D","zipcode":"06460","street1":"WELCHS POINT RD","geo_score":0.0,"country":"USA","street2":null,"id":"a6g8vojkrr2u","geo_precision":"unmatched","state":"CT"},"type":"Feature","geometry":null},{"properties":{"city":"MILFORD","category":"D","zipcode":"06460","street1":"NEW HAVEN AVE.","geo_score":0.0,"country":"USA","street2":null,"id":"a6g8vo70dvkg","geo_precision":"unmatched","state":"CT"},"type":"Feature","geometry":null},{"properties":{"city":"MILFORD","category":"D","zipcode":"06460","street1":"76 MILFORD POINT RD","geo_score":0.0,"country":"USA","street2":null,"id":"a6g8vohboihe","geo_precision":"unmatched","state":"CT"},"type":"Feature","geometry":null},{"properties":{"city":"MILFORD","category":"D","zipcode":"06460","street1":"720 NAUGATUCK AVE.","geo_score":0.0,"country":"USA","street2":null,"id":"a6g8voezblrq","geo_precision":"unmatched","state":"CT"},"type":"Feature","geometry":null},{"properties":{"city":"MILFORD","category":"D","zipcode":"06460","street1":"704 WHEELERS FARMS RD","geo_score":0.0,"country":"USA","street2":null,"id":"a6g8voefd1zu","geo_precision":"unmatched","state":"CT"},"type":"Feature","geometry":null},{"properties":{"city":"MILFORD","category":"D","zipcode":"06460","street1":"121 OAK RIDGE LANE","geo_score":0.0,"country":"USA","street2":null,"id":"a6g8voii3jtr","geo_precision":"unmatched","state":"CT"},"type":"Feature","geometry":null},{"properties":{"city":"MILFORD","category":"D","zipcode":"06460","street1":"123 MONROE ST","geo_score":0.0,"country":"USA","street2":null,"id":"a6g8vohfya1d","geo_precision":"unmatched","state":"CT"},"type":"Feature","geometry":null},{"properties":{"city":"MILFORD","category":"D","zipcode":"06460","street1":"16 WINSTON COURT","geo_score":0.0,"country":"USA","street2":null,"id":"a6g8voc05yfr","geo_precision":"unmatched","state":"CT"},"type":"Feature","geometry":null},{"properties":{"city":"MILFORD","category":"D","zipcode":"06460","street1":"1137 NAUGATUCK AVE","geo_score":0.0,"country":"USA","street2":null,"id":"a6g8vochckv8","geo_precision":"unmatched","state":"CT"},"type":"Feature","geometry":null},{"properties":{"city":"MILFORD","category":"D","zipcode":"06460","street1":"78 MILFORD POINT RD","geo_score":0.0,"country":"USA","street2":null,"id":"a6g8voam79z2","geo_precision":"unmatched","state":"CT"},"type":"Feature","geometry":null},{"properties":{"city":"MILFORD","category":"D","zipcode":"06460","street1":"710 WHEELERS FARMS RD.","geo_score":0.0,"country":"USA","street2":null,"id":"a6g8voaw6acr","geo_precision":"unmatched","state":"CT"},"type":"Feature","geometry":null},{"properties":{"city":"MILFORD","category":"D","zipcode":"06460","street1":"109 RIVER ST","geo_score":0.0,"country":"USA","street2":null,"id":"a6g8voa326fw","geo_precision":"unmatched","state":"CT"},"type":"Feature","geometry":null},{"properties":{"city":"MILFORD","category":"D","zipcode":"06460","street1":"767 BRIDGEPORT AVE.","geo_score":0.0,"country":"USA","street2":null,"id":"a6g8voebwa2z","geo_precision":"unmatched","state":"CT"},"type":"Feature","geometry":null},{"properties":{"city":"MILFORD","category":"D","zipcode":"06460","street1":"800 WHEELERS FARMS RD","geo_score":0.0,"country":"USA","street2":null,"id":"a6g8vofifkqe","geo_precision":"unmatched","state":"CT"},"type":"Feature","geometry":null},{"properties":{"city":"MILFORD","category":"D","zipcode":"06460","street1":"100 AVON ST","geo_score":0.0,"country":"USA","street2":null,"id":"a6g8voaz3pbv","geo_precision":"unmatched","state":"CT"},"type":"Feature","geometry":null},{"properties":{"city":"MILFORD","category":"D","zipcode":"06460","street1":"810 WHEELERS FARMS RD","geo_score":0.0,"country":"USA","street2":null,"id":"a6g8vo3su711","geo_precision":"unmatched","state":"CT"},"type":"Feature","geometry":null},{"properties":{"city":"MILFORD","category":"D","zipcode":"06460","street1":"65 PLAINS RD.","geo_score":0.0,"country":"USA","street2":null,"id":"a6g8vo3q7biu","geo_precision":"unmatched","state":"CT"},"type":"Feature","geometry":null},{"properties":{"city":"MILFORD","category":"D","zipcode":"06460","street1":"279 NAUGATUCK AVE.","geo_score":0.0,"country":"USA","street2":null,"id":"a6g8vo3ni073","geo_precision":"unmatched","state":"CT"},"type":"Feature","geometry":null},{"properties":{"city":"MILFORD","category":"D","zipcode":"06460","street1":"795 ROSES MILL RD","geo_score":0.0,"country":"USA","street2":null,"id":"a6g8voce97jo","geo_precision":"unmatched","state":"CT"},"type":"Feature","geometry":null},{"properties":{"city":"MILFORD","category":"D","zipcode":"06460","street1":"812 WHEELERS FARMS RD","geo_score":0.0,"country":"USA","street2":null,"id":"a6g8vohhh3ld","geo_precision":"unmatched","state":"CT"},"type":"Feature","geometry":null},{"properties":{"city":"MILFORD","category":"D","zipcode":"06460","street1":"53 NUTMEG LANE","geo_score":0.0,"country":"USA","street2":null,"id":"a6g8vog4gy5j","geo_precision":"unmatched","state":"CT"},"type":"Feature","geometry":null},{"properties":{"city":"STRATFORD","category":"D","zipcode":"06614","street1":"294 SUNNYBANK AVE","geo_score":0.0,"country":"USA","street2":null,"id":"a6g8vo9kq82j","geo_precision":"unmatched","state":"CT"},"type":"Feature","geometry":null},{"properties":{"city":"MILFORD","category":"D","zipcode":"06460","street1":"27 MONROE ST","geo_score":0.0,"country":"USA","street2":null,"id":"a6g8vo3wq490","geo_precision":"unmatched","state":"CT"},"type":"Feature","geometry":null},{"properties":{"city":"MILFORD","category":"D","zipcode":"06460","street1":"80 MILFORD POINT RD","geo_score":0.0,"country":"USA","street2":null,"id":"a6g8vodbd0jz","geo_precision":"unmatched","state":"CT"},"type":"Feature","geometry":null},{"properties":{"city":"MILFORD","category":"D","zipcode":"06460","street1":"98 WALNUT ST","geo_score":0.0,"country":"USA","street2":null,"id":"a6g8vogj7iar","geo_precision":"unmatched","state":"CT"},"type":"Feature","geometry":null},{"properties":{"city":"MILFORD","category":"D","zipcode":"06460","street1":"81 JEPSON DR","geo_score":0.0,"country":"USA","street2":null,"id":"a6g8vo9yuym4","geo_precision":"unmatched","state":"CT"},"type":"Feature","geometry":null},{"properties":{"city":"MILFORD","category":"D","zipcode":"06460","street1":"230 HIGH ST","geo_score":0.0,"country":"USA","street2":null,"id":"a6g8vo63ofl0","geo_precision":"unmatched","state":"CT"},"type":"Feature","geometry":null},{"properties":{"city":"MILFORD","category":"D","zipcode":"06460","street1":"54 WINTHROP CT","geo_score":0.0,"country":"USA","street2":null,"id":"a6g8vo8fv3xf","geo_precision":"unmatched","state":"CT"},"type":"Feature","geometry":null},{"properties":{"city":"MILFORD","category":"D","zipcode":"06460","street1":"62 MAPLE ST","geo_score":0.0,"country":"USA","street2":null,"id":"a6g8voawxi07","geo_precision":"unmatched","state":"CT"},"type":"Feature","geometry":null},{"properties":{"city":"MILFORD","category":"D","zipcode":"06460","street1":"29 GUNN ST","geo_score":0.0,"country":"USA","street2":null,"id":"a6g8voebrykg","geo_precision":"unmatched","state":"CT"},"type":"Feature","geometry":null},{"properties":{"city":"MILFORD","category":"L","zipcode":"06460","street1":"81 MEADOWSIDE RD","geo_score":0.0,"country":"USA","street2":null,"id":"a6g8vo5ugnni","geo_precision":"unmatched","state":"CT"},"type":"Feature","geometry":null},{"properties":{"city":"MILFORD","category":"L","zipcode":"06460","street1":"55 PECK ST","geo_score":0.0,"country":"USA","street2":null,"id":"a6g8vo9f6ymc","geo_precision":"unmatched","state":"CT"},"type":"Feature","geometry":null},{"properties":{"city":"MILFORD","category":"L","zipcode":"06460","street1":"110 VICTORY DR","geo_score":0.0,"country":"USA","street2":null,"id":"a6g8vohlo30e","geo_precision":"unmatched","state":"CT"},"type":"Feature","geometry":null},{"properties":{"city":"MILFORD","category":"L","zipcode":"06460","street1":"28 TOWER ST","geo_score":0.0,"country":"USA","street2":null,"id":"a6g8vo6bkz0l","geo_precision":"unmatched","state":"CT"},"type":"Feature","geometry":null},{"properties":{"city":"MILFORD","category":"L","zipcode":"06460","street1":"381 WHEELERS FARMS RD","geo_score":0.0,"country":"USA","street2":null,"id":"a6g8vo506ydk","geo_precision":"unmatched","state":"CT"},"type":"Feature","geometry":null},{"properties":{"city":"MILFORD","category":"L","zipcode":"06460","street1":"290 WEST MAIN ST","geo_score":0.0,"country":"USA","street2":null,"id":"a6g8voj536zu","geo_precision":"unmatched","state":"CT"},"type":"Feature","geometry":null},{"properties":{"city":"MILFORD","category":"L","zipcode":"06460","street1":"70 WEST RIVER ST","geo_score":0.0,"country":"USA","street2":null,"id":"a6g8vobv1t91","geo_precision":"unmatched","state":"CT"},"type":"Feature","geometry":null},{"properties":{"city":"MILFORD","category":"L","zipcode":"06460","street1":"769 Bridgeport ave","geo_score":0.0,"country":"USA","street2":null,"id":"a6g8vo7d5vs0","geo_precision":"unmatched","state":"CT"},"type":"Feature","geometry":null},{"properties":{"city":"MILFORD","category":"L","zipcode":"06460","street1":"514 BOSTON POST RD","geo_score":0.0,"country":"USA","street2":null,"id":"a6g8vogfio5n","geo_precision":"unmatched","state":"CT"},"type":"Feature","geometry":null},{"properties":{"city":"MILFORD","category":"L","zipcode":"06460","street1":"121 WOLF HARBOR RD","geo_score":0.0,"country":"USA","street2":null,"id":"a6g8vo7x33l6","geo_precision":"unmatched","state":"CT"},"type":"Feature","geometry":null},{"properties":{"city":"MILFORD","category":"L","zipcode":"06460","street1":"360 BOSTON POST RD","geo_score":0.0,"country":"USA","street2":null,"id":"a6g8vojutfy0","geo_precision":"unmatched","state":"CT"},"type":"Feature","geometry":null},{"properties":{"city":"MILFORD","category":"L","zipcode":"06460","street1":"1 BOSTON POST RD","geo_score":0.0,"country":"USA","street2":null,"id":"a6g8vo7hwye4","geo_precision":"unmatched","state":"CT"},"type":"Feature","geometry":null},{"properties":{"city":"MILFORD","category":"L","zipcode":"06460","street1":"432 BOSTON POST RD","geo_score":0.0,"country":"USA","street2":null,"id":"a6g8voe6c1mv","geo_precision":"unmatched","state":"CT"},"type":"Feature","geometry":null},{"properties":{"city":"MILFORD","category":"L","zipcode":"06460","street1":"123 WOLF HARBOR RD","geo_score":0.0,"country":"USA","street2":null,"id":"a6g8voe9llcq","geo_precision":"unmatched","state":"CT"},"type":"Feature","geometry":null},{"properties":{"city":"MILFORD","category":"L","zipcode":"06460","street1":"372 BOSTON POST RD","geo_score":0.0,"country":"USA","street2":null,"id":"a6g8vo5j0hcu","geo_precision":"unmatched","state":"CT"},"type":"Feature","geometry":null},{"properties":{"city":"MILFORD","category":"L","zipcode":"06460","street1":"18 NUTMEG DR","geo_score":0.0,"country":"USA","street2":null,"id":"a6g8voc31b5w","geo_precision":"unmatched","state":"CT"},"type":"Feature","geometry":null},{"properties":{"city":"MILFORD","category":"L","zipcode":"06460","street1":"302 SEASIDE AVE.","geo_score":0.0,"country":"USA","street2":null,"id":"a6g8vo6kkqoi","geo_precision":"unmatched","state":"CT"},"type":"Feature","geometry":null},{"properties":{"city":"MILFORD","category":"L","zipcode":"06460","street1":"831 BOSTON POST RD","geo_score":0.0,"country":"USA","street2":null,"id":"a6g8voayqgw0","geo_precision":"unmatched","state":"CT"},"type":"Feature","geometry":null},{"properties":{"city":"MILFORD","category":"L","zipcode":"06460","street1":"325 BIC DR","geo_score":0.0,"country":"USA","street2":null,"id":"a6g8vo4zyykg","geo_precision":"unmatched","state":"CT"},"type":"Feature","geometry":null},{"properties":{"city":"MILFORD","category":"L","zipcode":"06460","street1":"276 BOSTON POST RD","geo_score":0.0,"country":"USA","street2":null,"id":"a6g8vogmyply","geo_precision":"unmatched","state":"CT"},"type":"Feature","geometry":null},{"properties":{"city":"MILFORD","category":"L","zipcode":"06460","street1":"390 WHEELERS FARMS RD","geo_score":0.0,"country":"USA","street2":null,"id":"a6g8voi270qy","geo_precision":"unmatched","state":"CT"},"type":"Feature","geometry":null},{"properties":{"city":"MILFORD","category":"L","zipcode":"06460","street1":"304 SEASIDE AVE","geo_score":0.0,"country":"USA","street2":null,"id":"a6g8vodshtlx","geo_precision":"unmatched","state":"CT"},"type":"Feature","geometry":null},{"properties":{"city":"MILFORD","category":"L","zipcode":"06460","street1":"392 WHEELERS FARMSD RD","geo_score":0.0,"country":"USA","street2":null,"id":"a6g8vo53grqx","geo_precision":"unmatched","state":"CT"},"type":"Feature","geometry":null},{"properties":{"city":"MILFORD","category":"L","zipcode":"06460","street1":"79 NUTMEG RD","geo_score":0.0,"country":"USA","street2":null,"id":"a6g8vo4zrtbj","geo_precision":"unmatched","state":"CT"},"type":"Feature","geometry":null},{"properties":{"city":"MILFORD","category":"L","zipcode":"06460","street1":"291 HIGH ST","geo_score":0.0,"country":"USA","street2":null,"id":"a6g8voh78jn9","geo_precision":"unmatched","state":"CT"},"type":"Feature","geometry":null}],"is_temporal":false,"author":{"url":null,"metadata":null,"contact_name":null,"contact_address":null,"source":null,"contact_phone":null},"source":null,"pagination":{"sort":null,"start":0,"total":114,"limit":1000000},"state":"complete","tags":"","published":"2014-08-13T04:33:14-04:00","id":124645}