{"type":"FeatureCollection","data_type":"Dataset","url_type":null,"permissions":[{"permissions":{"download":true,"view":true},"group_id":"everyone"}],"classification":null,"title":"11 0613 PAM SalesData","count":44,"stream_id":124935,"contributor":{"url":"http://geocommons.com/users/28248","name":"tommynauw"},"data_attributes":null,"calculation_params":null,"icon_link":null,"link":"http://geocommons.com/overlays/124935.json","extent":[-168.022,20.8327,-70.3701,62.0494],"geometry_types":["point"],"unique_name":null,"name":"11 0613 PAM SalesData","feature_count":44,"description":"","next_feature":null,"is_raster":false,"short_classification":"Y","stats":{},"features":[{"properties":{"city":"Scottsdale","zip":"92649","geo_score":0.886,"id":"a62usgj5j8i9","geo_precision":"zip","state":"CA"},"type":"Feature","geometry":{"type":"Point","coordinates":[-117.769442,33.640302]}},{"properties":{"city":"Poland","zip":"04274","geo_score":0.879,"id":"a62usgp6rv9p","geo_precision":"zip","state":"ME"},"type":"Feature","geometry":{"type":"Point","coordinates":[-70.370055,43.986741]}},{"properties":{"city":"Aberdeen","zip":"07747","geo_score":0.871,"id":"a62usgd0l2ke","geo_precision":"zip","state":"NJ"},"type":"Feature","geometry":{"type":"Point","coordinates":[-74.213478,40.395942]}},{"properties":{"city":"Eatonville","zip":"98328","geo_score":0.886,"id":"a62usgcf4t3q","geo_precision":"zip","state":"WA"},"type":"Feature","geometry":{"type":"Point","coordinates":[-122.290113,46.800383]}},{"properties":{"city":"Homeland","zip":"92548","geo_score":1.0,"id":"a62usgknch71","geo_precision":"zip","state":"CA"},"type":"Feature","geometry":{"type":"Point","coordinates":[-116.055617,33.752886]}},{"properties":{"city":"San Francisco","zip":"94104","geo_score":1.0,"id":"a62usgpbokvv","geo_precision":"zip","state":"CA"},"type":"Feature","geometry":{"type":"Point","coordinates":[-122.401732,37.790728]}},{"properties":{"city":"San Francisco","zip":"94102","geo_score":1.0,"id":"a62usgftb13n","geo_precision":"zip","state":"CA"},"type":"Feature","geometry":{"type":"Point","coordinates":[-122.416582,37.779278]}},{"properties":{"city":"Walnut Creek","zip":"94722","geo_score":0.727,"id":"a62usgg3qpgd","geo_precision":"city","state":"CA"},"type":"Feature","geometry":{"type":"Point","coordinates":[-122.481647,38.517964]}},{"properties":{"city":"Las Vegas","zip":"69032","geo_score":0.753,"id":"a62usgoxf2s4","geo_precision":"zip","state":"NV"},"type":"Feature","geometry":{"type":"Point","coordinates":[-101.061328,40.524819]}},{"properties":{"city":"Huntington Beach","zip":"92647","geo_score":1.0,"id":"a62usgckfd7f","geo_precision":"zip","state":"CA"},"type":"Feature","geometry":{"type":"Point","coordinates":[-117.769442,33.640302]}},{"properties":{"city":"Honolulu","zip":"96818","geo_score":0.879,"id":"a62usgj6cutc","geo_precision":"zip","state":"HI"},"type":"Feature","geometry":{"type":"Point","coordinates":[-157.927778,21.365278]}},{"properties":{"city":"Honolulu","zip":"96825","geo_score":0.873,"id":"a62usgpzee78","geo_precision":"zip","state":"HI"},"type":"Feature","geometry":{"type":"Point","coordinates":[-157.705278,21.282778]}},{"properties":{"city":"Wawona","zip":"95389","geo_score":0.866,"id":"a62usgkm1125","geo_precision":"zip","state":"CA"},"type":"Feature","geometry":{"type":"Point","coordinates":[-120.488253,37.89076]}},{"properties":{"city":"Honolulu","zip":"96817","geo_score":1.0,"id":"a62usgf01ry3","geo_precision":"zip","state":"HI"},"type":"Feature","geometry":{"type":"Point","coordinates":[-157.922303,21.65098]}},{"properties":{"city":"Huntington Beach","zip":"92649","geo_score":1.0,"id":"a62usgbqdrm2","geo_precision":"zip","state":"CA"},"type":"Feature","geometry":{"type":"Point","coordinates":[-117.769442,33.640302]}},{"properties":{"city":"Los Angeles","zip":"97336","geo_score":0.735,"id":"a62usgr64kzj","geo_precision":"zip","state":"CA"},"type":"Feature","geometry":{"type":"Point","coordinates":[-122.850752,44.359301]}},{"properties":{"city":"Aiea","zip":"96701","geo_score":0.918,"id":"a62usgryl2yk","geo_precision":"zip","state":"HI"},"type":"Feature","geometry":{"type":"Point","coordinates":[-157.943333,21.404722]}},{"properties":{"city":"Honolulu","zip":"96821","geo_score":1.0,"id":"a62usgcwxk5c","geo_precision":"zip","state":"HI"},"type":"Feature","geometry":{"type":"Point","coordinates":[-168.021815,24.859832]}},{"properties":{"city":"Palmer","zip":"99645","geo_score":0.878,"id":"a62usgmiffjv","geo_precision":"zip","state":"AK"},"type":"Feature","geometry":{"type":"Point","coordinates":[-146.538333,62.049444]}},{"properties":{"city":"Los Angeles","zip":"90039","geo_score":1.0,"id":"a62usgnbxsdx","geo_precision":"zip","state":"CA"},"type":"Feature","geometry":{"type":"Point","coordinates":[-118.298662,33.786594]}},{"properties":{"city":"Honolulu","zip":"96816","geo_score":0.911,"id":"a62usgitejvr","geo_precision":"zip","state":"HI"},"type":"Feature","geometry":{"type":"Point","coordinates":[-157.815556,21.278056]}},{"properties":{"city":"Huntington Beach","zip":"92649","geo_score":1.0,"id":"a62usgbzjbfd","geo_precision":"zip","state":"CA"},"type":"Feature","geometry":{"type":"Point","coordinates":[-117.769442,33.640302]}},{"properties":{"city":"San Francisco","zip":"94821","geo_score":0.869,"id":"a62usge920kj","geo_precision":"zip","state":"CA"},"type":"Feature","geometry":{"type":"Point","coordinates":[-122.347749,37.935758]}},{"properties":{"city":"Las Vegas","zip":"69011","geo_score":0.857,"id":"a62usgikudyz","geo_precision":"city","state":"NV"},"type":"Feature","geometry":{"type":"Point","coordinates":[-115.137223,36.174971]}},{"properties":{"city":"Honolulu","zip":"96814","geo_score":0.893,"id":"a62usgogvoee","geo_precision":"zip","state":"HI"},"type":"Feature","geometry":{"type":"Point","coordinates":[-157.829167,21.290556]}},{"properties":{"city":"Houston","zip":"77084","geo_score":1.0,"id":"a62usgrig71y","geo_precision":"zip","state":"TX"},"type":"Feature","geometry":{"type":"Point","coordinates":[-95.434241,29.83399]}},{"properties":{"city":"Brea","zip":"92821","geo_score":1.0,"id":"a62usgs42oqj","geo_precision":"zip","state":"CA"},"type":"Feature","geometry":{"type":"Point","coordinates":[-117.769442,33.640302]}},{"properties":{"city":"Honolulu","zip":"96813","geo_score":1.0,"id":"a62usgn5ydxx","geo_precision":"zip","state":"HI"},"type":"Feature","geometry":{"type":"Point","coordinates":[-168.021815,24.859832]}},{"properties":{"city":"Palatine","zip":"60067","geo_score":0.873,"id":"a62usgjqcuj0","geo_precision":"zip","state":"IL"},"type":"Feature","geometry":{"type":"Point","coordinates":[-88.096187,42.118082]}},{"properties":{"city":"Honollulu","zip":"96814","geo_score":0.905,"id":"a62usgdf9pim","geo_precision":"zip","state":"HI"},"type":"Feature","geometry":{"type":"Point","coordinates":[-157.829167,21.290556]}},{"properties":{"city":"Makawao","zip":"96768","geo_score":1.0,"id":"a62usgd8cze9","geo_precision":"zip","state":"HI"},"type":"Feature","geometry":{"type":"Point","coordinates":[-156.320242,20.832664]}},{"properties":{"city":"Honolulu","zip":"96825","geo_score":0.873,"id":"a62usgep28mz","geo_precision":"zip","state":"HI"},"type":"Feature","geometry":{"type":"Point","coordinates":[-157.705278,21.282778]}},{"properties":{"city":"Hon","zip":"96818","geo_score":0.868,"id":"a62usgoev4nf","geo_precision":"zip","state":"HI"},"type":"Feature","geometry":{"type":"Point","coordinates":[-157.927778,21.365278]}},{"properties":{"city":"Honolulu","zip":"96819","geo_score":1.0,"id":"a62usgeajy98","geo_precision":"zip","state":"HI"},"type":"Feature","geometry":{"type":"Point","coordinates":[-157.901979,21.373179]}},{"properties":{"city":"Huntington Beach","zip":"92649","geo_score":1.0,"id":"a62usgrr7lhh","geo_precision":"zip","state":"CA"},"type":"Feature","geometry":{"type":"Point","coordinates":[-117.769442,33.640302]}},{"properties":{"city":"Honolulu","zip":"96818","geo_score":0.879,"id":"a62usgc9vocr","geo_precision":"zip","state":"HI"},"type":"Feature","geometry":{"type":"Point","coordinates":[-157.927778,21.365278]}},{"properties":{"city":"Beverly Hills","zip":"90210","geo_score":1.0,"id":"a62usgokhb7g","geo_precision":"zip","state":"CA"},"type":"Feature","geometry":{"type":"Point","coordinates":[-118.298662,33.786594]}},{"properties":{"city":"Huntington Beach","zip":"92649","geo_score":1.0,"id":"a62usgkgrrao","geo_precision":"zip","state":"CA"},"type":"Feature","geometry":{"type":"Point","coordinates":[-117.769442,33.640302]}},{"properties":{"city":"Ukiah","zip":"95482","geo_score":0.869,"id":"a62usgn21zpp","geo_precision":"zip","state":"CA"},"type":"Feature","geometry":{"type":"Point","coordinates":[-123.158059,39.166837]}},{"properties":{"city":"Louisville","zip":"40245","geo_score":1.0,"id":"a62usgmzfhli","geo_precision":"zip","state":"KY"},"type":"Feature","geometry":{"type":"Point","coordinates":[-85.475021,38.258384]}},{"properties":{"city":"San Mateo","zip":"90233","geo_score":0.857,"id":"a62usgp22vqc","geo_precision":"zip","state":"CA"},"type":"Feature","geometry":{"type":"Point","coordinates":[-118.298662,33.786594]}},{"properties":{"city":"Kaneohe","zip":"96744","geo_score":0.898,"id":"a62usgppigzy","geo_precision":"zip","state":"HI"},"type":"Feature","geometry":{"type":"Point","coordinates":[-157.855,21.500556]}},{"properties":{"city":null,"zip":"90233","geo_score":0.714,"id":"a62usghuzpcy","geo_precision":"zip","state":null},"type":"Feature","geometry":{"type":"Point","coordinates":[-118.298662,33.786594]}},{"properties":{"city":"Ewa Beach","zip":"96706","geo_score":0.879,"id":"a62usgredxxi","geo_precision":"zip","state":"HI"},"type":"Feature","geometry":{"type":"Point","coordinates":[-158.045833,21.336944]}}],"is_temporal":false,"author":{"url":"","metadata":"","contact_name":"","contact_address":"","source":"","contact_phone":""},"source":"","pagination":{"sort":null,"start":0,"total":44,"limit":1000000},"state":"complete","tags":"","published":"2014-08-13T05:24:41-04:00","id":124935}