{"type":"FeatureCollection","data_type":"Dataset","url_type":null,"permissions":[{"permissions":{"download":true,"view":true},"group_id":"everyone"}],"classification":null,"title":"ABG","count":785,"stream_id":125414,"contributor":{"url":"http://geocommons.com/users/28464","name":"lukedemase"},"data_attributes":null,"calculation_params":null,"icon_link":null,"link":"http://geocommons.com/overlays/125414.json","extent":[140.333,-38.8431,153.559,38.3465],"geometry_types":["point"],"unique_name":null,"name":"ABG","feature_count":785,"description":"","next_feature":null,"is_raster":false,"short_classification":"Y","stats":{"type":{"max":1,"mean":1.0,"variance":0.0,"stdev":0.0,"min":1,"median":1},"lng":{"max":153.558672,"mean":149.408315537707,"variance":11.1363219709887,"stdev":3.33711281963747,"min":140.3335,"median":150.489166},"lat":{"max":38.3465,"mean":-29.6406109801656,"variance":42.6333690523021,"stdev":6.52942333229375,"min":-38.8431,"median":-29.924833}},"features":[{"properties":{"type":1,"client":"SkyMesh","lng":151.468195,"id":"a6my0dsvmto0","lat":-33.134696,"state":"NSW"},"type":"Feature","geometry":{"type":"Point","coordinates":[151.468195,-33.134696]}},{"properties":{"type":1,"client":"SkyMesh","lng":147.907046,"id":"a6my0dp3gd9v","lat":-35.055354,"state":"NSW"},"type":"Feature","geometry":{"type":"Point","coordinates":[147.907046,-35.055354]}},{"properties":{"type":1,"client":"SkyMesh","lng":147.2283,"id":"a6my0dp8hbjd","lat":-35.3661,"state":"NSW"},"type":"Feature","geometry":{"type":"Point","coordinates":[147.2283,-35.3661]}},{"properties":{"type":1,"client":"SkyMesh","lng":152.246,"id":"a6my0duhma77","lat":-28.432,"state":"NSW"},"type":"Feature","geometry":{"type":"Point","coordinates":[152.246,-28.432]}},{"properties":{"type":1,"client":"SkyMesh","lng":152.1256,"id":"a6my0dk546jq","lat":-32.4291,"state":"NSW"},"type":"Feature","geometry":{"type":"Point","coordinates":[152.1256,-32.4291]}},{"properties":{"type":1,"client":"Westnet","lng":152.084595,"id":"a6my0ds5pvst","lat":-31.761409,"state":"NSW"},"type":"Feature","geometry":{"type":"Point","coordinates":[152.084595,-31.761409]}},{"properties":{"type":1,"client":"Westnet","lng":151.523048,"id":"a6my0dtm3z10","lat":-32.346788,"state":"NSW"},"type":"Feature","geometry":{"type":"Point","coordinates":[151.523048,-32.346788]}},{"properties":{"type":1,"client":"SkyMesh","lng":149.85909,"id":"a6my0dg2brhd","lat":-32.660122,"state":"NSW"},"type":"Feature","geometry":{"type":"Point","coordinates":[149.85909,-32.660122]}},{"properties":{"type":1,"client":"SkyMesh","lng":150.6275,"id":"a6my0dmpfbza","lat":-32.9646,"state":"NSW"},"type":"Feature","geometry":{"type":"Point","coordinates":[150.6275,-32.9646]}},{"properties":{"type":1,"client":"SkyMesh","lng":149.979923,"id":"a6my0douf24n","lat":-36.420001,"state":"NSW"},"type":"Feature","geometry":{"type":"Point","coordinates":[149.979923,-36.420001]}},{"properties":{"type":1,"client":"SkyMesh","lng":148.9541,"id":"a6my0din7zey","lat":-33.959,"state":"NSW"},"type":"Feature","geometry":{"type":"Point","coordinates":[148.9541,-33.959]}},{"properties":{"type":1,"client":"SkyMesh","lng":152.8243,"id":"a6my0dgr67un","lat":-31.4865,"state":"NSW"},"type":"Feature","geometry":{"type":"Point","coordinates":[152.8243,-31.4865]}},{"properties":{"type":1,"client":"Westnet","lng":149.779737,"id":"a6my0dnh2y5i","lat":-33.112454,"state":"NSW"},"type":"Feature","geometry":{"type":"Point","coordinates":[149.779737,-33.112454]}},{"properties":{"type":1,"client":"Westnet","lng":152.75062,"id":"a6my0dsppyuw","lat":-31.119046,"state":"NSW"},"type":"Feature","geometry":{"type":"Point","coordinates":[152.75062,-31.119046]}},{"properties":{"type":1,"client":"SkyMesh","lng":152.5978,"id":"a6my0dllxj28","lat":-30.9892,"state":"NSW"},"type":"Feature","geometry":{"type":"Point","coordinates":[152.5978,-30.9892]}},{"properties":{"type":1,"client":"SkyMesh","lng":153.255461,"id":"a6my0dp5zsxk","lat":-28.703572,"state":"NSW"},"type":"Feature","geometry":{"type":"Point","coordinates":[153.255461,-28.703572]}},{"properties":{"type":1,"client":"SkyMesh","lng":152.524768,"id":"a6my0dp3078v","lat":-31.963942,"state":"NSW"},"type":"Feature","geometry":{"type":"Point","coordinates":[152.524768,-31.963942]}},{"properties":{"type":1,"client":"SkyMesh","lng":151.4077694,"id":"a6my0dh8geeg","lat":-33.3445079,"state":"NSW"},"type":"Feature","geometry":{"type":"Point","coordinates":[151.4077694,-33.3445079]}},{"properties":{"type":1,"client":"SkyMesh","lng":149.7937901,"id":"a6my0dugqnjl","lat":-35.61640126,"state":"NSW"},"type":"Feature","geometry":{"type":"Point","coordinates":[149.7937901,-35.61640126]}},{"properties":{"type":1,"client":"SkyMesh","lng":152.585619,"id":"a6my0dublblh","lat":-31.322322,"state":"NSW"},"type":"Feature","geometry":{"type":"Point","coordinates":[152.585619,-31.322322]}},{"properties":{"type":1,"client":"SkyMesh","lng":143.3315,"id":"a6my0dteuk8f","lat":-34.9575,"state":"NSW"},"type":"Feature","geometry":{"type":"Point","coordinates":[143.3315,-34.9575]}},{"properties":{"type":1,"client":"SkyMesh","lng":151.431579,"id":"a6my0dqhsi0v","lat":-32.449019,"state":"NSW"},"type":"Feature","geometry":{"type":"Point","coordinates":[151.431579,-32.449019]}},{"properties":{"type":1,"client":"SkyMesh","lng":151.4233697,"id":"a6my0ds7lgwf","lat":-33.11063665,"state":"NSW"},"type":"Feature","geometry":{"type":"Point","coordinates":[151.4233697,-33.11063665]}},{"properties":{"type":1,"client":"SkyMesh","lng":152.936162,"id":"a6my0dqkecuh","lat":-29.924833,"state":"NSW"},"type":"Feature","geometry":{"type":"Point","coordinates":[152.936162,-29.924833]}},{"properties":{"type":1,"client":"SkyMesh","lng":144.6241,"id":"a6my0dgd0s47","lat":-32.8305,"state":"NSW"},"type":"Feature","geometry":{"type":"Point","coordinates":[144.6241,-32.8305]}},{"properties":{"type":1,"client":"SkyMesh","lng":151.104732,"id":"a6my0dm3ovme","lat":-29.876879,"state":"NSW"},"type":"Feature","geometry":{"type":"Point","coordinates":[151.104732,-29.876879]}},{"properties":{"type":1,"client":"SkyMesh","lng":149.8594,"id":"a6my0dqzywka","lat":-32.3151,"state":"NSW"},"type":"Feature","geometry":{"type":"Point","coordinates":[149.8594,-32.3151]}},{"properties":{"type":1,"client":"SkyMesh","lng":151.321,"id":"a6my0dojxxnf","lat":-29.9257,"state":"NSW"},"type":"Feature","geometry":{"type":"Point","coordinates":[151.321,-29.9257]}},{"properties":{"type":1,"client":"SkyMesh","lng":152.4716,"id":"a6my0dqdyx7p","lat":-28.8268,"state":"NSW"},"type":"Feature","geometry":{"type":"Point","coordinates":[152.4716,-28.8268]}},{"properties":{"type":1,"client":"SkyMesh","lng":153.068956,"id":"a6my0dracm0n","lat":-28.638692,"state":"NSW"},"type":"Feature","geometry":{"type":"Point","coordinates":[153.068956,-28.638692]}},{"properties":{"type":1,"client":"SkyMesh","lng":153.077006,"id":"a6my0dnv263d","lat":-28.753336,"state":"NSW"},"type":"Feature","geometry":{"type":"Point","coordinates":[153.077006,-28.753336]}},{"properties":{"type":1,"client":"Westnet","lng":149.710777,"id":"a6my0dkiuutn","lat":-33.330472,"state":"NSW"},"type":"Feature","geometry":{"type":"Point","coordinates":[149.710777,-33.330472]}},{"properties":{"type":1,"client":"Westnet","lng":150.6278,"id":"a6my0dgafshr","lat":-34.9021,"state":"NSW"},"type":"Feature","geometry":{"type":"Point","coordinates":[150.6278,-34.9021]}},{"properties":{"type":1,"client":"Clear Networks","lng":152.5094,"id":"a6my0dgkwbud","lat":-30.9848,"state":"NSW"},"type":"Feature","geometry":{"type":"Point","coordinates":[152.5094,-30.9848]}},{"properties":{"type":1,"client":"Clear Networks","lng":151.0812,"id":"a6my0dkfgbuz","lat":-32.1269,"state":"NSW"},"type":"Feature","geometry":{"type":"Point","coordinates":[151.0812,-32.1269]}},{"properties":{"type":1,"client":"Westnet","lng":145.0063,"id":"a6my0dlb0u6t","lat":-29.8361,"state":"NSW"},"type":"Feature","geometry":{"type":"Point","coordinates":[145.0063,-29.8361]}},{"properties":{"type":1,"client":"SkyMesh","lng":150.760309,"id":"a6my0dubidux","lat":-30.740833,"state":"NSW"},"type":"Feature","geometry":{"type":"Point","coordinates":[150.760309,-30.740833]}},{"properties":{"type":1,"client":"Clear Networks","lng":151.5854,"id":"a6my0dp2dilh","lat":-29.9132,"state":"NSW"},"type":"Feature","geometry":{"type":"Point","coordinates":[151.5854,-29.9132]}},{"properties":{"type":1,"client":"SkyMesh","lng":152.978959,"id":"a6my0dspor7i","lat":-30.000111,"state":"NSW"},"type":"Feature","geometry":{"type":"Point","coordinates":[152.978959,-30.000111]}},{"properties":{"type":1,"client":"SkyMesh","lng":150.8799,"id":"a6my0dked604","lat":-33.4613,"state":"NSW"},"type":"Feature","geometry":{"type":"Point","coordinates":[150.8799,-33.4613]}},{"properties":{"type":1,"client":"SkyMesh","lng":153.014359,"id":"a6my0dltl22p","lat":-28.963917,"state":"NSW"},"type":"Feature","geometry":{"type":"Point","coordinates":[153.014359,-28.963917]}},{"properties":{"type":1,"client":"SkyMesh","lng":153.043308,"id":"a6my0dug4na5","lat":-30.43706,"state":"NSW"},"type":"Feature","geometry":{"type":"Point","coordinates":[153.043308,-30.43706]}},{"properties":{"type":1,"client":"SkyMesh","lng":148.9071,"id":"a6my0dledabk","lat":-36.1913,"state":"NSW"},"type":"Feature","geometry":{"type":"Point","coordinates":[148.9071,-36.1913]}},{"properties":{"type":1,"client":"SkyMesh","lng":153.152299,"id":"a6my0dqwmiad","lat":-28.660473,"state":"NSW"},"type":"Feature","geometry":{"type":"Point","coordinates":[153.152299,-28.660473]}},{"properties":{"type":1,"client":"SkyMesh","lng":152.215092,"id":"a6my0drp6hws","lat":-31.713084,"state":"NSW"},"type":"Feature","geometry":{"type":"Point","coordinates":[152.215092,-31.713084]}},{"properties":{"type":1,"client":"SkyMesh","lng":152.270071,"id":"a6my0dfq2llm","lat":-31.704004,"state":"NSW"},"type":"Feature","geometry":{"type":"Point","coordinates":[152.270071,-31.704004]}},{"properties":{"type":1,"client":"Westnet","lng":148.796381,"id":"a6my0di39gtc","lat":-36.434864,"state":"NSW"},"type":"Feature","geometry":{"type":"Point","coordinates":[148.796381,-36.434864]}},{"properties":{"type":1,"client":"SkyMesh","lng":152.43399,"id":"a6my0dev3dhl","lat":-31.288961,"state":"NSW"},"type":"Feature","geometry":{"type":"Point","coordinates":[152.43399,-31.288961]}},{"properties":{"type":1,"client":"SkyMesh","lng":150.524185,"id":"a6my0dppdkpr","lat":-34.304041,"state":"NSW"},"type":"Feature","geometry":{"type":"Point","coordinates":[150.524185,-34.304041]}},{"properties":{"type":1,"client":"SkyMesh","lng":149.1142,"id":"a6my0dkbl84m","lat":-33.433,"state":"NSW"},"type":"Feature","geometry":{"type":"Point","coordinates":[149.1142,-33.433]}},{"properties":{"type":1,"client":"SkyMesh","lng":152.819114,"id":"a6my0doicuvd","lat":-30.58125,"state":"NSW"},"type":"Feature","geometry":{"type":"Point","coordinates":[152.819114,-30.58125]}},{"properties":{"type":1,"client":"SkyMesh","lng":149.4606,"id":"a6my0ded4m70","lat":-35.8491,"state":"NSW"},"type":"Feature","geometry":{"type":"Point","coordinates":[149.4606,-35.8491]}},{"properties":{"type":1,"client":"SkyMesh","lng":150.73662,"id":"a6my0dkumajg","lat":-34.592287,"state":"NSW"},"type":"Feature","geometry":{"type":"Point","coordinates":[150.73662,-34.592287]}},{"properties":{"type":1,"client":"SkyMesh","lng":149.176533,"id":"a6my0dmm19z7","lat":-32.312202,"state":"NSW"},"type":"Feature","geometry":{"type":"Point","coordinates":[149.176533,-32.312202]}},{"properties":{"type":1,"client":"SkyMesh","lng":152.600909,"id":"a6my0dl0hin6","lat":-31.900742,"state":"NSW"},"type":"Feature","geometry":{"type":"Point","coordinates":[152.600909,-31.900742]}},{"properties":{"type":1,"client":"SkyMesh","lng":152.946573,"id":"a6my0dr9m6d3","lat":-29.79147,"state":"NSW"},"type":"Feature","geometry":{"type":"Point","coordinates":[152.946573,-29.79147]}},{"properties":{"type":1,"client":"SkyMesh","lng":149.343014,"id":"a6my0doqyoqw","lat":-36.173012,"state":"NSW"},"type":"Feature","geometry":{"type":"Point","coordinates":[149.343014,-36.173012]}},{"properties":{"type":1,"client":"SkyMesh","lng":150.517228,"id":"a6my0drakgxs","lat":-35.071699,"state":"NSW"},"type":"Feature","geometry":{"type":"Point","coordinates":[150.517228,-35.071699]}},{"properties":{"type":1,"client":"SkyMesh","lng":149.55974,"id":"a6my0dpjta31","lat":-33.689708,"state":"NSW"},"type":"Feature","geometry":{"type":"Point","coordinates":[149.55974,-33.689708]}},{"properties":{"type":1,"client":"SkyMesh","lng":151.692,"id":"a6my0drpehz1","lat":-29.315,"state":"NSW"},"type":"Feature","geometry":{"type":"Point","coordinates":[151.692,-29.315]}},{"properties":{"type":1,"client":"SkyMesh","lng":150.5063,"id":"a6my0djrja2w","lat":-35.093,"state":"NSW"},"type":"Feature","geometry":{"type":"Point","coordinates":[150.5063,-35.093]}},{"properties":{"type":1,"client":"SkyMesh","lng":152.8408,"id":"a6my0dogii68","lat":-29.5731,"state":"NSW"},"type":"Feature","geometry":{"type":"Point","coordinates":[152.8408,-29.5731]}},{"properties":{"type":1,"client":"SkyMesh","lng":151.0833,"id":"a6my0do9scoq","lat":-33.3292,"state":"NSW"},"type":"Feature","geometry":{"type":"Point","coordinates":[151.0833,-33.3292]}},{"properties":{"type":1,"client":"SkyMesh","lng":148.553494,"id":"a6my0dtj5hi1","lat":-34.311569,"state":"NSW"},"type":"Feature","geometry":{"type":"Point","coordinates":[148.553494,-34.311569]}},{"properties":{"type":1,"client":"SkyMesh","lng":152.269197,"id":"a6my0do40cvb","lat":-28.902397,"state":"NSW"},"type":"Feature","geometry":{"type":"Point","coordinates":[152.269197,-28.902397]}},{"properties":{"type":1,"client":"SkyMesh","lng":149.91712,"id":"a6my0doumd2c","lat":-32.497808,"state":"NSW"},"type":"Feature","geometry":{"type":"Point","coordinates":[149.91712,-32.497808]}},{"properties":{"type":1,"client":"SkyMesh","lng":153.26206,"id":"a6my0dghmw81","lat":-28.735915,"state":"NSW"},"type":"Feature","geometry":{"type":"Point","coordinates":[153.26206,-28.735915]}},{"properties":{"type":1,"client":"SkyMesh","lng":150.692645,"id":"a6my0di4yywp","lat":-35.102588,"state":"NSW"},"type":"Feature","geometry":{"type":"Point","coordinates":[150.692645,-35.102588]}},{"properties":{"type":1,"client":"SkyMesh","lng":152.169515,"id":"a6my0dimecgc","lat":-30.291966,"state":"NSW"},"type":"Feature","geometry":{"type":"Point","coordinates":[152.169515,-30.291966]}},{"properties":{"type":1,"client":"SkyMesh","lng":149.9491366,"id":"a6my0dq8nbid","lat":-36.63084444,"state":"NSW"},"type":"Feature","geometry":{"type":"Point","coordinates":[149.9491366,-36.63084444]}},{"properties":{"type":1,"client":"SkyMesh","lng":149.031,"id":"a6my0dt4z5de","lat":-36.903,"state":"NSW"},"type":"Feature","geometry":{"type":"Point","coordinates":[149.031,-36.903]}},{"properties":{"type":1,"client":"SkyMesh","lng":149.014975,"id":"a6my0dotpxct","lat":-34.126973,"state":"NSW"},"type":"Feature","geometry":{"type":"Point","coordinates":[149.014975,-34.126973]}},{"properties":{"type":1,"client":"SkyMesh","lng":149.289995,"id":"a6my0diggnxd","lat":-32.389855,"state":"NSW"},"type":"Feature","geometry":{"type":"Point","coordinates":[149.289995,-32.389855]}},{"properties":{"type":1,"client":"SkyMesh","lng":152.7433,"id":"a6my0dgm0wsq","lat":-30.7114,"state":"NSW"},"type":"Feature","geometry":{"type":"Point","coordinates":[152.7433,-30.7114]}},{"properties":{"type":1,"client":"SkyMesh","lng":149.5975,"id":"a6my0dhn26uu","lat":-35.881,"state":"NSW"},"type":"Feature","geometry":{"type":"Point","coordinates":[149.5975,-35.881]}},{"properties":{"type":1,"client":"SkyMesh","lng":149.1841,"id":"a6my0dex4i59","lat":-36.3848,"state":"NSW"},"type":"Feature","geometry":{"type":"Point","coordinates":[149.1841,-36.3848]}},{"properties":{"type":1,"client":"SkyMesh","lng":151.3746,"id":"a6my0dsdh8jt","lat":-33.406,"state":"NSW"},"type":"Feature","geometry":{"type":"Point","coordinates":[151.3746,-33.406]}},{"properties":{"type":1,"client":"SkyMesh","lng":150.434348,"id":"a6my0dlvuww7","lat":-35.391077,"state":"NSW"},"type":"Feature","geometry":{"type":"Point","coordinates":[150.434348,-35.391077]}},{"properties":{"type":1,"client":"SkyMesh","lng":150.692,"id":"a6my0dl4njq8","lat":-35.1006,"state":"NSW"},"type":"Feature","geometry":{"type":"Point","coordinates":[150.692,-35.1006]}},{"properties":{"type":1,"client":"SkyMesh","lng":152.729714,"id":"a6my0dtylu24","lat":-31.457993,"state":"NSW"},"type":"Feature","geometry":{"type":"Point","coordinates":[152.729714,-31.457993]}},{"properties":{"type":1,"client":"Westnet","lng":149.81,"id":"a6my0dtoj3db","lat":-37.24,"state":"NSW"},"type":"Feature","geometry":{"type":"Point","coordinates":[149.81,-37.24]}},{"properties":{"type":1,"client":"SkyMesh","lng":152.860449,"id":"a6my0du2m8uo","lat":-28.823606,"state":"NSW"},"type":"Feature","geometry":{"type":"Point","coordinates":[152.860449,-28.823606]}},{"properties":{"type":1,"client":"SkyMesh","lng":150.8529,"id":"a6my0dheiqdh","lat":-32.8443,"state":"NSW"},"type":"Feature","geometry":{"type":"Point","coordinates":[150.8529,-32.8443]}},{"properties":{"type":1,"client":"SkyMesh","lng":150.729675,"id":"a6my0dj9bl2d","lat":-33.367742,"state":"NSW"},"type":"Feature","geometry":{"type":"Point","coordinates":[150.729675,-33.367742]}},{"properties":{"type":1,"client":"SkyMesh","lng":149.608,"id":"a6my0diuie50","lat":-34.4083,"state":"NSW"},"type":"Feature","geometry":{"type":"Point","coordinates":[149.608,-34.4083]}},{"properties":{"type":1,"client":"SkyMesh","lng":152.7534,"id":"a6my0djtztr6","lat":-30.9543,"state":"NSW"},"type":"Feature","geometry":{"type":"Point","coordinates":[152.7534,-30.9543]}},{"properties":{"type":1,"client":"SkyMesh","lng":151.6223,"id":"a6my0dosq7k6","lat":-32.6045,"state":"NSW"},"type":"Feature","geometry":{"type":"Point","coordinates":[151.6223,-32.6045]}},{"properties":{"type":1,"client":"SkyMesh","lng":148.0211,"id":"a6my0dkeiegr","lat":-35.0249,"state":"NSW"},"type":"Feature","geometry":{"type":"Point","coordinates":[148.0211,-35.0249]}},{"properties":{"type":1,"client":"SkyMesh","lng":152.603678,"id":"a6my0drry44p","lat":-30.910136,"state":"NSW"},"type":"Feature","geometry":{"type":"Point","coordinates":[152.603678,-30.910136]}},{"properties":{"type":1,"client":"SkyMesh","lng":153.2683,"id":"a6my0dra7g7v","lat":-28.9328,"state":"NSW"},"type":"Feature","geometry":{"type":"Point","coordinates":[153.2683,-28.9328]}},{"properties":{"type":1,"client":"SkyMesh","lng":152.738,"id":"a6my0dr0o46e","lat":-30.686,"state":"NSW"},"type":"Feature","geometry":{"type":"Point","coordinates":[152.738,-30.686]}},{"properties":{"type":1,"client":"SkyMesh","lng":153.3994,"id":"a6my0dtqamxf","lat":-28.5977,"state":"NSW"},"type":"Feature","geometry":{"type":"Point","coordinates":[153.3994,-28.5977]}},{"properties":{"type":1,"client":"SkyMesh","lng":149.7677,"id":"a6my0dpasuht","lat":-36.7229,"state":"NSW"},"type":"Feature","geometry":{"type":"Point","coordinates":[149.7677,-36.7229]}},{"properties":{"type":1,"client":"SkyMesh","lng":153.345357,"id":"a6my0dljv8ry","lat":-28.548171,"state":"NSW"},"type":"Feature","geometry":{"type":"Point","coordinates":[153.345357,-28.548171]}},{"properties":{"type":1,"client":"SkyMesh","lng":149.4935,"id":"a6my0dh8fk6a","lat":-32.6579,"state":"NSW"},"type":"Feature","geometry":{"type":"Point","coordinates":[149.4935,-32.6579]}},{"properties":{"type":1,"client":"SkyMesh","lng":151.5458,"id":"a6my0dq1rl67","lat":-32.2908,"state":"NSW"},"type":"Feature","geometry":{"type":"Point","coordinates":[151.5458,-32.2908]}},{"properties":{"type":1,"client":"SkyMesh","lng":149.5574,"id":"a6my0djke0nn","lat":-36.9579,"state":"NSW"},"type":"Feature","geometry":{"type":"Point","coordinates":[149.5574,-36.9579]}},{"properties":{"type":1,"client":"SkyMesh","lng":150.607267,"id":"a6my0dk3zcld","lat":-34.836286,"state":"NSW"},"type":"Feature","geometry":{"type":"Point","coordinates":[150.607267,-34.836286]}},{"properties":{"type":1,"client":"SkyMesh","lng":150.358,"id":"a6my0dmk8fdu","lat":-32.033,"state":"NSW"},"type":"Feature","geometry":{"type":"Point","coordinates":[150.358,-32.033]}},{"properties":{"type":1,"client":"SkyMesh","lng":149.8083,"id":"a6my0dgq7llu","lat":-33.5329,"state":"NSW"},"type":"Feature","geometry":{"type":"Point","coordinates":[149.8083,-33.5329]}},{"properties":{"type":1,"client":"SkyMesh","lng":151.260979,"id":"a6my0dmdb1cw","lat":-30.436174,"state":"NSW"},"type":"Feature","geometry":{"type":"Point","coordinates":[151.260979,-30.436174]}},{"properties":{"type":1,"client":"SkyMesh","lng":151.6945357,"id":"a6my0dkk27qd","lat":-30.8562257,"state":"NSW"},"type":"Feature","geometry":{"type":"Point","coordinates":[151.6945357,-30.8562257]}},{"properties":{"type":1,"client":"SkyMesh","lng":153.445723,"id":"a6my0dt3t4iq","lat":-28.895382,"state":"NSW"},"type":"Feature","geometry":{"type":"Point","coordinates":[153.445723,-28.895382]}},{"properties":{"type":1,"client":"SkyMesh","lng":148.50168,"id":"a6my0dr1r8at","lat":-36.640443,"state":"NSW"},"type":"Feature","geometry":{"type":"Point","coordinates":[148.50168,-36.640443]}},{"properties":{"type":1,"client":"Clear Networks","lng":152.8827,"id":"a6my0dh6zxif","lat":-28.4039,"state":"NSW"},"type":"Feature","geometry":{"type":"Point","coordinates":[152.8827,-28.4039]}},{"properties":{"type":1,"client":"SkyMesh","lng":147.0365,"id":"a6my0dqacgfj","lat":-31.1673,"state":"NSW"},"type":"Feature","geometry":{"type":"Point","coordinates":[147.0365,-31.1673]}},{"properties":{"type":1,"client":"SkyMesh","lng":151.6708,"id":"a6my0dhju5z2","lat":-29.0404,"state":"NSW"},"type":"Feature","geometry":{"type":"Point","coordinates":[151.6708,-29.0404]}},{"properties":{"type":1,"client":"SkyMesh","lng":153.1893,"id":"a6my0dmtshqs","lat":-28.5269,"state":"NSW"},"type":"Feature","geometry":{"type":"Point","coordinates":[153.1893,-28.5269]}},{"properties":{"type":1,"client":"Westnet","lng":150.13,"id":"a6my0dsquzgb","lat":-33.28,"state":"NSW"},"type":"Feature","geometry":{"type":"Point","coordinates":[150.13,-33.28]}},{"properties":{"type":1,"client":"Westnet","lng":149.477874,"id":"a6my0dpjhhq1","lat":-34.98607,"state":"NSW"},"type":"Feature","geometry":{"type":"Point","coordinates":[149.477874,-34.98607]}},{"properties":{"type":1,"client":"Westnet","lng":150.015281,"id":"a6my0dsjxgwo","lat":-31.082851,"state":"NSW"},"type":"Feature","geometry":{"type":"Point","coordinates":[150.015281,-31.082851]}},{"properties":{"type":1,"client":"Westnet","lng":151.679519,"id":"a6my0dszsbft","lat":-31.913016,"state":"NSW"},"type":"Feature","geometry":{"type":"Point","coordinates":[151.679519,-31.913016]}},{"properties":{"type":1,"client":"SkyMesh","lng":153.497265,"id":"a6my0dku08dq","lat":-28.681154,"state":"NSW"},"type":"Feature","geometry":{"type":"Point","coordinates":[153.497265,-28.681154]}},{"properties":{"type":1,"client":"SkyMesh","lng":149.380837,"id":"a6my0di6uuls","lat":-32.279643,"state":"NSW"},"type":"Feature","geometry":{"type":"Point","coordinates":[149.380837,-32.279643]}},{"properties":{"type":1,"client":"SkyMesh","lng":152.8297,"id":"a6my0dth91hy","lat":-29.5519,"state":"NSW"},"type":"Feature","geometry":{"type":"Point","coordinates":[152.8297,-29.5519]}},{"properties":{"type":1,"client":"SkyMesh","lng":151.8443,"id":"a6my0dgkjfpp","lat":-32.5019,"state":"NSW"},"type":"Feature","geometry":{"type":"Point","coordinates":[151.8443,-32.5019]}},{"properties":{"type":1,"client":"SkyMesh","lng":148.99329,"id":"a6my0dofyboo","lat":-34.392515,"state":"NSW"},"type":"Feature","geometry":{"type":"Point","coordinates":[148.99329,-34.392515]}},{"properties":{"type":1,"client":"SkyMesh","lng":149.700225,"id":"a6my0dkuj0t9","lat":-32.352766,"state":"NSW"},"type":"Feature","geometry":{"type":"Point","coordinates":[149.700225,-32.352766]}},{"properties":{"type":1,"client":"SkyMesh","lng":151.123397,"id":"a6my0denhv7q","lat":-29.234635,"state":"NSW"},"type":"Feature","geometry":{"type":"Point","coordinates":[151.123397,-29.234635]}},{"properties":{"type":1,"client":"SkyMesh","lng":152.457573,"id":"a6my0dgzwqzn","lat":-32.281855,"state":"NSW"},"type":"Feature","geometry":{"type":"Point","coordinates":[152.457573,-32.281855]}},{"properties":{"type":1,"client":"SkyMesh","lng":152.9468,"id":"a6my0de5m5jz","lat":-30.1139,"state":"NSW"},"type":"Feature","geometry":{"type":"Point","coordinates":[152.9468,-30.1139]}},{"properties":{"type":1,"client":"SkyMesh","lng":152.805476,"id":"a6my0dl7oh8f","lat":-30.56671,"state":"NSW"},"type":"Feature","geometry":{"type":"Point","coordinates":[152.805476,-30.56671]}},{"properties":{"type":1,"client":"SkyMesh","lng":151.351,"id":"a6my0du0v2lu","lat":-32.4547,"state":"NSW"},"type":"Feature","geometry":{"type":"Point","coordinates":[151.351,-32.4547]}},{"properties":{"type":1,"client":"SkyMesh","lng":149.4873,"id":"a6my0donoopj","lat":-32.6802,"state":"NSW"},"type":"Feature","geometry":{"type":"Point","coordinates":[149.4873,-32.6802]}},{"properties":{"type":1,"client":"SkyMesh","lng":150.034109,"id":"a6my0dm4a9t8","lat":-33.634508,"state":"NSW"},"type":"Feature","geometry":{"type":"Point","coordinates":[150.034109,-33.634508]}},{"properties":{"type":1,"client":"SkyMesh","lng":149.8278,"id":"a6my0deh5m2w","lat":-31.7686,"state":"NSW"},"type":"Feature","geometry":{"type":"Point","coordinates":[149.8278,-31.7686]}},{"properties":{"type":1,"client":"SkyMesh","lng":147.5273,"id":"a6my0dtqhrjo","lat":-34.9528,"state":"NSW"},"type":"Feature","geometry":{"type":"Point","coordinates":[147.5273,-34.9528]}},{"properties":{"type":1,"client":"SkyMesh","lng":151.423884,"id":"a6my0dqfdymb","lat":-33.406873,"state":"NSW"},"type":"Feature","geometry":{"type":"Point","coordinates":[151.423884,-33.406873]}},{"properties":{"type":1,"client":"SkyMesh","lng":152.2285,"id":"a6my0dipnn2l","lat":-31.6968,"state":"NSW"},"type":"Feature","geometry":{"type":"Point","coordinates":[152.2285,-31.6968]}},{"properties":{"type":1,"client":"SkyMesh","lng":148.779461,"id":"a6my0dmmgr1i","lat":-32.668381,"state":"NSW"},"type":"Feature","geometry":{"type":"Point","coordinates":[148.779461,-32.668381]}},{"properties":{"type":1,"client":"SkyMesh","lng":149.6934867,"id":"a6my0dkhxu1s","lat":-37.08613358,"state":"NSW"},"type":"Feature","geometry":{"type":"Point","coordinates":[149.6934867,-37.08613358]}},{"properties":{"type":1,"client":"SkyMesh","lng":148.8501,"id":"a6my0dngww2d","lat":-35.1739,"state":"NSW"},"type":"Feature","geometry":{"type":"Point","coordinates":[148.8501,-35.1739]}},{"properties":{"type":1,"client":"SkyMesh","lng":151.7671,"id":"a6my0dj9ejl8","lat":-32.7441,"state":"NSW"},"type":"Feature","geometry":{"type":"Point","coordinates":[151.7671,-32.7441]}},{"properties":{"type":1,"client":"SkyMesh","lng":152.6855,"id":"a6my0dftp6t3","lat":-31.0534,"state":"NSW"},"type":"Feature","geometry":{"type":"Point","coordinates":[152.6855,-31.0534]}},{"properties":{"type":1,"client":"SkyMesh","lng":150.8985,"id":"a6my0dgiix4y","lat":-34.0153,"state":"NSW"},"type":"Feature","geometry":{"type":"Point","coordinates":[150.8985,-34.0153]}},{"properties":{"type":1,"client":"SkyMesh","lng":146.4394,"id":"a6my0dr7iw4n","lat":-33.9718,"state":"NSW"},"type":"Feature","geometry":{"type":"Point","coordinates":[146.4394,-33.9718]}},{"properties":{"type":1,"client":"SkyMesh","lng":152.684,"id":"a6my0dsdwyc8","lat":-31.2104,"state":"NSW"},"type":"Feature","geometry":{"type":"Point","coordinates":[152.684,-31.2104]}},{"properties":{"type":1,"client":"SkyMesh","lng":147.3697,"id":"a6my0dhp0kmn","lat":-34.6381,"state":"NSW"},"type":"Feature","geometry":{"type":"Point","coordinates":[147.3697,-34.6381]}},{"properties":{"type":1,"client":"SkyMesh","lng":152.6424158,"id":"a6my0dsupssh","lat":-30.93676308,"state":"NSW"},"type":"Feature","geometry":{"type":"Point","coordinates":[152.6424158,-30.93676308]}},{"properties":{"type":1,"client":"SkyMesh","lng":149.740671,"id":"a6my0dtlbpbx","lat":-36.782477,"state":"NSW"},"type":"Feature","geometry":{"type":"Point","coordinates":[149.740671,-36.782477]}},{"properties":{"type":1,"client":"SkyMesh","lng":149.700507,"id":"a6my0dr73zei","lat":-37.08737,"state":"NSW"},"type":"Feature","geometry":{"type":"Point","coordinates":[149.700507,-37.08737]}},{"properties":{"type":1,"client":"SkyMesh","lng":151.952347,"id":"a6my0di62lvq","lat":-30.388543,"state":"NSW"},"type":"Feature","geometry":{"type":"Point","coordinates":[151.952347,-30.388543]}},{"properties":{"type":1,"client":"SkyMesh","lng":152.659044,"id":"a6my0djyggyq","lat":-31.241384,"state":"NSW"},"type":"Feature","geometry":{"type":"Point","coordinates":[152.659044,-31.241384]}},{"properties":{"type":1,"client":"SkyMesh","lng":149.105283,"id":"a6my0dlftonz","lat":-32.93341,"state":"NSW"},"type":"Feature","geometry":{"type":"Point","coordinates":[149.105283,-32.93341]}},{"properties":{"type":1,"client":"SkyMesh","lng":152.567417,"id":"a6my0du8ww5c","lat":-30.986512,"state":"NSW"},"type":"Feature","geometry":{"type":"Point","coordinates":[152.567417,-30.986512]}},{"properties":{"type":1,"client":"SkyMesh","lng":151.954622,"id":"a6my0dfoy6pr","lat":-32.710432,"state":"NSW"},"type":"Feature","geometry":{"type":"Point","coordinates":[151.954622,-32.710432]}},{"properties":{"type":1,"client":"SkyMesh","lng":151.36684,"id":"a6my0djmjr8a","lat":-32.758125,"state":"NSW"},"type":"Feature","geometry":{"type":"Point","coordinates":[151.36684,-32.758125]}},{"properties":{"type":1,"client":"SkyMesh","lng":151.373734,"id":"a6my0dg5jbvm","lat":-33.406176,"state":"NSW"},"type":"Feature","geometry":{"type":"Point","coordinates":[151.373734,-33.406176]}},{"properties":{"type":1,"client":"SkyMesh","lng":152.0225,"id":"a6my0dflvsy6","lat":-32.5539,"state":"NSW"},"type":"Feature","geometry":{"type":"Point","coordinates":[152.0225,-32.5539]}},{"properties":{"type":1,"client":"SkyMesh","lng":149.0883,"id":"a6my0dkhub4b","lat":-33.0407,"state":"NSW"},"type":"Feature","geometry":{"type":"Point","coordinates":[149.0883,-33.0407]}},{"properties":{"type":1,"client":"SkyMesh","lng":149.0712,"id":"a6my0drclu53","lat":-36.6992,"state":"NSW"},"type":"Feature","geometry":{"type":"Point","coordinates":[149.0712,-36.6992]}},{"properties":{"type":1,"client":"SkyMesh","lng":146.6833,"id":"a6my0dpzyz70","lat":-31.5994,"state":"NSW"},"type":"Feature","geometry":{"type":"Point","coordinates":[146.6833,-31.5994]}},{"properties":{"type":1,"client":"SkyMesh","lng":150.1,"id":"a6my0dg9r2kq","lat":-32.953,"state":"NSW"},"type":"Feature","geometry":{"type":"Point","coordinates":[150.1,-32.953]}},{"properties":{"type":1,"client":"SkyMesh","lng":153.2103,"id":"a6my0dj7o7ja","lat":-28.5007,"state":"NSW"},"type":"Feature","geometry":{"type":"Point","coordinates":[153.2103,-28.5007]}},{"properties":{"type":1,"client":"SkyMesh","lng":150.756075,"id":"a6my0drycdow","lat":-34.7406,"state":"NSW"},"type":"Feature","geometry":{"type":"Point","coordinates":[150.756075,-34.7406]}},{"properties":{"type":1,"client":"SkyMesh","lng":151.869952,"id":"a6my0dlh6viy","lat":-31.826609,"state":"NSW"},"type":"Feature","geometry":{"type":"Point","coordinates":[151.869952,-31.826609]}},{"properties":{"type":1,"client":"Westnet","lng":149.803357,"id":"a6my0dqrbn4z","lat":-35.622094,"state":"NSW"},"type":"Feature","geometry":{"type":"Point","coordinates":[149.803357,-35.622094]}},{"properties":{"type":1,"client":"SkyMesh","lng":152.6966,"id":"a6my0dptr6bb","lat":-31.7297,"state":"NSW"},"type":"Feature","geometry":{"type":"Point","coordinates":[152.6966,-31.7297]}},{"properties":{"type":1,"client":"SkyMesh","lng":149.3969,"id":"a6my0dk8klf9","lat":-32.4037,"state":"NSW"},"type":"Feature","geometry":{"type":"Point","coordinates":[149.3969,-32.4037]}},{"properties":{"type":1,"client":"SkyMesh","lng":151.370782,"id":"a6my0dpa8urs","lat":-32.597582,"state":"NSW"},"type":"Feature","geometry":{"type":"Point","coordinates":[151.370782,-32.597582]}},{"properties":{"type":1,"client":"SkyMesh","lng":151.7085,"id":"a6my0dp83yf4","lat":-32.397,"state":"NSW"},"type":"Feature","geometry":{"type":"Point","coordinates":[151.7085,-32.397]}},{"properties":{"type":1,"client":"SkyMesh","lng":152.8057,"id":"a6my0dryjr7j","lat":-29.5761,"state":"NSW"},"type":"Feature","geometry":{"type":"Point","coordinates":[152.8057,-29.5761]}},{"properties":{"type":1,"client":"SkyMesh","lng":150.9941,"id":"a6my0dg7chiz","lat":-29.2171,"state":"NSW"},"type":"Feature","geometry":{"type":"Point","coordinates":[150.9941,-29.2171]}},{"properties":{"type":1,"client":"SkyMesh","lng":145.8413,"id":"a6my0dudhx3v","lat":-34.1056,"state":"NSW"},"type":"Feature","geometry":{"type":"Point","coordinates":[145.8413,-34.1056]}},{"properties":{"type":1,"client":"SkyMesh","lng":152.6038,"id":"a6my0dlshl5y","lat":-31.3829,"state":"NSW"},"type":"Feature","geometry":{"type":"Point","coordinates":[152.6038,-31.3829]}},{"properties":{"type":1,"client":"SkyMesh","lng":149.532073,"id":"a6my0dlnrqyd","lat":-32.362581,"state":"NSW"},"type":"Feature","geometry":{"type":"Point","coordinates":[149.532073,-32.362581]}},{"properties":{"type":1,"client":"SkyMesh","lng":149.728506,"id":"a6my0dj9tp4d","lat":-34.576539,"state":"NSW"},"type":"Feature","geometry":{"type":"Point","coordinates":[149.728506,-34.576539]}},{"properties":{"type":1,"client":"SkyMesh","lng":152.7464887,"id":"a6my0dki4tnu","lat":-30.95659892,"state":"NSW"},"type":"Feature","geometry":{"type":"Point","coordinates":[152.7464887,-30.95659892]}},{"properties":{"type":1,"client":"SkyMesh","lng":152.5297,"id":"a6my0dr644mq","lat":-31.9578,"state":"NSW"},"type":"Feature","geometry":{"type":"Point","coordinates":[152.5297,-31.9578]}},{"properties":{"type":1,"client":"SkyMesh","lng":151.955165,"id":"a6my0dhaebgd","lat":-31.79666711,"state":"NSW"},"type":"Feature","geometry":{"type":"Point","coordinates":[151.955165,-31.79666711]}},{"properties":{"type":1,"client":"SkyMesh","lng":149.4612,"id":"a6my0deampbh","lat":-33.8297,"state":"NSW"},"type":"Feature","geometry":{"type":"Point","coordinates":[149.4612,-33.8297]}},{"properties":{"type":1,"client":"SkyMesh","lng":153.267622,"id":"a6my0dr6oek0","lat":-29.001369,"state":"NSW"},"type":"Feature","geometry":{"type":"Point","coordinates":[153.267622,-29.001369]}},{"properties":{"type":1,"client":"SkyMesh","lng":153.057881,"id":"a6my0donrh96","lat":-28.981134,"state":"NSW"},"type":"Feature","geometry":{"type":"Point","coordinates":[153.057881,-28.981134]}},{"properties":{"type":1,"client":"SkyMesh","lng":152.962015,"id":"a6my0duniuls","lat":-30.598643,"state":"NSW"},"type":"Feature","geometry":{"type":"Point","coordinates":[152.962015,-30.598643]}},{"properties":{"type":1,"client":"SkyMesh","lng":151.2315,"id":"a6my0dtyvouk","lat":-33.1435,"state":"NSW"},"type":"Feature","geometry":{"type":"Point","coordinates":[151.2315,-33.1435]}},{"properties":{"type":1,"client":"SkyMesh","lng":150.5648,"id":"a6my0doxqupn","lat":-32.3769,"state":"NSW"},"type":"Feature","geometry":{"type":"Point","coordinates":[150.5648,-32.3769]}},{"properties":{"type":1,"client":"SkyMesh","lng":151.3964,"id":"a6my0dmlr8fm","lat":-33.396638,"state":"NSW"},"type":"Feature","geometry":{"type":"Point","coordinates":[151.3964,-33.396638]}},{"properties":{"type":1,"client":"Clear Networks","lng":147.5126,"id":"a6my0dklcb08","lat":-31.9461,"state":"NSW"},"type":"Feature","geometry":{"type":"Point","coordinates":[147.5126,-31.9461]}},{"properties":{"type":1,"client":"Clear Networks","lng":151.4951,"id":"a6my0doxh1e1","lat":-32.274,"state":"NSW"},"type":"Feature","geometry":{"type":"Point","coordinates":[151.4951,-32.274]}},{"properties":{"type":1,"client":"Clear Networks","lng":153.0692,"id":"a6my0dej1omd","lat":-28.9178,"state":"NSW"},"type":"Feature","geometry":{"type":"Point","coordinates":[153.0692,-28.9178]}},{"properties":{"type":1,"client":"Westnet","lng":148.0737,"id":"a6my0dn4spiq","lat":-36.1429,"state":"NSW"},"type":"Feature","geometry":{"type":"Point","coordinates":[148.0737,-36.1429]}},{"properties":{"type":1,"client":"Westnet","lng":148.887963,"id":"a6my0dro4vj1","lat":-30.354879,"state":"NSW"},"type":"Feature","geometry":{"type":"Point","coordinates":[148.887963,-30.354879]}},{"properties":{"type":1,"client":"SkyMesh","lng":149.7009,"id":"a6my0dpish3q","lat":-33.8956,"state":"NSW"},"type":"Feature","geometry":{"type":"Point","coordinates":[149.7009,-33.8956]}},{"properties":{"type":1,"client":"SkyMesh","lng":150.8529,"id":"a6my0dtv0nj5","lat":-32.8443,"state":"NSW"},"type":"Feature","geometry":{"type":"Point","coordinates":[150.8529,-32.8443]}},{"properties":{"type":1,"client":"SkyMesh","lng":147.499637,"id":"a6my0dmijmrz","lat":-35.945112,"state":"NSW"},"type":"Feature","geometry":{"type":"Point","coordinates":[147.499637,-35.945112]}},{"properties":{"type":1,"client":"Clear Networks","lng":153.4919,"id":"a6my0dfiq3ab","lat":-28.684,"state":"NSW"},"type":"Feature","geometry":{"type":"Point","coordinates":[153.4919,-28.684]}},{"properties":{"type":1,"client":"Clear Networks","lng":149.1,"id":"a6my0dk2de81","lat":-32.966,"state":"NSW"},"type":"Feature","geometry":{"type":"Point","coordinates":[149.1,-32.966]}},{"properties":{"type":1,"client":"Clear Networks","lng":149.5198,"id":"a6my0dkxzmoz","lat":-36.8452,"state":"NSW"},"type":"Feature","geometry":{"type":"Point","coordinates":[149.5198,-36.8452]}},{"properties":{"type":1,"client":"SkyMesh","lng":152.955456,"id":"a6my0djq730h","lat":-29.08492,"state":"NSW"},"type":"Feature","geometry":{"type":"Point","coordinates":[152.955456,-29.08492]}},{"properties":{"type":1,"client":"SkyMesh","lng":150.8268,"id":"a6my0dik6wio","lat":-30.4861,"state":"NSW"},"type":"Feature","geometry":{"type":"Point","coordinates":[150.8268,-30.4861]}},{"properties":{"type":1,"client":"SkyMesh","lng":150.7205,"id":"a6my0dksf5l9","lat":-33.626,"state":"NSW"},"type":"Feature","geometry":{"type":"Point","coordinates":[150.7205,-33.626]}},{"properties":{"type":1,"client":"Westnet","lng":149.256,"id":"a6my0dm78dtk","lat":-31.28,"state":"NSW"},"type":"Feature","geometry":{"type":"Point","coordinates":[149.256,-31.28]}},{"properties":{"type":1,"client":"SkyMesh","lng":152.5169,"id":"a6my0dlzndox","lat":-31.3866,"state":"NSW"},"type":"Feature","geometry":{"type":"Point","coordinates":[152.5169,-31.3866]}},{"properties":{"type":1,"client":"Westnet","lng":148.941584,"id":"a6my0dm810e6","lat":-33.679637,"state":"NSW"},"type":"Feature","geometry":{"type":"Point","coordinates":[148.941584,-33.679637]}},{"properties":{"type":1,"client":"SkyMesh","lng":152.6749,"id":"a6my0dmac4u9","lat":-31.0456,"state":"NSW"},"type":"Feature","geometry":{"type":"Point","coordinates":[152.6749,-31.0456]}},{"properties":{"type":1,"client":"Westnet","lng":152.657368,"id":"a6my0dkt84u1","lat":-28.583146,"state":"NSW"},"type":"Feature","geometry":{"type":"Point","coordinates":[152.657368,-28.583146]}},{"properties":{"type":1,"client":"SkyMesh","lng":147.2842,"id":"a6my0dh03ikk","lat":-35.4095,"state":"NSW"},"type":"Feature","geometry":{"type":"Point","coordinates":[147.2842,-35.4095]}},{"properties":{"type":1,"client":"SkyMesh","lng":149.166,"id":"a6my0dfou1rv","lat":-34.0722,"state":"NSW"},"type":"Feature","geometry":{"type":"Point","coordinates":[149.166,-34.0722]}},{"properties":{"type":1,"client":"SkyMesh","lng":153.167,"id":"a6my0dn9516p","lat":-28.3749,"state":"NSW"},"type":"Feature","geometry":{"type":"Point","coordinates":[153.167,-28.3749]}},{"properties":{"type":1,"client":"SkyMesh","lng":149.2164,"id":"a6my0dguwfl0","lat":-31.2766,"state":"NSW"},"type":"Feature","geometry":{"type":"Point","coordinates":[149.2164,-31.2766]}},{"properties":{"type":1,"client":"SkyMesh","lng":152.636442,"id":"a6my0dpzhlzf","lat":-30.941425,"state":"NSW"},"type":"Feature","geometry":{"type":"Point","coordinates":[152.636442,-30.941425]}},{"properties":{"type":1,"client":"SkyMesh","lng":152.7067,"id":"a6my0doe408h","lat":-30.6776,"state":"NSW"},"type":"Feature","geometry":{"type":"Point","coordinates":[152.7067,-30.6776]}},{"properties":{"type":1,"client":"SkyMesh","lng":153.003679,"id":"a6my0deqkpfv","lat":-28.582029,"state":"NSW"},"type":"Feature","geometry":{"type":"Point","coordinates":[153.003679,-28.582029]}},{"properties":{"type":1,"client":"SkyMesh","lng":152.007974,"id":"a6my0dhr1lx9","lat":-32.454359,"state":"NSW"},"type":"Feature","geometry":{"type":"Point","coordinates":[152.007974,-32.454359]}},{"properties":{"type":1,"client":"SkyMesh","lng":152.8689,"id":"a6my0dgvlxxt","lat":-31.2792,"state":"NSW"},"type":"Feature","geometry":{"type":"Point","coordinates":[152.8689,-31.2792]}},{"properties":{"type":1,"client":"Westnet","lng":149.804665,"id":"a6my0dru7kkw","lat":-31.926858,"state":"NSW"},"type":"Feature","geometry":{"type":"Point","coordinates":[149.804665,-31.926858]}},{"properties":{"type":1,"client":"Westnet","lng":151.3132,"id":"a6my0dqq7bvb","lat":-33.2468,"state":"NSW"},"type":"Feature","geometry":{"type":"Point","coordinates":[151.3132,-33.2468]}},{"properties":{"type":1,"client":"Westnet","lng":143.3361,"id":"a6my0dla2mok","lat":-34.9631,"state":"NSW"},"type":"Feature","geometry":{"type":"Point","coordinates":[143.3361,-34.9631]}},{"properties":{"type":1,"client":"Westnet","lng":152.774558,"id":"a6my0dlm0hbu","lat":-31.123128,"state":"NSW"},"type":"Feature","geometry":{"type":"Point","coordinates":[152.774558,-31.123128]}},{"properties":{"type":1,"client":"Clear Networks","lng":153.1685,"id":"a6my0dtuymfk","lat":-28.3512,"state":"NSW"},"type":"Feature","geometry":{"type":"Point","coordinates":[153.1685,-28.3512]}},{"properties":{"type":1,"client":"Clear Networks","lng":150.0519,"id":"a6my0du09ffs","lat":-32.939,"state":"NSW"},"type":"Feature","geometry":{"type":"Point","coordinates":[150.0519,-32.939]}},{"properties":{"type":1,"client":"Westnet","lng":150.258629,"id":"a6my0djwe6hj","lat":-34.444458,"state":"NSW"},"type":"Feature","geometry":{"type":"Point","coordinates":[150.258629,-34.444458]}},{"properties":{"type":1,"client":"Clear Networks","lng":152.896,"id":"a6my0dhbhyjs","lat":-31.13333,"state":"NSW"},"type":"Feature","geometry":{"type":"Point","coordinates":[152.896,-31.13333]}},{"properties":{"type":1,"client":"SkyMesh","lng":149.7467,"id":"a6my0dkbw551","lat":-33.8427,"state":"NSW"},"type":"Feature","geometry":{"type":"Point","coordinates":[149.7467,-33.8427]}},{"properties":{"type":1,"client":"Clear Networks","lng":146.3332,"id":"a6my0dpvpfnd","lat":-33.6081,"state":"NSW"},"type":"Feature","geometry":{"type":"Point","coordinates":[146.3332,-33.6081]}},{"properties":{"type":1,"client":"SkyMesh","lng":150.6256,"id":"a6my0djmpwlz","lat":-33.9653,"state":"NSW"},"type":"Feature","geometry":{"type":"Point","coordinates":[150.6256,-33.9653]}},{"properties":{"type":1,"client":"Westnet","lng":149.521154,"id":"a6my0dis3pf4","lat":-32.71176,"state":"NSW"},"type":"Feature","geometry":{"type":"Point","coordinates":[149.521154,-32.71176]}},{"properties":{"type":1,"client":"Westnet","lng":152.865998,"id":"a6my0drskg9a","lat":-29.606161,"state":"NSW"},"type":"Feature","geometry":{"type":"Point","coordinates":[152.865998,-29.606161]}},{"properties":{"type":1,"client":"Westnet","lng":148.609,"id":"a6my0dn68sgn","lat":-29.3594,"state":"NSW"},"type":"Feature","geometry":{"type":"Point","coordinates":[148.609,-29.3594]}},{"properties":{"type":1,"client":"Clear Networks","lng":150.6415,"id":"a6my0dpgu6n7","lat":-32.0436,"state":"NSW"},"type":"Feature","geometry":{"type":"Point","coordinates":[150.6415,-32.0436]}},{"properties":{"type":1,"client":"SkyMesh","lng":150.746649,"id":"a6my0dkuyewg","lat":-33.459,"state":"NSW"},"type":"Feature","geometry":{"type":"Point","coordinates":[150.746649,-33.459]}},{"properties":{"type":1,"client":"Westnet","lng":153.252452,"id":"a6my0dh7av1w","lat":-28.706602,"state":"NSW"},"type":"Feature","geometry":{"type":"Point","coordinates":[153.252452,-28.706602]}},{"properties":{"type":1,"client":"SkyMesh","lng":151.5011,"id":"a6my0doq5c7q","lat":-30.2278,"state":"NSW"},"type":"Feature","geometry":{"type":"Point","coordinates":[151.5011,-30.2278]}},{"properties":{"type":1,"client":"SkyMesh","lng":152.594543,"id":"a6my0dn98c0y","lat":-31.90244,"state":"NSW"},"type":"Feature","geometry":{"type":"Point","coordinates":[152.594543,-31.90244]}},{"properties":{"type":1,"client":"SkyMesh","lng":149.516,"id":"a6my0do9lmro","lat":-33.6353,"state":"NSW"},"type":"Feature","geometry":{"type":"Point","coordinates":[149.516,-33.6353]}},{"properties":{"type":1,"client":"SkyMesh","lng":153.487446,"id":"a6my0dn69j7m","lat":-28.582322,"state":"NSW"},"type":"Feature","geometry":{"type":"Point","coordinates":[153.487446,-28.582322]}},{"properties":{"type":1,"client":"SkyMesh","lng":153.558672,"id":"a6my0dm3vvr9","lat":-28.396826,"state":"NSW"},"type":"Feature","geometry":{"type":"Point","coordinates":[153.558672,-28.396826]}},{"properties":{"type":1,"client":"SkyMesh","lng":152.7726,"id":"a6my0dtoenn0","lat":-30.7481,"state":"NSW"},"type":"Feature","geometry":{"type":"Point","coordinates":[152.7726,-30.7481]}},{"properties":{"type":1,"client":"SkyMesh","lng":149.7924,"id":"a6my0dsb4dh1","lat":-35.7284,"state":"NSW"},"type":"Feature","geometry":{"type":"Point","coordinates":[149.7924,-35.7284]}},{"properties":{"type":1,"client":"SkyMesh","lng":152.5292,"id":"a6my0dsfj3cv","lat":-32.3325,"state":"NSW"},"type":"Feature","geometry":{"type":"Point","coordinates":[152.5292,-32.3325]}},{"properties":{"type":1,"client":"SkyMesh","lng":152.9472,"id":"a6my0dru0o3b","lat":-28.9561,"state":"NSW"},"type":"Feature","geometry":{"type":"Point","coordinates":[152.9472,-28.9561]}},{"properties":{"type":1,"client":"SkyMesh","lng":149.8709,"id":"a6my0dntwiam","lat":-33.3095,"state":"NSW"},"type":"Feature","geometry":{"type":"Point","coordinates":[149.8709,-33.3095]}},{"properties":{"type":1,"client":"SkyMesh","lng":152.712186,"id":"a6my0ds6y6qs","lat":-30.61318,"state":"NSW"},"type":"Feature","geometry":{"type":"Point","coordinates":[152.712186,-30.61318]}},{"properties":{"type":1,"client":"SkyMesh","lng":152.4571,"id":"a6my0dqm2kto","lat":-31.5707,"state":"NSW"},"type":"Feature","geometry":{"type":"Point","coordinates":[152.4571,-31.5707]}},{"properties":{"type":1,"client":"SkyMesh","lng":152.6448,"id":"a6my0dl6xqku","lat":-30.7116,"state":"NSW"},"type":"Feature","geometry":{"type":"Point","coordinates":[152.6448,-30.7116]}},{"properties":{"type":1,"client":"SkyMesh","lng":145.954191,"id":"a6my0di7go1s","lat":-35.811162,"state":"NSW"},"type":"Feature","geometry":{"type":"Point","coordinates":[145.954191,-35.811162]}},{"properties":{"type":1,"client":"SkyMesh","lng":149.2979,"id":"a6my0dft7apl","lat":-31.1434,"state":"NSW"},"type":"Feature","geometry":{"type":"Point","coordinates":[149.2979,-31.1434]}},{"properties":{"type":1,"client":"SkyMesh","lng":151.7787,"id":"a6my0dse0tyx","lat":-29.7233,"state":"NSW"},"type":"Feature","geometry":{"type":"Point","coordinates":[151.7787,-29.7233]}},{"properties":{"type":1,"client":"SkyMesh","lng":149.0504,"id":"a6my0dl5ode0","lat":-37.0728,"state":"NSW"},"type":"Feature","geometry":{"type":"Point","coordinates":[149.0504,-37.0728]}},{"properties":{"type":1,"client":"SkyMesh","lng":151.0942,"id":"a6my0du8d34g","lat":-32.108,"state":"NSW"},"type":"Feature","geometry":{"type":"Point","coordinates":[151.0942,-32.108]}},{"properties":{"type":1,"client":"Clear Networks","lng":149.5051,"id":"a6my0df5bkf0","lat":-32.8804,"state":"NSW"},"type":"Feature","geometry":{"type":"Point","coordinates":[149.5051,-32.8804]}},{"properties":{"type":1,"client":"Clear Networks","lng":149.710006,"id":"a6my0dm820re","lat":-34.641162,"state":"NSW"},"type":"Feature","geometry":{"type":"Point","coordinates":[149.710006,-34.641162]}},{"properties":{"type":1,"client":"SkyMesh","lng":150.276333,"id":"a6my0dfivz5i","lat":-34.357824,"state":"NSW"},"type":"Feature","geometry":{"type":"Point","coordinates":[150.276333,-34.357824]}},{"properties":{"type":1,"client":"SkyMesh","lng":150.6255,"id":"a6my0dj7htkd","lat":-33.5906,"state":"NSW"},"type":"Feature","geometry":{"type":"Point","coordinates":[150.6255,-33.5906]}},{"properties":{"type":1,"client":"SkyMesh","lng":152.953869,"id":"a6my0dtk8295","lat":-31.282197,"state":"NSW"},"type":"Feature","geometry":{"type":"Point","coordinates":[152.953869,-31.282197]}},{"properties":{"type":1,"client":"SkyMesh","lng":150.0056687,"id":"a6my0dlxoud7","lat":-32.7153652,"state":"NSW"},"type":"Feature","geometry":{"type":"Point","coordinates":[150.0056687,-32.7153652]}},{"properties":{"type":1,"client":"Clear Networks","lng":146.6911,"id":"a6my0deok3fc","lat":-31.3324,"state":"NSW"},"type":"Feature","geometry":{"type":"Point","coordinates":[146.6911,-31.3324]}},{"properties":{"type":1,"client":"SkyMesh","lng":150.660127,"id":"a6my0dhu8s4y","lat":-32.158527,"state":"NSW"},"type":"Feature","geometry":{"type":"Point","coordinates":[150.660127,-32.158527]}},{"properties":{"type":1,"client":"Westnet","lng":152.957171,"id":"a6my0dfm2e5z","lat":-29.923746,"state":"NSW"},"type":"Feature","geometry":{"type":"Point","coordinates":[152.957171,-29.923746]}},{"properties":{"type":1,"client":"SkyMesh","lng":151.094026,"id":"a6my0dm5jx1b","lat":-32.783386,"state":"NSW"},"type":"Feature","geometry":{"type":"Point","coordinates":[151.094026,-32.783386]}},{"properties":{"type":1,"client":"SkyMesh","lng":149.549003,"id":"a6my0dfw9xtt","lat":-35.177767,"state":"NSW"},"type":"Feature","geometry":{"type":"Point","coordinates":[149.549003,-35.177767]}},{"properties":{"type":1,"client":"SkyMesh","lng":148.337599,"id":"a6my0dgcx1g3","lat":-34.93851,"state":"NSW"},"type":"Feature","geometry":{"type":"Point","coordinates":[148.337599,-34.93851]}},{"properties":{"type":1,"client":"SkyMesh","lng":153.156639,"id":"a6my0dgadfvr","lat":-29.725944,"state":"NSW"},"type":"Feature","geometry":{"type":"Point","coordinates":[153.156639,-29.725944]}},{"properties":{"type":1,"client":"SkyMesh","lng":149.43673,"id":"a6my0dom49f3","lat":-33.344944,"state":"NSW"},"type":"Feature","geometry":{"type":"Point","coordinates":[149.43673,-33.344944]}},{"properties":{"type":1,"client":"SkyMesh","lng":153.520039,"id":"a6my0dqr4he6","lat":-28.230602,"state":"NSW"},"type":"Feature","geometry":{"type":"Point","coordinates":[153.520039,-28.230602]}},{"properties":{"type":1,"client":"SkyMesh","lng":151.6545,"id":"a6my0dhkzcpm","lat":-33.0161,"state":"NSW"},"type":"Feature","geometry":{"type":"Point","coordinates":[151.6545,-33.0161]}},{"properties":{"type":1,"client":"SkyMesh","lng":149.3381,"id":"a6my0dr0sw7v","lat":-36.803,"state":"NSW"},"type":"Feature","geometry":{"type":"Point","coordinates":[149.3381,-36.803]}},{"properties":{"type":1,"client":"SkyMesh","lng":152.977183,"id":"a6my0dn0m0ui","lat":-29.284257,"state":"NSW"},"type":"Feature","geometry":{"type":"Point","coordinates":[152.977183,-29.284257]}},{"properties":{"type":1,"client":"SkyMesh","lng":149.214524,"id":"a6my0dqsjxtr","lat":-33.710266,"state":"NSW"},"type":"Feature","geometry":{"type":"Point","coordinates":[149.214524,-33.710266]}},{"properties":{"type":1,"client":"SkyMesh","lng":147.3757,"id":"a6my0de9cyzj","lat":-35.9661,"state":"NSW"},"type":"Feature","geometry":{"type":"Point","coordinates":[147.3757,-35.9661]}},{"properties":{"type":1,"client":"SkyMesh","lng":152.681,"id":"a6my0dsvhxfj","lat":-31.2117,"state":"NSW"},"type":"Feature","geometry":{"type":"Point","coordinates":[152.681,-31.2117]}},{"properties":{"type":1,"client":"SkyMesh","lng":149.4708,"id":"a6my0dtmzm5f","lat":-37.083,"state":"NSW"},"type":"Feature","geometry":{"type":"Point","coordinates":[149.4708,-37.083]}},{"properties":{"type":1,"client":"SkyMesh","lng":149.914824,"id":"a6my0dqvrmlw","lat":-33.726483,"state":"NSW"},"type":"Feature","geometry":{"type":"Point","coordinates":[149.914824,-33.726483]}},{"properties":{"type":1,"client":"SkyMesh","lng":149.691257,"id":"a6my0dq5fq10","lat":-37.081422,"state":"NSW"},"type":"Feature","geometry":{"type":"Point","coordinates":[149.691257,-37.081422]}},{"properties":{"type":1,"client":"SkyMesh","lng":148.3983,"id":"a6my0dh1hyv7","lat":-33.7141,"state":"NSW"},"type":"Feature","geometry":{"type":"Point","coordinates":[148.3983,-33.7141]}},{"properties":{"type":1,"client":"SkyMesh","lng":148.8596,"id":"a6my0dk3ja0i","lat":-33.9333,"state":"NSW"},"type":"Feature","geometry":{"type":"Point","coordinates":[148.8596,-33.9333]}},{"properties":{"type":1,"client":"SkyMesh","lng":148.736262,"id":"a6my0dqnkcmh","lat":-35.403668,"state":"NSW"},"type":"Feature","geometry":{"type":"Point","coordinates":[148.736262,-35.403668]}},{"properties":{"type":1,"client":"SkyMesh","lng":152.840198,"id":"a6my0dhn0szi","lat":-30.979862,"state":"NSW"},"type":"Feature","geometry":{"type":"Point","coordinates":[152.840198,-30.979862]}},{"properties":{"type":1,"client":"SkyMesh","lng":152.732388,"id":"a6my0do33duc","lat":-29.642768,"state":"NSW"},"type":"Feature","geometry":{"type":"Point","coordinates":[152.732388,-29.642768]}},{"properties":{"type":1,"client":"Westnet","lng":152.231,"id":"a6my0dk1gdoy","lat":-31.712,"state":"NSW"},"type":"Feature","geometry":{"type":"Point","coordinates":[152.231,-31.712]}},{"properties":{"type":1,"client":"SkyMesh","lng":150.474671,"id":"a6my0do2xrkg","lat":-29.384989,"state":"NSW"},"type":"Feature","geometry":{"type":"Point","coordinates":[150.474671,-29.384989]}},{"properties":{"type":1,"client":"SkyMesh","lng":151.2781,"id":"a6my0dnycz0b","lat":-31.151,"state":"NSW"},"type":"Feature","geometry":{"type":"Point","coordinates":[151.2781,-31.151]}},{"properties":{"type":1,"client":"SkyMesh","lng":151.213864,"id":"a6my0dtq21eb","lat":-31.921892,"state":"NSW"},"type":"Feature","geometry":{"type":"Point","coordinates":[151.213864,-31.921892]}},{"properties":{"type":1,"client":"SkyMesh","lng":149.700848,"id":"a6my0dh61050","lat":-37.087932,"state":"NSW"},"type":"Feature","geometry":{"type":"Point","coordinates":[149.700848,-37.087932]}},{"properties":{"type":1,"client":"SkyMesh","lng":153.0661,"id":"a6my0decr336","lat":-30.4281,"state":"NSW"},"type":"Feature","geometry":{"type":"Point","coordinates":[153.0661,-30.4281]}},{"properties":{"type":1,"client":"SkyMesh","lng":149.7211,"id":"a6my0di46b11","lat":-33.6138,"state":"NSW"},"type":"Feature","geometry":{"type":"Point","coordinates":[149.7211,-33.6138]}},{"properties":{"type":1,"client":"Westnet","lng":150.0598,"id":"a6my0dftvuqv","lat":-31.9979,"state":"NSW"},"type":"Feature","geometry":{"type":"Point","coordinates":[150.0598,-31.9979]}},{"properties":{"type":1,"client":"Westnet","lng":150.437443,"id":"a6my0ds4orlm","lat":-35.380668,"state":"NSW"},"type":"Feature","geometry":{"type":"Point","coordinates":[150.437443,-35.380668]}},{"properties":{"type":1,"client":"Westnet","lng":149.6415,"id":"a6my0duilr4k","lat":-35.740709,"state":"NSW"},"type":"Feature","geometry":{"type":"Point","coordinates":[149.6415,-35.740709]}},{"properties":{"type":1,"client":"Clear Networks","lng":149.3641,"id":"a6my0dlya0yq","lat":-32.8839,"state":"NSW"},"type":"Feature","geometry":{"type":"Point","coordinates":[149.3641,-32.8839]}},{"properties":{"type":1,"client":"SkyMesh","lng":149.6801,"id":"a6my0dh397lh","lat":-32.7867,"state":"NSW"},"type":"Feature","geometry":{"type":"Point","coordinates":[149.6801,-32.7867]}},{"properties":{"type":1,"client":"SkyMesh","lng":150.7878,"id":"a6my0drbrunc","lat":-32.8294,"state":"NSW"},"type":"Feature","geometry":{"type":"Point","coordinates":[150.7878,-32.8294]}},{"properties":{"type":1,"client":"SkyMesh","lng":152.8225,"id":"a6my0dgrsk4u","lat":-30.5679,"state":"NSW"},"type":"Feature","geometry":{"type":"Point","coordinates":[152.8225,-30.5679]}},{"properties":{"type":1,"client":"SkyMesh","lng":149.6048,"id":"a6my0dsoazom","lat":-33.2849,"state":"NSW"},"type":"Feature","geometry":{"type":"Point","coordinates":[149.6048,-33.2849]}},{"properties":{"type":1,"client":"SkyMesh","lng":149.6429,"id":"a6my0diig05c","lat":-35.1416,"state":"NSW"},"type":"Feature","geometry":{"type":"Point","coordinates":[149.6429,-35.1416]}},{"properties":{"type":1,"client":"SkyMesh","lng":150.036023,"id":"a6my0duad857","lat":-33.240395,"state":"NSW"},"type":"Feature","geometry":{"type":"Point","coordinates":[150.036023,-33.240395]}},{"properties":{"type":1,"client":"SkyMesh","lng":150.152134,"id":"a6my0dowl7ly","lat":-35.61983,"state":"NSW"},"type":"Feature","geometry":{"type":"Point","coordinates":[150.152134,-35.61983]}},{"properties":{"type":1,"client":"SkyMesh","lng":148.1242,"id":"a6my0ds78wqc","lat":-34.8515,"state":"NSW"},"type":"Feature","geometry":{"type":"Point","coordinates":[148.1242,-34.8515]}},{"properties":{"type":1,"client":"SkyMesh","lng":151.1518,"id":"a6my0dhi8vxo","lat":-31.2979,"state":"NSW"},"type":"Feature","geometry":{"type":"Point","coordinates":[151.1518,-31.2979]}},{"properties":{"type":1,"client":"SkyMesh","lng":153.4463,"id":"a6my0dqxg24e","lat":-28.566,"state":"NSW"},"type":"Feature","geometry":{"type":"Point","coordinates":[153.4463,-28.566]}},{"properties":{"type":1,"client":"Clear Networks","lng":153.1626,"id":"a6my0diptm6h","lat":-29.6745,"state":"NSW"},"type":"Feature","geometry":{"type":"Point","coordinates":[153.1626,-29.6745]}},{"properties":{"type":1,"client":"Westnet","lng":150.59,"id":"a6my0dtov50g","lat":-32.02,"state":"NSW"},"type":"Feature","geometry":{"type":"Point","coordinates":[150.59,-32.02]}},{"properties":{"type":1,"client":"Clear Networks","lng":141.1671,"id":"a6my0dkcz6ty","lat":-33.216,"state":"NSW"},"type":"Feature","geometry":{"type":"Point","coordinates":[141.1671,-33.216]}},{"properties":{"type":1,"client":"Clear Networks","lng":149.4797,"id":"a6my0druv24i","lat":-36.618,"state":"NSW"},"type":"Feature","geometry":{"type":"Point","coordinates":[149.4797,-36.618]}},{"properties":{"type":1,"client":"Clear Networks","lng":141.9219,"id":"a6my0di86ueq","lat":-34.0024,"state":"NSW"},"type":"Feature","geometry":{"type":"Point","coordinates":[141.9219,-34.0024]}},{"properties":{"type":1,"client":"Clear Networks","lng":152.9082,"id":"a6my0dpxsg85","lat":-29.6187,"state":"NSW"},"type":"Feature","geometry":{"type":"Point","coordinates":[152.9082,-29.6187]}},{"properties":{"type":1,"client":"Westnet","lng":148.569249,"id":"a6my0duj7dzf","lat":-34.549562,"state":"NSW"},"type":"Feature","geometry":{"type":"Point","coordinates":[148.569249,-34.549562]}},{"properties":{"type":1,"client":"Westnet","lng":152.851621,"id":"a6my0dhj2jh1","lat":-29.578602,"state":"NSW"},"type":"Feature","geometry":{"type":"Point","coordinates":[152.851621,-29.578602]}},{"properties":{"type":1,"client":"SkyMesh","lng":151.3294,"id":"a6my0dn0m3qb","lat":-33.3566,"state":"NSW"},"type":"Feature","geometry":{"type":"Point","coordinates":[151.3294,-33.3566]}},{"properties":{"type":1,"client":"Clear Networks","lng":153.3408,"id":"a6my0dg5dhm7","lat":-28.2677,"state":"NSW"},"type":"Feature","geometry":{"type":"Point","coordinates":[153.3408,-28.2677]}},{"properties":{"type":1,"client":"SkyMesh","lng":152.538097,"id":"a6my0dgf9l0n","lat":-31.477915,"state":"NSW"},"type":"Feature","geometry":{"type":"Point","coordinates":[152.538097,-31.477915]}},{"properties":{"type":1,"client":"Westnet","lng":147.87,"id":"a6my0dqlk9mu","lat":-32.43,"state":"NSW"},"type":"Feature","geometry":{"type":"Point","coordinates":[147.87,-32.43]}},{"properties":{"type":1,"client":"Clear Networks","lng":145.417,"id":"a6my0dfb6452","lat":-16.1893,"state":"QLD"},"type":"Feature","geometry":{"type":"Point","coordinates":[145.417,-16.1893]}},{"properties":{"type":1,"client":"Westnet","lng":145.41409,"id":"a6my0dp9yfrs","lat":-16.603555,"state":"QLD"},"type":"Feature","geometry":{"type":"Point","coordinates":[145.41409,-16.603555]}},{"properties":{"type":1,"client":"SkyMesh","lng":152.46,"id":"a6my0dnxa5k7","lat":-27.5067,"state":"QLD"},"type":"Feature","geometry":{"type":"Point","coordinates":[152.46,-27.5067]}},{"properties":{"type":1,"client":"SkyMesh","lng":151.7171,"id":"a6my0dkn20o9","lat":-26.076,"state":"QLD"},"type":"Feature","geometry":{"type":"Point","coordinates":[151.7171,-26.076]}},{"properties":{"type":1,"client":"SkyMesh","lng":152.657,"id":"a6my0dgx5l2v","lat":-28.1781,"state":"QLD"},"type":"Feature","geometry":{"type":"Point","coordinates":[152.657,-28.1781]}},{"properties":{"type":1,"client":"SkyMesh","lng":152.6089,"id":"a6my0debjr0a","lat":-26.4147,"state":"QLD"},"type":"Feature","geometry":{"type":"Point","coordinates":[152.6089,-26.4147]}},{"properties":{"type":1,"client":"SkyMesh","lng":152.975,"id":"a6my0df43foi","lat":-26.743,"state":"QLD"},"type":"Feature","geometry":{"type":"Point","coordinates":[152.975,-26.743]}},{"properties":{"type":1,"client":"Clear Networks","lng":151.6413,"id":"a6my0dlmgo2b","lat":-25.0655,"state":"QLD"},"type":"Feature","geometry":{"type":"Point","coordinates":[151.6413,-25.0655]}},{"properties":{"type":1,"client":"Westnet","lng":151.294849,"id":"a6my0dqt41ic","lat":-24.352766,"state":"QLD"},"type":"Feature","geometry":{"type":"Point","coordinates":[151.294849,-24.352766]}},{"properties":{"type":1,"client":"Clear Networks","lng":152.0063,"id":"a6my0dsac2wg","lat":-26.963,"state":"QLD"},"type":"Feature","geometry":{"type":"Point","coordinates":[152.0063,-26.963]}},{"properties":{"type":1,"client":"Westnet","lng":152.057301,"id":"a6my0dicpqii","lat":-24.658498,"state":"QLD"},"type":"Feature","geometry":{"type":"Point","coordinates":[152.057301,-24.658498]}},{"properties":{"type":1,"client":"Clear Networks","lng":142.6567,"id":"a6my0dhsyuw9","lat":-25.4198,"state":"QLD"},"type":"Feature","geometry":{"type":"Point","coordinates":[142.6567,-25.4198]}},{"properties":{"type":1,"client":"Clear Networks","lng":150.4591,"id":"a6my0diajfw5","lat":-23.6257,"state":"QLD"},"type":"Feature","geometry":{"type":"Point","coordinates":[150.4591,-23.6257]}},{"properties":{"type":1,"client":"SkyMesh","lng":146.089706,"id":"a6my0diooo26","lat":-17.822043,"state":"QLD"},"type":"Feature","geometry":{"type":"Point","coordinates":[146.089706,-17.822043]}},{"properties":{"type":1,"client":"Westnet","lng":145.5384,"id":"a6my0dprgqx4","lat":-16.9308,"state":"QLD"},"type":"Feature","geometry":{"type":"Point","coordinates":[145.5384,-16.9308]}},{"properties":{"type":1,"client":"Clear Networks","lng":145.4384,"id":"a6my0dqjy0cf","lat":-16.6065,"state":"QLD"},"type":"Feature","geometry":{"type":"Point","coordinates":[145.4384,-16.6065]}},{"properties":{"type":1,"client":"SkyMesh","lng":153.159637,"id":"a6my0dlhj4az","lat":-27.72518,"state":"QLD"},"type":"Feature","geometry":{"type":"Point","coordinates":[153.159637,-27.72518]}},{"properties":{"type":1,"client":"SkyMesh","lng":145.6638,"id":"a6my0dluptsr","lat":-23.4919,"state":"QLD"},"type":"Feature","geometry":{"type":"Point","coordinates":[145.6638,-23.4919]}},{"properties":{"type":1,"client":"SkyMesh","lng":145.8993,"id":"a6my0dl8jcoj","lat":-17.6788,"state":"QLD"},"type":"Feature","geometry":{"type":"Point","coordinates":[145.8993,-17.6788]}},{"properties":{"type":1,"client":"SkyMesh","lng":152.472084,"id":"a6my0ds84a44","lat":-26.927025,"state":"QLD"},"type":"Feature","geometry":{"type":"Point","coordinates":[152.472084,-26.927025]}},{"properties":{"type":1,"client":"SkyMesh","lng":152.3109,"id":"a6my0dtjpz35","lat":-25.1868,"state":"QLD"},"type":"Feature","geometry":{"type":"Point","coordinates":[152.3109,-25.1868]}},{"properties":{"type":1,"client":"SkyMesh","lng":152.262375,"id":"a6my0dn2yjuj","lat":-24.938058,"state":"QLD"},"type":"Feature","geometry":{"type":"Point","coordinates":[152.262375,-24.938058]}},{"properties":{"type":1,"client":"SkyMesh","lng":152.051241,"id":"a6my0ds45lbk","lat":-26.653928,"state":"QLD"},"type":"Feature","geometry":{"type":"Point","coordinates":[152.051241,-26.653928]}},{"properties":{"type":1,"client":"SkyMesh","lng":145.957916,"id":"a6my0dqhjvs6","lat":-17.27916,"state":"QLD"},"type":"Feature","geometry":{"type":"Point","coordinates":[145.957916,-17.27916]}},{"properties":{"type":1,"client":"SkyMesh","lng":153.022446,"id":"a6my0dj1x6im","lat":-27.877872,"state":"QLD"},"type":"Feature","geometry":{"type":"Point","coordinates":[153.022446,-27.877872]}},{"properties":{"type":1,"client":"Clear Networks","lng":142.656,"id":"a6my0dh0mkqg","lat":-25.4194,"state":"QLD"},"type":"Feature","geometry":{"type":"Point","coordinates":[142.656,-25.4194]}},{"properties":{"type":1,"client":"SkyMesh","lng":152.372452,"id":"a6my0dng548q","lat":-27.014406,"state":"QLD"},"type":"Feature","geometry":{"type":"Point","coordinates":[152.372452,-27.014406]}},{"properties":{"type":1,"client":"SkyMesh","lng":152.81424,"id":"a6my0dt3ouv9","lat":-26.641196,"state":"QLD"},"type":"Feature","geometry":{"type":"Point","coordinates":[152.81424,-26.641196]}},{"properties":{"type":1,"client":"SkyMesh","lng":150.6603,"id":"a6my0df2yi3r","lat":-23.1639,"state":"QLD"},"type":"Feature","geometry":{"type":"Point","coordinates":[150.6603,-23.1639]}},{"properties":{"type":1,"client":"Clear Networks","lng":152.3987,"id":"a6my0dfclisz","lat":-26.0758,"state":"QLD"},"type":"Feature","geometry":{"type":"Point","coordinates":[152.3987,-26.0758]}},{"properties":{"type":1,"client":"Clear Networks","lng":153.3701,"id":"a6my0drcimnq","lat":-27.0776,"state":"QLD"},"type":"Feature","geometry":{"type":"Point","coordinates":[153.3701,-27.0776]}},{"properties":{"type":1,"client":"Westnet","lng":148.5705,"id":"a6my0drmql17","lat":-21.1218,"state":"QLD"},"type":"Feature","geometry":{"type":"Point","coordinates":[148.5705,-21.1218]}},{"properties":{"type":1,"client":"Westnet","lng":145.511125,"id":"a6my0dichqpl","lat":-17.647148,"state":"QLD"},"type":"Feature","geometry":{"type":"Point","coordinates":[145.511125,-17.647148]}},{"properties":{"type":1,"client":"SkyMesh","lng":152.841171,"id":"a6my0dt8qz6m","lat":-26.503603,"state":"QLD"},"type":"Feature","geometry":{"type":"Point","coordinates":[152.841171,-26.503603]}},{"properties":{"type":1,"client":"SkyMesh","lng":148.7463,"id":"a6my0drlekgr","lat":-20.4715,"state":"QLD"},"type":"Feature","geometry":{"type":"Point","coordinates":[148.7463,-20.4715]}},{"properties":{"type":1,"client":"SkyMesh","lng":151.892883,"id":"a6my0dujnamq","lat":-25.075326,"state":"QLD"},"type":"Feature","geometry":{"type":"Point","coordinates":[151.892883,-25.075326]}},{"properties":{"type":1,"client":"SkyMesh","lng":145.2865,"id":"a6my0dmecyq8","lat":-17.6406,"state":"QLD"},"type":"Feature","geometry":{"type":"Point","coordinates":[145.2865,-17.6406]}},{"properties":{"type":1,"client":"SkyMesh","lng":146.4885,"id":"a6my0deyc9uj","lat":-19.1357,"state":"QLD"},"type":"Feature","geometry":{"type":"Point","coordinates":[146.4885,-19.1357]}},{"properties":{"type":1,"client":"Westnet","lng":151.731564,"id":"a6my0diicmsx","lat":-24.250982,"state":"QLD"},"type":"Feature","geometry":{"type":"Point","coordinates":[151.731564,-24.250982]}},{"properties":{"type":1,"client":"Westnet","lng":151.687,"id":"a6my0dplgfd1","lat":-27.568,"state":"QLD"},"type":"Feature","geometry":{"type":"Point","coordinates":[151.687,-27.568]}},{"properties":{"type":1,"client":"Westnet","lng":152.249,"id":"a6my0dn3l3no","lat":-28.036,"state":"QLD"},"type":"Feature","geometry":{"type":"Point","coordinates":[152.249,-28.036]}},{"properties":{"type":1,"client":"SkyMesh","lng":147.289017,"id":"a6my0di6unrg","lat":-20.195081,"state":"QLD"},"type":"Feature","geometry":{"type":"Point","coordinates":[147.289017,-20.195081]}},{"properties":{"type":1,"client":"SkyMesh","lng":150.688126,"id":"a6my0dfb5jnc","lat":-23.163229,"state":"QLD"},"type":"Feature","geometry":{"type":"Point","coordinates":[150.688126,-23.163229]}},{"properties":{"type":1,"client":"SkyMesh","lng":151.163842,"id":"a6my0doikwcc","lat":-24.767686,"state":"QLD"},"type":"Feature","geometry":{"type":"Point","coordinates":[151.163842,-24.767686]}},{"properties":{"type":1,"client":"SkyMesh","lng":152.522324,"id":"a6my0dpma2vv","lat":-28.095348,"state":"QLD"},"type":"Feature","geometry":{"type":"Point","coordinates":[152.522324,-28.095348]}},{"properties":{"type":1,"client":"SkyMesh","lng":153.3496,"id":"a6my0dop3onb","lat":-28.0503,"state":"QLD"},"type":"Feature","geometry":{"type":"Point","coordinates":[153.3496,-28.0503]}},{"properties":{"type":1,"client":"SkyMesh","lng":150.943599,"id":"a6my0dp5svhi","lat":-23.763765,"state":"QLD"},"type":"Feature","geometry":{"type":"Point","coordinates":[150.943599,-23.763765]}},{"properties":{"type":1,"client":"SkyMesh","lng":145.284588,"id":"a6my0ds2ouri","lat":-17.624523,"state":"QLD"},"type":"Feature","geometry":{"type":"Point","coordinates":[145.284588,-17.624523]}},{"properties":{"type":1,"client":"SkyMesh","lng":152.1348,"id":"a6my0dl3un8m","lat":-28.1281,"state":"QLD"},"type":"Feature","geometry":{"type":"Point","coordinates":[152.1348,-28.1281]}},{"properties":{"type":1,"client":"SkyMesh","lng":152.132835,"id":"a6my0def170q","lat":-27.378288,"state":"QLD"},"type":"Feature","geometry":{"type":"Point","coordinates":[152.132835,-27.378288]}},{"properties":{"type":1,"client":"Westnet","lng":145.39,"id":"a6my0df3qd52","lat":-16.56,"state":"QLD"},"type":"Feature","geometry":{"type":"Point","coordinates":[145.39,-16.56]}},{"properties":{"type":1,"client":"SkyMesh","lng":152.441705,"id":"a6my0dsi8jvx","lat":-27.531442,"state":"QLD"},"type":"Feature","geometry":{"type":"Point","coordinates":[152.441705,-27.531442]}},{"properties":{"type":1,"client":"SkyMesh","lng":153.3316,"id":"a6my0detfnst","lat":-27.5716,"state":"QLD"},"type":"Feature","geometry":{"type":"Point","coordinates":[153.3316,-27.5716]}},{"properties":{"type":1,"client":"SkyMesh","lng":152.1432,"id":"a6my0diw3l6k","lat":-24.8124,"state":"QLD"},"type":"Feature","geometry":{"type":"Point","coordinates":[152.1432,-24.8124]}},{"properties":{"type":1,"client":"SkyMesh","lng":151.808071,"id":"a6my0dfz0z61","lat":-27.192342,"state":"QLD"},"type":"Feature","geometry":{"type":"Point","coordinates":[151.808071,-27.192342]}},{"properties":{"type":1,"client":"SkyMesh","lng":152.6910107,"id":"a6my0djr3c7q","lat":-25.32089645,"state":"QLD"},"type":"Feature","geometry":{"type":"Point","coordinates":[152.6910107,-25.32089645]}},{"properties":{"type":1,"client":"SkyMesh","lng":145.465867,"id":"a6my0dmj2yt1","lat":-16.236845,"state":"QLD"},"type":"Feature","geometry":{"type":"Point","coordinates":[145.465867,-16.236845]}},{"properties":{"type":1,"client":"SkyMesh","lng":150.034,"id":"a6my0dep0eqa","lat":-22.1365,"state":"QLD"},"type":"Feature","geometry":{"type":"Point","coordinates":[150.034,-22.1365]}},{"properties":{"type":1,"client":"SkyMesh","lng":152.9267,"id":"a6my0dhyb3pg","lat":-27.6956,"state":"QLD"},"type":"Feature","geometry":{"type":"Point","coordinates":[152.9267,-27.6956]}},{"properties":{"type":1,"client":"Westnet","lng":141.3469,"id":"a6my0djn34y4","lat":-25.1421,"state":"QLD"},"type":"Feature","geometry":{"type":"Point","coordinates":[141.3469,-25.1421]}},{"properties":{"type":1,"client":"SkyMesh","lng":146.14844,"id":"a6my0dn5r0qi","lat":-18.710771,"state":"QLD"},"type":"Feature","geometry":{"type":"Point","coordinates":[146.14844,-18.710771]}},{"properties":{"type":1,"client":"SkyMesh","lng":152.434464,"id":"a6my0dirxeia","lat":-27.355122,"state":"QLD"},"type":"Feature","geometry":{"type":"Point","coordinates":[152.434464,-27.355122]}},{"properties":{"type":1,"client":"SkyMesh","lng":152.5649,"id":"a6my0drk4st0","lat":-25.8489,"state":"QLD"},"type":"Feature","geometry":{"type":"Point","coordinates":[152.5649,-25.8489]}},{"properties":{"type":1,"client":"SkyMesh","lng":145.923367,"id":"a6my0dpxz4r2","lat":-17.93404,"state":"QLD"},"type":"Feature","geometry":{"type":"Point","coordinates":[145.923367,-17.93404]}},{"properties":{"type":1,"client":"SkyMesh","lng":152.147134,"id":"a6my0dmfrx6g","lat":-27.685163,"state":"QLD"},"type":"Feature","geometry":{"type":"Point","coordinates":[152.147134,-27.685163]}},{"properties":{"type":1,"client":"SkyMesh","lng":152.445412,"id":"a6my0dfi5lmw","lat":-27.521559,"state":"QLD"},"type":"Feature","geometry":{"type":"Point","coordinates":[152.445412,-27.521559]}},{"properties":{"type":1,"client":"SkyMesh","lng":150.686867,"id":"a6my0ds3sneg","lat":-22.985029,"state":"QLD"},"type":"Feature","geometry":{"type":"Point","coordinates":[150.686867,-22.985029]}},{"properties":{"type":1,"client":"SkyMesh","lng":153.155982,"id":"a6my0dqnwpqv","lat":-27.945098,"state":"QLD"},"type":"Feature","geometry":{"type":"Point","coordinates":[153.155982,-27.945098]}},{"properties":{"type":1,"client":"SkyMesh","lng":145.4395,"id":"a6my0dp3fb4w","lat":-17.6656,"state":"QLD"},"type":"Feature","geometry":{"type":"Point","coordinates":[145.4395,-17.6656]}},{"properties":{"type":1,"client":"SkyMesh","lng":151.6868,"id":"a6my0dhvms37","lat":-26.4376,"state":"QLD"},"type":"Feature","geometry":{"type":"Point","coordinates":[151.6868,-26.4376]}},{"properties":{"type":1,"client":"SkyMesh","lng":145.6822,"id":"a6my0dmwvi4r","lat":-18.8401,"state":"QLD"},"type":"Feature","geometry":{"type":"Point","coordinates":[145.6822,-18.8401]}},{"properties":{"type":1,"client":"SkyMesh","lng":152.5732,"id":"a6my0di2zb14","lat":-26.3327,"state":"QLD"},"type":"Feature","geometry":{"type":"Point","coordinates":[152.5732,-26.3327]}},{"properties":{"type":1,"client":"SkyMesh","lng":152.552,"id":"a6my0dpgxf8c","lat":-27.1172,"state":"QLD"},"type":"Feature","geometry":{"type":"Point","coordinates":[152.552,-27.1172]}},{"properties":{"type":1,"client":"SkyMesh","lng":152.6213,"id":"a6my0drbqh4n","lat":-26.399,"state":"QLD"},"type":"Feature","geometry":{"type":"Point","coordinates":[152.6213,-26.399]}},{"properties":{"type":1,"client":"SkyMesh","lng":145.603874,"id":"a6my0divmd46","lat":-16.868486,"state":"QLD"},"type":"Feature","geometry":{"type":"Point","coordinates":[145.603874,-16.868486]}},{"properties":{"type":1,"client":"SkyMesh","lng":153.020242,"id":"a6my0dubjji7","lat":-26.494063,"state":"QLD"},"type":"Feature","geometry":{"type":"Point","coordinates":[153.020242,-26.494063]}},{"properties":{"type":1,"client":"SkyMesh","lng":152.3909925,"id":"a6my0dfclu9y","lat":-27.1449109,"state":"QLD"},"type":"Feature","geometry":{"type":"Point","coordinates":[152.3909925,-27.1449109]}},{"properties":{"type":1,"client":"SkyMesh","lng":145.3252,"id":"a6my0dt4iigj","lat":-15.8735,"state":"QLD"},"type":"Feature","geometry":{"type":"Point","coordinates":[145.3252,-15.8735]}},{"properties":{"type":1,"client":"SkyMesh","lng":145.9655,"id":"a6my0dgtrzy5","lat":-17.3028,"state":"QLD"},"type":"Feature","geometry":{"type":"Point","coordinates":[145.9655,-17.3028]}},{"properties":{"type":1,"client":"SkyMesh","lng":152.993614,"id":"a6my0dpan1gm","lat":-27.08136,"state":"QLD"},"type":"Feature","geometry":{"type":"Point","coordinates":[152.993614,-27.08136]}},{"properties":{"type":1,"client":"Westnet","lng":152.0356,"id":"a6my0dib7aup","lat":-28.7982,"state":"QLD"},"type":"Feature","geometry":{"type":"Point","coordinates":[152.0356,-28.7982]}},{"properties":{"type":1,"client":"SkyMesh","lng":152.912598,"id":"a6my0di3tbma","lat":-26.722088,"state":"QLD"},"type":"Feature","geometry":{"type":"Point","coordinates":[152.912598,-26.722088]}},{"properties":{"type":1,"client":"SkyMesh","lng":145.8672,"id":"a6my0de5yb56","lat":-17.726,"state":"QLD"},"type":"Feature","geometry":{"type":"Point","coordinates":[145.8672,-17.726]}},{"properties":{"type":1,"client":"SkyMesh","lng":151.599,"id":"a6my0dedkt3s","lat":-25.184,"state":"QLD"},"type":"Feature","geometry":{"type":"Point","coordinates":[151.599,-25.184]}},{"properties":{"type":1,"client":"SkyMesh","lng":152.716156,"id":"a6my0dsb5bgg","lat":-26.219748,"state":"QLD"},"type":"Feature","geometry":{"type":"Point","coordinates":[152.716156,-26.219748]}},{"properties":{"type":1,"client":"Clear Networks","lng":153.0113,"id":"a6my0dt7u9z6","lat":-26.6938,"state":"QLD"},"type":"Feature","geometry":{"type":"Point","coordinates":[153.0113,-26.6938]}},{"properties":{"type":1,"client":"Clear Networks","lng":153.2997,"id":"a6my0dectz6w","lat":-27.925,"state":"QLD"},"type":"Feature","geometry":{"type":"Point","coordinates":[153.2997,-27.925]}},{"properties":{"type":1,"client":"Westnet","lng":144.9644,"id":"a6my0dfcn7kg","lat":-17.15,"state":"QLD"},"type":"Feature","geometry":{"type":"Point","coordinates":[144.9644,-17.15]}},{"properties":{"type":1,"client":"Clear Networks","lng":145.3864,"id":"a6my0dp7jch8","lat":-16.5621,"state":"QLD"},"type":"Feature","geometry":{"type":"Point","coordinates":[145.3864,-16.5621]}},{"properties":{"type":1,"client":"SkyMesh","lng":153.063382,"id":"a6my0duj366i","lat":-27.905143,"state":"QLD"},"type":"Feature","geometry":{"type":"Point","coordinates":[153.063382,-27.905143]}},{"properties":{"type":1,"client":"Westnet","lng":152.922326,"id":"a6my0diplzr1","lat":-26.862082,"state":"QLD"},"type":"Feature","geometry":{"type":"Point","coordinates":[152.922326,-26.862082]}},{"properties":{"type":1,"client":"Westnet","lng":152.124656,"id":"a6my0ds5npsi","lat":-24.777904,"state":"QLD"},"type":"Feature","geometry":{"type":"Point","coordinates":[152.124656,-24.777904]}},{"properties":{"type":1,"client":"SkyMesh","lng":152.6005,"id":"a6my0degbe96","lat":-26.1736,"state":"QLD"},"type":"Feature","geometry":{"type":"Point","coordinates":[152.6005,-26.1736]}},{"properties":{"type":1,"client":"SkyMesh","lng":152.6591,"id":"a6my0drqcx7e","lat":-25.513,"state":"QLD"},"type":"Feature","geometry":{"type":"Point","coordinates":[152.6591,-25.513]}},{"properties":{"type":1,"client":"Westnet","lng":145.5739,"id":"a6my0de635h6","lat":-16.7796,"state":"QLD"},"type":"Feature","geometry":{"type":"Point","coordinates":[145.5739,-16.7796]}},{"properties":{"type":1,"client":"SkyMesh","lng":152.3764666,"id":"a6my0drr428a","lat":-28.28721332,"state":"QLD"},"type":"Feature","geometry":{"type":"Point","coordinates":[152.3764666,-28.28721332]}},{"properties":{"type":1,"client":"Westnet","lng":152.322628,"id":"a6my0dn4f9r2","lat":-24.809759,"state":"QLD"},"type":"Feature","geometry":{"type":"Point","coordinates":[152.322628,-24.809759]}},{"properties":{"type":1,"client":"Westnet","lng":150.6722,"id":"a6my0dk1a1cl","lat":-27.1053,"state":"QLD"},"type":"Feature","geometry":{"type":"Point","coordinates":[150.6722,-27.1053]}},{"properties":{"type":1,"client":"Westnet","lng":145.361668,"id":"a6my0dma41l3","lat":-16.255614,"state":"QLD"},"type":"Feature","geometry":{"type":"Point","coordinates":[145.361668,-16.255614]}},{"properties":{"type":1,"client":"SkyMesh","lng":150.489166,"id":"a6my0dt8x217","lat":-23.014723,"state":"QLD"},"type":"Feature","geometry":{"type":"Point","coordinates":[150.489166,-23.014723]}},{"properties":{"type":1,"client":"SkyMesh","lng":152.536181,"id":"a6my0dftpq7o","lat":-27.014965,"state":"QLD"},"type":"Feature","geometry":{"type":"Point","coordinates":[152.536181,-27.014965]}},{"properties":{"type":1,"client":"SkyMesh","lng":151.896399,"id":"a6my0dhfp19i","lat":-28.679409,"state":"QLD"},"type":"Feature","geometry":{"type":"Point","coordinates":[151.896399,-28.679409]}},{"properties":{"type":1,"client":"Westnet","lng":148.24,"id":"a6my0dqu9g6o","lat":-20.28,"state":"QLD"},"type":"Feature","geometry":{"type":"Point","coordinates":[148.24,-20.28]}},{"properties":{"type":1,"client":"Clear Networks","lng":151.5667,"id":"a6my0dqc5wwc","lat":-26.993,"state":"QLD"},"type":"Feature","geometry":{"type":"Point","coordinates":[151.5667,-26.993]}},{"properties":{"type":1,"client":"SkyMesh","lng":145.3839177,"id":"a6my0di61qcd","lat":-16.55943954,"state":"QLD"},"type":"Feature","geometry":{"type":"Point","coordinates":[145.3839177,-16.55943954]}},{"properties":{"type":1,"client":"SkyMesh","lng":148.95345,"id":"a6my0dn0gxih","lat":-21.013285,"state":"QLD"},"type":"Feature","geometry":{"type":"Point","coordinates":[148.95345,-21.013285]}},{"properties":{"type":1,"client":"SkyMesh","lng":150.9365,"id":"a6my0dguacc5","lat":-23.7623,"state":"QLD"},"type":"Feature","geometry":{"type":"Point","coordinates":[150.9365,-23.7623]}},{"properties":{"type":1,"client":"SkyMesh","lng":150.6439,"id":"a6my0diw3uxe","lat":-22.7567,"state":"QLD"},"type":"Feature","geometry":{"type":"Point","coordinates":[150.6439,-22.7567]}},{"properties":{"type":1,"client":"Westnet","lng":150.948,"id":"a6my0dqc1kac","lat":-26.76,"state":"QLD"},"type":"Feature","geometry":{"type":"Point","coordinates":[150.948,-26.76]}},{"properties":{"type":1,"client":"SkyMesh","lng":151.5858,"id":"a6my0duoax22","lat":-25.6934,"state":"QLD"},"type":"Feature","geometry":{"type":"Point","coordinates":[151.5858,-25.6934]}},{"properties":{"type":1,"client":"Westnet","lng":145.883632,"id":"a6my0dr03gzd","lat":-17.715209,"state":"QLD"},"type":"Feature","geometry":{"type":"Point","coordinates":[145.883632,-17.715209]}},{"properties":{"type":1,"client":"Westnet","lng":145.516,"id":"a6my0dfzd8fn","lat":-17.667,"state":"QLD"},"type":"Feature","geometry":{"type":"Point","coordinates":[145.516,-17.667]}},{"properties":{"type":1,"client":"SkyMesh","lng":152.9644977,"id":"a6my0diwrhso","lat":-27.06801617,"state":"QLD"},"type":"Feature","geometry":{"type":"Point","coordinates":[152.9644977,-27.06801617]}},{"properties":{"type":1,"client":"SkyMesh","lng":151.787125,"id":"a6my0dn9v2mc","lat":-28.223143,"state":"QLD"},"type":"Feature","geometry":{"type":"Point","coordinates":[151.787125,-28.223143]}},{"properties":{"type":1,"client":"SkyMesh","lng":152.1808,"id":"a6my0dte6ysk","lat":-26.4246,"state":"QLD"},"type":"Feature","geometry":{"type":"Point","coordinates":[152.1808,-26.4246]}},{"properties":{"type":1,"client":"SkyMesh","lng":151.9411,"id":"a6my0dlm77h4","lat":-26.47969,"state":"QLD"},"type":"Feature","geometry":{"type":"Point","coordinates":[151.9411,-26.47969]}},{"properties":{"type":1,"client":"SkyMesh","lng":150.6951,"id":"a6my0dg91hhz","lat":-24.5944,"state":"QLD"},"type":"Feature","geometry":{"type":"Point","coordinates":[150.6951,-24.5944]}},{"properties":{"type":1,"client":"SkyMesh","lng":152.607727,"id":"a6my0dsxi22h","lat":-27.686029,"state":"QLD"},"type":"Feature","geometry":{"type":"Point","coordinates":[152.607727,-27.686029]}},{"properties":{"type":1,"client":"Clear Networks","lng":145.4095,"id":"a6my0do7jrj2","lat":-16.172,"state":"QLD"},"type":"Feature","geometry":{"type":"Point","coordinates":[145.4095,-16.172]}},{"properties":{"type":1,"client":"Clear Networks","lng":145.6978,"id":"a6my0dfpy4yh","lat":-17.1228,"state":"QLD"},"type":"Feature","geometry":{"type":"Point","coordinates":[145.6978,-17.1228]}},{"properties":{"type":1,"client":"Clear Networks","lng":143.7252,"id":"a6my0dukc8qq","lat":-20.931,"state":"QLD"},"type":"Feature","geometry":{"type":"Point","coordinates":[143.7252,-20.931]}},{"properties":{"type":1,"client":"SkyMesh","lng":152.5706227,"id":"a6my0djzm2wk","lat":-26.38102369,"state":"QLD"},"type":"Feature","geometry":{"type":"Point","coordinates":[152.5706227,-26.38102369]}},{"properties":{"type":1,"client":"SkyMesh","lng":147.481873,"id":"a6my0dudnk68","lat":-19.455544,"state":"QLD"},"type":"Feature","geometry":{"type":"Point","coordinates":[147.481873,-19.455544]}},{"properties":{"type":1,"client":"SkyMesh","lng":152.1891,"id":"a6my0dncxxrm","lat":-27.6244,"state":"QLD"},"type":"Feature","geometry":{"type":"Point","coordinates":[152.1891,-27.6244]}},{"properties":{"type":1,"client":"SkyMesh","lng":153.015839,"id":"a6my0dpr4w6y","lat":-27.871386,"state":"QLD"},"type":"Feature","geometry":{"type":"Point","coordinates":[153.015839,-27.871386]}},{"properties":{"type":1,"client":"SkyMesh","lng":151.989632,"id":"a6my0deo3bw2","lat":-28.657213,"state":"QLD"},"type":"Feature","geometry":{"type":"Point","coordinates":[151.989632,-28.657213]}},{"properties":{"type":1,"client":"SkyMesh","lng":151.6983,"id":"a6my0dklofn5","lat":-25.4897,"state":"QLD"},"type":"Feature","geometry":{"type":"Point","coordinates":[151.6983,-25.4897]}},{"properties":{"type":1,"client":"SkyMesh","lng":149.287998,"id":"a6my0dejewzj","lat":-23.300657,"state":"QLD"},"type":"Feature","geometry":{"type":"Point","coordinates":[149.287998,-23.300657]}},{"properties":{"type":1,"client":"SkyMesh","lng":145.364571,"id":"a6my0dsl4tgp","lat":-16.616333,"state":"QLD"},"type":"Feature","geometry":{"type":"Point","coordinates":[145.364571,-16.616333]}},{"properties":{"type":1,"client":"SkyMesh","lng":152.3297702,"id":"a6my0dqy57cl","lat":-26.07974127,"state":"QLD"},"type":"Feature","geometry":{"type":"Point","coordinates":[152.3297702,-26.07974127]}},{"properties":{"type":1,"client":"Clear Networks","lng":145.944199,"id":"a6my0dkjqby3","lat":-18.12084,"state":"QLD"},"type":"Feature","geometry":{"type":"Point","coordinates":[145.944199,-18.12084]}},{"properties":{"type":1,"client":"SkyMesh","lng":152.253326,"id":"a6my0doij8h9","lat":-27.677164,"state":"QLD"},"type":"Feature","geometry":{"type":"Point","coordinates":[152.253326,-27.677164]}},{"properties":{"type":1,"client":"SkyMesh","lng":147.621432,"id":"a6my0dh7phcq","lat":-28.772846,"state":"QLD"},"type":"Feature","geometry":{"type":"Point","coordinates":[147.621432,-28.772846]}},{"properties":{"type":1,"client":"SkyMesh","lng":152.981683,"id":"a6my0dje31zp","lat":-27.360287,"state":"QLD"},"type":"Feature","geometry":{"type":"Point","coordinates":[152.981683,-27.360287]}},{"properties":{"type":1,"client":"SkyMesh","lng":152.3294,"id":"a6my0dm4l1il","lat":-27.6717,"state":"QLD"},"type":"Feature","geometry":{"type":"Point","coordinates":[152.3294,-27.6717]}},{"properties":{"type":1,"client":"SkyMesh","lng":152.832619,"id":"a6my0do1ucfu","lat":-27.897654,"state":"QLD"},"type":"Feature","geometry":{"type":"Point","coordinates":[152.832619,-27.897654]}},{"properties":{"type":1,"client":"SkyMesh","lng":145.419383,"id":"a6my0dozdth1","lat":-16.23045,"state":"QLD"},"type":"Feature","geometry":{"type":"Point","coordinates":[145.419383,-16.23045]}},{"properties":{"type":1,"client":"Clear Networks","lng":143.4747,"id":"a6my0dh45ofx","lat":-21.04,"state":"QLD"},"type":"Feature","geometry":{"type":"Point","coordinates":[143.4747,-21.04]}},{"properties":{"type":1,"client":"SkyMesh","lng":145.3398,"id":"a6my0dks67ic","lat":-15.8887,"state":"QLD"},"type":"Feature","geometry":{"type":"Point","coordinates":[145.3398,-15.8887]}},{"properties":{"type":1,"client":"SkyMesh","lng":152.6363,"id":"a6my0dm86sm1","lat":-27.6691,"state":"QLD"},"type":"Feature","geometry":{"type":"Point","coordinates":[152.6363,-27.6691]}},{"properties":{"type":1,"client":"SkyMesh","lng":145.896796,"id":"a6my0dl2jkmm","lat":-17.448606,"state":"QLD"},"type":"Feature","geometry":{"type":"Point","coordinates":[145.896796,-17.448606]}},{"properties":{"type":1,"client":"Westnet","lng":150.906,"id":"a6my0dqs4054","lat":-25.3,"state":"QLD"},"type":"Feature","geometry":{"type":"Point","coordinates":[150.906,-25.3]}},{"properties":{"type":1,"client":"SkyMesh","lng":146.892365,"id":"a6my0dfhee6j","lat":-20.101988,"state":"QLD"},"type":"Feature","geometry":{"type":"Point","coordinates":[146.892365,-20.101988]}},{"properties":{"type":1,"client":"SkyMesh","lng":145.9033,"id":"a6my0dfcrpj4","lat":-17.7094,"state":"QLD"},"type":"Feature","geometry":{"type":"Point","coordinates":[145.9033,-17.7094]}},{"properties":{"type":1,"client":"SkyMesh","lng":151.1125231,"id":"a6my0dmeuw31","lat":-24.8604672,"state":"QLD"},"type":"Feature","geometry":{"type":"Point","coordinates":[151.1125231,-24.8604672]}},{"properties":{"type":1,"client":"SkyMesh","lng":145.3524,"id":"a6my0du8nk8n","lat":-15.9209,"state":"QLD"},"type":"Feature","geometry":{"type":"Point","coordinates":[145.3524,-15.9209]}},{"properties":{"type":1,"client":"SkyMesh","lng":151.59227,"id":"a6my0die5bwc","lat":-27.069881,"state":"QLD"},"type":"Feature","geometry":{"type":"Point","coordinates":[151.59227,-27.069881]}},{"properties":{"type":1,"client":"SkyMesh","lng":152.8139,"id":"a6my0dizk5xv","lat":-26.4382,"state":"QLD"},"type":"Feature","geometry":{"type":"Point","coordinates":[152.8139,-26.4382]}},{"properties":{"type":1,"client":"SkyMesh","lng":145.4547,"id":"a6my0dj53rl6","lat":-16.1076,"state":"QLD"},"type":"Feature","geometry":{"type":"Point","coordinates":[145.4547,-16.1076]}},{"properties":{"type":1,"client":"SkyMesh","lng":150.9434,"id":"a6my0drarji8","lat":-23.7556,"state":"QLD"},"type":"Feature","geometry":{"type":"Point","coordinates":[150.9434,-23.7556]}},{"properties":{"type":1,"client":"SkyMesh","lng":151.9215,"id":"a6my0dif2yz6","lat":-24.4033,"state":"QLD"},"type":"Feature","geometry":{"type":"Point","coordinates":[151.9215,-24.4033]}},{"properties":{"type":1,"client":"SkyMesh","lng":152.994591,"id":"a6my0dhougog","lat":-26.431438,"state":"QLD"},"type":"Feature","geometry":{"type":"Point","coordinates":[152.994591,-26.431438]}},{"properties":{"type":1,"client":"SkyMesh","lng":151.9459235,"id":"a6my0didmstl","lat":-26.43110456,"state":"QLD"},"type":"Feature","geometry":{"type":"Point","coordinates":[151.9459235,-26.43110456]}},{"properties":{"type":1,"client":"SkyMesh","lng":151.903198,"id":"a6my0ds7wb2r","lat":-25.632701,"state":"QLD"},"type":"Feature","geometry":{"type":"Point","coordinates":[151.903198,-25.632701]}},{"properties":{"type":1,"client":"SkyMesh","lng":152.7974,"id":"a6my0dlwnr01","lat":-26.3637,"state":"QLD"},"type":"Feature","geometry":{"type":"Point","coordinates":[152.7974,-26.3637]}},{"properties":{"type":1,"client":"SkyMesh","lng":151.575165,"id":"a6my0deyfs32","lat":-27.629713,"state":"QLD"},"type":"Feature","geometry":{"type":"Point","coordinates":[151.575165,-27.629713]}},{"properties":{"type":1,"client":"SkyMesh","lng":150.1492,"id":"a6my0diw6lgi","lat":-25.6719,"state":"QLD"},"type":"Feature","geometry":{"type":"Point","coordinates":[150.1492,-25.6719]}},{"properties":{"type":1,"client":"SkyMesh","lng":152.775894,"id":"a6my0di3yg6o","lat":-26.767305,"state":"QLD"},"type":"Feature","geometry":{"type":"Point","coordinates":[152.775894,-26.767305]}},{"properties":{"type":1,"client":"SkyMesh","lng":152.991135,"id":"a6my0ditp7kp","lat":-27.798471,"state":"QLD"},"type":"Feature","geometry":{"type":"Point","coordinates":[152.991135,-27.798471]}},{"properties":{"type":1,"client":"SkyMesh","lng":151.3507,"id":"a6my0dlc2juq","lat":-25.6805,"state":"QLD"},"type":"Feature","geometry":{"type":"Point","coordinates":[151.3507,-25.6805]}},{"properties":{"type":1,"client":"SkyMesh","lng":152.2949,"id":"a6my0dl532i2","lat":-26.891,"state":"QLD"},"type":"Feature","geometry":{"type":"Point","coordinates":[152.2949,-26.891]}},{"properties":{"type":1,"client":"SkyMesh","lng":151.912979,"id":"a6my0dt7jlas","lat":-28.783072,"state":"QLD"},"type":"Feature","geometry":{"type":"Point","coordinates":[151.912979,-28.783072]}},{"properties":{"type":1,"client":"SkyMesh","lng":150.11499,"id":"a6my0dsodfmj","lat":-26.9711,"state":"QLD"},"type":"Feature","geometry":{"type":"Point","coordinates":[150.11499,-26.9711]}},{"properties":{"type":1,"client":"SkyMesh","lng":152.626376,"id":"a6my0dq1pp0m","lat":-26.899385,"state":"QLD"},"type":"Feature","geometry":{"type":"Point","coordinates":[152.626376,-26.899385]}},{"properties":{"type":1,"client":"SkyMesh","lng":152.9265,"id":"a6my0dtvmx8r","lat":-27.1001,"state":"QLD"},"type":"Feature","geometry":{"type":"Point","coordinates":[152.9265,-27.1001]}},{"properties":{"type":1,"client":"SkyMesh","lng":152.5427,"id":"a6my0dr4uc57","lat":-26.2023,"state":"QLD"},"type":"Feature","geometry":{"type":"Point","coordinates":[152.5427,-26.2023]}},{"properties":{"type":1,"client":"SkyMesh","lng":152.287125,"id":"a6my0drqvwhr","lat":-26.895213,"state":"QLD"},"type":"Feature","geometry":{"type":"Point","coordinates":[152.287125,-26.895213]}},{"properties":{"type":1,"client":"SkyMesh","lng":147.6761,"id":"a6my0do9oz2v","lat":-23.415,"state":"QLD"},"type":"Feature","geometry":{"type":"Point","coordinates":[147.6761,-23.415]}},{"properties":{"type":1,"client":"SkyMesh","lng":152.29689,"id":"a6my0dsfq3xy","lat":-27.992033,"state":"QLD"},"type":"Feature","geometry":{"type":"Point","coordinates":[152.29689,-27.992033]}},{"properties":{"type":1,"client":"SkyMesh","lng":153.053139,"id":"a6my0dgz1v1s","lat":-27.004768,"state":"QLD"},"type":"Feature","geometry":{"type":"Point","coordinates":[153.053139,-27.004768]}},{"properties":{"type":1,"client":"SkyMesh","lng":148.674934,"id":"a6my0dt6rtld","lat":-20.335669,"state":"QLD"},"type":"Feature","geometry":{"type":"Point","coordinates":[148.674934,-20.335669]}},{"properties":{"type":1,"client":"SkyMesh","lng":152.58036,"id":"a6my0di4mmb7","lat":-26.197931,"state":"QLD"},"type":"Feature","geometry":{"type":"Point","coordinates":[152.58036,-26.197931]}},{"properties":{"type":1,"client":"SkyMesh","lng":152.561142,"id":"a6my0dfmjom4","lat":-25.227438,"state":"QLD"},"type":"Feature","geometry":{"type":"Point","coordinates":[152.561142,-25.227438]}},{"properties":{"type":1,"client":"SkyMesh","lng":152.31877,"id":"a6my0dmfrleu","lat":-25.55404,"state":"QLD"},"type":"Feature","geometry":{"type":"Point","coordinates":[152.31877,-25.55404]}},{"properties":{"type":1,"client":"SkyMesh","lng":145.2322,"id":"a6my0dhy26xl","lat":-17.1658,"state":"QLD"},"type":"Feature","geometry":{"type":"Point","coordinates":[145.2322,-17.1658]}},{"properties":{"type":1,"client":"SkyMesh","lng":145.3723716,"id":"a6my0dhy0rgg","lat":-16.41096548,"state":"QLD"},"type":"Feature","geometry":{"type":"Point","coordinates":[145.3723716,-16.41096548]}},{"properties":{"type":1,"client":"SkyMesh","lng":152.6472,"id":"a6my0dem2xrj","lat":-25.4975,"state":"QLD"},"type":"Feature","geometry":{"type":"Point","coordinates":[152.6472,-25.4975]}},{"properties":{"type":1,"client":"SkyMesh","lng":152.857834,"id":"a6my0dl6yqnq","lat":-26.298508,"state":"QLD"},"type":"Feature","geometry":{"type":"Point","coordinates":[152.857834,-26.298508]}},{"properties":{"type":1,"client":"SkyMesh","lng":153.090668,"id":"a6my0dkdown3","lat":-26.850812,"state":"QLD"},"type":"Feature","geometry":{"type":"Point","coordinates":[153.090668,-26.850812]}},{"properties":{"type":1,"client":"SkyMesh","lng":152.427895,"id":"a6my0dknfos4","lat":-27.339624,"state":"QLD"},"type":"Feature","geometry":{"type":"Point","coordinates":[152.427895,-27.339624]}},{"properties":{"type":1,"client":"SkyMesh","lng":152.437746,"id":"a6my0do4d6kt","lat":-27.529791,"state":"QLD"},"type":"Feature","geometry":{"type":"Point","coordinates":[152.437746,-27.529791]}},{"properties":{"type":1,"client":"SkyMesh","lng":145.3395,"id":"a6my0dgq0gjc","lat":-16.5867,"state":"QLD"},"type":"Feature","geometry":{"type":"Point","coordinates":[145.3395,-16.5867]}},{"properties":{"type":1,"client":"SkyMesh","lng":152.9136,"id":"a6my0dhcz0re","lat":-27.7124,"state":"QLD"},"type":"Feature","geometry":{"type":"Point","coordinates":[152.9136,-27.7124]}},{"properties":{"type":1,"client":"SkyMesh","lng":152.219499,"id":"a6my0doouf94","lat":-27.721944,"state":"QLD"},"type":"Feature","geometry":{"type":"Point","coordinates":[152.219499,-27.721944]}},{"properties":{"type":1,"client":"SkyMesh","lng":145.526193,"id":"a6my0dt3wdfh","lat":-17.656222,"state":"QLD"},"type":"Feature","geometry":{"type":"Point","coordinates":[145.526193,-17.656222]}},{"properties":{"type":1,"client":"Westnet","lng":152.3103,"id":"a6my0di1kbml","lat":-26.9539,"state":"QLD"},"type":"Feature","geometry":{"type":"Point","coordinates":[152.3103,-26.9539]}},{"properties":{"type":1,"client":"Westnet","lng":151.305142,"id":"a6my0dmd81wm","lat":-24.693989,"state":"QLD"},"type":"Feature","geometry":{"type":"Point","coordinates":[151.305142,-24.693989]}},{"properties":{"type":1,"client":"SkyMesh","lng":145.8717,"id":"a6my0dk7lwfo","lat":-17.4796,"state":"QLD"},"type":"Feature","geometry":{"type":"Point","coordinates":[145.8717,-17.4796]}},{"properties":{"type":1,"client":"Westnet","lng":153.38,"id":"a6my0dpn9y3w","lat":-28.13,"state":"QLD"},"type":"Feature","geometry":{"type":"Point","coordinates":[153.38,-28.13]}},{"properties":{"type":1,"client":"SkyMesh","lng":145.4177,"id":"a6my0dflgf12","lat":-16.2261,"state":"QLD"},"type":"Feature","geometry":{"type":"Point","coordinates":[145.4177,-16.2261]}},{"properties":{"type":1,"client":"SkyMesh","lng":145.29,"id":"a6my0dmtbpq8","lat":-18.44,"state":"QLD"},"type":"Feature","geometry":{"type":"Point","coordinates":[145.29,-18.44]}},{"properties":{"type":1,"client":"SkyMesh","lng":152.7319292,"id":"a6my0dehk2bm","lat":-26.06587787,"state":"QLD"},"type":"Feature","geometry":{"type":"Point","coordinates":[152.7319292,-26.06587787]}},{"properties":{"type":1,"client":"SkyMesh","lng":152.2211405,"id":"a6my0dlesqv1","lat":-27.71748074,"state":"QLD"},"type":"Feature","geometry":{"type":"Point","coordinates":[152.2211405,-27.71748074]}},{"properties":{"type":1,"client":"SkyMesh","lng":152.2939,"id":"a6my0dq3vi3t","lat":-26.8925,"state":"QLD"},"type":"Feature","geometry":{"type":"Point","coordinates":[152.2939,-26.8925]}},{"properties":{"type":1,"client":"SkyMesh","lng":152.942,"id":"a6my0di5d54w","lat":-26.352,"state":"QLD"},"type":"Feature","geometry":{"type":"Point","coordinates":[152.942,-26.352]}},{"properties":{"type":1,"client":"SkyMesh","lng":152.749381,"id":"a6my0dhbzbky","lat":-26.69271,"state":"QLD"},"type":"Feature","geometry":{"type":"Point","coordinates":[152.749381,-26.69271]}},{"properties":{"type":1,"client":"SkyMesh","lng":152.8509,"id":"a6my0dsicztw","lat":-27.0678,"state":"QLD"},"type":"Feature","geometry":{"type":"Point","coordinates":[152.8509,-27.0678]}},{"properties":{"type":1,"client":"SkyMesh","lng":147.2915,"id":"a6my0dhy3nt9","lat":-23.653,"state":"QLD"},"type":"Feature","geometry":{"type":"Point","coordinates":[147.2915,-23.653]}},{"properties":{"type":1,"client":"SkyMesh","lng":151.918625,"id":"a6my0dg7rfe4","lat":-28.797318,"state":"QLD"},"type":"Feature","geometry":{"type":"Point","coordinates":[151.918625,-28.797318]}},{"properties":{"type":1,"client":"SkyMesh","lng":151.760101,"id":"a6my0decrkuv","lat":-26.729504,"state":"QLD"},"type":"Feature","geometry":{"type":"Point","coordinates":[151.760101,-26.729504]}},{"properties":{"type":1,"client":"SkyMesh","lng":149.3292,"id":"a6my0dfb0l7h","lat":-23.6414,"state":"QLD"},"type":"Feature","geometry":{"type":"Point","coordinates":[149.3292,-23.6414]}},{"properties":{"type":1,"client":"SkyMesh","lng":152.5497,"id":"a6my0dnkktab","lat":-27.1203,"state":"QLD"},"type":"Feature","geometry":{"type":"Point","coordinates":[152.5497,-27.1203]}},{"properties":{"type":1,"client":"Westnet","lng":152.011384,"id":"a6my0drmfqzo","lat":-25.845005,"state":"QLD"},"type":"Feature","geometry":{"type":"Point","coordinates":[152.011384,-25.845005]}},{"properties":{"type":1,"client":"SkyMesh","lng":152.216771,"id":"a6my0dk0uv4f","lat":-24.710324,"state":"QLD"},"type":"Feature","geometry":{"type":"Point","coordinates":[152.216771,-24.710324]}},{"properties":{"type":1,"client":"SkyMesh","lng":145.3272,"id":"a6my0djctq22","lat":-16.3787,"state":"QLD"},"type":"Feature","geometry":{"type":"Point","coordinates":[145.3272,-16.3787]}},{"properties":{"type":1,"client":"SkyMesh","lng":151.631729,"id":"a6my0doeavvp","lat":-25.042894,"state":"QLD"},"type":"Feature","geometry":{"type":"Point","coordinates":[151.631729,-25.042894]}},{"properties":{"type":1,"client":"SkyMesh","lng":151.701805,"id":"a6my0dsnw09f","lat":-27.6481,"state":"QLD"},"type":"Feature","geometry":{"type":"Point","coordinates":[151.701805,-27.6481]}},{"properties":{"type":1,"client":"SkyMesh","lng":152.160782,"id":"a6my0de6noa3","lat":-24.734043,"state":"QLD"},"type":"Feature","geometry":{"type":"Point","coordinates":[152.160782,-24.734043]}},{"properties":{"type":1,"client":"SkyMesh","lng":152.70015,"id":"a6my0dltekzc","lat":-26.135614,"state":"QLD"},"type":"Feature","geometry":{"type":"Point","coordinates":[152.70015,-26.135614]}},{"properties":{"type":1,"client":"SkyMesh","lng":147.958694,"id":"a6my0dr4vc20","lat":-20.335986,"state":"QLD"},"type":"Feature","geometry":{"type":"Point","coordinates":[147.958694,-20.335986]}},{"properties":{"type":1,"client":"SkyMesh","lng":153.148169,"id":"a6my0dfgj5um","lat":-28.086381,"state":"QLD"},"type":"Feature","geometry":{"type":"Point","coordinates":[153.148169,-28.086381]}},{"properties":{"type":1,"client":"SkyMesh","lng":144.999,"id":"a6my0dkao0in","lat":-17.1398,"state":"QLD"},"type":"Feature","geometry":{"type":"Point","coordinates":[144.999,-17.1398]}},{"properties":{"type":1,"client":"SkyMesh","lng":151.782715,"id":"a6my0dnertp4","lat":-27.866755,"state":"QLD"},"type":"Feature","geometry":{"type":"Point","coordinates":[151.782715,-27.866755]}},{"properties":{"type":1,"client":"SkyMesh","lng":151.815485,"id":"a6my0dkswfi7","lat":-26.40716,"state":"QLD"},"type":"Feature","geometry":{"type":"Point","coordinates":[151.815485,-26.40716]}},{"properties":{"type":1,"client":"SkyMesh","lng":151.855003,"id":"a6my0dfwvo06","lat":-25.052591,"state":"QLD"},"type":"Feature","geometry":{"type":"Point","coordinates":[151.855003,-25.052591]}},{"properties":{"type":1,"client":"SkyMesh","lng":152.7088,"id":"a6my0df8joye","lat":-25.3395,"state":"QLD"},"type":"Feature","geometry":{"type":"Point","coordinates":[152.7088,-25.3395]}},{"properties":{"type":1,"client":"SkyMesh","lng":152.169132,"id":"a6my0defxztp","lat":-25.013637,"state":"QLD"},"type":"Feature","geometry":{"type":"Point","coordinates":[152.169132,-25.013637]}},{"properties":{"type":1,"client":"SkyMesh","lng":152.4823,"id":"a6my0dng7yho","lat":-27.8927,"state":"QLD"},"type":"Feature","geometry":{"type":"Point","coordinates":[152.4823,-27.8927]}},{"properties":{"type":1,"client":"Westnet","lng":152.341297,"id":"a6my0dep3p8c","lat":-27.267924,"state":"QLD"},"type":"Feature","geometry":{"type":"Point","coordinates":[152.341297,-27.267924]}},{"properties":{"type":1,"client":"Westnet","lng":152.401589,"id":"a6my0divrdpz","lat":-25.982153,"state":"QLD"},"type":"Feature","geometry":{"type":"Point","coordinates":[152.401589,-25.982153]}},{"properties":{"type":1,"client":"Westnet","lng":145.268776,"id":"a6my0dgnyyub","lat":-17.678891,"state":"QLD"},"type":"Feature","geometry":{"type":"Point","coordinates":[145.268776,-17.678891]}},{"properties":{"type":1,"client":"SkyMesh","lng":145.7387,"id":"a6my0dnly8qd","lat":-17.0375,"state":"QLD"},"type":"Feature","geometry":{"type":"Point","coordinates":[145.7387,-17.0375]}},{"properties":{"type":1,"client":"SkyMesh","lng":151.5041,"id":"a6my0drf2s8m","lat":-25.4665,"state":"QLD"},"type":"Feature","geometry":{"type":"Point","coordinates":[151.5041,-25.4665]}},{"properties":{"type":1,"client":"SkyMesh","lng":152.2926277,"id":"a6my0dsfy8vj","lat":-25.54604168,"state":"QLD"},"type":"Feature","geometry":{"type":"Point","coordinates":[152.2926277,-25.54604168]}},{"properties":{"type":1,"client":"SkyMesh","lng":152.3118,"id":"a6my0di6d3k2","lat":-25.1797,"state":"QLD"},"type":"Feature","geometry":{"type":"Point","coordinates":[152.3118,-25.1797]}},{"properties":{"type":1,"client":"SkyMesh","lng":152.3879,"id":"a6my0dqu3hkt","lat":-26.2507,"state":"QLD"},"type":"Feature","geometry":{"type":"Point","coordinates":[152.3879,-26.2507]}},{"properties":{"type":1,"client":"Clear Networks","lng":145.9393,"id":"a6my0di2ijqb","lat":-17.6481,"state":"QLD"},"type":"Feature","geometry":{"type":"Point","coordinates":[145.9393,-17.6481]}},{"properties":{"type":1,"client":"Clear Networks","lng":152.5372,"id":"a6my0djto6pb","lat":-26.9525,"state":"QLD"},"type":"Feature","geometry":{"type":"Point","coordinates":[152.5372,-26.9525]}},{"properties":{"type":1,"client":"SkyMesh","lng":152.228607,"id":"a6my0dpp8he8","lat":-24.906859,"state":"QLD"},"type":"Feature","geometry":{"type":"Point","coordinates":[152.228607,-24.906859]}},{"properties":{"type":1,"client":"SkyMesh","lng":151.780495,"id":"a6my0dpaltr7","lat":-28.651783,"state":"QLD"},"type":"Feature","geometry":{"type":"Point","coordinates":[151.780495,-28.651783]}},{"properties":{"type":1,"client":"SkyMesh","lng":148.949875,"id":"a6my0dtrn1ut","lat":-21.007141,"state":"QLD"},"type":"Feature","geometry":{"type":"Point","coordinates":[148.949875,-21.007141]}},{"properties":{"type":1,"client":"SkyMesh","lng":153.0704,"id":"a6my0dilq9w9","lat":-27.902467,"state":"QLD"},"type":"Feature","geometry":{"type":"Point","coordinates":[153.0704,-27.902467]}},{"properties":{"type":1,"client":"SkyMesh","lng":150.0401,"id":"a6my0dg6p6z4","lat":-26.2549,"state":"QLD"},"type":"Feature","geometry":{"type":"Point","coordinates":[150.0401,-26.2549]}},{"properties":{"type":1,"client":"SkyMesh","lng":145.5384,"id":"a6my0dq6g9ea","lat":-28.4687,"state":"QLD"},"type":"Feature","geometry":{"type":"Point","coordinates":[145.5384,-28.4687]}},{"properties":{"type":1,"client":"SkyMesh","lng":152.837509,"id":"a6my0dl56u74","lat":-26.381464,"state":"QLD"},"type":"Feature","geometry":{"type":"Point","coordinates":[152.837509,-26.381464]}},{"properties":{"type":1,"client":"SkyMesh","lng":146.230667,"id":"a6my0djb3hvp","lat":-20.117952,"state":"QLD"},"type":"Feature","geometry":{"type":"Point","coordinates":[146.230667,-20.117952]}},{"properties":{"type":1,"client":"SkyMesh","lng":152.3678,"id":"a6my0dj7dadm","lat":-27.4587,"state":"QLD"},"type":"Feature","geometry":{"type":"Point","coordinates":[152.3678,-27.4587]}},{"properties":{"type":1,"client":"Westnet","lng":146.07,"id":"a6my0des48yu","lat":-17.59,"state":"QLD"},"type":"Feature","geometry":{"type":"Point","coordinates":[146.07,-17.59]}},{"properties":{"type":1,"client":"SkyMesh","lng":143.1667,"id":"a6my0dpamxdr","lat":-23.0583,"state":"QLD"},"type":"Feature","geometry":{"type":"Point","coordinates":[143.1667,-23.0583]}},{"properties":{"type":1,"client":"SkyMesh","lng":152.6334349,"id":"a6my0dl13vbn","lat":-26.2074936,"state":"QLD"},"type":"Feature","geometry":{"type":"Point","coordinates":[152.6334349,-26.2074936]}},{"properties":{"type":1,"client":"SkyMesh","lng":152.9198,"id":"a6my0dt0tqem","lat":-27.3147,"state":"QLD"},"type":"Feature","geometry":{"type":"Point","coordinates":[152.9198,-27.3147]}},{"properties":{"type":1,"client":"SkyMesh","lng":141.2868,"id":"a6my0dg68u77","lat":-22.3746,"state":"QLD"},"type":"Feature","geometry":{"type":"Point","coordinates":[141.2868,-22.3746]}},{"properties":{"type":1,"client":"SkyMesh","lng":144.9772,"id":"a6my0dglrmim","lat":-19.0003,"state":"QLD"},"type":"Feature","geometry":{"type":"Point","coordinates":[144.9772,-19.0003]}},{"properties":{"type":1,"client":"SkyMesh","lng":152.782796,"id":"a6my0dpex636","lat":-27.788895,"state":"QLD"},"type":"Feature","geometry":{"type":"Point","coordinates":[152.782796,-27.788895]}},{"properties":{"type":1,"client":"SkyMesh","lng":145.8675,"id":"a6my0dkcn9cz","lat":-17.118538,"state":"QLD"},"type":"Feature","geometry":{"type":"Point","coordinates":[145.8675,-17.118538]}},{"properties":{"type":1,"client":"SkyMesh","lng":145.973083,"id":"a6my0dqu1y6k","lat":-17.448589,"state":"QLD"},"type":"Feature","geometry":{"type":"Point","coordinates":[145.973083,-17.448589]}},{"properties":{"type":1,"client":"SkyMesh","lng":153.137,"id":"a6my0dmcnh3m","lat":-27.7428,"state":"QLD"},"type":"Feature","geometry":{"type":"Point","coordinates":[153.137,-27.7428]}},{"properties":{"type":1,"client":"SkyMesh","lng":152.315155,"id":"a6my0deenas4","lat":-24.845007,"state":"QLD"},"type":"Feature","geometry":{"type":"Point","coordinates":[152.315155,-24.845007]}},{"properties":{"type":1,"client":"SkyMesh","lng":151.6576,"id":"a6my0dpydx9q","lat":-27.3012,"state":"QLD"},"type":"Feature","geometry":{"type":"Point","coordinates":[151.6576,-27.3012]}},{"properties":{"type":1,"client":"SkyMesh","lng":145.564029,"id":"a6my0dk15s7w","lat":-17.780295,"state":"QLD"},"type":"Feature","geometry":{"type":"Point","coordinates":[145.564029,-17.780295]}},{"properties":{"type":1,"client":"SkyMesh","lng":151.6125,"id":"a6my0don1mpl","lat":-24.9026,"state":"QLD"},"type":"Feature","geometry":{"type":"Point","coordinates":[151.6125,-24.9026]}},{"properties":{"type":1,"client":"SkyMesh","lng":152.2502,"id":"a6my0du69sfx","lat":-28.2268,"state":"QLD"},"type":"Feature","geometry":{"type":"Point","coordinates":[152.2502,-28.2268]}},{"properties":{"type":1,"client":"SkyMesh","lng":150.3922,"id":"a6my0dja3ivs","lat":-27.0496,"state":"QLD"},"type":"Feature","geometry":{"type":"Point","coordinates":[150.3922,-27.0496]}},{"properties":{"type":1,"client":"SkyMesh","lng":147.4789,"id":"a6my0dfst58k","lat":-19.4547,"state":"QLD"},"type":"Feature","geometry":{"type":"Point","coordinates":[147.4789,-19.4547]}},{"properties":{"type":1,"client":"SkyMesh","lng":151.9137,"id":"a6my0disj1ep","lat":-26.9247,"state":"QLD"},"type":"Feature","geometry":{"type":"Point","coordinates":[151.9137,-26.9247]}},{"properties":{"type":1,"client":"SkyMesh","lng":152.581487,"id":"a6my0dorvyqv","lat":-26.271354,"state":"QLD"},"type":"Feature","geometry":{"type":"Point","coordinates":[152.581487,-26.271354]}},{"properties":{"type":1,"client":"SkyMesh","lng":148.8329,"id":"a6my0do645nc","lat":-21.2302,"state":"QLD"},"type":"Feature","geometry":{"type":"Point","coordinates":[148.8329,-21.2302]}},{"properties":{"type":1,"client":"Westnet","lng":151.9525,"id":"a6my0dn9iqj1","lat":-27.1455,"state":"QLD"},"type":"Feature","geometry":{"type":"Point","coordinates":[151.9525,-27.1455]}},{"properties":{"type":1,"client":"SkyMesh","lng":152.904052,"id":"a6my0dgblnu3","lat":-27.04555016,"state":"QLD"},"type":"Feature","geometry":{"type":"Point","coordinates":[152.904052,-27.04555016]}},{"properties":{"type":1,"client":"SkyMesh","lng":145.298737,"id":"a6my0dtbzcr2","lat":-17.579038,"state":"QLD"},"type":"Feature","geometry":{"type":"Point","coordinates":[145.298737,-17.579038]}},{"properties":{"type":1,"client":"SkyMesh","lng":152.58519,"id":"a6my0des5z4l","lat":-25.282591,"state":"QLD"},"type":"Feature","geometry":{"type":"Point","coordinates":[152.58519,-25.282591]}},{"properties":{"type":1,"client":"SkyMesh","lng":151.388458,"id":"a6my0dgakpqj","lat":-24.531337,"state":"QLD"},"type":"Feature","geometry":{"type":"Point","coordinates":[151.388458,-24.531337]}},{"properties":{"type":1,"client":"SkyMesh","lng":145.355278,"id":"a6my0dqqrdo9","lat":-15.906715,"state":"QLD"},"type":"Feature","geometry":{"type":"Point","coordinates":[145.355278,-15.906715]}},{"properties":{"type":1,"client":"SkyMesh","lng":151.600614,"id":"a6my0dfynir6","lat":-26.160661,"state":"QLD"},"type":"Feature","geometry":{"type":"Point","coordinates":[151.600614,-26.160661]}},{"properties":{"type":1,"client":"SkyMesh","lng":152.2206695,"id":"a6my0dqpss2m","lat":-27.63438649,"state":"QLD"},"type":"Feature","geometry":{"type":"Point","coordinates":[152.2206695,-27.63438649]}},{"properties":{"type":1,"client":"SkyMesh","lng":152.313904,"id":"a6my0dlzme4p","lat":-25.181222,"state":"QLD"},"type":"Feature","geometry":{"type":"Point","coordinates":[152.313904,-25.181222]}},{"properties":{"type":1,"client":"SkyMesh","lng":152.705634,"id":"a6my0dqkay64","lat":-28.167093,"state":"QLD"},"type":"Feature","geometry":{"type":"Point","coordinates":[152.705634,-28.167093]}},{"properties":{"type":1,"client":"SkyMesh","lng":151.835655,"id":"a6my0dkqdl3c","lat":-25.009642,"state":"QLD"},"type":"Feature","geometry":{"type":"Point","coordinates":[151.835655,-25.009642]}},{"properties":{"type":1,"client":"SkyMesh","lng":151.8799,"id":"a6my0dn6pwwb","lat":-25.034,"state":"QLD"},"type":"Feature","geometry":{"type":"Point","coordinates":[151.8799,-25.034]}},{"properties":{"type":1,"client":"SkyMesh","lng":145.154901,"id":"a6my0dquwgo2","lat":-17.100764,"state":"QLD"},"type":"Feature","geometry":{"type":"Point","coordinates":[145.154901,-17.100764]}},{"properties":{"type":1,"client":"Clear Networks","lng":145.4212,"id":"a6my0dl7vvme","lat":-17.5115,"state":"QLD"},"type":"Feature","geometry":{"type":"Point","coordinates":[145.4212,-17.5115]}},{"properties":{"type":1,"client":"SkyMesh","lng":145.4169,"id":"a6my0dpzmdyz","lat":-17.3985,"state":"QLD"},"type":"Feature","geometry":{"type":"Point","coordinates":[145.4169,-17.3985]}},{"properties":{"type":1,"client":"SkyMesh","lng":152.9099,"id":"a6my0dqd7swt","lat":-26.8128,"state":"QLD"},"type":"Feature","geometry":{"type":"Point","coordinates":[152.9099,-26.8128]}},{"properties":{"type":1,"client":"SkyMesh","lng":152.266022,"id":"a6my0digpsgf","lat":-28.175389,"state":"QLD"},"type":"Feature","geometry":{"type":"Point","coordinates":[152.266022,-28.175389]}},{"properties":{"type":1,"client":"SkyMesh","lng":144.99926,"id":"a6my0drgr5vz","lat":-17.128918,"state":"QLD"},"type":"Feature","geometry":{"type":"Point","coordinates":[144.99926,-17.128918]}},{"properties":{"type":1,"client":"SkyMesh","lng":151.7346,"id":"a6my0dtz5ehb","lat":-28.1582,"state":"QLD"},"type":"Feature","geometry":{"type":"Point","coordinates":[151.7346,-28.1582]}},{"properties":{"type":1,"client":"SkyMesh","lng":149.202684,"id":"a6my0dj7zdzi","lat":-21.242528,"state":"QLD"},"type":"Feature","geometry":{"type":"Point","coordinates":[149.202684,-21.242528]}},{"properties":{"type":1,"client":"SkyMesh","lng":152.8083,"id":"a6my0dl8yblf","lat":-26.1335,"state":"QLD"},"type":"Feature","geometry":{"type":"Point","coordinates":[152.8083,-26.1335]}},{"properties":{"type":1,"client":"SkyMesh","lng":153.2735,"id":"a6my0dentxzd","lat":-27.963,"state":"QLD"},"type":"Feature","geometry":{"type":"Point","coordinates":[153.2735,-27.963]}},{"properties":{"type":1,"client":"SkyMesh","lng":152.162506,"id":"a6my0dpmq8xv","lat":-27.324412,"state":"QLD"},"type":"Feature","geometry":{"type":"Point","coordinates":[152.162506,-27.324412]}},{"properties":{"type":1,"client":"SkyMesh","lng":152.07811,"id":"a6my0dhr5fhc","lat":-27.625515,"state":"QLD"},"type":"Feature","geometry":{"type":"Point","coordinates":[152.07811,-27.625515]}},{"properties":{"type":1,"client":"SkyMesh","lng":152.617136,"id":"a6my0dlqevty","lat":-25.683846,"state":"QLD"},"type":"Feature","geometry":{"type":"Point","coordinates":[152.617136,-25.683846]}},{"properties":{"type":1,"client":"SkyMesh","lng":151.971858,"id":"a6my0dshbymz","lat":-26.45513719,"state":"QLD"},"type":"Feature","geometry":{"type":"Point","coordinates":[151.971858,-26.45513719]}},{"properties":{"type":1,"client":"Westnet","lng":152.9259,"id":"a6my0dju4bwd","lat":-26.2155,"state":"QLD"},"type":"Feature","geometry":{"type":"Point","coordinates":[152.9259,-26.2155]}},{"properties":{"type":1,"client":"Clear Networks","lng":151.9751,"id":"a6my0dg9rdii","lat":-28.7714,"state":"QLD"},"type":"Feature","geometry":{"type":"Point","coordinates":[151.9751,-28.7714]}},{"properties":{"type":1,"client":"Westnet","lng":150.397528,"id":"a6my0dje0c7g","lat":-27.271314,"state":"QLD"},"type":"Feature","geometry":{"type":"Point","coordinates":[150.397528,-27.271314]}},{"properties":{"type":1,"client":"SkyMesh","lng":146.448268,"id":"a6my0di9h9cf","lat":-19.377772,"state":"QLD"},"type":"Feature","geometry":{"type":"Point","coordinates":[146.448268,-19.377772]}},{"properties":{"type":1,"client":"Westnet","lng":146.03,"id":"a6my0dre1u0v","lat":-18.52,"state":"QLD"},"type":"Feature","geometry":{"type":"Point","coordinates":[146.03,-18.52]}},{"properties":{"type":1,"client":"SkyMesh","lng":145.4243,"id":"a6my0doti3lo","lat":-16.5964,"state":"QLD"},"type":"Feature","geometry":{"type":"Point","coordinates":[145.4243,-16.5964]}},{"properties":{"type":1,"client":"SkyMesh","lng":152.2968,"id":"a6my0dog4xy5","lat":-26.8893,"state":"QLD"},"type":"Feature","geometry":{"type":"Point","coordinates":[152.2968,-26.8893]}},{"properties":{"type":1,"client":"SkyMesh","lng":147.1659,"id":"a6my0djqk5fe","lat":-19.7562,"state":"QLD"},"type":"Feature","geometry":{"type":"Point","coordinates":[147.1659,-19.7562]}},{"properties":{"type":1,"client":"SkyMesh","lng":152.723221,"id":"a6my0dp43uji","lat":-26.016666,"state":"QLD"},"type":"Feature","geometry":{"type":"Point","coordinates":[152.723221,-26.016666]}},{"properties":{"type":1,"client":"SkyMesh","lng":145.3143,"id":"a6my0djkwyye","lat":-17.3783,"state":"QLD"},"type":"Feature","geometry":{"type":"Point","coordinates":[145.3143,-17.3783]}},{"properties":{"type":1,"client":"Westnet","lng":152.723,"id":"a6my0dri2zjd","lat":-26.223,"state":"QLD"},"type":"Feature","geometry":{"type":"Point","coordinates":[152.723,-26.223]}},{"properties":{"type":1,"client":"Westnet","lng":152.105044,"id":"a6my0dhcyr38","lat":-24.779248,"state":"QLD"},"type":"Feature","geometry":{"type":"Point","coordinates":[152.105044,-24.779248]}},{"properties":{"type":1,"client":"Westnet","lng":147.36527,"id":"a6my0dhnyk1c","lat":-24.146417,"state":"QLD"},"type":"Feature","geometry":{"type":"Point","coordinates":[147.36527,-24.146417]}},{"properties":{"type":1,"client":"Clear Networks","lng":145.6986,"id":"a6my0dg5ym5n","lat":-17.5507,"state":"QLD"},"type":"Feature","geometry":{"type":"Point","coordinates":[145.6986,-17.5507]}},{"properties":{"type":1,"client":"SkyMesh","lng":151.231904,"id":"a6my0dlvss2a","lat":-24.788266,"state":"QLD"},"type":"Feature","geometry":{"type":"Point","coordinates":[151.231904,-24.788266]}},{"properties":{"type":1,"client":"SkyMesh","lng":151.6788,"id":"a6my0dhvu46b","lat":-28.5075,"state":"QLD"},"type":"Feature","geometry":{"type":"Point","coordinates":[151.6788,-28.5075]}},{"properties":{"type":1,"client":"SkyMesh","lng":152.5615,"id":"a6my0dnfoqnl","lat":-26.2265,"state":"QLD"},"type":"Feature","geometry":{"type":"Point","coordinates":[152.5615,-26.2265]}},{"properties":{"type":1,"client":"SkyMesh","lng":148.580377,"id":"a6my0dnr4xf1","lat":-28.033796,"state":"QLD"},"type":"Feature","geometry":{"type":"Point","coordinates":[148.580377,-28.033796]}},{"properties":{"type":1,"client":"SkyMesh","lng":151.864319,"id":"a6my0djzgg0h","lat":-25.483861,"state":"QLD"},"type":"Feature","geometry":{"type":"Point","coordinates":[151.864319,-25.483861]}},{"properties":{"type":1,"client":"SkyMesh","lng":152.7582,"id":"a6my0dpub0e8","lat":-27.1456,"state":"QLD"},"type":"Feature","geometry":{"type":"Point","coordinates":[152.7582,-27.1456]}},{"properties":{"type":1,"client":"SkyMesh","lng":152.5539,"id":"a6my0dphjtzz","lat":-25.3476,"state":"QLD"},"type":"Feature","geometry":{"type":"Point","coordinates":[152.5539,-25.3476]}},{"properties":{"type":1,"client":"SkyMesh","lng":151.5257,"id":"a6my0do48dnl","lat":-24.1059,"state":"QLD"},"type":"Feature","geometry":{"type":"Point","coordinates":[151.5257,-24.1059]}},{"properties":{"type":1,"client":"SkyMesh","lng":152.567039,"id":"a6my0dr8m7jl","lat":-26.485359,"state":"QLD"},"type":"Feature","geometry":{"type":"Point","coordinates":[152.567039,-26.485359]}},{"properties":{"type":1,"client":"SkyMesh","lng":152.803635,"id":"a6my0dsofnsk","lat":-28.200393,"state":"QLD"},"type":"Feature","geometry":{"type":"Point","coordinates":[152.803635,-28.200393]}},{"properties":{"type":1,"client":"SkyMesh","lng":148.6628,"id":"a6my0df33flh","lat":-20.267,"state":"QLD"},"type":"Feature","geometry":{"type":"Point","coordinates":[148.6628,-20.267]}},{"properties":{"type":1,"client":"SkyMesh","lng":151.8868336,"id":"a6my0deaf3ts","lat":-25.06367178,"state":"QLD"},"type":"Feature","geometry":{"type":"Point","coordinates":[151.8868336,-25.06367178]}},{"properties":{"type":1,"client":"SkyMesh","lng":151.7494,"id":"a6my0dqsyxax","lat":-25.0395,"state":"QLD"},"type":"Feature","geometry":{"type":"Point","coordinates":[151.7494,-25.0395]}},{"properties":{"type":1,"client":"Westnet","lng":145.645224,"id":"a6my0dpihgos","lat":-17.278592,"state":"QLD"},"type":"Feature","geometry":{"type":"Point","coordinates":[145.645224,-17.278592]}},{"properties":{"type":1,"client":"Westnet","lng":152.58,"id":"a6my0dj697b5","lat":-25.24,"state":"QLD"},"type":"Feature","geometry":{"type":"Point","coordinates":[152.58,-25.24]}},{"properties":{"type":1,"client":"SkyMesh","lng":152.071,"id":"a6my0dnnwdfd","lat":-27.0789,"state":"QLD"},"type":"Feature","geometry":{"type":"Point","coordinates":[152.071,-27.0789]}},{"properties":{"type":1,"client":"SkyMesh","lng":148.7479,"id":"a6my0dl3ii17","lat":-21.085781,"state":"QLD"},"type":"Feature","geometry":{"type":"Point","coordinates":[148.7479,-21.085781]}},{"properties":{"type":1,"client":"Westnet","lng":140.3335,"id":"a6my0dfmf4uy","lat":-19.8126,"state":"QLD"},"type":"Feature","geometry":{"type":"Point","coordinates":[140.3335,-19.8126]}},{"properties":{"type":1,"client":"SkyMesh","lng":145.4250499,"id":"a6my0denygpq","lat":-16.2323095,"state":"QLD"},"type":"Feature","geometry":{"type":"Point","coordinates":[145.4250499,-16.2323095]}},{"properties":{"type":1,"client":"SkyMesh","lng":145.459917,"id":"a6my0dn348g0","lat":-16.094913,"state":"QLD"},"type":"Feature","geometry":{"type":"Point","coordinates":[145.459917,-16.094913]}},{"properties":{"type":1,"client":"SkyMesh","lng":152.695724,"id":"a6my0dnwvy7w","lat":-26.618823,"state":"QLD"},"type":"Feature","geometry":{"type":"Point","coordinates":[152.695724,-26.618823]}},{"properties":{"type":1,"client":"SkyMesh","lng":151.6328,"id":"a6my0dtpyy20","lat":-27.2635,"state":"QLD"},"type":"Feature","geometry":{"type":"Point","coordinates":[151.6328,-27.2635]}},{"properties":{"type":1,"client":"SkyMesh","lng":146.1659718,"id":"a6my0dr7z4f1","lat":-18.53585065,"state":"QLD"},"type":"Feature","geometry":{"type":"Point","coordinates":[146.1659718,-18.53585065]}},{"properties":{"type":1,"client":"SkyMesh","lng":152.185066,"id":"a6my0dkheung","lat":-27.620054,"state":"QLD"},"type":"Feature","geometry":{"type":"Point","coordinates":[152.185066,-27.620054]}},{"properties":{"type":1,"client":"SkyMesh","lng":152.537086,"id":"a6my0dp8mf1a","lat":-28.202484,"state":"QLD"},"type":"Feature","geometry":{"type":"Point","coordinates":[152.537086,-28.202484]}},{"properties":{"type":1,"client":"SkyMesh","lng":151.1872,"id":"a6my0dh7umis","lat":-24.1543,"state":"QLD"},"type":"Feature","geometry":{"type":"Point","coordinates":[151.1872,-24.1543]}},{"properties":{"type":1,"client":"Clear Networks","lng":151.9245853,"id":"a6my0dl44ixd","lat":-26.2240362,"state":"QLD"},"type":"Feature","geometry":{"type":"Point","coordinates":[151.9245853,-26.2240362]}},{"properties":{"type":1,"client":"SkyMesh","lng":152.307724,"id":"a6my0dtt8ex6","lat":-27.352179,"state":"QLD"},"type":"Feature","geometry":{"type":"Point","coordinates":[152.307724,-27.352179]}},{"properties":{"type":1,"client":"SkyMesh","lng":152.9652,"id":"a6my0dgv6nm9","lat":-27.8628,"state":"QLD"},"type":"Feature","geometry":{"type":"Point","coordinates":[152.9652,-27.8628]}},{"properties":{"type":1,"client":"SkyMesh","lng":148.650879,"id":"a6my0dl6kpcf","lat":-20.83602,"state":"QLD"},"type":"Feature","geometry":{"type":"Point","coordinates":[148.650879,-20.83602]}},{"properties":{"type":1,"client":"SkyMesh","lng":152.1511134,"id":"a6my0dh94lhd","lat":-24.88281954,"state":"QLD"},"type":"Feature","geometry":{"type":"Point","coordinates":[152.1511134,-24.88281954]}},{"properties":{"type":1,"client":"SkyMesh","lng":145.2976,"id":"a6my0dgvgw00","lat":-16.205,"state":"QLD"},"type":"Feature","geometry":{"type":"Point","coordinates":[145.2976,-16.205]}},{"properties":{"type":1,"client":"SkyMesh","lng":145.1993,"id":"a6my0dgqhby6","lat":-24.2798,"state":"QLD"},"type":"Feature","geometry":{"type":"Point","coordinates":[145.1993,-24.2798]}},{"properties":{"type":1,"client":"SkyMesh","lng":152.92791,"id":"a6my0djh2yaf","lat":-26.274202,"state":"QLD"},"type":"Feature","geometry":{"type":"Point","coordinates":[152.92791,-26.274202]}},{"properties":{"type":1,"client":"SkyMesh","lng":145.960365,"id":"a6my0doa8qtc","lat":-18.111116,"state":"QLD"},"type":"Feature","geometry":{"type":"Point","coordinates":[145.960365,-18.111116]}},{"properties":{"type":1,"client":"SkyMesh","lng":149.178558,"id":"a6my0do7b2dx","lat":-21.530087,"state":"QLD"},"type":"Feature","geometry":{"type":"Point","coordinates":[149.178558,-21.530087]}},{"properties":{"type":1,"client":"SkyMesh","lng":151.9692,"id":"a6my0dt480yh","lat":-26.4349,"state":"QLD"},"type":"Feature","geometry":{"type":"Point","coordinates":[151.9692,-26.4349]}},{"properties":{"type":1,"client":"SkyMesh","lng":143.2355,"id":"a6my0drbckz5","lat":-20.7362,"state":"QLD"},"type":"Feature","geometry":{"type":"Point","coordinates":[143.2355,-20.7362]}},{"properties":{"type":1,"client":"Westnet","lng":148.85,"id":"a6my0djnn8z7","lat":-37.6,"state":"VIC"},"type":"Feature","geometry":{"type":"Point","coordinates":[148.85,-37.6]}},{"properties":{"type":1,"client":"Clear Networks","lng":143.9749,"id":"a6my0dt2zj61","lat":-38.0126,"state":"VIC"},"type":"Feature","geometry":{"type":"Point","coordinates":[143.9749,-38.0126]}},{"properties":{"type":1,"client":"SkyMesh","lng":146.039215,"id":"a6my0du0vgku","lat":-38.424657,"state":"VIC"},"type":"Feature","geometry":{"type":"Point","coordinates":[146.039215,-38.424657]}},{"properties":{"type":1,"client":"SkyMesh","lng":144.3371,"id":"a6my0dqm1j2v","lat":-37.1493,"state":"VIC"},"type":"Feature","geometry":{"type":"Point","coordinates":[144.3371,-37.1493]}},{"properties":{"type":1,"client":"SkyMesh","lng":148.092063,"id":"a6my0dn5w2ik","lat":-37.732016,"state":"VIC"},"type":"Feature","geometry":{"type":"Point","coordinates":[148.092063,-37.732016]}},{"properties":{"type":1,"client":"SkyMesh","lng":144.07656,"id":"a6my0dpi3jcb","lat":-37.43277768,"state":"VIC"},"type":"Feature","geometry":{"type":"Point","coordinates":[144.07656,-37.43277768]}},{"properties":{"type":1,"client":"Westnet","lng":145.165899,"id":"a6my0di8vbxb","lat":-38.394614,"state":"VIC"},"type":"Feature","geometry":{"type":"Point","coordinates":[145.165899,-38.394614]}},{"properties":{"type":1,"client":"SkyMesh","lng":145.9197139,"id":"a6my0dpmky32","lat":-37.89511055,"state":"VIC"},"type":"Feature","geometry":{"type":"Point","coordinates":[145.9197139,-37.89511055]}},{"properties":{"type":1,"client":"SkyMesh","lng":145.150319,"id":"a6my0dq5nb00","lat":-36.644997,"state":"VIC"},"type":"Feature","geometry":{"type":"Point","coordinates":[145.150319,-36.644997]}},{"properties":{"type":1,"client":"SkyMesh","lng":146.354592,"id":"a6my0dlezoit","lat":-37.108763,"state":"VIC"},"type":"Feature","geometry":{"type":"Point","coordinates":[146.354592,-37.108763]}},{"properties":{"type":1,"client":"SkyMesh","lng":147.098018,"id":"a6my0dorruz6","lat":-36.306369,"state":"VIC"},"type":"Feature","geometry":{"type":"Point","coordinates":[147.098018,-36.306369]}},{"properties":{"type":1,"client":"Clear Networks","lng":147.8294,"id":"a6my0dlwnfnm","lat":-36.4404,"state":"VIC"},"type":"Feature","geometry":{"type":"Point","coordinates":[147.8294,-36.4404]}},{"properties":{"type":1,"client":"Westnet","lng":147.026,"id":"a6my0dkdiego","lat":-36.292,"state":"VIC"},"type":"Feature","geometry":{"type":"Point","coordinates":[147.026,-36.292]}},{"properties":{"type":1,"client":"SkyMesh","lng":147.4424,"id":"a6my0dmvqasw","lat":-35.9595,"state":"VIC"},"type":"Feature","geometry":{"type":"Point","coordinates":[147.4424,-35.9595]}},{"properties":{"type":1,"client":"SkyMesh","lng":144.228,"id":"a6my0df2zbch","lat":-36.8882,"state":"VIC"},"type":"Feature","geometry":{"type":"Point","coordinates":[144.228,-36.8882]}},{"properties":{"type":1,"client":"SkyMesh","lng":141.500233,"id":"a6my0di6l5gx","lat":-37.46145,"state":"VIC"},"type":"Feature","geometry":{"type":"Point","coordinates":[141.500233,-37.46145]}},{"properties":{"type":1,"client":"SkyMesh","lng":145.6709,"id":"a6my0dhxpaht","lat":-37.9474,"state":"VIC"},"type":"Feature","geometry":{"type":"Point","coordinates":[145.6709,-37.9474]}},{"properties":{"type":1,"client":"Clear Networks","lng":141.5955,"id":"a6my0dnw01jt","lat":-34.3883,"state":"VIC"},"type":"Feature","geometry":{"type":"Point","coordinates":[141.5955,-34.3883]}},{"properties":{"type":1,"client":"SkyMesh","lng":144.6831,"id":"a6my0dk62hx3","lat":-36.7205,"state":"VIC"},"type":"Feature","geometry":{"type":"Point","coordinates":[144.6831,-36.7205]}},{"properties":{"type":1,"client":"SkyMesh","lng":145.5235432,"id":"a6my0dqdg72n","lat":-37.36340451,"state":"VIC"},"type":"Feature","geometry":{"type":"Point","coordinates":[145.5235432,-37.36340451]}},{"properties":{"type":1,"client":"SkyMesh","lng":143.332946,"id":"a6my0duay7y2","lat":-37.135994,"state":"VIC"},"type":"Feature","geometry":{"type":"Point","coordinates":[143.332946,-37.135994]}},{"properties":{"type":1,"client":"SkyMesh","lng":143.1372,"id":"a6my0dqj2lws","lat":-36.9992,"state":"VIC"},"type":"Feature","geometry":{"type":"Point","coordinates":[143.1372,-36.9992]}},{"properties":{"type":1,"client":"SkyMesh","lng":144.155536,"id":"a6my0dtxk5b6","lat":-36.95203798,"state":"VIC"},"type":"Feature","geometry":{"type":"Point","coordinates":[144.155536,-36.95203798]}},{"properties":{"type":1,"client":"SkyMesh","lng":142.567199,"id":"a6my0dgkpjt2","lat":-37.146465,"state":"VIC"},"type":"Feature","geometry":{"type":"Point","coordinates":[142.567199,-37.146465]}},{"properties":{"type":1,"client":"SkyMesh","lng":143.539414,"id":"a6my0dke5pwa","lat":-36.820096,"state":"VIC"},"type":"Feature","geometry":{"type":"Point","coordinates":[143.539414,-36.820096]}},{"properties":{"type":1,"client":"SkyMesh","lng":145.2127,"id":"a6my0dosih8o","lat":-37.2748,"state":"VIC"},"type":"Feature","geometry":{"type":"Point","coordinates":[145.2127,-37.2748]}},{"properties":{"type":1,"client":"SkyMesh","lng":146.1333,"id":"a6my0dsq8ipq","lat":-38.4183,"state":"VIC"},"type":"Feature","geometry":{"type":"Point","coordinates":[146.1333,-38.4183]}},{"properties":{"type":1,"client":"SkyMesh","lng":145.8545589,"id":"a6my0dn8xytz","lat":-36.98095876,"state":"VIC"},"type":"Feature","geometry":{"type":"Point","coordinates":[145.8545589,-36.98095876]}},{"properties":{"type":1,"client":"SkyMesh","lng":147.180155,"id":"a6my0dm75rmi","lat":-36.446134,"state":"VIC"},"type":"Feature","geometry":{"type":"Point","coordinates":[147.180155,-36.446134]}},{"properties":{"type":1,"client":"SkyMesh","lng":146.287714,"id":"a6my0dq2mpoq","lat":-36.213818,"state":"VIC"},"type":"Feature","geometry":{"type":"Point","coordinates":[146.287714,-36.213818]}},{"properties":{"type":1,"client":"SkyMesh","lng":145.741,"id":"a6my0du7g51q","lat":-37.7363,"state":"VIC"},"type":"Feature","geometry":{"type":"Point","coordinates":[145.741,-37.7363]}},{"properties":{"type":1,"client":"SkyMesh","lng":145.3341,"id":"a6my0dpy0zpt","lat":-37.1341,"state":"VIC"},"type":"Feature","geometry":{"type":"Point","coordinates":[145.3341,-37.1341]}},{"properties":{"type":1,"client":"SkyMesh","lng":143.392894,"id":"a6my0dj5m3og","lat":-38.566381,"state":"VIC"},"type":"Feature","geometry":{"type":"Point","coordinates":[143.392894,-38.566381]}},{"properties":{"type":1,"client":"SkyMesh","lng":145.573197,"id":"a6my0de7tjnm","lat":-37.880302,"state":"VIC"},"type":"Feature","geometry":{"type":"Point","coordinates":[145.573197,-37.880302]}},{"properties":{"type":1,"client":"SkyMesh","lng":143.086816,"id":"a6my0dr85l8d","lat":-36.143455,"state":"VIC"},"type":"Feature","geometry":{"type":"Point","coordinates":[143.086816,-36.143455]}},{"properties":{"type":1,"client":"SkyMesh","lng":147.0995,"id":"a6my0dnpja4t","lat":-36.5675,"state":"VIC"},"type":"Feature","geometry":{"type":"Point","coordinates":[147.0995,-36.5675]}},{"properties":{"type":1,"client":"SkyMesh","lng":143.5665159,"id":"a6my0drmwefl","lat":-38.49287933,"state":"VIC"},"type":"Feature","geometry":{"type":"Point","coordinates":[143.5665159,-38.49287933]}},{"properties":{"type":1,"client":"SkyMesh","lng":145.6892,"id":"a6my0du1dzu0","lat":-37.1286,"state":"VIC"},"type":"Feature","geometry":{"type":"Point","coordinates":[145.6892,-37.1286]}},{"properties":{"type":1,"client":"SkyMesh","lng":141.4897,"id":"a6my0dne4uj6","lat":-37.3418,"state":"VIC"},"type":"Feature","geometry":{"type":"Point","coordinates":[141.4897,-37.3418]}},{"properties":{"type":1,"client":"SkyMesh","lng":145.4526,"id":"a6my0dn3uyi1","lat":-37.1597,"state":"VIC"},"type":"Feature","geometry":{"type":"Point","coordinates":[145.4526,-37.1597]}},{"properties":{"type":1,"client":"SkyMesh","lng":144.2609,"id":"a6my0dlaj0cb","lat":-37.3894,"state":"VIC"},"type":"Feature","geometry":{"type":"Point","coordinates":[144.2609,-37.3894]}},{"properties":{"type":1,"client":"SkyMesh","lng":146.702982,"id":"a6my0dr5hhjq","lat":-38.295348,"state":"VIC"},"type":"Feature","geometry":{"type":"Point","coordinates":[146.702982,-38.295348]}},{"properties":{"type":1,"client":"SkyMesh","lng":147.887263,"id":"a6my0dk9ee2z","lat":-37.883758,"state":"VIC"},"type":"Feature","geometry":{"type":"Point","coordinates":[147.887263,-37.883758]}},{"properties":{"type":1,"client":"SkyMesh","lng":144.0874151,"id":"a6my0dj9mdgj","lat":-37.46063196,"state":"VIC"},"type":"Feature","geometry":{"type":"Point","coordinates":[144.0874151,-37.46063196]}},{"properties":{"type":1,"client":"SkyMesh","lng":144.2828,"id":"a6my0dr8u3kq","lat":-38.3555,"state":"VIC"},"type":"Feature","geometry":{"type":"Point","coordinates":[144.2828,-38.3555]}},{"properties":{"type":1,"client":"SkyMesh","lng":145.308227,"id":"a6my0dg1mfia","lat":-37.212666,"state":"VIC"},"type":"Feature","geometry":{"type":"Point","coordinates":[145.308227,-37.212666]}},{"properties":{"type":1,"client":"SkyMesh","lng":146.913,"id":"a6my0dokh9xd","lat":-36.3657,"state":"VIC"},"type":"Feature","geometry":{"type":"Point","coordinates":[146.913,-36.3657]}},{"properties":{"type":1,"client":"SkyMesh","lng":141.3582,"id":"a6my0deom3s9","lat":-36.8468,"state":"VIC"},"type":"Feature","geometry":{"type":"Point","coordinates":[141.3582,-36.8468]}},{"properties":{"type":1,"client":"Westnet","lng":142.270607,"id":"a6my0dnmnw2g","lat":-38.169295,"state":"VIC"},"type":"Feature","geometry":{"type":"Point","coordinates":[142.270607,-38.169295]}},{"properties":{"type":1,"client":"SkyMesh","lng":144.150882,"id":"a6my0do1znlz","lat":-37.478702,"state":"VIC"},"type":"Feature","geometry":{"type":"Point","coordinates":[144.150882,-37.478702]}},{"properties":{"type":1,"client":"SkyMesh","lng":147.1113,"id":"a6my0dft4766","lat":-36.3545,"state":"VIC"},"type":"Feature","geometry":{"type":"Point","coordinates":[147.1113,-36.3545]}},{"properties":{"type":1,"client":"SkyMesh","lng":147.7451,"id":"a6my0dpbphy4","lat":-37.7699,"state":"VIC"},"type":"Feature","geometry":{"type":"Point","coordinates":[147.7451,-37.7699]}},{"properties":{"type":1,"client":"SkyMesh","lng":145.054935,"id":"a6my0dp5vmps","lat":-36.777056,"state":"VIC"},"type":"Feature","geometry":{"type":"Point","coordinates":[145.054935,-36.777056]}},{"properties":{"type":1,"client":"SkyMesh","lng":143.3032,"id":"a6my0dk4otb7","lat":-37.5218,"state":"VIC"},"type":"Feature","geometry":{"type":"Point","coordinates":[143.3032,-37.5218]}},{"properties":{"type":1,"client":"SkyMesh","lng":146.720341,"id":"a6my0dgpiryo","lat":-38.472385,"state":"VIC"},"type":"Feature","geometry":{"type":"Point","coordinates":[146.720341,-38.472385]}},{"properties":{"type":1,"client":"SkyMesh","lng":146.1729,"id":"a6my0djje42l","lat":-38.4994,"state":"VIC"},"type":"Feature","geometry":{"type":"Point","coordinates":[146.1729,-38.4994]}},{"properties":{"type":1,"client":"SkyMesh","lng":145.95903,"id":"a6my0dhsxzd6","lat":-38.391972,"state":"VIC"},"type":"Feature","geometry":{"type":"Point","coordinates":[145.95903,-38.391972]}},{"properties":{"type":1,"client":"SkyMesh","lng":142.519799,"id":"a6my0dhvubp4","lat":-37.81915,"state":"VIC"},"type":"Feature","geometry":{"type":"Point","coordinates":[142.519799,-37.81915]}},{"properties":{"type":1,"client":"SkyMesh","lng":141.7587,"id":"a6my0dsrmrh3","lat":-36.1525,"state":"VIC"},"type":"Feature","geometry":{"type":"Point","coordinates":[141.7587,-36.1525]}},{"properties":{"type":1,"client":"SkyMesh","lng":143.717567,"id":"a6my0dk16q0n","lat":-38.720966,"state":"VIC"},"type":"Feature","geometry":{"type":"Point","coordinates":[143.717567,-38.720966]}},{"properties":{"type":1,"client":"SkyMesh","lng":142.6332,"id":"a6my0dq39n4f","lat":-37.0487,"state":"VIC"},"type":"Feature","geometry":{"type":"Point","coordinates":[142.6332,-37.0487]}},{"properties":{"type":1,"client":"SkyMesh","lng":146.3546,"id":"a6my0di08qid","lat":-38.4585,"state":"VIC"},"type":"Feature","geometry":{"type":"Point","coordinates":[146.3546,-38.4585]}},{"properties":{"type":1,"client":"SkyMesh","lng":144.214541,"id":"a6my0dmxl3h2","lat":-36.691876,"state":"VIC"},"type":"Feature","geometry":{"type":"Point","coordinates":[144.214541,-36.691876]}},{"properties":{"type":1,"client":"SkyMesh","lng":143.5346,"id":"a6my0dtmjp47","lat":-37.5762,"state":"VIC"},"type":"Feature","geometry":{"type":"Point","coordinates":[143.5346,-37.5762]}},{"properties":{"type":1,"client":"SkyMesh","lng":145.047145,"id":"a6my0doc5pv2","lat":-37.459313,"state":"VIC"},"type":"Feature","geometry":{"type":"Point","coordinates":[145.047145,-37.459313]}},{"properties":{"type":1,"client":"SkyMesh","lng":143.012579,"id":"a6my0dnldxg7","lat":-38.215226,"state":"VIC"},"type":"Feature","geometry":{"type":"Point","coordinates":[143.012579,-38.215226]}},{"properties":{"type":1,"client":"SkyMesh","lng":147.0216256,"id":"a6my0dgmyumg","lat":-38.03057584,"state":"VIC"},"type":"Feature","geometry":{"type":"Point","coordinates":[147.0216256,-38.03057584]}},{"properties":{"type":1,"client":"SkyMesh","lng":144.3546,"id":"a6my0dh5rzni","lat":-36.8992,"state":"VIC"},"type":"Feature","geometry":{"type":"Point","coordinates":[144.3546,-36.8992]}},{"properties":{"type":1,"client":"SkyMesh","lng":146.047729,"id":"a6my0dmfs998","lat":-38.307909,"state":"VIC"},"type":"Feature","geometry":{"type":"Point","coordinates":[146.047729,-38.307909]}},{"properties":{"type":1,"client":"SkyMesh","lng":143.9231,"id":"a6my0detd6w4","lat":-37.5429,"state":"VIC"},"type":"Feature","geometry":{"type":"Point","coordinates":[143.9231,-37.5429]}},{"properties":{"type":1,"client":"SkyMesh","lng":143.5241,"id":"a6my0dtsalgq","lat":-36.8189,"state":"VIC"},"type":"Feature","geometry":{"type":"Point","coordinates":[143.5241,-36.8189]}},{"properties":{"type":1,"client":"SkyMesh","lng":144.814619,"id":"a6my0dg5oxla","lat":-37.239007,"state":"VIC"},"type":"Feature","geometry":{"type":"Point","coordinates":[144.814619,-37.239007]}},{"properties":{"type":1,"client":"SkyMesh","lng":143.0802,"id":"a6my0dqs6umt","lat":-38.4072,"state":"VIC"},"type":"Feature","geometry":{"type":"Point","coordinates":[143.0802,-38.4072]}},{"properties":{"type":1,"client":"SkyMesh","lng":146.072458,"id":"a6my0dnf4zr1","lat":-37.180498,"state":"VIC"},"type":"Feature","geometry":{"type":"Point","coordinates":[146.072458,-37.180498]}},{"properties":{"type":1,"client":"SkyMesh","lng":142.8663,"id":"a6my0di9zpjv","lat":-38.5406,"state":"VIC"},"type":"Feature","geometry":{"type":"Point","coordinates":[142.8663,-38.5406]}},{"properties":{"type":1,"client":"SkyMesh","lng":145.7923,"id":"a6my0dg0c1tp","lat":-36.941,"state":"VIC"},"type":"Feature","geometry":{"type":"Point","coordinates":[145.7923,-36.941]}},{"properties":{"type":1,"client":"SkyMesh","lng":142.3287,"id":"a6my0drv8f04","lat":-37.0573,"state":"VIC"},"type":"Feature","geometry":{"type":"Point","coordinates":[142.3287,-37.0573]}},{"properties":{"type":1,"client":"SkyMesh","lng":144.0859,"id":"a6my0dnx3zt1","lat":-37.4589,"state":"VIC"},"type":"Feature","geometry":{"type":"Point","coordinates":[144.0859,-37.4589]}},{"properties":{"type":1,"client":"SkyMesh","lng":144.71007,"id":"a6my0dszl28r","lat":-37.173043,"state":"VIC"},"type":"Feature","geometry":{"type":"Point","coordinates":[144.71007,-37.173043]}},{"properties":{"type":1,"client":"SkyMesh","lng":144.0443,"id":"a6my0dl2pq7t","lat":-38.469,"state":"VIC"},"type":"Feature","geometry":{"type":"Point","coordinates":[144.0443,-38.469]}},{"properties":{"type":1,"client":"SkyMesh","lng":146.1954,"id":"a6my0dl9f3lt","lat":-38.3732,"state":"VIC"},"type":"Feature","geometry":{"type":"Point","coordinates":[146.1954,-38.3732]}},{"properties":{"type":1,"client":"SkyMesh","lng":141.596159,"id":"a6my0dium3fy","lat":-34.387881,"state":"VIC"},"type":"Feature","geometry":{"type":"Point","coordinates":[141.596159,-34.387881]}},{"properties":{"type":1,"client":"SkyMesh","lng":141.4953,"id":"a6my0dowbpbj","lat":-37.3489,"state":"VIC"},"type":"Feature","geometry":{"type":"Point","coordinates":[141.4953,-37.3489]}},{"properties":{"type":1,"client":"SkyMesh","lng":146.2245,"id":"a6my0dljizqk","lat":-38.8431,"state":"VIC"},"type":"Feature","geometry":{"type":"Point","coordinates":[146.2245,-38.8431]}},{"properties":{"type":1,"client":"SkyMesh","lng":144.756275,"id":"a6my0dkc3pkc","lat":-36.751197,"state":"VIC"},"type":"Feature","geometry":{"type":"Point","coordinates":[144.756275,-36.751197]}},{"properties":{"type":1,"client":"SkyMesh","lng":143.962831,"id":"a6my0deden7y","lat":-37.139646,"state":"VIC"},"type":"Feature","geometry":{"type":"Point","coordinates":[143.962831,-37.139646]}},{"properties":{"type":1,"client":"SkyMesh","lng":145.912298,"id":"a6my0dsp4kn3","lat":-38.5617,"state":"VIC"},"type":"Feature","geometry":{"type":"Point","coordinates":[145.912298,-38.5617]}},{"properties":{"type":1,"client":"SkyMesh","lng":146.203891,"id":"a6my0djz6pwv","lat":-36.91831,"state":"VIC"},"type":"Feature","geometry":{"type":"Point","coordinates":[146.203891,-36.91831]}},{"properties":{"type":1,"client":"SkyMesh","lng":145.125,"id":"a6my0dsa6lhy","lat":-38.1682,"state":"VIC"},"type":"Feature","geometry":{"type":"Point","coordinates":[145.125,-38.1682]}},{"properties":{"type":1,"client":"SkyMesh","lng":147.8284,"id":"a6my0djdvjb2","lat":-36.1107,"state":"VIC"},"type":"Feature","geometry":{"type":"Point","coordinates":[147.8284,-36.1107]}},{"properties":{"type":1,"client":"SkyMesh","lng":147.344639,"id":"a6my0dt5b2hg","lat":-36.160243,"state":"VIC"},"type":"Feature","geometry":{"type":"Point","coordinates":[147.344639,-36.160243]}},{"properties":{"type":1,"client":"SkyMesh","lng":147.83293,"id":"a6my0dkmlqha","lat":-36.12514,"state":"VIC"},"type":"Feature","geometry":{"type":"Point","coordinates":[147.83293,-36.12514]}},{"properties":{"type":1,"client":"SkyMesh","lng":147.232807,"id":"a6my0dqz8f0r","lat":-36.405771,"state":"VIC"},"type":"Feature","geometry":{"type":"Point","coordinates":[147.232807,-36.405771]}},{"properties":{"type":1,"client":"SkyMesh","lng":141.399861,"id":"a6my0de6krhs","lat":-37.312395,"state":"VIC"},"type":"Feature","geometry":{"type":"Point","coordinates":[141.399861,-37.312395]}},{"properties":{"type":1,"client":"SkyMesh","lng":145.965316,"id":"a6my0dpiddkb","lat":-38.338684,"state":"VIC"},"type":"Feature","geometry":{"type":"Point","coordinates":[145.965316,-38.338684]}},{"properties":{"type":1,"client":"SkyMesh","lng":146.238829,"id":"a6my0dlsg7co","lat":-38.418163,"state":"VIC"},"type":"Feature","geometry":{"type":"Point","coordinates":[146.238829,-38.418163]}},{"properties":{"type":1,"client":"SkyMesh","lng":144.2166,"id":"a6my0dpnch34","lat":-37.3945,"state":"VIC"},"type":"Feature","geometry":{"type":"Point","coordinates":[144.2166,-37.3945]}},{"properties":{"type":1,"client":"SkyMesh","lng":143.7249,"id":"a6my0dt1ps6l","lat":-37.6598,"state":"VIC"},"type":"Feature","geometry":{"type":"Point","coordinates":[143.7249,-37.6598]}},{"properties":{"type":1,"client":"Westnet","lng":147.103111,"id":"a6my0dfpk1pg","lat":-36.321119,"state":"VIC"},"type":"Feature","geometry":{"type":"Point","coordinates":[147.103111,-36.321119]}},{"properties":{"type":1,"client":"Westnet","lng":143.342932,"id":"a6my0dhciuqm","lat":-37.435524,"state":"VIC"},"type":"Feature","geometry":{"type":"Point","coordinates":[143.342932,-37.435524]}},{"properties":{"type":1,"client":"Clear Networks","lng":141.588,"id":"a6my0ds7w3cy","lat":-37.4509,"state":"VIC"},"type":"Feature","geometry":{"type":"Point","coordinates":[141.588,-37.4509]}},{"properties":{"type":1,"client":"SkyMesh","lng":141.038337,"id":"a6my0dhdk2ow","lat":-36.83006,"state":"VIC"},"type":"Feature","geometry":{"type":"Point","coordinates":[141.038337,-36.83006]}},{"properties":{"type":1,"client":"SkyMesh","lng":147.6997,"id":"a6my0dlotn9b","lat":-37.7016,"state":"VIC"},"type":"Feature","geometry":{"type":"Point","coordinates":[147.6997,-37.7016]}},{"properties":{"type":1,"client":"SkyMesh","lng":146.8276,"id":"a6my0df9jq0t","lat":-36.1304,"state":"VIC"},"type":"Feature","geometry":{"type":"Point","coordinates":[146.8276,-36.1304]}},{"properties":{"type":1,"client":"Clear Networks","lng":142.2708,"id":"a6my0djz52z7","lat":-37.4526,"state":"VIC"},"type":"Feature","geometry":{"type":"Point","coordinates":[142.2708,-37.4526]}},{"properties":{"type":1,"client":"SkyMesh","lng":143.3295,"id":"a6my0dr4x2jr","lat":-37.0089,"state":"VIC"},"type":"Feature","geometry":{"type":"Point","coordinates":[143.3295,-37.0089]}},{"properties":{"type":1,"client":"SkyMesh","lng":143.002415,"id":"a6my0ds1j8ff","lat":-36.605636,"state":"VIC"},"type":"Feature","geometry":{"type":"Point","coordinates":[143.002415,-36.605636]}},{"properties":{"type":1,"client":"Clear Networks","lng":147.5518,"id":"a6my0dm9x3cj","lat":-36.026,"state":"VIC"},"type":"Feature","geometry":{"type":"Point","coordinates":[147.5518,-36.026]}},{"properties":{"type":1,"client":"SkyMesh","lng":143.322,"id":"a6my0dnjh1iw","lat":-36.9889,"state":"VIC"},"type":"Feature","geometry":{"type":"Point","coordinates":[143.322,-36.9889]}},{"properties":{"type":1,"client":"SkyMesh","lng":142.8123,"id":"a6my0drelv54","lat":-38.337,"state":"VIC"},"type":"Feature","geometry":{"type":"Point","coordinates":[142.8123,-38.337]}},{"properties":{"type":1,"client":"SkyMesh","lng":145.466115,"id":"a6my0dhkmdai","lat":-37.854846,"state":"VIC"},"type":"Feature","geometry":{"type":"Point","coordinates":[145.466115,-37.854846]}},{"properties":{"type":1,"client":"Westnet","lng":143.1809,"id":"a6my0dnc3d99","lat":-38.0147,"state":"VIC"},"type":"Feature","geometry":{"type":"Point","coordinates":[143.1809,-38.0147]}},{"properties":{"type":1,"client":"SkyMesh","lng":143.2805,"id":"a6my0dehpw45","lat":-37.0305,"state":"VIC"},"type":"Feature","geometry":{"type":"Point","coordinates":[143.2805,-37.0305]}},{"properties":{"type":1,"client":"Westnet","lng":142.7893,"id":"a6my0dl5eafb","lat":-37.8815,"state":"VIC"},"type":"Feature","geometry":{"type":"Point","coordinates":[142.7893,-37.8815]}},{"properties":{"type":1,"client":"SkyMesh","lng":142.603556,"id":"a6my0dgnhlzz","lat":-36.829086,"state":"VIC"},"type":"Feature","geometry":{"type":"Point","coordinates":[142.603556,-36.829086]}},{"properties":{"type":1,"client":"SkyMesh","lng":146.1876,"id":"a6my0dt2uk1f","lat":-38.4939,"state":"VIC"},"type":"Feature","geometry":{"type":"Point","coordinates":[146.1876,-38.4939]}},{"properties":{"type":1,"client":"SkyMesh","lng":143.077708,"id":"a6my0drwuekd","lat":-35.648669,"state":"VIC"},"type":"Feature","geometry":{"type":"Point","coordinates":[143.077708,-35.648669]}},{"properties":{"type":1,"client":"SkyMesh","lng":145.589262,"id":"a6my0dhhf8dh","lat":-37.715026,"state":"VIC"},"type":"Feature","geometry":{"type":"Point","coordinates":[145.589262,-37.715026]}},{"properties":{"type":1,"client":"SkyMesh","lng":143.290555,"id":"a6my0dlzk32t","lat":-38.487182,"state":"VIC"},"type":"Feature","geometry":{"type":"Point","coordinates":[143.290555,-38.487182]}},{"properties":{"type":1,"client":"SkyMesh","lng":148.228006,"id":"a6my0ds84816","lat":-37.339886,"state":"VIC"},"type":"Feature","geometry":{"type":"Point","coordinates":[148.228006,-37.339886]}},{"properties":{"type":1,"client":"SkyMesh","lng":145.701685,"id":"a6my0dqq0j55","lat":-37.111345,"state":"VIC"},"type":"Feature","geometry":{"type":"Point","coordinates":[145.701685,-37.111345]}},{"properties":{"type":1,"client":"SkyMesh","lng":146.5111,"id":"a6my0dl99t4r","lat":-38.6779,"state":"VIC"},"type":"Feature","geometry":{"type":"Point","coordinates":[146.5111,-38.6779]}},{"properties":{"type":1,"client":"SkyMesh","lng":148.60119,"id":"a6my0di7dkcx","lat":-37.398535,"state":"VIC"},"type":"Feature","geometry":{"type":"Point","coordinates":[148.60119,-37.398535]}},{"properties":{"type":1,"client":"SkyMesh","lng":146.754001,"id":"a6my0dewhw2n","lat":-36.303081,"state":"VIC"},"type":"Feature","geometry":{"type":"Point","coordinates":[146.754001,-36.303081]}},{"properties":{"type":1,"client":"SkyMesh","lng":147.1451,"id":"a6my0dt2e3gi","lat":-36.3079,"state":"VIC"},"type":"Feature","geometry":{"type":"Point","coordinates":[147.1451,-36.3079]}},{"properties":{"type":1,"client":"SkyMesh","lng":145.628058,"id":"a6my0dg6p7t3","lat":-37.920035,"state":"VIC"},"type":"Feature","geometry":{"type":"Point","coordinates":[145.628058,-37.920035]}},{"properties":{"type":1,"client":"SkyMesh","lng":146.7126,"id":"a6my0drrcfdi","lat":-36.1981,"state":"VIC"},"type":"Feature","geometry":{"type":"Point","coordinates":[146.7126,-36.1981]}},{"properties":{"type":1,"client":"SkyMesh","lng":143.771201,"id":"a6my0dkyz6tn","lat":-37.827209,"state":"VIC"},"type":"Feature","geometry":{"type":"Point","coordinates":[143.771201,-37.827209]}},{"properties":{"type":1,"client":"SkyMesh","lng":146.3232,"id":"a6my0dt3srql","lat":-38.4432,"state":"VIC"},"type":"Feature","geometry":{"type":"Point","coordinates":[146.3232,-38.4432]}},{"properties":{"type":1,"client":"SkyMesh","lng":145.4511,"id":"a6my0djiat7z","lat":-38.0251,"state":"VIC"},"type":"Feature","geometry":{"type":"Point","coordinates":[145.4511,-38.0251]}},{"properties":{"type":1,"client":"SkyMesh","lng":146.024721,"id":"a6my0dueqy8p","lat":-36.155157,"state":"VIC"},"type":"Feature","geometry":{"type":"Point","coordinates":[146.024721,-36.155157]}},{"properties":{"type":1,"client":"SkyMesh","lng":145.4726,"id":"a6my0df2lyu4","lat":-37.0919,"state":"VIC"},"type":"Feature","geometry":{"type":"Point","coordinates":[145.4726,-37.0919]}},{"properties":{"type":1,"client":"SkyMesh","lng":146.8503,"id":"a6my0do2oq3z","lat":-36.791,"state":"VIC"},"type":"Feature","geometry":{"type":"Point","coordinates":[146.8503,-36.791]}},{"properties":{"type":1,"client":"SkyMesh","lng":146.236237,"id":"a6my0djmaema","lat":-38.591618,"state":"VIC"},"type":"Feature","geometry":{"type":"Point","coordinates":[146.236237,-38.591618]}},{"properties":{"type":1,"client":"SkyMesh","lng":144.7697,"id":"a6my0dpq23c9","lat":-36.9447,"state":"VIC"},"type":"Feature","geometry":{"type":"Point","coordinates":[144.7697,-36.9447]}},{"properties":{"type":1,"client":"SkyMesh","lng":146.1698,"id":"a6my0desxlgk","lat":-38.0266,"state":"VIC"},"type":"Feature","geometry":{"type":"Point","coordinates":[146.1698,-38.0266]}},{"properties":{"type":1,"client":"SkyMesh","lng":144.2522,"id":"a6my0drn7c23","lat":-37.2156,"state":"VIC"},"type":"Feature","geometry":{"type":"Point","coordinates":[144.2522,-37.2156]}},{"properties":{"type":1,"client":"Clear Networks","lng":145.6048,"id":"a6my0djmog4q","lat":-37.0488,"state":"VIC"},"type":"Feature","geometry":{"type":"Point","coordinates":[145.6048,-37.0488]}},{"properties":{"type":1,"client":"Clear Networks","lng":146.1077,"id":"a6my0dge64uv","lat":-36.7308,"state":"VIC"},"type":"Feature","geometry":{"type":"Point","coordinates":[146.1077,-36.7308]}},{"properties":{"type":1,"client":"SkyMesh","lng":145.387784,"id":"a6my0dp86zqh","lat":-37.553532,"state":"VIC"},"type":"Feature","geometry":{"type":"Point","coordinates":[145.387784,-37.553532]}},{"properties":{"type":1,"client":"Westnet","lng":145.8476,"id":"a6my0dqxxiro","lat":38.3465,"state":"VIC"},"type":"Feature","geometry":{"type":"Point","coordinates":[145.8476,38.3465]}},{"properties":{"type":1,"client":"SkyMesh","lng":143.680835,"id":"a6my0dujwsxy","lat":-37.05018,"state":"VIC"},"type":"Feature","geometry":{"type":"Point","coordinates":[143.680835,-37.05018]}},{"properties":{"type":1,"client":"SkyMesh","lng":141.036552,"id":"a6my0ds12j33","lat":-37.098893,"state":"VIC"},"type":"Feature","geometry":{"type":"Point","coordinates":[141.036552,-37.098893]}},{"properties":{"type":1,"client":"SkyMesh","lng":144.9218,"id":"a6my0droqaey","lat":-37.0182,"state":"VIC"},"type":"Feature","geometry":{"type":"Point","coordinates":[144.9218,-37.0182]}},{"properties":{"type":1,"client":"SkyMesh","lng":148.2193,"id":"a6my0dqnzkp9","lat":-37.5057,"state":"VIC"},"type":"Feature","geometry":{"type":"Point","coordinates":[148.2193,-37.5057]}},{"properties":{"type":1,"client":"SkyMesh","lng":145.4327,"id":"a6my0dugre50","lat":-36.5397,"state":"VIC"},"type":"Feature","geometry":{"type":"Point","coordinates":[145.4327,-36.5397]}},{"properties":{"type":1,"client":"SkyMesh","lng":146.6977,"id":"a6my0dosnm4b","lat":-38.4863,"state":"VIC"},"type":"Feature","geometry":{"type":"Point","coordinates":[146.6977,-38.4863]}},{"properties":{"type":1,"client":"SkyMesh","lng":143.8,"id":"a6my0ds2zbwq","lat":-36.9257,"state":"VIC"},"type":"Feature","geometry":{"type":"Point","coordinates":[143.8,-36.9257]}}],"is_temporal":false,"author":{"url":"","metadata":"","contact_name":"","contact_address":"","source":"","contact_phone":""},"source":"","pagination":{"sort":null,"start":0,"total":785,"limit":1000000},"state":"complete","tags":"","published":"2014-08-13T06:05:27-04:00","id":125414}