{"type":"FeatureCollection","data_type":"Dataset","url_type":null,"permissions":[{"permissions":{"download":true,"view":true},"group_id":"everyone"}],"classification":null,"title":"NBN","count":182,"stream_id":125415,"contributor":{"url":"http://geocommons.com/users/28464","name":"lukedemase"},"data_attributes":null,"calculation_params":null,"icon_link":null,"link":"http://geocommons.com/overlays/125415.json","extent":[141.98,-38.73,153.17,-18.12],"geometry_types":["point"],"unique_name":null,"name":"NBN","feature_count":182,"description":"","next_feature":null,"is_raster":false,"short_classification":"Y","stats":{"type":{"max":2,"mean":2.0,"variance":0.0,"stdev":0.0,"min":2,"median":2},"lng":{"max":153.17,"mean":149.996024318681,"variance":7.09028135615146,"stdev":2.66275822337505,"min":141.98,"median":149.923468},"lat":{"max":-18.12,"mean":-31.6517186373626,"variance":14.4253317028173,"stdev":3.79806947050963,"min":-38.73,"median":-32.35}},"features":[{"properties":{"type":2,"client":"Optus","lng":142.26,"id":"a6geko7k5poq","lat":-37.71,"state":"VIC"},"type":"Feature","geometry":{"type":"Point","coordinates":[142.26,-37.71]}},{"properties":{"type":2,"client":"Optus","lng":149.21,"id":"a6geknwgf9t0","lat":-33.71,"state":"NSW"},"type":"Feature","geometry":{"type":"Point","coordinates":[149.21,-33.71]}},{"properties":{"type":2,"client":"Optus","lng":149.02,"id":"a6gekny8n636","lat":-32.03,"state":"NSW"},"type":"Feature","geometry":{"type":"Point","coordinates":[149.02,-32.03]}},{"properties":{"type":2,"client":"Optus","lng":149.71,"id":"a6geknzedg0a","lat":-32.47,"state":"NSW"},"type":"Feature","geometry":{"type":"Point","coordinates":[149.71,-32.47]}},{"properties":{"type":2,"client":"Optus","lng":149.59,"id":"a6geko7enf82","lat":-32.6,"state":"NSW"},"type":"Feature","geometry":{"type":"Point","coordinates":[149.59,-32.6]}},{"properties":{"type":2,"client":"Optus","lng":151.81,"id":"a6geknvxo9u3","lat":-32.03,"state":"NSW"},"type":"Feature","geometry":{"type":"Point","coordinates":[151.81,-32.03]}},{"properties":{"type":2,"client":"Optus","lng":149.9,"id":"a6geko6zcxuw","lat":-32.63,"state":"NSW"},"type":"Feature","geometry":{"type":"Point","coordinates":[149.9,-32.63]}},{"properties":{"type":2,"client":"Optus","lng":149.28,"id":"a6geko99ub5b","lat":-31.79,"state":"NSW"},"type":"Feature","geometry":{"type":"Point","coordinates":[149.28,-31.79]}},{"properties":{"type":2,"client":"Optus","lng":149.86,"id":"a6geknzuv3hh","lat":-32.54,"state":"NSW"},"type":"Feature","geometry":{"type":"Point","coordinates":[149.86,-32.54]}},{"properties":{"type":2,"client":"Optus","lng":152.86,"id":"a6geko6lwr3w","lat":-29.59,"state":"NSW"},"type":"Feature","geometry":{"type":"Point","coordinates":[152.86,-29.59]}},{"properties":{"type":2,"client":"Optus","lng":153.09,"id":"a6geknvxggp5","lat":-28.48,"state":"NSW"},"type":"Feature","geometry":{"type":"Point","coordinates":[153.09,-28.48]}},{"properties":{"type":2,"client":"Optus","lng":149.83,"id":"a6geko7kun6o","lat":-32.12,"state":"NSW"},"type":"Feature","geometry":{"type":"Point","coordinates":[149.83,-32.12]}},{"properties":{"type":2,"client":"Optus","lng":151.37,"id":"a6gekntla6st","lat":-32.44,"state":"NSW"},"type":"Feature","geometry":{"type":"Point","coordinates":[151.37,-32.44]}},{"properties":{"type":2,"client":"Optus","lng":152.95,"id":"a6geko4i1ann","lat":-27.81,"state":"NSW"},"type":"Feature","geometry":{"type":"Point","coordinates":[152.95,-27.81]}},{"properties":{"type":2,"client":"Optus","lng":149.5,"id":"a6geko1r2ns9","lat":-32.66,"state":"NSW"},"type":"Feature","geometry":{"type":"Point","coordinates":[149.5,-32.66]}},{"properties":{"type":2,"client":"Optus","lng":145.15,"id":"a6geko35nllh","lat":-35.59,"state":"NSW"},"type":"Feature","geometry":{"type":"Point","coordinates":[145.15,-35.59]}},{"properties":{"type":2,"client":"Optus","lng":152.97,"id":"a6geko07ly9a","lat":-29.93,"state":"NSW"},"type":"Feature","geometry":{"type":"Point","coordinates":[152.97,-29.93]}},{"properties":{"type":2,"client":"Optus","lng":150.39,"id":"a6geko6ee5ho","lat":-34.56,"state":"NSW"},"type":"Feature","geometry":{"type":"Point","coordinates":[150.39,-34.56]}},{"properties":{"type":2,"client":"Optus","lng":149.69,"id":"a6geknzm1oig","lat":-32.78,"state":"NSW"},"type":"Feature","geometry":{"type":"Point","coordinates":[149.69,-32.78]}},{"properties":{"type":2,"client":"Optus","lng":149.69,"id":"a6geko8srujr","lat":-32.35,"state":"NSW"},"type":"Feature","geometry":{"type":"Point","coordinates":[149.69,-32.35]}},{"properties":{"type":2,"client":"Optus","lng":151.42,"id":"a6geko09w55m","lat":-33.18,"state":"NSW"},"type":"Feature","geometry":{"type":"Point","coordinates":[151.42,-33.18]}},{"properties":{"type":2,"client":"Optus","lng":151.4,"id":"a6geko8c64en","lat":-32.28,"state":"NSW"},"type":"Feature","geometry":{"type":"Point","coordinates":[151.4,-32.28]}},{"properties":{"type":2,"client":"Optus","lng":151.16,"id":"a6geko7er3iv","lat":-32.16,"state":"NSW"},"type":"Feature","geometry":{"type":"Point","coordinates":[151.16,-32.16]}},{"properties":{"type":2,"client":"Optus","lng":152.14,"id":"a6geko1ttbjj","lat":-28.63,"state":"NSW"},"type":"Feature","geometry":{"type":"Point","coordinates":[152.14,-28.63]}},{"properties":{"type":2,"client":"Optus","lng":149.72,"id":"a6geko75xkga","lat":-32.7972,"state":"NSW"},"type":"Feature","geometry":{"type":"Point","coordinates":[149.72,-32.7972]}},{"properties":{"type":2,"client":"Optus","lng":149.72,"id":"a6gekntoo7iv","lat":-32.7972,"state":"NSW"},"type":"Feature","geometry":{"type":"Point","coordinates":[149.72,-32.7972]}},{"properties":{"type":2,"client":"Optus","lng":149.927,"id":"a6geknved6ez","lat":-32.5839,"state":"NSW"},"type":"Feature","geometry":{"type":"Point","coordinates":[149.927,-32.5839]}},{"properties":{"type":2,"client":"Optus","lng":149.5,"id":"a6geko4hby24","lat":-32.6552,"state":"NSW"},"type":"Feature","geometry":{"type":"Point","coordinates":[149.5,-32.6552]}},{"properties":{"type":2,"client":"Optus","lng":149.488682,"id":"a6geknzl9r2x","lat":-32.690442,"state":"NSW"},"type":"Feature","geometry":{"type":"Point","coordinates":[149.488682,-32.690442]}},{"properties":{"type":2,"client":"Optus","lng":149.924,"id":"a6geknz4rcme","lat":-32.4825,"state":"NSW"},"type":"Feature","geometry":{"type":"Point","coordinates":[149.924,-32.4825]}},{"properties":{"type":2,"client":"Optus","lng":149.529494,"id":"a6geko91rrtg","lat":-32.441616,"state":"NSW"},"type":"Feature","geometry":{"type":"Point","coordinates":[149.529494,-32.441616]}},{"properties":{"type":2,"client":"Optus","lng":149.675095,"id":"a6geko2v8ldz","lat":-32.468061,"state":"NSW"},"type":"Feature","geometry":{"type":"Point","coordinates":[149.675095,-32.468061]}},{"properties":{"type":2,"client":"Optus","lng":149.038038,"id":"a6geko16kpyq","lat":-32.426485,"state":"NSW"},"type":"Feature","geometry":{"type":"Point","coordinates":[149.038038,-32.426485]}},{"properties":{"type":2,"client":"Optus","lng":149.230986,"id":"a6geko0qbhki","lat":-32.322934,"state":"NSW"},"type":"Feature","geometry":{"type":"Point","coordinates":[149.230986,-32.322934]}},{"properties":{"type":2,"client":"Optus","lng":149.672928,"id":"a6geknyz06pa","lat":-32.340358,"state":"NSW"},"type":"Feature","geometry":{"type":"Point","coordinates":[149.672928,-32.340358]}},{"properties":{"type":2,"client":"Optus","lng":149.760046,"id":"a6geknvqk0ni","lat":-32.621955,"state":"NSW"},"type":"Feature","geometry":{"type":"Point","coordinates":[149.760046,-32.621955]}},{"properties":{"type":2,"client":"Optus","lng":149.859352,"id":"a6geknwlh174","lat":-31.844607,"state":"NSW"},"type":"Feature","geometry":{"type":"Point","coordinates":[149.859352,-31.844607]}},{"properties":{"type":2,"client":"Optus","lng":149.859352,"id":"a6geknwx0fx0","lat":-31.844607,"state":"NSW"},"type":"Feature","geometry":{"type":"Point","coordinates":[149.859352,-31.844607]}},{"properties":{"type":2,"client":"Optus","lng":149.615,"id":"a6geko6emjvq","lat":-32.8058,"state":"NSW"},"type":"Feature","geometry":{"type":"Point","coordinates":[149.615,-32.8058]}},{"properties":{"type":2,"client":"Optus","lng":149.84,"id":"a6geknx9h6z7","lat":-32.6555,"state":"NSW"},"type":"Feature","geometry":{"type":"Point","coordinates":[149.84,-32.6555]}},{"properties":{"type":2,"client":"Optus","lng":149.84,"id":"a6geko1ouvg1","lat":-32.4685,"state":"NSW"},"type":"Feature","geometry":{"type":"Point","coordinates":[149.84,-32.4685]}},{"properties":{"type":2,"client":"Optus","lng":149.489,"id":"a6geko2su3tk","lat":-32.6649,"state":"NSW"},"type":"Feature","geometry":{"type":"Point","coordinates":[149.489,-32.6649]}},{"properties":{"type":2,"client":"Optus","lng":149.506,"id":"a6geko0eiclg","lat":-32.8702,"state":"NSW"},"type":"Feature","geometry":{"type":"Point","coordinates":[149.506,-32.8702]}},{"properties":{"type":2,"client":"Optus","lng":149.625,"id":"a6geknxlvf1y","lat":-32.7473,"state":"NSW"},"type":"Feature","geometry":{"type":"Point","coordinates":[149.625,-32.7473]}},{"properties":{"type":2,"client":"Optus","lng":149.643,"id":"a6geknxnp1ye","lat":-32.7506,"state":"NSW"},"type":"Feature","geometry":{"type":"Point","coordinates":[149.643,-32.7506]}},{"properties":{"type":2,"client":"Optus","lng":152.908,"id":"a6geko3m9lg2","lat":-28.564,"state":"NSW"},"type":"Feature","geometry":{"type":"Point","coordinates":[152.908,-28.564]}},{"properties":{"type":2,"client":"Optus","lng":152.871,"id":"a6geko4vpsgh","lat":-28.5651,"state":"NSW"},"type":"Feature","geometry":{"type":"Point","coordinates":[152.871,-28.5651]}},{"properties":{"type":2,"client":"Optus","lng":151.272,"id":"a6geko2y7if6","lat":-32.5499,"state":"NSW"},"type":"Feature","geometry":{"type":"Point","coordinates":[151.272,-32.5499]}},{"properties":{"type":2,"client":"Optus","lng":151.175,"id":"a6geko2ywsdb","lat":-32.3976,"state":"NSW"},"type":"Feature","geometry":{"type":"Point","coordinates":[151.175,-32.3976]}},{"properties":{"type":2,"client":"Optus","lng":150.978,"id":"a6geko68omwi","lat":-32.2042,"state":"NSW"},"type":"Feature","geometry":{"type":"Point","coordinates":[150.978,-32.2042]}},{"properties":{"type":2,"client":"Optus","lng":151.07,"id":"a6geknt7c80z","lat":-32.2186,"state":"NSW"},"type":"Feature","geometry":{"type":"Point","coordinates":[151.07,-32.2186]}},{"properties":{"type":2,"client":"Optus","lng":151.083,"id":"a6geknyvar1j","lat":-32.1166,"state":"NSW"},"type":"Feature","geometry":{"type":"Point","coordinates":[151.083,-32.1166]}},{"properties":{"type":2,"client":"Optus","lng":151.19,"id":"a6geko94oes0","lat":-31.4798,"state":"NSW"},"type":"Feature","geometry":{"type":"Point","coordinates":[151.19,-31.4798]}},{"properties":{"type":2,"client":"Optus","lng":151.151,"id":"a6gekntj61u3","lat":-31.3042,"state":"NSW"},"type":"Feature","geometry":{"type":"Point","coordinates":[151.151,-31.3042]}},{"properties":{"type":2,"client":"Optus","lng":148.557215,"id":"a6geko0scew5","lat":-32.239594,"state":"NSW"},"type":"Feature","geometry":{"type":"Point","coordinates":[148.557215,-32.239594]}},{"properties":{"type":2,"client":"Optus","lng":147.148132,"id":"a6geko4q2mf2","lat":-33.458943,"state":"NSW"},"type":"Feature","geometry":{"type":"Point","coordinates":[147.148132,-33.458943]}},{"properties":{"type":2,"client":"Optus","lng":149.923468,"id":"a6gekntvrw38","lat":-32.481945,"state":"NSW"},"type":"Feature","geometry":{"type":"Point","coordinates":[149.923468,-32.481945]}},{"properties":{"type":2,"client":"Optus","lng":149.68935,"id":"a6geko28h3wx","lat":-32.374365,"state":"NSW"},"type":"Feature","geometry":{"type":"Point","coordinates":[149.68935,-32.374365]}},{"properties":{"type":2,"client":"Optus","lng":152.802,"id":"a6geknv1e3uo","lat":-29.0437,"state":"NSW"},"type":"Feature","geometry":{"type":"Point","coordinates":[152.802,-29.0437]}},{"properties":{"type":2,"client":"Optus","lng":152.881,"id":"a6geko89roqr","lat":-28.787,"state":"NSW"},"type":"Feature","geometry":{"type":"Point","coordinates":[152.881,-28.787]}},{"properties":{"type":2,"client":"Optus","lng":150.545,"id":"a6geko2exr9v","lat":-31.9407,"state":"NSW"},"type":"Feature","geometry":{"type":"Point","coordinates":[150.545,-31.9407]}},{"properties":{"type":2,"client":"Optus","lng":149.691,"id":"a6gekny4m4kh","lat":-32.3366,"state":"NSW"},"type":"Feature","geometry":{"type":"Point","coordinates":[149.691,-32.3366]}},{"properties":{"type":2,"client":"Optus","lng":150.508,"id":"a6geko89jn14","lat":-32.3082,"state":"NSW"},"type":"Feature","geometry":{"type":"Point","coordinates":[150.508,-32.3082]}},{"properties":{"type":2,"client":"Optus","lng":151.075,"id":"a6geko30ng57","lat":-32.5412,"state":"NSW"},"type":"Feature","geometry":{"type":"Point","coordinates":[151.075,-32.5412]}},{"properties":{"type":2,"client":"Optus","lng":152.916,"id":"a6geko15r83q","lat":-28.6807,"state":"NSW"},"type":"Feature","geometry":{"type":"Point","coordinates":[152.916,-28.6807]}},{"properties":{"type":2,"client":"Optus","lng":151.383,"id":"a6geko0nz9sf","lat":-32.5032,"state":"NSW"},"type":"Feature","geometry":{"type":"Point","coordinates":[151.383,-32.5032]}},{"properties":{"type":2,"client":"Optus","lng":149.506288,"id":"a6geko6m9yhl","lat":-32.57678,"state":"NSW"},"type":"Feature","geometry":{"type":"Point","coordinates":[149.506288,-32.57678]}},{"properties":{"type":2,"client":"Optus","lng":152.11,"id":"a6gekntmkq5o","lat":-28.65,"state":"NSW"},"type":"Feature","geometry":{"type":"Point","coordinates":[152.11,-28.65]}},{"properties":{"type":2,"client":"Optus","lng":150.35,"id":"a6geknufszqs","lat":-30.81,"state":"NSW"},"type":"Feature","geometry":{"type":"Point","coordinates":[150.35,-30.81]}},{"properties":{"type":2,"client":"Optus","lng":152.04,"id":"a6geknwiml33","lat":-32.09,"state":"NSW"},"type":"Feature","geometry":{"type":"Point","coordinates":[152.04,-32.09]}},{"properties":{"type":2,"client":"Optus","lng":152.26,"id":"a6geknx692fs","lat":-31.83,"state":"NSW"},"type":"Feature","geometry":{"type":"Point","coordinates":[152.26,-31.83]}},{"properties":{"type":2,"client":"Optus","lng":152.36,"id":"a6geko7fyhfl","lat":-31.72,"state":"NSW"},"type":"Feature","geometry":{"type":"Point","coordinates":[152.36,-31.72]}},{"properties":{"type":2,"client":"Optus","lng":152.6,"id":"a6geko0t08sd","lat":-31.42,"state":"NSW"},"type":"Feature","geometry":{"type":"Point","coordinates":[152.6,-31.42]}},{"properties":{"type":2,"client":"Optus","lng":153.09,"id":"a6geknxk4jyf","lat":-30.28,"state":"NSW"},"type":"Feature","geometry":{"type":"Point","coordinates":[153.09,-30.28]}},{"properties":{"type":2,"client":"Optus","lng":152.95,"id":"a6geknuolgbs","lat":-30.5,"state":"NSW"},"type":"Feature","geometry":{"type":"Point","coordinates":[152.95,-30.5]}},{"properties":{"type":2,"client":"Optus","lng":152.83,"id":"a6geknwqxb0m","lat":-29.5,"state":"NSW"},"type":"Feature","geometry":{"type":"Point","coordinates":[152.83,-29.5]}},{"properties":{"type":2,"client":"Optus","lng":152.83,"id":"a6geknxs21qy","lat":-29.47,"state":"NSW"},"type":"Feature","geometry":{"type":"Point","coordinates":[152.83,-29.47]}},{"properties":{"type":2,"client":"Optus","lng":152.88,"id":"a6geko30n6ey","lat":-28.69,"state":"NSW"},"type":"Feature","geometry":{"type":"Point","coordinates":[152.88,-28.69]}},{"properties":{"type":2,"client":"Optus","lng":152.71,"id":"a6geknuksm09","lat":-28.38,"state":"NSW"},"type":"Feature","geometry":{"type":"Point","coordinates":[152.71,-28.38]}},{"properties":{"type":2,"client":"Optus","lng":153.15,"id":"a6geko6gah4e","lat":-28.64,"state":"NSW"},"type":"Feature","geometry":{"type":"Point","coordinates":[153.15,-28.64]}},{"properties":{"type":2,"client":"Optus","lng":153.17,"id":"a6geko1t888x","lat":-28.35,"state":"NSW"},"type":"Feature","geometry":{"type":"Point","coordinates":[153.17,-28.35]}},{"properties":{"type":2,"client":"Optus","lng":150.22,"id":"a6geknxojs7j","lat":-35.64,"state":"NSW"},"type":"Feature","geometry":{"type":"Point","coordinates":[150.22,-35.64]}},{"properties":{"type":2,"client":"Optus","lng":149.5,"id":"a6geko4qgy4q","lat":-36.93,"state":"NSW"},"type":"Feature","geometry":{"type":"Point","coordinates":[149.5,-36.93]}},{"properties":{"type":2,"client":"Optus","lng":149.97,"id":"a6geknygo8x8","lat":-34.42,"state":"NSW"},"type":"Feature","geometry":{"type":"Point","coordinates":[149.97,-34.42]}},{"properties":{"type":2,"client":"Optus","lng":149.81,"id":"a6geknufh40q","lat":-34.92,"state":"NSW"},"type":"Feature","geometry":{"type":"Point","coordinates":[149.81,-34.92]}},{"properties":{"type":2,"client":"Optus","lng":149.75,"id":"a6geknumr812","lat":-35.14,"state":"NSW"},"type":"Feature","geometry":{"type":"Point","coordinates":[149.75,-35.14]}},{"properties":{"type":2,"client":"Optus","lng":149.81,"id":"a6geko7dv5n1","lat":-35.66,"state":"NSW"},"type":"Feature","geometry":{"type":"Point","coordinates":[149.81,-35.66]}},{"properties":{"type":2,"client":"Optus","lng":149.44,"id":"a6geko0tqdtr","lat":-35.61,"state":"NSW"},"type":"Feature","geometry":{"type":"Point","coordinates":[149.44,-35.61]}},{"properties":{"type":2,"client":"Optus","lng":148.46,"id":"a6geko8le312","lat":-36.67,"state":"NSW"},"type":"Feature","geometry":{"type":"Point","coordinates":[148.46,-36.67]}},{"properties":{"type":2,"client":"Optus","lng":148.55,"id":"a6geknw5c7xg","lat":-36.49,"state":"NSW"},"type":"Feature","geometry":{"type":"Point","coordinates":[148.55,-36.49]}},{"properties":{"type":2,"client":"Optus","lng":147.47,"id":"a6geknvk48gl","lat":-35.86,"state":"NSW"},"type":"Feature","geometry":{"type":"Point","coordinates":[147.47,-35.86]}},{"properties":{"type":2,"client":"Optus","lng":147.11,"id":"a6geknv5bl3b","lat":-34.51,"state":"NSW"},"type":"Feature","geometry":{"type":"Point","coordinates":[147.11,-34.51]}},{"properties":{"type":2,"client":"Optus","lng":145.37,"id":"a6geknxbmq2i","lat":-35.38,"state":"NSW"},"type":"Feature","geometry":{"type":"Point","coordinates":[145.37,-35.38]}},{"properties":{"type":2,"client":"Optus","lng":148.42,"id":"a6geknta4jqb","lat":-35.37,"state":"NSW"},"type":"Feature","geometry":{"type":"Point","coordinates":[148.42,-35.37]}},{"properties":{"type":2,"client":"Optus","lng":148.47,"id":"a6geko3a82p6","lat":-35.33,"state":"NSW"},"type":"Feature","geometry":{"type":"Point","coordinates":[148.47,-35.33]}},{"properties":{"type":2,"client":"Optus","lng":150.78,"id":"a6geko3uywaf","lat":-35.35,"state":"NSW"},"type":"Feature","geometry":{"type":"Point","coordinates":[150.78,-35.35]}},{"properties":{"type":2,"client":"Optus","lng":149.64,"id":"a6geko0jhtxx","lat":-33.31,"state":"NSW"},"type":"Feature","geometry":{"type":"Point","coordinates":[149.64,-33.31]}},{"properties":{"type":2,"client":"Optus","lng":149.57,"id":"a6geko2d0q4l","lat":-32.82,"state":"NSW"},"type":"Feature","geometry":{"type":"Point","coordinates":[149.57,-32.82]}},{"properties":{"type":2,"client":"Optus","lng":149.76,"id":"a6geknxbrmk8","lat":-33.59,"state":"NSW"},"type":"Feature","geometry":{"type":"Point","coordinates":[149.76,-33.59]}},{"properties":{"type":2,"client":"Optus","lng":149.39,"id":"a6geko1kxy0u","lat":-33.57,"state":"NSW"},"type":"Feature","geometry":{"type":"Point","coordinates":[149.39,-33.57]}},{"properties":{"type":2,"client":"Optus","lng":152.83,"id":"a6geko8iudm6","lat":-28.55,"state":"NSW"},"type":"Feature","geometry":{"type":"Point","coordinates":[152.83,-28.55]}},{"properties":{"type":2,"client":"Optus","lng":152.62,"id":"a6geknzv1fhg","lat":-31.09,"state":"NSW"},"type":"Feature","geometry":{"type":"Point","coordinates":[152.62,-31.09]}},{"properties":{"type":2,"client":"Optus","lng":149.49,"id":"a6geko7dpd1d","lat":-32.66,"state":"NSW"},"type":"Feature","geometry":{"type":"Point","coordinates":[149.49,-32.66]}},{"properties":{"type":2,"client":"Optus","lng":152.85,"id":"a6geko2k9g26","lat":-29.6,"state":"NSW"},"type":"Feature","geometry":{"type":"Point","coordinates":[152.85,-29.6]}},{"properties":{"type":2,"client":"Optus","lng":148.57,"id":"a6gekntxt9fp","lat":-30.86,"state":"NSW"},"type":"Feature","geometry":{"type":"Point","coordinates":[148.57,-30.86]}},{"properties":{"type":2,"client":"Optus","lng":149.84,"id":"a6geknx8gszd","lat":-32.66,"state":"NSW"},"type":"Feature","geometry":{"type":"Point","coordinates":[149.84,-32.66]}},{"properties":{"type":2,"client":"Optus","lng":149.49,"id":"a6geko8jhh5b","lat":-32.78,"state":"NSW"},"type":"Feature","geometry":{"type":"Point","coordinates":[149.49,-32.78]}},{"properties":{"type":2,"client":"Optus","lng":150.98,"id":"a6geko0joxvc","lat":-32.68,"state":"NSW"},"type":"Feature","geometry":{"type":"Point","coordinates":[150.98,-32.68]}},{"properties":{"type":2,"client":"Optus","lng":147.96,"id":"a6geknz59k9w","lat":-31.71,"state":"NSW"},"type":"Feature","geometry":{"type":"Point","coordinates":[147.96,-31.71]}},{"properties":{"type":2,"client":"Optus","lng":146.93,"id":"a6geknxjdsv2","lat":-34.74,"state":"NSW"},"type":"Feature","geometry":{"type":"Point","coordinates":[146.93,-34.74]}},{"properties":{"type":2,"client":"Optus","lng":149.82,"id":"a6gekntijygj","lat":-33.95,"state":"NSW"},"type":"Feature","geometry":{"type":"Point","coordinates":[149.82,-33.95]}},{"properties":{"type":2,"client":"Optus","lng":149.38,"id":"a6geko0ho52q","lat":-32.92,"state":"NSW"},"type":"Feature","geometry":{"type":"Point","coordinates":[149.38,-32.92]}},{"properties":{"type":2,"client":"Optus","lng":151.19,"id":"a6geknwdchi3","lat":-32.99,"state":"NSW"},"type":"Feature","geometry":{"type":"Point","coordinates":[151.19,-32.99]}},{"properties":{"type":2,"client":"Optus","lng":152.67,"id":"a6geko8r5fr3","lat":-28.54,"state":"NSW"},"type":"Feature","geometry":{"type":"Point","coordinates":[152.67,-28.54]}},{"properties":{"type":2,"client":"Optus","lng":151.33,"id":"a6geko0nqrva","lat":-32.52,"state":"NSW"},"type":"Feature","geometry":{"type":"Point","coordinates":[151.33,-32.52]}},{"properties":{"type":2,"client":"Optus","lng":153.01,"id":"a6geko1tlv0w","lat":-29.0,"state":"NSW"},"type":"Feature","geometry":{"type":"Point","coordinates":[153.01,-29.0]}},{"properties":{"type":2,"client":"Optus","lng":151.15,"id":"a6geko1mxkui","lat":-31.3,"state":"NSW"},"type":"Feature","geometry":{"type":"Point","coordinates":[151.15,-31.3]}},{"properties":{"type":2,"client":"Optus","lng":145.32,"id":"a6geko8ky6qd","lat":-35.77,"state":"NSW"},"type":"Feature","geometry":{"type":"Point","coordinates":[145.32,-35.77]}},{"properties":{"type":2,"client":"Optus","lng":149.91,"id":"a6geko1hanp7","lat":-37.24,"state":"NSW"},"type":"Feature","geometry":{"type":"Point","coordinates":[149.91,-37.24]}},{"properties":{"type":2,"client":"Optus","lng":152.51,"id":"a6gekntsavcs","lat":-30.71,"state":"NSW"},"type":"Feature","geometry":{"type":"Point","coordinates":[152.51,-30.71]}},{"properties":{"type":2,"client":"Optus","lng":153.13,"id":"a6geko6g0c7b","lat":-29.2,"state":"NSW"},"type":"Feature","geometry":{"type":"Point","coordinates":[153.13,-29.2]}},{"properties":{"type":2,"client":"Optus","lng":151.34,"id":"a6geknzruf2a","lat":-33.27,"state":"NSW"},"type":"Feature","geometry":{"type":"Point","coordinates":[151.34,-33.27]}},{"properties":{"type":2,"client":"Optus","lng":149.84,"id":"a6geko908cay","lat":-32.65,"state":"NSW"},"type":"Feature","geometry":{"type":"Point","coordinates":[149.84,-32.65]}},{"properties":{"type":2,"client":"Optus","lng":147.94,"id":"a6geko8trj0k","lat":-20.32,"state":"QLD"},"type":"Feature","geometry":{"type":"Point","coordinates":[147.94,-20.32]}},{"properties":{"type":2,"client":"Optus","lng":151.73,"id":"a6geknxjy0c9","lat":-24.31,"state":"QLD"},"type":"Feature","geometry":{"type":"Point","coordinates":[151.73,-24.31]}},{"properties":{"type":2,"client":"Optus","lng":148.57,"id":"a6geko7d07nw","lat":-26.33,"state":"QLD"},"type":"Feature","geometry":{"type":"Point","coordinates":[148.57,-26.33]}},{"properties":{"type":2,"client":"Optus","lng":152.13,"id":"a6geko82itzs","lat":-28.12,"state":"QLD"},"type":"Feature","geometry":{"type":"Point","coordinates":[152.13,-28.12]}},{"properties":{"type":2,"client":"Optus","lng":152.79,"id":"a6geknwqx28b","lat":-28.28,"state":"QLD"},"type":"Feature","geometry":{"type":"Point","coordinates":[152.79,-28.28]}},{"properties":{"type":2,"client":"Optus","lng":145.81,"id":"a6geko1e3sv1","lat":-18.12,"state":"QLD"},"type":"Feature","geometry":{"type":"Point","coordinates":[145.81,-18.12]}},{"properties":{"type":2,"client":"Optus","lng":152.07,"id":"a6geko1bb016","lat":-27.64,"state":"QLD"},"type":"Feature","geometry":{"type":"Point","coordinates":[152.07,-27.64]}},{"properties":{"type":2,"client":"Optus","lng":150.46,"id":"a6geko29vd78","lat":-28.04,"state":"QLD"},"type":"Feature","geometry":{"type":"Point","coordinates":[150.46,-28.04]}},{"properties":{"type":2,"client":"Optus","lng":152.9,"id":"a6geko5sxlgz","lat":-27.53,"state":"QLD"},"type":"Feature","geometry":{"type":"Point","coordinates":[152.9,-27.53]}},{"properties":{"type":2,"client":"Optus","lng":153.04,"id":"a6geko75d2t6","lat":-27.32,"state":"QLD"},"type":"Feature","geometry":{"type":"Point","coordinates":[153.04,-27.32]}},{"properties":{"type":2,"client":"Optus","lng":153.09,"id":"a6geko92f5ch","lat":-26.67,"state":"QLD"},"type":"Feature","geometry":{"type":"Point","coordinates":[153.09,-26.67]}},{"properties":{"type":2,"client":"Optus","lng":152.94,"id":"a6geko0vv51b","lat":-28.07,"state":"QLD"},"type":"Feature","geometry":{"type":"Point","coordinates":[152.94,-28.07]}},{"properties":{"type":2,"client":"Optus","lng":152.49,"id":"a6geknyb82ml","lat":-27.6,"state":"QLD"},"type":"Feature","geometry":{"type":"Point","coordinates":[152.49,-27.6]}},{"properties":{"type":2,"client":"Optus","lng":152.22,"id":"a6geknt9h824","lat":-27.67,"state":"QLD"},"type":"Feature","geometry":{"type":"Point","coordinates":[152.22,-27.67]}},{"properties":{"type":2,"client":"Optus","lng":151.88,"id":"a6geko430ofv","lat":-27.35,"state":"QLD"},"type":"Feature","geometry":{"type":"Point","coordinates":[151.88,-27.35]}},{"properties":{"type":2,"client":"Optus","lng":151.85,"id":"a6geknul6w9g","lat":-27.05,"state":"QLD"},"type":"Feature","geometry":{"type":"Point","coordinates":[151.85,-27.05]}},{"properties":{"type":2,"client":"Optus","lng":149.55,"id":"a6geko11qf55","lat":-27.25,"state":"QLD"},"type":"Feature","geometry":{"type":"Point","coordinates":[149.55,-27.25]}},{"properties":{"type":2,"client":"Optus","lng":152.84,"id":"a6geknzxzj8u","lat":-26.83,"state":"QLD"},"type":"Feature","geometry":{"type":"Point","coordinates":[152.84,-26.83]}},{"properties":{"type":2,"client":"Optus","lng":152.88,"id":"a6geknwmsizu","lat":-27.43,"state":"QLD"},"type":"Feature","geometry":{"type":"Point","coordinates":[152.88,-27.43]}},{"properties":{"type":2,"client":"Optus","lng":152.7,"id":"a6geknxw6a1g","lat":-26.64,"state":"QLD"},"type":"Feature","geometry":{"type":"Point","coordinates":[152.7,-26.64]}},{"properties":{"type":2,"client":"Optus","lng":152.7,"id":"a6geknsx88t6","lat":-26.71,"state":"QLD"},"type":"Feature","geometry":{"type":"Point","coordinates":[152.7,-26.71]}},{"properties":{"type":2,"client":"Optus","lng":152.86,"id":"a6geknvu30yy","lat":-26.3,"state":"QLD"},"type":"Feature","geometry":{"type":"Point","coordinates":[152.86,-26.3]}},{"properties":{"type":2,"client":"Optus","lng":152.34,"id":"a6geko5za3b3","lat":-25.97,"state":"QLD"},"type":"Feature","geometry":{"type":"Point","coordinates":[152.34,-25.97]}},{"properties":{"type":2,"client":"Optus","lng":152.89,"id":"a6geko7rtyvg","lat":-26.17,"state":"QLD"},"type":"Feature","geometry":{"type":"Point","coordinates":[152.89,-26.17]}},{"properties":{"type":2,"client":"Optus","lng":152.84,"id":"a6geknujabjo","lat":-26.22,"state":"QLD"},"type":"Feature","geometry":{"type":"Point","coordinates":[152.84,-26.22]}},{"properties":{"type":2,"client":"Optus","lng":152.56,"id":"a6geknubhrjc","lat":-26.47,"state":"QLD"},"type":"Feature","geometry":{"type":"Point","coordinates":[152.56,-26.47]}},{"properties":{"type":2,"client":"Optus","lng":152.59,"id":"a6geko23lbuh","lat":-26.32,"state":"QLD"},"type":"Feature","geometry":{"type":"Point","coordinates":[152.59,-26.32]}},{"properties":{"type":2,"client":"Optus","lng":152.73,"id":"a6geko42i0wk","lat":-26.64,"state":"QLD"},"type":"Feature","geometry":{"type":"Point","coordinates":[152.73,-26.64]}},{"properties":{"type":2,"client":"Optus","lng":151.83,"id":"a6geko3dj5r0","lat":-26.11,"state":"QLD"},"type":"Feature","geometry":{"type":"Point","coordinates":[151.83,-26.11]}},{"properties":{"type":2,"client":"Optus","lng":151.83,"id":"a6geknwjw0qw","lat":-26.36,"state":"QLD"},"type":"Feature","geometry":{"type":"Point","coordinates":[151.83,-26.36]}},{"properties":{"type":2,"client":"Optus","lng":151.96,"id":"a6geknuyij0s","lat":-26.44,"state":"QLD"},"type":"Feature","geometry":{"type":"Point","coordinates":[151.96,-26.44]}},{"properties":{"type":2,"client":"Optus","lng":151.59,"id":"a6geko43gbu7","lat":-25.66,"state":"QLD"},"type":"Feature","geometry":{"type":"Point","coordinates":[151.59,-25.66]}},{"properties":{"type":2,"client":"Optus","lng":150.85,"id":"a6gekntynsls","lat":-25.28,"state":"QLD"},"type":"Feature","geometry":{"type":"Point","coordinates":[150.85,-25.28]}},{"properties":{"type":2,"client":"Optus","lng":151.49,"id":"a6geknz7e7lj","lat":-24.09,"state":"QLD"},"type":"Feature","geometry":{"type":"Point","coordinates":[151.49,-24.09]}},{"properties":{"type":2,"client":"Optus","lng":148.75,"id":"a6geknz3h3ao","lat":-20.27,"state":"QLD"},"type":"Feature","geometry":{"type":"Point","coordinates":[148.75,-20.27]}},{"properties":{"type":2,"client":"Optus","lng":152.62,"id":"a6geknvdfzf4","lat":-27.41,"state":"QLD"},"type":"Feature","geometry":{"type":"Point","coordinates":[152.62,-27.41]}},{"properties":{"type":2,"client":"Optus","lng":152.55,"id":"a6gekntyzbhy","lat":-27.12,"state":"QLD"},"type":"Feature","geometry":{"type":"Point","coordinates":[152.55,-27.12]}},{"properties":{"type":2,"client":"Optus","lng":143.76,"id":"a6geko5ajmvr","lat":-38.69,"state":"VIC"},"type":"Feature","geometry":{"type":"Point","coordinates":[143.76,-38.69]}},{"properties":{"type":2,"client":"Optus","lng":143.68,"id":"a6geknuvttg1","lat":-38.73,"state":"VIC"},"type":"Feature","geometry":{"type":"Point","coordinates":[143.68,-38.73]}},{"properties":{"type":2,"client":"Optus","lng":143.51,"id":"a6geko82itan","lat":-37.86,"state":"VIC"},"type":"Feature","geometry":{"type":"Point","coordinates":[143.51,-37.86]}},{"properties":{"type":2,"client":"Optus","lng":143.68,"id":"a6geknyx7huh","lat":-37.79,"state":"VIC"},"type":"Feature","geometry":{"type":"Point","coordinates":[143.68,-37.79]}},{"properties":{"type":2,"client":"Optus","lng":142.9,"id":"a6geko6lr025","lat":-36.74,"state":"VIC"},"type":"Feature","geometry":{"type":"Point","coordinates":[142.9,-36.74]}},{"properties":{"type":2,"client":"Optus","lng":142.52,"id":"a6geko1a3ooh","lat":-35.83,"state":"VIC"},"type":"Feature","geometry":{"type":"Point","coordinates":[142.52,-35.83]}},{"properties":{"type":2,"client":"Optus","lng":144.7,"id":"a6geko94s9cl","lat":-37.2,"state":"VIC"},"type":"Feature","geometry":{"type":"Point","coordinates":[144.7,-37.2]}},{"properties":{"type":2,"client":"Optus","lng":144.31,"id":"a6geko7hzzb2","lat":-37.28,"state":"VIC"},"type":"Feature","geometry":{"type":"Point","coordinates":[144.31,-37.28]}},{"properties":{"type":2,"client":"Optus","lng":143.55,"id":"a6geknx1ufvn","lat":-36.78,"state":"VIC"},"type":"Feature","geometry":{"type":"Point","coordinates":[143.55,-36.78]}},{"properties":{"type":2,"client":"Optus","lng":145.58,"id":"a6geko79ulj9","lat":-36.92,"state":"VIC"},"type":"Feature","geometry":{"type":"Point","coordinates":[145.58,-36.92]}},{"properties":{"type":2,"client":"Optus","lng":146.58,"id":"a6geknuw2bbh","lat":-36.84,"state":"VIC"},"type":"Feature","geometry":{"type":"Point","coordinates":[146.58,-36.84]}},{"properties":{"type":2,"client":"Optus","lng":146.09,"id":"a6geknv8m0pe","lat":-37.13,"state":"VIC"},"type":"Feature","geometry":{"type":"Point","coordinates":[146.09,-37.13]}},{"properties":{"type":2,"client":"Optus","lng":146.68,"id":"a6geknvvuk5n","lat":-36.68,"state":"VIC"},"type":"Feature","geometry":{"type":"Point","coordinates":[146.68,-36.68]}},{"properties":{"type":2,"client":"Optus","lng":146.85,"id":"a6gekny1klii","lat":-36.65,"state":"VIC"},"type":"Feature","geometry":{"type":"Point","coordinates":[146.85,-36.65]}},{"properties":{"type":2,"client":"Optus","lng":145.31,"id":"a6geko8t8k3s","lat":-37.48,"state":"VIC"},"type":"Feature","geometry":{"type":"Point","coordinates":[145.31,-37.48]}},{"properties":{"type":2,"client":"Optus","lng":145.85,"id":"a6geko308b3j","lat":-38.21,"state":"VIC"},"type":"Feature","geometry":{"type":"Point","coordinates":[145.85,-38.21]}},{"properties":{"type":2,"client":"Optus","lng":148.25,"id":"a6geko1hio36","lat":-37.33,"state":"VIC"},"type":"Feature","geometry":{"type":"Point","coordinates":[148.25,-37.33]}},{"properties":{"type":2,"client":"Optus","lng":146.15,"id":"a6geko33nuo0","lat":-38.73,"state":"VIC"},"type":"Feature","geometry":{"type":"Point","coordinates":[146.15,-38.73]}},{"properties":{"type":2,"client":"Optus","lng":146.06,"id":"a6geko71ot8m","lat":-37.18,"state":"VIC"},"type":"Feature","geometry":{"type":"Point","coordinates":[146.06,-37.18]}},{"properties":{"type":2,"client":"Optus","lng":141.98,"id":"a6geko6vbtma","lat":-37.16,"state":"VIC"},"type":"Feature","geometry":{"type":"Point","coordinates":[141.98,-37.16]}},{"properties":{"type":2,"client":"Optus","lng":143.92,"id":"a6geknuku68v","lat":-36.34,"state":"VIC"},"type":"Feature","geometry":{"type":"Point","coordinates":[143.92,-36.34]}},{"properties":{"type":2,"client":"Optus","lng":146.49,"id":"a6geko1wwfft","lat":-36.64,"state":"VIC"},"type":"Feature","geometry":{"type":"Point","coordinates":[146.49,-36.64]}}],"is_temporal":false,"author":{"url":"","metadata":"","contact_name":"","contact_address":"","source":"","contact_phone":""},"source":"","pagination":{"sort":null,"start":0,"total":182,"limit":1000000},"state":"complete","tags":"","published":"2014-08-13T06:05:29-04:00","id":125415}