{"type":"FeatureCollection","data_type":"Dataset","url_type":null,"permissions":[{"permissions":{"download":true,"view":true},"group_id":"everyone"}],"classification":null,"title":"test1","count":433,"stream_id":126734,"contributor":{"url":"http://geocommons.com/users/28001","name":"gpc0922"},"data_attributes":null,"calculation_params":null,"icon_link":null,"link":"http://geocommons.com/overlays/126734.json","extent":[-123.262,17.9923,-66.1057,47.979],"geometry_types":["point"],"unique_name":null,"name":"test1","feature_count":433,"description":"","next_feature":null,"is_raster":false,"short_classification":"Y","stats":{},"features":[{"properties":{"city":"ANDALUSIA","geo_score":0.857,"id":"a6gebxys3sd4","geo_precision":"city","state":"AL"},"type":"Feature","geometry":{"type":"Point","coordinates":[-86.386398,31.304166]}},{"properties":{"city":"ANDALUSIA","geo_score":0.857,"id":"a6gebxwcpygp","geo_precision":"city","state":"AL"},"type":"Feature","geometry":{"type":"Point","coordinates":[-86.386398,31.304166]}},{"properties":{"city":"ANDALUSIA","geo_score":0.857,"id":"a6gebxqopdbs","geo_precision":"city","state":"AL"},"type":"Feature","geometry":{"type":"Point","coordinates":[-86.386398,31.304166]}},{"properties":{"city":"ANDALUSIA","geo_score":0.857,"id":"a6gebxsj0g10","geo_precision":"city","state":"AL"},"type":"Feature","geometry":{"type":"Point","coordinates":[-86.386398,31.304166]}},{"properties":{"city":"RAINBOW CITY","geo_score":0.857,"id":"a6gebxqgc8b3","geo_precision":"city","state":"AL"},"type":"Feature","geometry":{"type":"Point","coordinates":[-86.085173,34.033764]}},{"properties":{"city":"LITTLE ROCK","geo_score":0.857,"id":"a6gebxmco2ut","geo_precision":"city","state":"AR"},"type":"Feature","geometry":{"type":"Point","coordinates":[-92.289595,34.746481]}},{"properties":{"city":"LITTLE ROCK","geo_score":0.857,"id":"a6gebxt86qmy","geo_precision":"city","state":"AR"},"type":"Feature","geometry":{"type":"Point","coordinates":[-92.289595,34.746481]}},{"properties":{"city":"PHOENIX","geo_score":0.857,"id":"a6geby055ya5","geo_precision":"city","state":"AZ"},"type":"Feature","geometry":{"type":"Point","coordinates":[-112.074037,33.448377]}},{"properties":{"city":"PHOENIX","geo_score":0.857,"id":"a6gebxv13u4d","geo_precision":"city","state":"AZ"},"type":"Feature","geometry":{"type":"Point","coordinates":[-112.074037,33.448377]}},{"properties":{"city":"PHOENIX","geo_score":0.857,"id":"a6gebxmkbi33","geo_precision":"city","state":"AZ"},"type":"Feature","geometry":{"type":"Point","coordinates":[-112.074037,33.448377]}},{"properties":{"city":"PHOENIX","geo_score":0.857,"id":"a6geby0hufkg","geo_precision":"city","state":"AZ"},"type":"Feature","geometry":{"type":"Point","coordinates":[-112.074037,33.448377]}},{"properties":{"city":"SHOW LOW","geo_score":0.857,"id":"a6gebxnxm25c","geo_precision":"city","state":"AZ"},"type":"Feature","geometry":{"type":"Point","coordinates":[-110.032025,34.570811]}},{"properties":{"city":"COLTON","geo_score":0.857,"id":"a6gebxkw59w6","geo_precision":"city","state":"CA"},"type":"Feature","geometry":{"type":"Point","coordinates":[-116.900557,34.151161]}},{"properties":{"city":"COLTON","geo_score":0.857,"id":"a6gebxzv4617","geo_precision":"city","state":"CA"},"type":"Feature","geometry":{"type":"Point","coordinates":[-116.900557,34.151161]}},{"properties":{"city":"COLTON","geo_score":0.857,"id":"a6gebxom7m4q","geo_precision":"city","state":"CA"},"type":"Feature","geometry":{"type":"Point","coordinates":[-116.900557,34.151161]}},{"properties":{"city":"COLTON","geo_score":0.857,"id":"a6gebxlfhuzz","geo_precision":"city","state":"CA"},"type":"Feature","geometry":{"type":"Point","coordinates":[-116.900557,34.151161]}},{"properties":{"city":"COLTON","geo_score":0.857,"id":"a6gebxza1yjq","geo_precision":"city","state":"CA"},"type":"Feature","geometry":{"type":"Point","coordinates":[-116.900557,34.151161]}},{"properties":{"city":"FREMONT","geo_score":0.857,"id":"a6gebxsrfedk","geo_precision":"city","state":"CA"},"type":"Feature","geometry":{"type":"Point","coordinates":[-121.988572,37.54827]}},{"properties":{"city":"FREMONT","geo_score":0.857,"id":"a6gebxom7qkr","geo_precision":"city","state":"CA"},"type":"Feature","geometry":{"type":"Point","coordinates":[-121.988572,37.54827]}},{"properties":{"city":"GARDEN GROVE","geo_score":0.857,"id":"a6gebxrl08r6","geo_precision":"city","state":"CA"},"type":"Feature","geometry":{"type":"Point","coordinates":[-117.941448,33.773905]}},{"properties":{"city":"GARDEN GROVE","geo_score":0.857,"id":"a6gebxmvkkcb","geo_precision":"city","state":"CA"},"type":"Feature","geometry":{"type":"Point","coordinates":[-117.941448,33.773905]}},{"properties":{"city":"GREENBRAE","geo_score":0.857,"id":"a6gebxqm416p","geo_precision":"city","state":"CA"},"type":"Feature","geometry":{"type":"Point","coordinates":[-122.536337,37.947874]}},{"properties":{"city":"GREENBRAE","geo_score":0.857,"id":"a6gebxxgtxwg","geo_precision":"city","state":"CA"},"type":"Feature","geometry":{"type":"Point","coordinates":[-122.536337,37.947874]}},{"properties":{"city":"GREENBRAE","geo_score":0.857,"id":"a6gebxtnrhwh","geo_precision":"city","state":"CA"},"type":"Feature","geometry":{"type":"Point","coordinates":[-122.536337,37.947874]}},{"properties":{"city":"LA JOLLA","geo_score":0.857,"id":"a6gebxqxqz5y","geo_precision":"city","state":"CA"},"type":"Feature","geometry":{"type":"Point","coordinates":[-117.876447,33.857515]}},{"properties":{"city":"LA JOLLA","geo_score":0.857,"id":"a6gebxx36awk","geo_precision":"city","state":"CA"},"type":"Feature","geometry":{"type":"Point","coordinates":[-117.876447,33.857515]}},{"properties":{"city":"LOS ANGELES","geo_score":0.857,"id":"a6gebxsqwdjj","geo_precision":"city","state":"CA"},"type":"Feature","geometry":{"type":"Point","coordinates":[-118.243685,34.052234]}},{"properties":{"city":"LOS ANGELES","geo_score":0.857,"id":"a6gebxpjbl7m","geo_precision":"city","state":"CA"},"type":"Feature","geometry":{"type":"Point","coordinates":[-118.243685,34.052234]}},{"properties":{"city":"LYNWOOD","geo_score":0.837,"id":"a6gebxnngeh8","geo_precision":"city","state":"CA"},"type":"Feature","geometry":{"type":"Point","coordinates":[-117.103931,34.87665]}},{"properties":{"city":"MADERA","geo_score":0.857,"id":"a6gebxqtnl7y","geo_precision":"city","state":"CA"},"type":"Feature","geometry":{"type":"Point","coordinates":[-120.182423,36.928286]}},{"properties":{"city":"MADERA","geo_score":0.857,"id":"a6gebxsk67he","geo_precision":"city","state":"CA"},"type":"Feature","geometry":{"type":"Point","coordinates":[-120.182423,36.928286]}},{"properties":{"city":"MADERA","geo_score":0.857,"id":"a6gebxscpz4p","geo_precision":"city","state":"CA"},"type":"Feature","geometry":{"type":"Point","coordinates":[-120.182423,36.928286]}},{"properties":{"city":"MADERA","geo_score":0.857,"id":"a6gebxpgzeqn","geo_precision":"city","state":"CA"},"type":"Feature","geometry":{"type":"Point","coordinates":[-120.182423,36.928286]}},{"properties":{"city":"MADERA","geo_score":0.857,"id":"a6gebxtkf3ks","geo_precision":"city","state":"CA"},"type":"Feature","geometry":{"type":"Point","coordinates":[-120.182423,36.928286]}},{"properties":{"city":"MODESTO","geo_score":0.857,"id":"a6gebxp8zi2d","geo_precision":"city","state":"CA"},"type":"Feature","geometry":{"type":"Point","coordinates":[-121.016796,37.669463]}},{"properties":{"city":"NOVATO","geo_score":0.857,"id":"a6gebxyt9rvg","geo_precision":"city","state":"CA"},"type":"Feature","geometry":{"type":"Point","coordinates":[-122.540951,38.027654]}},{"properties":{"city":"NOVATO","geo_score":0.857,"id":"a6gebxr7l8mp","geo_precision":"city","state":"CA"},"type":"Feature","geometry":{"type":"Point","coordinates":[-122.540951,38.027654]}},{"properties":{"city":"ORANGE","geo_score":0.857,"id":"a6gebxmsqhyd","geo_precision":"city","state":"CA"},"type":"Feature","geometry":{"type":"Point","coordinates":[-117.853112,33.787795]}},{"properties":{"city":"ORANGE","geo_score":0.857,"id":"a6gebxn3c412","geo_precision":"city","state":"CA"},"type":"Feature","geometry":{"type":"Point","coordinates":[-117.853112,33.787795]}},{"properties":{"city":"ORANGE","geo_score":0.857,"id":"a6gebxppcsxr","geo_precision":"city","state":"CA"},"type":"Feature","geometry":{"type":"Point","coordinates":[-117.853112,33.787795]}},{"properties":{"city":"ORANGE","geo_score":0.857,"id":"a6gebxvjn8f4","geo_precision":"city","state":"CA"},"type":"Feature","geometry":{"type":"Point","coordinates":[-117.853112,33.787795]}},{"properties":{"city":"ORANGE","geo_score":0.857,"id":"a6gebxuki3dl","geo_precision":"city","state":"CA"},"type":"Feature","geometry":{"type":"Point","coordinates":[-117.853112,33.787795]}},{"properties":{"city":"ORANGE","geo_score":0.857,"id":"a6gebxqdt13z","geo_precision":"city","state":"CA"},"type":"Feature","geometry":{"type":"Point","coordinates":[-117.853112,33.787795]}},{"properties":{"city":"ORANGE","geo_score":0.857,"id":"a6gebxrln0qn","geo_precision":"city","state":"CA"},"type":"Feature","geometry":{"type":"Point","coordinates":[-117.853112,33.787795]}},{"properties":{"city":"ORANGE","geo_score":0.857,"id":"a6gebxnvz71s","geo_precision":"city","state":"CA"},"type":"Feature","geometry":{"type":"Point","coordinates":[-117.853112,33.787795]}},{"properties":{"city":"RANCHO MIRAGE","geo_score":0.802,"id":"a6gebxu1tvmp","geo_precision":"city","state":"CA"},"type":"Feature","geometry":{"type":"Point","coordinates":[-121.094667,38.501853]}},{"properties":{"city":"RANCHO MIRAGE","geo_score":0.802,"id":"a6gebxouoa6m","geo_precision":"city","state":"CA"},"type":"Feature","geometry":{"type":"Point","coordinates":[-121.094667,38.501853]}},{"properties":{"city":"SACRAMENTO","geo_score":0.857,"id":"a6gebxlke47m","geo_precision":"city","state":"CA"},"type":"Feature","geometry":{"type":"Point","coordinates":[-121.4944,38.581572]}},{"properties":{"city":"SACRAMENTO","geo_score":0.857,"id":"a6gebxuky6lg","geo_precision":"city","state":"CA"},"type":"Feature","geometry":{"type":"Point","coordinates":[-121.4944,38.581572]}},{"properties":{"city":"SACRAMENTO","geo_score":0.857,"id":"a6gebxpkyibi","geo_precision":"city","state":"CA"},"type":"Feature","geometry":{"type":"Point","coordinates":[-121.4944,38.581572]}},{"properties":{"city":"SACRAMENTO","geo_score":0.857,"id":"a6gebxohbgxj","geo_precision":"city","state":"CA"},"type":"Feature","geometry":{"type":"Point","coordinates":[-121.4944,38.581572]}},{"properties":{"city":"SACRAMENTO","geo_score":0.857,"id":"a6gebxzvb8vp","geo_precision":"city","state":"CA"},"type":"Feature","geometry":{"type":"Point","coordinates":[-121.4944,38.581572]}},{"properties":{"city":"SAN DIEGO","geo_score":0.857,"id":"a6gebxoeyp0w","geo_precision":"city","state":"CA"},"type":"Feature","geometry":{"type":"Point","coordinates":[-117.157255,32.715329]}},{"properties":{"city":"SAN DIEGO","geo_score":0.857,"id":"a6gebxybfmzl","geo_precision":"city","state":"CA"},"type":"Feature","geometry":{"type":"Point","coordinates":[-117.157255,32.715329]}},{"properties":{"city":"SAN DIEGO","geo_score":0.857,"id":"a6geby0ctu4d","geo_precision":"city","state":"CA"},"type":"Feature","geometry":{"type":"Point","coordinates":[-117.157255,32.715329]}},{"properties":{"city":"SAN JOSE","geo_score":0.857,"id":"a6gebxxk4df8","geo_precision":"city","state":"CA"},"type":"Feature","geometry":{"type":"Point","coordinates":[-121.894956,37.339386]}},{"properties":{"city":"SAN JOSE","geo_score":0.857,"id":"a6geby16g71y","geo_precision":"city","state":"CA"},"type":"Feature","geometry":{"type":"Point","coordinates":[-121.894956,37.339386]}},{"properties":{"city":"SAN JOSE","geo_score":0.857,"id":"a6gebxmc27cp","geo_precision":"city","state":"CA"},"type":"Feature","geometry":{"type":"Point","coordinates":[-121.894956,37.339386]}},{"properties":{"city":"SAN JOSE","geo_score":0.857,"id":"a6gebxy7qp22","geo_precision":"city","state":"CA"},"type":"Feature","geometry":{"type":"Point","coordinates":[-121.894956,37.339386]}},{"properties":{"city":"STANFORD","geo_score":0.857,"id":"a6gebxqeidlc","geo_precision":"city","state":"CA"},"type":"Feature","geometry":{"type":"Point","coordinates":[-121.705327,37.189396]}},{"properties":{"city":"STANFORD","geo_score":0.857,"id":"a6gebxw0v1ux","geo_precision":"city","state":"CA"},"type":"Feature","geometry":{"type":"Point","coordinates":[-121.705327,37.189396]}},{"properties":{"city":"STOCKTON","geo_score":0.857,"id":"a6gebxsx65jl","geo_precision":"city","state":"CA"},"type":"Feature","geometry":{"type":"Point","coordinates":[-121.298794,37.672196]}},{"properties":{"city":"STOCKTON","geo_score":0.857,"id":"a6gebxli8wso","geo_precision":"city","state":"CA"},"type":"Feature","geometry":{"type":"Point","coordinates":[-121.298794,37.672196]}},{"properties":{"city":"SYLMAR","geo_score":0.857,"id":"a6gebxmc5li6","geo_precision":"city","state":"CA"},"type":"Feature","geometry":{"type":"Point","coordinates":[-118.298662,33.786594]}},{"properties":{"city":"THOUSAND PALMS","geo_score":0.769,"id":"a6gebxm5jb1a","geo_precision":"city","state":"CA"},"type":"Feature","geometry":{"type":"Point","coordinates":[-118.405633,34.022789]}},{"properties":{"city":"THOUSAND PALMS","geo_score":0.769,"id":"a6gebxsgs806","geo_precision":"city","state":"CA"},"type":"Feature","geometry":{"type":"Point","coordinates":[-118.405633,34.022789]}},{"properties":{"city":"THOUSAND PALMS","geo_score":0.769,"id":"a6gebxktvqah","geo_precision":"city","state":"CA"},"type":"Feature","geometry":{"type":"Point","coordinates":[-118.405633,34.022789]}},{"properties":{"city":"AURORA","geo_score":0.857,"id":"a6gebxpejjmv","geo_precision":"city","state":"CO"},"type":"Feature","geometry":{"type":"Point","coordinates":[-104.83192,39.729432]}},{"properties":{"city":"DENVER","geo_score":0.857,"id":"a6gebxsppdj1","geo_precision":"city","state":"CO"},"type":"Feature","geometry":{"type":"Point","coordinates":[-104.984703,39.739154]}},{"properties":{"city":"DENVER","geo_score":0.857,"id":"a6gebxtcj9dd","geo_precision":"city","state":"CO"},"type":"Feature","geometry":{"type":"Point","coordinates":[-104.984703,39.739154]}},{"properties":{"city":"DENVER","geo_score":0.857,"id":"a6gebxz8xm32","geo_precision":"city","state":"CO"},"type":"Feature","geometry":{"type":"Point","coordinates":[-104.984703,39.739154]}},{"properties":{"city":"DENVER","geo_score":0.857,"id":"a6gebxv0a96q","geo_precision":"city","state":"CO"},"type":"Feature","geometry":{"type":"Point","coordinates":[-104.984703,39.739154]}},{"properties":{"city":"DENVER","geo_score":0.857,"id":"a6gebxz2xn60","geo_precision":"city","state":"CO"},"type":"Feature","geometry":{"type":"Point","coordinates":[-104.984703,39.739154]}},{"properties":{"city":"DANBURY","geo_score":0.857,"id":"a6gebxnrrrc5","geo_precision":"city","state":"CT"},"type":"Feature","geometry":{"type":"Point","coordinates":[-73.471416,41.376242]}},{"properties":{"city":"STAMFORD","geo_score":0.857,"id":"a6gebxs3a9wq","geo_precision":"city","state":"CT"},"type":"Feature","geometry":{"type":"Point","coordinates":[-73.538734,41.05343]}},{"properties":{"city":"STAMFORD","geo_score":0.857,"id":"a6gebxrea401","geo_precision":"city","state":"CT"},"type":"Feature","geometry":{"type":"Point","coordinates":[-73.538734,41.05343]}},{"properties":{"city":"STAMFORD","geo_score":0.857,"id":"a6gebxwi0i9q","geo_precision":"city","state":"CT"},"type":"Feature","geometry":{"type":"Point","coordinates":[-73.538734,41.05343]}},{"properties":{"city":"STAMFORD","geo_score":0.857,"id":"a6gebxmjg9eg","geo_precision":"city","state":"CT"},"type":"Feature","geometry":{"type":"Point","coordinates":[-73.538734,41.05343]}},{"properties":{"city":"STAMFORD","geo_score":0.857,"id":"a6gebxm8w5sw","geo_precision":"city","state":"CT"},"type":"Feature","geometry":{"type":"Point","coordinates":[-73.538734,41.05343]}},{"properties":{"city":"WILMINGTON","geo_score":0.857,"id":"a6gebxm00rc0","geo_precision":"city","state":"DE"},"type":"Feature","geometry":{"type":"Point","coordinates":[-75.546589,39.745947]}},{"properties":{"city":"BELLE GLADE","geo_score":0.771,"id":"a6gebxwcfzmz","geo_precision":"city","state":"FL"},"type":"Feature","geometry":{"type":"Point","coordinates":[-81.572574,28.534724]}},{"properties":{"city":"BELLE GLADE","geo_score":0.771,"id":"a6gebxr4bmca","geo_precision":"city","state":"FL"},"type":"Feature","geometry":{"type":"Point","coordinates":[-81.572574,28.534724]}},{"properties":{"city":"CORAL GABLES","geo_score":0.766,"id":"a6geby0y6nnj","geo_precision":"city","state":"FL"},"type":"Feature","geometry":{"type":"Point","coordinates":[-82.742879,28.053073]}},{"properties":{"city":"CORAL GABLES","geo_score":0.766,"id":"a6gebxpbqg9n","geo_precision":"city","state":"FL"},"type":"Feature","geometry":{"type":"Point","coordinates":[-82.742879,28.053073]}},{"properties":{"city":"FORT LAUDERDALE","geo_score":0.857,"id":"a6gebxp3cwno","geo_precision":"city","state":"FL"},"type":"Feature","geometry":{"type":"Point","coordinates":[-80.143379,26.122308]}},{"properties":{"city":"FORT PIERCE","geo_score":0.857,"id":"a6gebxqppomo","geo_precision":"city","state":"FL"},"type":"Feature","geometry":{"type":"Point","coordinates":[-80.325606,27.446706]}},{"properties":{"city":"FORT PIERCE","geo_score":0.857,"id":"a6gebxkya3tc","geo_precision":"city","state":"FL"},"type":"Feature","geometry":{"type":"Point","coordinates":[-80.325606,27.446706]}},{"properties":{"city":"FORT PIERCE","geo_score":0.857,"id":"a6gebxt2bxoe","geo_precision":"city","state":"FL"},"type":"Feature","geometry":{"type":"Point","coordinates":[-80.325606,27.446706]}},{"properties":{"city":"FORT PIERCE","geo_score":0.857,"id":"a6gebxoiqyiy","geo_precision":"city","state":"FL"},"type":"Feature","geometry":{"type":"Point","coordinates":[-80.325606,27.446706]}},{"properties":{"city":"FORT PIERCE","geo_score":0.857,"id":"a6gebxsaenwq","geo_precision":"city","state":"FL"},"type":"Feature","geometry":{"type":"Point","coordinates":[-80.325606,27.446706]}},{"properties":{"city":"HIALEAH","geo_score":0.857,"id":"a6gebxnvhw5f","geo_precision":"city","state":"FL"},"type":"Feature","geometry":{"type":"Point","coordinates":[-80.278106,25.857596]}},{"properties":{"city":"HIALEAH","geo_score":0.857,"id":"a6gebxqqaklu","geo_precision":"city","state":"FL"},"type":"Feature","geometry":{"type":"Point","coordinates":[-80.278106,25.857596]}},{"properties":{"city":"HIALEAH","geo_score":0.857,"id":"a6gebxsqzlk1","geo_precision":"city","state":"FL"},"type":"Feature","geometry":{"type":"Point","coordinates":[-80.278106,25.857596]}},{"properties":{"city":"HOMESTEAD","geo_score":0.857,"id":"a6gebxmwph99","geo_precision":"city","state":"FL"},"type":"Feature","geometry":{"type":"Point","coordinates":[-80.477557,25.468722]}},{"properties":{"city":"HOMESTEAD","geo_score":0.857,"id":"a6gebxskq3iw","geo_precision":"city","state":"FL"},"type":"Feature","geometry":{"type":"Point","coordinates":[-80.477557,25.468722]}},{"properties":{"city":"MIAMI","geo_score":0.857,"id":"a6gebxul4p2e","geo_precision":"city","state":"FL"},"type":"Feature","geometry":{"type":"Point","coordinates":[-80.193659,25.774266]}},{"properties":{"city":"MIAMI","geo_score":0.857,"id":"a6gebxohkoin","geo_precision":"city","state":"FL"},"type":"Feature","geometry":{"type":"Point","coordinates":[-80.193659,25.774266]}},{"properties":{"city":"MIAMI","geo_score":0.857,"id":"a6gebxus4v6p","geo_precision":"city","state":"FL"},"type":"Feature","geometry":{"type":"Point","coordinates":[-80.193659,25.774266]}},{"properties":{"city":"MIAMI","geo_score":0.857,"id":"a6gebxqnw58p","geo_precision":"city","state":"FL"},"type":"Feature","geometry":{"type":"Point","coordinates":[-80.193659,25.774266]}},{"properties":{"city":"NORTH MIAMI BEACH","geo_score":0.762,"id":"a6gebxpn9sbn","geo_precision":"city","state":"FL"},"type":"Feature","geometry":{"type":"Point","coordinates":[-80.193659,25.774266]}},{"properties":{"city":"ORLANDO","geo_score":0.857,"id":"a6gebxmtu0o4","geo_precision":"city","state":"FL"},"type":"Feature","geometry":{"type":"Point","coordinates":[-81.379237,28.538336]}},{"properties":{"city":"ORLANDO","geo_score":0.857,"id":"a6gebxvmohs0","geo_precision":"city","state":"FL"},"type":"Feature","geometry":{"type":"Point","coordinates":[-81.379237,28.538336]}},{"properties":{"city":"PUNTA GORDA","geo_score":0.857,"id":"a6gebxtwz4r5","geo_precision":"city","state":"FL"},"type":"Feature","geometry":{"type":"Point","coordinates":[-82.045366,26.929784]}},{"properties":{"city":"ATLANTA","geo_score":0.857,"id":"a6geby01dpsv","geo_precision":"city","state":"GA"},"type":"Feature","geometry":{"type":"Point","coordinates":[-84.387982,33.748995]}},{"properties":{"city":"ATLANTA","geo_score":0.857,"id":"a6gebxly6l0n","geo_precision":"city","state":"GA"},"type":"Feature","geometry":{"type":"Point","coordinates":[-84.387982,33.748995]}},{"properties":{"city":"ATLANTA","geo_score":0.857,"id":"a6geby05m87i","geo_precision":"city","state":"GA"},"type":"Feature","geometry":{"type":"Point","coordinates":[-84.387982,33.748995]}},{"properties":{"city":"ATLANTA","geo_score":0.857,"id":"a6geby0hd2i3","geo_precision":"city","state":"GA"},"type":"Feature","geometry":{"type":"Point","coordinates":[-84.387982,33.748995]}},{"properties":{"city":"ATLANTA","geo_score":0.857,"id":"a6gebxr1pqii","geo_precision":"city","state":"GA"},"type":"Feature","geometry":{"type":"Point","coordinates":[-84.387982,33.748995]}},{"properties":{"city":"ATLANTA","geo_score":0.857,"id":"a6gebxnd3w7t","geo_precision":"city","state":"GA"},"type":"Feature","geometry":{"type":"Point","coordinates":[-84.387982,33.748995]}},{"properties":{"city":"ATLANTA","geo_score":0.857,"id":"a6geby0hirtc","geo_precision":"city","state":"GA"},"type":"Feature","geometry":{"type":"Point","coordinates":[-84.387982,33.748995]}},{"properties":{"city":"ATLANTA","geo_score":0.857,"id":"a6gebxxwclxd","geo_precision":"city","state":"GA"},"type":"Feature","geometry":{"type":"Point","coordinates":[-84.387982,33.748995]}},{"properties":{"city":"ATLANTA","geo_score":0.857,"id":"a6gebxsfgh92","geo_precision":"city","state":"GA"},"type":"Feature","geometry":{"type":"Point","coordinates":[-84.387982,33.748995]}},{"properties":{"city":"ATLANTA","geo_score":0.857,"id":"a6gebxv7o5b3","geo_precision":"city","state":"GA"},"type":"Feature","geometry":{"type":"Point","coordinates":[-84.387982,33.748995]}},{"properties":{"city":"ATLANTA","geo_score":0.857,"id":"a6gebxlrgp84","geo_precision":"city","state":"GA"},"type":"Feature","geometry":{"type":"Point","coordinates":[-84.387982,33.748995]}},{"properties":{"city":"AUGUSTA","geo_score":0.857,"id":"a6gebxnci9e5","geo_precision":"city","state":"GA"},"type":"Feature","geometry":{"type":"Point","coordinates":[-81.974838,33.47097]}},{"properties":{"city":"AUGUSTA","geo_score":0.857,"id":"a6geby0fy1pp","geo_precision":"city","state":"GA"},"type":"Feature","geometry":{"type":"Point","coordinates":[-81.974838,33.47097]}},{"properties":{"city":"AUGUSTA","geo_score":0.857,"id":"a6gebxtih7ob","geo_precision":"city","state":"GA"},"type":"Feature","geometry":{"type":"Point","coordinates":[-81.974838,33.47097]}},{"properties":{"city":"AUGUSTA","geo_score":0.857,"id":"a6gebxrcin70","geo_precision":"city","state":"GA"},"type":"Feature","geometry":{"type":"Point","coordinates":[-81.974838,33.47097]}},{"properties":{"city":"AUGUSTA","geo_score":0.857,"id":"a6gebxposdjx","geo_precision":"city","state":"GA"},"type":"Feature","geometry":{"type":"Point","coordinates":[-81.974838,33.47097]}},{"properties":{"city":"AUGUSTA","geo_score":0.857,"id":"a6gebxzui3yf","geo_precision":"city","state":"GA"},"type":"Feature","geometry":{"type":"Point","coordinates":[-81.974838,33.47097]}},{"properties":{"city":"AUGUSTA","geo_score":0.857,"id":"a6gebxmnk1u6","geo_precision":"city","state":"GA"},"type":"Feature","geometry":{"type":"Point","coordinates":[-81.974838,33.47097]}},{"properties":{"city":"AUGUSTA","geo_score":0.857,"id":"a6gebxxkiaa7","geo_precision":"city","state":"GA"},"type":"Feature","geometry":{"type":"Point","coordinates":[-81.974838,33.47097]}},{"properties":{"city":"AUGUSTA","geo_score":0.857,"id":"a6gebxoajhf5","geo_precision":"city","state":"GA"},"type":"Feature","geometry":{"type":"Point","coordinates":[-81.974838,33.47097]}},{"properties":{"city":"SAVANNAH","geo_score":0.857,"id":"a6gebxozb2pr","geo_precision":"city","state":"GA"},"type":"Feature","geometry":{"type":"Point","coordinates":[-81.099834,32.083541]}},{"properties":{"city":"SAVANNAH","geo_score":0.857,"id":"a6gebxl28kce","geo_precision":"city","state":"GA"},"type":"Feature","geometry":{"type":"Point","coordinates":[-81.099834,32.083541]}},{"properties":{"city":"SAVANNAH","geo_score":0.857,"id":"a6gebxzyvwb7","geo_precision":"city","state":"GA"},"type":"Feature","geometry":{"type":"Point","coordinates":[-81.099834,32.083541]}},{"properties":{"city":"SAVANNAH","geo_score":0.857,"id":"a6gebxtri7ch","geo_precision":"city","state":"GA"},"type":"Feature","geometry":{"type":"Point","coordinates":[-81.099834,32.083541]}},{"properties":{"city":"SAVANNAH","geo_score":0.857,"id":"a6gebxvmfopy","geo_precision":"city","state":"GA"},"type":"Feature","geometry":{"type":"Point","coordinates":[-81.099834,32.083541]}},{"properties":{"city":"SAVANNAH","geo_score":0.857,"id":"a6gebxzx9sky","geo_precision":"city","state":"GA"},"type":"Feature","geometry":{"type":"Point","coordinates":[-81.099834,32.083541]}},{"properties":{"city":"SAVANNAH","geo_score":0.857,"id":"a6gebxp6n37r","geo_precision":"city","state":"GA"},"type":"Feature","geometry":{"type":"Point","coordinates":[-81.099834,32.083541]}},{"properties":{"city":"DES MOINES","geo_score":0.857,"id":"a6gebxl1o8fw","geo_precision":"city","state":"IA"},"type":"Feature","geometry":{"type":"Point","coordinates":[-93.609106,41.600545]}},{"properties":{"city":"IDAHO FALLS","geo_score":0.857,"id":"a6gebxmr7gjq","geo_precision":"city","state":"ID"},"type":"Feature","geometry":{"type":"Point","coordinates":[-111.691535,43.516701]}},{"properties":{"city":"LEWISTON","geo_score":0.786,"id":"a6gebxzj0spc","geo_precision":"city","state":"ID"},"type":"Feature","geometry":{"type":"Point","coordinates":[-116.975432,46.38044]}},{"properties":{"city":"TWIN FALLS","geo_score":0.857,"id":"a6gebxsvlyhh","geo_precision":"city","state":"ID"},"type":"Feature","geometry":{"type":"Point","coordinates":[-114.629497,42.443224]}},{"properties":{"city":"TWIN FALLS","geo_score":0.857,"id":"a6gebxru9z3e","geo_precision":"city","state":"ID"},"type":"Feature","geometry":{"type":"Point","coordinates":[-114.629497,42.443224]}},{"properties":{"city":"TWIN FALLS","geo_score":0.857,"id":"a6gebxyosrfi","geo_precision":"city","state":"ID"},"type":"Feature","geometry":{"type":"Point","coordinates":[-114.629497,42.443224]}},{"properties":{"city":"CHICAGO","geo_score":0.857,"id":"a6gebxvsr1dp","geo_precision":"city","state":"IL"},"type":"Feature","geometry":{"type":"Point","coordinates":[-87.650052,41.850033]}},{"properties":{"city":"CHICAGO","geo_score":0.857,"id":"a6gebxsi0upp","geo_precision":"city","state":"IL"},"type":"Feature","geometry":{"type":"Point","coordinates":[-87.650052,41.850033]}},{"properties":{"city":"CHICAGO","geo_score":0.857,"id":"a6gebxpy5s0x","geo_precision":"city","state":"IL"},"type":"Feature","geometry":{"type":"Point","coordinates":[-87.650052,41.850033]}},{"properties":{"city":"CHICAGO","geo_score":0.857,"id":"a6gebxsopwjn","geo_precision":"city","state":"IL"},"type":"Feature","geometry":{"type":"Point","coordinates":[-87.650052,41.850033]}},{"properties":{"city":"CHICAGO","geo_score":0.857,"id":"a6gebxx2wiol","geo_precision":"city","state":"IL"},"type":"Feature","geometry":{"type":"Point","coordinates":[-87.650052,41.850033]}},{"properties":{"city":"DECATUR","geo_score":0.857,"id":"a6gebxys7laz","geo_precision":"city","state":"IL"},"type":"Feature","geometry":{"type":"Point","coordinates":[-88.946486,39.839477]}},{"properties":{"city":"DECATUR","geo_score":0.857,"id":"a6gebxq7qakc","geo_precision":"city","state":"IL"},"type":"Feature","geometry":{"type":"Point","coordinates":[-88.946486,39.839477]}},{"properties":{"city":"HOPEDALE","geo_score":0.857,"id":"a6gebxq7v2ay","geo_precision":"city","state":"IL"},"type":"Feature","geometry":{"type":"Point","coordinates":[-89.445054,40.535696]}},{"properties":{"city":"KANKAKEE","geo_score":0.857,"id":"a6gebxork3i6","geo_precision":"city","state":"IL"},"type":"Feature","geometry":{"type":"Point","coordinates":[-87.874618,41.111151]}},{"properties":{"city":"ROCKFORD","geo_score":0.857,"id":"a6gebxxsnbwz","geo_precision":"city","state":"IL"},"type":"Feature","geometry":{"type":"Point","coordinates":[-89.093995,42.271131]}},{"properties":{"city":"INDIANAPOLIS","geo_score":0.857,"id":"a6gebxndaumd","geo_precision":"city","state":"IN"},"type":"Feature","geometry":{"type":"Point","coordinates":[-86.158042,39.768377]}},{"properties":{"city":"INDIANAPOLIS","geo_score":0.857,"id":"a6gebxwetzdm","geo_precision":"city","state":"IN"},"type":"Feature","geometry":{"type":"Point","coordinates":[-86.158042,39.768377]}},{"properties":{"city":"MAYFIELD","geo_score":0.857,"id":"a6gebxn00sdn","geo_precision":"city","state":"KY"},"type":"Feature","geometry":{"type":"Point","coordinates":[-88.651839,36.715599]}},{"properties":{"city":"OWENSBORO","geo_score":0.857,"id":"a6gebxwh9mt2","geo_precision":"city","state":"KY"},"type":"Feature","geometry":{"type":"Point","coordinates":[-87.257303,37.751818]}},{"properties":{"city":"STANFORD","geo_score":0.765,"id":"a6gebxm5trbj","geo_precision":"city","state":"KY"},"type":"Feature","geometry":{"type":"Point","coordinates":[-83.752139,36.601748]}},{"properties":{"city":"BOSTON","geo_score":0.857,"id":"a6geby124s3q","geo_precision":"city","state":"MA"},"type":"Feature","geometry":{"type":"Point","coordinates":[-71.059773,42.358431]}},{"properties":{"city":"BOSTON","geo_score":0.857,"id":"a6gebxsudj7r","geo_precision":"city","state":"MA"},"type":"Feature","geometry":{"type":"Point","coordinates":[-71.059773,42.358431]}},{"properties":{"city":"BOSTON","geo_score":0.857,"id":"a6gebxwwpwkk","geo_precision":"city","state":"MA"},"type":"Feature","geometry":{"type":"Point","coordinates":[-71.059773,42.358431]}},{"properties":{"city":"BOSTON","geo_score":0.857,"id":"a6gebxtap5xk","geo_precision":"city","state":"MA"},"type":"Feature","geometry":{"type":"Point","coordinates":[-71.059773,42.358431]}},{"properties":{"city":"BOSTON","geo_score":0.857,"id":"a6gebxtz1u01","geo_precision":"city","state":"MA"},"type":"Feature","geometry":{"type":"Point","coordinates":[-71.059773,42.358431]}},{"properties":{"city":"BOSTON","geo_score":0.857,"id":"a6gebxxkuqao","geo_precision":"city","state":"MA"},"type":"Feature","geometry":{"type":"Point","coordinates":[-71.059773,42.358431]}},{"properties":{"city":"BOSTON","geo_score":0.857,"id":"a6gebxlbzdov","geo_precision":"city","state":"MA"},"type":"Feature","geometry":{"type":"Point","coordinates":[-71.059773,42.358431]}},{"properties":{"city":"BOSTON","geo_score":0.857,"id":"a6gebxobp68v","geo_precision":"city","state":"MA"},"type":"Feature","geometry":{"type":"Point","coordinates":[-71.059773,42.358431]}},{"properties":{"city":"BOSTON","geo_score":0.857,"id":"a6gebxt96cem","geo_precision":"city","state":"MA"},"type":"Feature","geometry":{"type":"Point","coordinates":[-71.059773,42.358431]}},{"properties":{"city":"BOSTON","geo_score":0.857,"id":"a6gebxxiyiio","geo_precision":"city","state":"MA"},"type":"Feature","geometry":{"type":"Point","coordinates":[-71.059773,42.358431]}},{"properties":{"city":"BOSTON","geo_score":0.857,"id":"a6gebxw4xoxx","geo_precision":"city","state":"MA"},"type":"Feature","geometry":{"type":"Point","coordinates":[-71.059773,42.358431]}},{"properties":{"city":"BOSTON","geo_score":0.857,"id":"a6gebxpnhzvh","geo_precision":"city","state":"MA"},"type":"Feature","geometry":{"type":"Point","coordinates":[-71.059773,42.358431]}},{"properties":{"city":"BOSTON","geo_score":0.857,"id":"a6gebxm7d2qn","geo_precision":"city","state":"MA"},"type":"Feature","geometry":{"type":"Point","coordinates":[-71.059773,42.358431]}},{"properties":{"city":"BOSTON","geo_score":0.857,"id":"a6gebxxio3h6","geo_precision":"city","state":"MA"},"type":"Feature","geometry":{"type":"Point","coordinates":[-71.059773,42.358431]}},{"properties":{"city":"BOSTON","geo_score":0.857,"id":"a6gebxmy8t5p","geo_precision":"city","state":"MA"},"type":"Feature","geometry":{"type":"Point","coordinates":[-71.059773,42.358431]}},{"properties":{"city":"BOSTON","geo_score":0.857,"id":"a6gebxzdwpo8","geo_precision":"city","state":"MA"},"type":"Feature","geometry":{"type":"Point","coordinates":[-71.059773,42.358431]}},{"properties":{"city":"BOSTON","geo_score":0.857,"id":"a6gebxph3y04","geo_precision":"city","state":"MA"},"type":"Feature","geometry":{"type":"Point","coordinates":[-71.059773,42.358431]}},{"properties":{"city":"BOSTON","geo_score":0.857,"id":"a6gebxsu5kzb","geo_precision":"city","state":"MA"},"type":"Feature","geometry":{"type":"Point","coordinates":[-71.059773,42.358431]}},{"properties":{"city":"BOSTON","geo_score":0.857,"id":"a6gebxtwdoo4","geo_precision":"city","state":"MA"},"type":"Feature","geometry":{"type":"Point","coordinates":[-71.059773,42.358431]}},{"properties":{"city":"BOSTON","geo_score":0.857,"id":"a6geby0su1qd","geo_precision":"city","state":"MA"},"type":"Feature","geometry":{"type":"Point","coordinates":[-71.059773,42.358431]}},{"properties":{"city":"BOSTON","geo_score":0.857,"id":"a6gebxsr6fbn","geo_precision":"city","state":"MA"},"type":"Feature","geometry":{"type":"Point","coordinates":[-71.059773,42.358431]}},{"properties":{"city":"BOSTON","geo_score":0.857,"id":"a6gebxvpkbm1","geo_precision":"city","state":"MA"},"type":"Feature","geometry":{"type":"Point","coordinates":[-71.059773,42.358431]}},{"properties":{"city":"BOSTON","geo_score":0.857,"id":"a6gebxzcfrgt","geo_precision":"city","state":"MA"},"type":"Feature","geometry":{"type":"Point","coordinates":[-71.059773,42.358431]}},{"properties":{"city":"BOSTON","geo_score":0.857,"id":"a6gebxuzdrsa","geo_precision":"city","state":"MA"},"type":"Feature","geometry":{"type":"Point","coordinates":[-71.059773,42.358431]}},{"properties":{"city":"BOSTON","geo_score":0.857,"id":"a6gebxwoms9r","geo_precision":"city","state":"MA"},"type":"Feature","geometry":{"type":"Point","coordinates":[-71.059773,42.358431]}},{"properties":{"city":"BOSTON","geo_score":0.857,"id":"a6gebxls5i3m","geo_precision":"city","state":"MA"},"type":"Feature","geometry":{"type":"Point","coordinates":[-71.059773,42.358431]}},{"properties":{"city":"BOSTON","geo_score":0.857,"id":"a6gebxxut83m","geo_precision":"city","state":"MA"},"type":"Feature","geometry":{"type":"Point","coordinates":[-71.059773,42.358431]}},{"properties":{"city":"BOSTON","geo_score":0.857,"id":"a6gebxs82buw","geo_precision":"city","state":"MA"},"type":"Feature","geometry":{"type":"Point","coordinates":[-71.059773,42.358431]}},{"properties":{"city":"BOSTON","geo_score":0.857,"id":"a6gebxl3bxl9","geo_precision":"city","state":"MA"},"type":"Feature","geometry":{"type":"Point","coordinates":[-71.059773,42.358431]}},{"properties":{"city":"BOSTON","geo_score":0.857,"id":"a6gebxli5gmy","geo_precision":"city","state":"MA"},"type":"Feature","geometry":{"type":"Point","coordinates":[-71.059773,42.358431]}},{"properties":{"city":"BOSTON","geo_score":0.857,"id":"a6gebxrilua2","geo_precision":"city","state":"MA"},"type":"Feature","geometry":{"type":"Point","coordinates":[-71.059773,42.358431]}},{"properties":{"city":"BOSTON","geo_score":0.857,"id":"a6gebxlesz80","geo_precision":"city","state":"MA"},"type":"Feature","geometry":{"type":"Point","coordinates":[-71.059773,42.358431]}},{"properties":{"city":"BOSTON","geo_score":0.857,"id":"a6gebxz0ban8","geo_precision":"city","state":"MA"},"type":"Feature","geometry":{"type":"Point","coordinates":[-71.059773,42.358431]}},{"properties":{"city":"BOSTON","geo_score":0.857,"id":"a6gebxq2ikxy","geo_precision":"city","state":"MA"},"type":"Feature","geometry":{"type":"Point","coordinates":[-71.059773,42.358431]}},{"properties":{"city":"BOSTON","geo_score":0.857,"id":"a6gebxo1f86d","geo_precision":"city","state":"MA"},"type":"Feature","geometry":{"type":"Point","coordinates":[-71.059773,42.358431]}},{"properties":{"city":"BOSTON","geo_score":0.857,"id":"a6gebxqqpbjw","geo_precision":"city","state":"MA"},"type":"Feature","geometry":{"type":"Point","coordinates":[-71.059773,42.358431]}},{"properties":{"city":"BOSTON","geo_score":0.857,"id":"a6geby0k0w0m","geo_precision":"city","state":"MA"},"type":"Feature","geometry":{"type":"Point","coordinates":[-71.059773,42.358431]}},{"properties":{"city":"BOSTON","geo_score":0.857,"id":"a6geby0ov3e6","geo_precision":"city","state":"MA"},"type":"Feature","geometry":{"type":"Point","coordinates":[-71.059773,42.358431]}},{"properties":{"city":"BOSTON","geo_score":0.857,"id":"a6gebxseutd2","geo_precision":"city","state":"MA"},"type":"Feature","geometry":{"type":"Point","coordinates":[-71.059773,42.358431]}},{"properties":{"city":"BOSTON","geo_score":0.857,"id":"a6geby0lelco","geo_precision":"city","state":"MA"},"type":"Feature","geometry":{"type":"Point","coordinates":[-71.059773,42.358431]}},{"properties":{"city":"BOSTON","geo_score":0.857,"id":"a6gebxwf8nup","geo_precision":"city","state":"MA"},"type":"Feature","geometry":{"type":"Point","coordinates":[-71.059773,42.358431]}},{"properties":{"city":"BOSTON","geo_score":0.857,"id":"a6gebxz5n5iu","geo_precision":"city","state":"MA"},"type":"Feature","geometry":{"type":"Point","coordinates":[-71.059773,42.358431]}},{"properties":{"city":"BOSTON","geo_score":0.857,"id":"a6gebxu3phvm","geo_precision":"city","state":"MA"},"type":"Feature","geometry":{"type":"Point","coordinates":[-71.059773,42.358431]}},{"properties":{"city":"BOSTON","geo_score":0.857,"id":"a6gebxpsodo3","geo_precision":"city","state":"MA"},"type":"Feature","geometry":{"type":"Point","coordinates":[-71.059773,42.358431]}},{"properties":{"city":"BOSTON","geo_score":0.857,"id":"a6gebxqnl2nv","geo_precision":"city","state":"MA"},"type":"Feature","geometry":{"type":"Point","coordinates":[-71.059773,42.358431]}},{"properties":{"city":"BOSTON","geo_score":0.857,"id":"a6geby0klejt","geo_precision":"city","state":"MA"},"type":"Feature","geometry":{"type":"Point","coordinates":[-71.059773,42.358431]}},{"properties":{"city":"FRAMINGHAM","geo_score":0.804,"id":"a6gebxxufwsg","geo_precision":"city","state":"MA"},"type":"Feature","geometry":{"type":"Point","coordinates":[-71.437006,42.297318]}},{"properties":{"city":"FRAMINGHAM","geo_score":0.804,"id":"a6gebxuacjze","geo_precision":"city","state":"MA"},"type":"Feature","geometry":{"type":"Point","coordinates":[-71.437006,42.297318]}},{"properties":{"city":"FRAMINGHAM","geo_score":0.804,"id":"a6gebxpoxetn","geo_precision":"city","state":"MA"},"type":"Feature","geometry":{"type":"Point","coordinates":[-71.437006,42.297318]}},{"properties":{"city":"LOWELL","geo_score":0.857,"id":"a6gebxl8mqmx","geo_precision":"city","state":"MA"},"type":"Feature","geometry":{"type":"Point","coordinates":[-71.459405,42.446396]}},{"properties":{"city":"NATICK","geo_score":0.857,"id":"a6gebxyavske","geo_precision":"city","state":"MA"},"type":"Feature","geometry":{"type":"Point","coordinates":[-71.459405,42.446396]}},{"properties":{"city":"NATICK","geo_score":0.857,"id":"a6geby0zylsh","geo_precision":"city","state":"MA"},"type":"Feature","geometry":{"type":"Point","coordinates":[-71.459405,42.446396]}},{"properties":{"city":"NATICK","geo_score":0.857,"id":"a6gebxrkzc04","geo_precision":"city","state":"MA"},"type":"Feature","geometry":{"type":"Point","coordinates":[-71.459405,42.446396]}},{"properties":{"city":"NEWTON LOWER FALLS","geo_score":0.75,"id":"a6gebxrl1h36","geo_precision":"city","state":"MA"},"type":"Feature","geometry":{"type":"Point","coordinates":[-71.071163,42.441763]}},{"properties":{"city":"NEWTON LOWER FALLS","geo_score":0.75,"id":"a6gebxpsj5r5","geo_precision":"city","state":"MA"},"type":"Feature","geometry":{"type":"Point","coordinates":[-71.071163,42.441763]}},{"properties":{"city":"NORWOOD","geo_score":0.857,"id":"a6geby003x2c","geo_precision":"city","state":"MA"},"type":"Feature","geometry":{"type":"Point","coordinates":[-71.196277,42.182798]}},{"properties":{"city":"NORWOOD","geo_score":0.857,"id":"a6gebxws5xgz","geo_precision":"city","state":"MA"},"type":"Feature","geometry":{"type":"Point","coordinates":[-71.196277,42.182798]}},{"properties":{"city":"BALTIMORE","geo_score":0.857,"id":"a6gebxvun05b","geo_precision":"city","state":"MD"},"type":"Feature","geometry":{"type":"Point","coordinates":[-76.612189,39.290385]}},{"properties":{"city":"BALTIMORE","geo_score":0.857,"id":"a6gebxrcuvjs","geo_precision":"city","state":"MD"},"type":"Feature","geometry":{"type":"Point","coordinates":[-76.612189,39.290385]}},{"properties":{"city":"BALTIMORE","geo_score":0.857,"id":"a6gebxmbyw4u","geo_precision":"city","state":"MD"},"type":"Feature","geometry":{"type":"Point","coordinates":[-76.612189,39.290385]}},{"properties":{"city":"BALTIMORE","geo_score":0.857,"id":"a6gebxuoakl2","geo_precision":"city","state":"MD"},"type":"Feature","geometry":{"type":"Point","coordinates":[-76.612189,39.290385]}},{"properties":{"city":"BALTIMORE","geo_score":0.857,"id":"a6gebxqhqm4t","geo_precision":"city","state":"MD"},"type":"Feature","geometry":{"type":"Point","coordinates":[-76.612189,39.290385]}},{"properties":{"city":"BAY CITY","geo_score":0.857,"id":"a6gebxw9fw0n","geo_precision":"city","state":"MI"},"type":"Feature","geometry":{"type":"Point","coordinates":[-83.953007,43.608773]}},{"properties":{"city":"BAY CITY","geo_score":0.857,"id":"a6gebxubg8vk","geo_precision":"city","state":"MI"},"type":"Feature","geometry":{"type":"Point","coordinates":[-83.953007,43.608773]}},{"properties":{"city":"BAY CITY","geo_score":0.857,"id":"a6gebxxnkbix","geo_precision":"city","state":"MI"},"type":"Feature","geometry":{"type":"Point","coordinates":[-83.953007,43.608773]}},{"properties":{"city":"DETROIT","geo_score":0.857,"id":"a6gebxwcr3jj","geo_precision":"city","state":"MI"},"type":"Feature","geometry":{"type":"Point","coordinates":[-83.045754,42.331427]}},{"properties":{"city":"DETROIT","geo_score":0.857,"id":"a6gebxy8s8gg","geo_precision":"city","state":"MI"},"type":"Feature","geometry":{"type":"Point","coordinates":[-83.045754,42.331427]}},{"properties":{"city":"DETROIT","geo_score":0.857,"id":"a6gebxy0axy2","geo_precision":"city","state":"MI"},"type":"Feature","geometry":{"type":"Point","coordinates":[-83.045754,42.331427]}},{"properties":{"city":"FLINT","geo_score":0.857,"id":"a6gebxt37ve9","geo_precision":"city","state":"MI"},"type":"Feature","geometry":{"type":"Point","coordinates":[-83.687456,43.012527]}},{"properties":{"city":"KALAMAZOO","geo_score":0.857,"id":"a6gebxob7arq","geo_precision":"city","state":"MI"},"type":"Feature","geometry":{"type":"Point","coordinates":[-85.588195,42.274887]}},{"properties":{"city":"KALAMAZOO","geo_score":0.857,"id":"a6gebxtwm5zs","geo_precision":"city","state":"MI"},"type":"Feature","geometry":{"type":"Point","coordinates":[-85.588195,42.274887]}},{"properties":{"city":"KALAMAZOO","geo_score":0.857,"id":"a6gebxzl65l2","geo_precision":"city","state":"MI"},"type":"Feature","geometry":{"type":"Point","coordinates":[-85.588195,42.274887]}},{"properties":{"city":"KALAMAZOO","geo_score":0.857,"id":"a6gebxrvk3di","geo_precision":"city","state":"MI"},"type":"Feature","geometry":{"type":"Point","coordinates":[-85.588195,42.274887]}},{"properties":{"city":"MINNEAPOLIS","geo_score":0.857,"id":"a6gebxtttsth","geo_precision":"city","state":"MN"},"type":"Feature","geometry":{"type":"Point","coordinates":[-93.263836,44.979965]}},{"properties":{"city":"MINNEAPOLIS","geo_score":0.857,"id":"a6gebxxux99u","geo_precision":"city","state":"MN"},"type":"Feature","geometry":{"type":"Point","coordinates":[-93.263836,44.979965]}},{"properties":{"city":"MINNEAPOLIS","geo_score":0.857,"id":"a6gebxz0x5lg","geo_precision":"city","state":"MN"},"type":"Feature","geometry":{"type":"Point","coordinates":[-93.263836,44.979965]}},{"properties":{"city":"HOUSTON","geo_score":0.776,"id":"a6gebxmv1i4r","geo_precision":"city","state":"MO"},"type":"Feature","geometry":{"type":"Point","coordinates":[-93.17631,38.201972]}},{"properties":{"city":"HOUSTON","geo_score":0.776,"id":"a6gebxmkru54","geo_precision":"city","state":"MO"},"type":"Feature","geometry":{"type":"Point","coordinates":[-93.17631,38.201972]}},{"properties":{"city":"KANSAS CITY","geo_score":0.857,"id":"a6gebxv2fk6x","geo_precision":"city","state":"MO"},"type":"Feature","geometry":{"type":"Point","coordinates":[-94.598583,39.102404]}},{"properties":{"city":"LAKE SAINT LOUIS","geo_score":0.816,"id":"a6gebxs5vd0l","geo_precision":"city","state":"MO"},"type":"Feature","geometry":{"type":"Point","coordinates":[-90.197889,38.627273]}},{"properties":{"city":"SENATOBIA","geo_score":0.857,"id":"a6gebxnc1rkn","geo_precision":"city","state":"MS"},"type":"Feature","geometry":{"type":"Point","coordinates":[-89.930083,34.621336]}},{"properties":{"city":"SENATOBIA","geo_score":0.857,"id":"a6gebxuxtqkw","geo_precision":"city","state":"MS"},"type":"Feature","geometry":{"type":"Point","coordinates":[-89.930083,34.621336]}},{"properties":{"city":"MOREHEAD CITY","geo_score":0.738,"id":"a6gebxvmknfh","geo_precision":"city","state":"NC"},"type":"Feature","geometry":{"type":"Point","coordinates":[-80.106157,35.711804]}},{"properties":{"city":"MOREHEAD CITY","geo_score":0.738,"id":"a6gebxviwckk","geo_precision":"city","state":"NC"},"type":"Feature","geometry":{"type":"Point","coordinates":[-80.106157,35.711804]}},{"properties":{"city":"MOREHEAD CITY","geo_score":0.738,"id":"a6gebxlygh0v","geo_precision":"city","state":"NC"},"type":"Feature","geometry":{"type":"Point","coordinates":[-80.106157,35.711804]}},{"properties":{"city":"SOUTHPORT","geo_score":0.857,"id":"a6gebxyczyt7","geo_precision":"city","state":"NC"},"type":"Feature","geometry":{"type":"Point","coordinates":[-78.238126,33.966293]}},{"properties":{"city":"WILMINGTON","geo_score":0.857,"id":"a6gebxzopd5d","geo_precision":"city","state":"NC"},"type":"Feature","geometry":{"type":"Point","coordinates":[-77.94471,34.225726]}},{"properties":{"city":"WINSTON SALEM","geo_score":0.857,"id":"a6gebxr77trn","geo_precision":"city","state":"NC"},"type":"Feature","geometry":{"type":"Point","coordinates":[-80.244216,36.09986]}},{"properties":{"city":"WINSTON SALEM","geo_score":0.857,"id":"a6gebxvj30gv","geo_precision":"city","state":"NC"},"type":"Feature","geometry":{"type":"Point","coordinates":[-80.244216,36.09986]}},{"properties":{"city":"ATLANTIC CITY","geo_score":0.79,"id":"a6gebxkwesr5","geo_precision":"city","state":"NJ"},"type":"Feature","geometry":{"type":"Point","coordinates":[-74.05617,40.404762]}},{"properties":{"city":"CAMDEN","geo_score":0.857,"id":"a6gebxrcbte2","geo_precision":"city","state":"NJ"},"type":"Feature","geometry":{"type":"Point","coordinates":[-75.11962,39.925946]}},{"properties":{"city":"CAMDEN","geo_score":0.857,"id":"a6gebxmx4r8a","geo_precision":"city","state":"NJ"},"type":"Feature","geometry":{"type":"Point","coordinates":[-75.11962,39.925946]}},{"properties":{"city":"CAMDEN","geo_score":0.857,"id":"a6gebxypsg72","geo_precision":"city","state":"NJ"},"type":"Feature","geometry":{"type":"Point","coordinates":[-75.11962,39.925946]}},{"properties":{"city":"CAMDEN","geo_score":0.857,"id":"a6gebxzotjb7","geo_precision":"city","state":"NJ"},"type":"Feature","geometry":{"type":"Point","coordinates":[-75.11962,39.925946]}},{"properties":{"city":"CAMDEN","geo_score":0.857,"id":"a6gebxqljc77","geo_precision":"city","state":"NJ"},"type":"Feature","geometry":{"type":"Point","coordinates":[-75.11962,39.925946]}},{"properties":{"city":"HACKENSACK","geo_score":0.857,"id":"a6gebxniqtc1","geo_precision":"city","state":"NJ"},"type":"Feature","geometry":{"type":"Point","coordinates":[-74.001623,40.913482]}},{"properties":{"city":"HACKENSACK","geo_score":0.857,"id":"a6gebxyce7iq","geo_precision":"city","state":"NJ"},"type":"Feature","geometry":{"type":"Point","coordinates":[-74.001623,40.913482]}},{"properties":{"city":"WESTWOOD","geo_score":0.857,"id":"a6gebxul9hqx","geo_precision":"city","state":"NJ"},"type":"Feature","geometry":{"type":"Point","coordinates":[-74.021278,41.011453]}},{"properties":{"city":"WESTWOOD","geo_score":0.857,"id":"a6gebxxjvvt5","geo_precision":"city","state":"NJ"},"type":"Feature","geometry":{"type":"Point","coordinates":[-74.021278,41.011453]}},{"properties":{"city":"CARLSBAD","geo_score":0.802,"id":"a6gebxpsvecm","geo_precision":"city","state":"NM"},"type":"Feature","geometry":{"type":"Point","coordinates":[-104.22263,32.448984]}},{"properties":{"city":"CARLSBAD","geo_score":0.802,"id":"a6gebxqsodkd","geo_precision":"city","state":"NM"},"type":"Feature","geometry":{"type":"Point","coordinates":[-104.22263,32.448984]}},{"properties":{"city":"CARLSBAD","geo_score":0.802,"id":"a6gebxnz1xjb","geo_precision":"city","state":"NM"},"type":"Feature","geometry":{"type":"Point","coordinates":[-104.22263,32.448984]}},{"properties":{"city":"CARLSBAD","geo_score":0.802,"id":"a6gebxndvra5","geo_precision":"city","state":"NM"},"type":"Feature","geometry":{"type":"Point","coordinates":[-104.22263,32.448984]}},{"properties":{"city":"CARLSBAD","geo_score":0.802,"id":"a6geby00ryz6","geo_precision":"city","state":"NM"},"type":"Feature","geometry":{"type":"Point","coordinates":[-104.22263,32.448984]}},{"properties":{"city":"CARLSBAD","geo_score":0.802,"id":"a6gebxrnai2w","geo_precision":"city","state":"NM"},"type":"Feature","geometry":{"type":"Point","coordinates":[-104.22263,32.448984]}},{"properties":{"city":"CARSON CITY","geo_score":0.857,"id":"a6gebxzunvsh","geo_precision":"city","state":"NV"},"type":"Feature","geometry":{"type":"Point","coordinates":[-119.73074,39.154485]}},{"properties":{"city":"CARSON CITY","geo_score":0.857,"id":"a6gebxvnmpt5","geo_precision":"city","state":"NV"},"type":"Feature","geometry":{"type":"Point","coordinates":[-119.73074,39.154485]}},{"properties":{"city":"LAS VEGAS","geo_score":0.857,"id":"a6gebxq6y56z","geo_precision":"city","state":"NV"},"type":"Feature","geometry":{"type":"Point","coordinates":[-115.137223,36.174971]}},{"properties":{"city":"LAS VEGAS","geo_score":0.857,"id":"a6gebxto5s61","geo_precision":"city","state":"NV"},"type":"Feature","geometry":{"type":"Point","coordinates":[-115.137223,36.174971]}},{"properties":{"city":"LAS VEGAS","geo_score":0.857,"id":"a6gebxmfo67t","geo_precision":"city","state":"NV"},"type":"Feature","geometry":{"type":"Point","coordinates":[-115.137223,36.174971]}},{"properties":{"city":"LAS VEGAS","geo_score":0.857,"id":"a6gebxxlrx84","geo_precision":"city","state":"NV"},"type":"Feature","geometry":{"type":"Point","coordinates":[-115.137223,36.174971]}},{"properties":{"city":"RENO","geo_score":0.857,"id":"a6gebxy6zr73","geo_precision":"city","state":"NV"},"type":"Feature","geometry":{"type":"Point","coordinates":[-119.813803,39.529633]}},{"properties":{"city":"BRONX","geo_score":0.857,"id":"a6gebxs944h9","geo_precision":"city","state":"NY"},"type":"Feature","geometry":{"type":"Point","coordinates":[-73.920355,40.819329]}},{"properties":{"city":"BRONXVILLE","geo_score":0.857,"id":"a6gebxyovwy3","geo_precision":"city","state":"NY"},"type":"Feature","geometry":{"type":"Point","coordinates":[-73.829978,40.938448]}},{"properties":{"city":"BROOKLYN","geo_score":0.857,"id":"a6gebxpot6tg","geo_precision":"city","state":"NY"},"type":"Feature","geometry":{"type":"Point","coordinates":[-78.748363,42.433118]}},{"properties":{"city":"BROOKLYN","geo_score":0.857,"id":"a6gebxl068ts","geo_precision":"city","state":"NY"},"type":"Feature","geometry":{"type":"Point","coordinates":[-78.748363,42.433118]}},{"properties":{"city":"BROOKLYN","geo_score":0.857,"id":"a6geby0j9u8x","geo_precision":"city","state":"NY"},"type":"Feature","geometry":{"type":"Point","coordinates":[-78.748363,42.433118]}},{"properties":{"city":"BROOKLYN","geo_score":0.857,"id":"a6gebxy0jlmk","geo_precision":"city","state":"NY"},"type":"Feature","geometry":{"type":"Point","coordinates":[-78.748363,42.433118]}},{"properties":{"city":"NEW YORK","geo_score":0.857,"id":"a6gebxq6bu9m","geo_precision":"city","state":"NY"},"type":"Feature","geometry":{"type":"Point","coordinates":[-74.005973,40.714269]}},{"properties":{"city":"NEW YORK","geo_score":0.857,"id":"a6gebxzxzrde","geo_precision":"city","state":"NY"},"type":"Feature","geometry":{"type":"Point","coordinates":[-74.005973,40.714269]}},{"properties":{"city":"NEW YORK","geo_score":0.857,"id":"a6gebxs77a71","geo_precision":"city","state":"NY"},"type":"Feature","geometry":{"type":"Point","coordinates":[-74.005973,40.714269]}},{"properties":{"city":"NEW YORK","geo_score":0.857,"id":"a6geby0i9b0i","geo_precision":"city","state":"NY"},"type":"Feature","geometry":{"type":"Point","coordinates":[-74.005973,40.714269]}},{"properties":{"city":"NEW YORK","geo_score":0.857,"id":"a6gebxs2j3gm","geo_precision":"city","state":"NY"},"type":"Feature","geometry":{"type":"Point","coordinates":[-74.005973,40.714269]}},{"properties":{"city":"NEW YORK","geo_score":0.857,"id":"a6gebxtdeqi6","geo_precision":"city","state":"NY"},"type":"Feature","geometry":{"type":"Point","coordinates":[-74.005973,40.714269]}},{"properties":{"city":"PORT JERVIS","geo_score":0.857,"id":"a6gebxvobijn","geo_precision":"city","state":"NY"},"type":"Feature","geometry":{"type":"Point","coordinates":[-74.498396,41.357119]}},{"properties":{"city":"PORT WASHINGTON","geo_score":0.82,"id":"a6gebxm488cs","geo_precision":"city","state":"NY"},"type":"Feature","geometry":{"type":"Point","coordinates":[-73.701797,40.844822]}},{"properties":{"city":"RIVERHEAD","geo_score":0.857,"id":"a6gebxvjfz9z","geo_precision":"city","state":"NY"},"type":"Feature","geometry":{"type":"Point","coordinates":[-72.637078,40.922326]}},{"properties":{"city":"ROCHESTER","geo_score":0.857,"id":"a6geby0tjc0w","geo_precision":"city","state":"NY"},"type":"Feature","geometry":{"type":"Point","coordinates":[-77.615557,43.154785]}},{"properties":{"city":"ROCHESTER","geo_score":0.857,"id":"a6gebxryz61f","geo_precision":"city","state":"NY"},"type":"Feature","geometry":{"type":"Point","coordinates":[-77.615557,43.154785]}},{"properties":{"city":"ROCHESTER","geo_score":0.857,"id":"a6gebxudst4s","geo_precision":"city","state":"NY"},"type":"Feature","geometry":{"type":"Point","coordinates":[-77.615557,43.154785]}},{"properties":{"city":"ROCHESTER","geo_score":0.857,"id":"a6gebxv0ww9a","geo_precision":"city","state":"NY"},"type":"Feature","geometry":{"type":"Point","coordinates":[-77.615557,43.154785]}},{"properties":{"city":"ROCHESTER","geo_score":0.857,"id":"a6gebxydyys3","geo_precision":"city","state":"NY"},"type":"Feature","geometry":{"type":"Point","coordinates":[-77.615557,43.154785]}},{"properties":{"city":"ROCHESTER","geo_score":0.857,"id":"a6gebxy0plte","geo_precision":"city","state":"NY"},"type":"Feature","geometry":{"type":"Point","coordinates":[-77.615557,43.154785]}},{"properties":{"city":"ROCHESTER","geo_score":0.857,"id":"a6geby0zx64v","geo_precision":"city","state":"NY"},"type":"Feature","geometry":{"type":"Point","coordinates":[-77.615557,43.154785]}},{"properties":{"city":"ROCHESTER","geo_score":0.857,"id":"a6gebxtp9th3","geo_precision":"city","state":"NY"},"type":"Feature","geometry":{"type":"Point","coordinates":[-77.615557,43.154785]}},{"properties":{"city":"ROCHESTER","geo_score":0.857,"id":"a6gebxuab9ls","geo_precision":"city","state":"NY"},"type":"Feature","geometry":{"type":"Point","coordinates":[-77.615557,43.154785]}},{"properties":{"city":"ROCHESTER","geo_score":0.857,"id":"a6gebxntv0j3","geo_precision":"city","state":"NY"},"type":"Feature","geometry":{"type":"Point","coordinates":[-77.615557,43.154785]}},{"properties":{"city":"ROCHESTER","geo_score":0.857,"id":"a6gebxu9hppc","geo_precision":"city","state":"NY"},"type":"Feature","geometry":{"type":"Point","coordinates":[-77.615557,43.154785]}},{"properties":{"city":"ROCHESTER","geo_score":0.857,"id":"a6gebxxn94t5","geo_precision":"city","state":"NY"},"type":"Feature","geometry":{"type":"Point","coordinates":[-77.615557,43.154785]}},{"properties":{"city":"SCHENECTADY","geo_score":0.857,"id":"a6gebxntundb","geo_precision":"city","state":"NY"},"type":"Feature","geometry":{"type":"Point","coordinates":[-73.939569,42.814243]}},{"properties":{"city":"SCHENECTADY","geo_score":0.857,"id":"a6gebxrkcbm3","geo_precision":"city","state":"NY"},"type":"Feature","geometry":{"type":"Point","coordinates":[-73.939569,42.814243]}},{"properties":{"city":"SCHENECTADY","geo_score":0.857,"id":"a6gebxl68dt8","geo_precision":"city","state":"NY"},"type":"Feature","geometry":{"type":"Point","coordinates":[-73.939569,42.814243]}},{"properties":{"city":"BATAVIA","geo_score":0.857,"id":"a6gebxq61ctt","geo_precision":"city","state":"OH"},"type":"Feature","geometry":{"type":"Point","coordinates":[-84.157048,39.025905]}},{"properties":{"city":"BATAVIA","geo_score":0.857,"id":"a6geby0zjc1c","geo_precision":"city","state":"OH"},"type":"Feature","geometry":{"type":"Point","coordinates":[-84.157048,39.025905]}},{"properties":{"city":"BATAVIA","geo_score":0.857,"id":"a6gebxoui0qu","geo_precision":"city","state":"OH"},"type":"Feature","geometry":{"type":"Point","coordinates":[-84.157048,39.025905]}},{"properties":{"city":"CANTON","geo_score":0.857,"id":"a6gebxl9vdzo","geo_precision":"city","state":"OH"},"type":"Feature","geometry":{"type":"Point","coordinates":[-81.378447,40.798947]}},{"properties":{"city":"CANTON","geo_score":0.857,"id":"a6gebxljpwwr","geo_precision":"city","state":"OH"},"type":"Feature","geometry":{"type":"Point","coordinates":[-81.378447,40.798947]}},{"properties":{"city":"CANTON","geo_score":0.857,"id":"a6gebxqk5xpi","geo_precision":"city","state":"OH"},"type":"Feature","geometry":{"type":"Point","coordinates":[-81.378447,40.798947]}},{"properties":{"city":"CANTON","geo_score":0.857,"id":"a6gebxu40bft","geo_precision":"city","state":"OH"},"type":"Feature","geometry":{"type":"Point","coordinates":[-81.378447,40.798947]}},{"properties":{"city":"CANTON","geo_score":0.857,"id":"a6gebxsp97dd","geo_precision":"city","state":"OH"},"type":"Feature","geometry":{"type":"Point","coordinates":[-81.378447,40.798947]}},{"properties":{"city":"CANTON","geo_score":0.857,"id":"a6gebxvobx7k","geo_precision":"city","state":"OH"},"type":"Feature","geometry":{"type":"Point","coordinates":[-81.378447,40.798947]}},{"properties":{"city":"CINCINNATI","geo_score":0.857,"id":"a6gebxmpn6gj","geo_precision":"city","state":"OH"},"type":"Feature","geometry":{"type":"Point","coordinates":[-84.456886,39.162004]}},{"properties":{"city":"COLUMBUS","geo_score":0.776,"id":"a6gebxpnu31y","geo_precision":"city","state":"OH"},"type":"Feature","geometry":{"type":"Point","coordinates":[-82.695724,39.998397]}},{"properties":{"city":"COLUMBUS","geo_score":0.776,"id":"a6gebxyrdd1n","geo_precision":"city","state":"OH"},"type":"Feature","geometry":{"type":"Point","coordinates":[-82.695724,39.998397]}},{"properties":{"city":"COLUMBUS","geo_score":0.776,"id":"a6gebxudcfg3","geo_precision":"city","state":"OH"},"type":"Feature","geometry":{"type":"Point","coordinates":[-82.695724,39.998397]}},{"properties":{"city":"FAIRFIELD","geo_score":0.806,"id":"a6gebxyzr658","geo_precision":"city","state":"OH"},"type":"Feature","geometry":{"type":"Point","coordinates":[-82.475156,39.915898]}},{"properties":{"city":"YOUNGSTOWN","geo_score":0.857,"id":"a6gebxtaztro","geo_precision":"city","state":"OH"},"type":"Feature","geometry":{"type":"Point","coordinates":[-80.649519,41.09978]}},{"properties":{"city":"YOUNGSTOWN","geo_score":0.857,"id":"a6gebxqqwmtv","geo_precision":"city","state":"OH"},"type":"Feature","geometry":{"type":"Point","coordinates":[-80.649519,41.09978]}},{"properties":{"city":"ALTUS","geo_score":0.857,"id":"a6geby17l2yj","geo_precision":"city","state":"OK"},"type":"Feature","geometry":{"type":"Point","coordinates":[-99.280343,34.663039]}},{"properties":{"city":"CHICKASHA","geo_score":0.857,"id":"a6geby13bazm","geo_precision":"city","state":"OK"},"type":"Feature","geometry":{"type":"Point","coordinates":[-97.937083,35.127804]}},{"properties":{"city":"OKLAHOMA CITY","geo_score":0.857,"id":"a6gebxm45w4w","geo_precision":"city","state":"OK"},"type":"Feature","geometry":{"type":"Point","coordinates":[-97.516428,35.46756]}},{"properties":{"city":"CORVALLIS","geo_score":0.857,"id":"a6gebxqlcyen","geo_precision":"city","state":"OR"},"type":"Feature","geometry":{"type":"Point","coordinates":[-123.262044,44.564566]}},{"properties":{"city":"PORTLAND","geo_score":0.857,"id":"a6gebxs4ny4s","geo_precision":"city","state":"OR"},"type":"Feature","geometry":{"type":"Point","coordinates":[-122.676207,45.523452]}},{"properties":{"city":"PORTLAND","geo_score":0.857,"id":"a6gebxmobxxs","geo_precision":"city","state":"OR"},"type":"Feature","geometry":{"type":"Point","coordinates":[-122.676207,45.523452]}},{"properties":{"city":"PORTLAND","geo_score":0.857,"id":"a6gebxv3j01s","geo_precision":"city","state":"OR"},"type":"Feature","geometry":{"type":"Point","coordinates":[-122.676207,45.523452]}},{"properties":{"city":"PORTLAND","geo_score":0.857,"id":"a6geby0342l8","geo_precision":"city","state":"OR"},"type":"Feature","geometry":{"type":"Point","coordinates":[-122.676207,45.523452]}},{"properties":{"city":"PORTLAND","geo_score":0.857,"id":"a6gebxxbbw0c","geo_precision":"city","state":"OR"},"type":"Feature","geometry":{"type":"Point","coordinates":[-122.676207,45.523452]}},{"properties":{"city":"PORTLAND","geo_score":0.857,"id":"a6gebxr7ldnh","geo_precision":"city","state":"OR"},"type":"Feature","geometry":{"type":"Point","coordinates":[-122.676207,45.523452]}},{"properties":{"city":"ERIE","geo_score":0.857,"id":"a6gebxvgs4go","geo_precision":"city","state":"PA"},"type":"Feature","geometry":{"type":"Point","coordinates":[-80.085059,42.129224]}},{"properties":{"city":"LANGHORNE","geo_score":0.795,"id":"a6gebxkz4yd2","geo_precision":"city","state":"PA"},"type":"Feature","geometry":{"type":"Point","coordinates":[-74.88711,40.180387]}},{"properties":{"city":"LANGHORNE","geo_score":0.795,"id":"a6gebxowh6x2","geo_precision":"city","state":"PA"},"type":"Feature","geometry":{"type":"Point","coordinates":[-74.88711,40.180387]}},{"properties":{"city":"PHILADELPHIA","geo_score":0.857,"id":"a6gebxomlxlp","geo_precision":"city","state":"PA"},"type":"Feature","geometry":{"type":"Point","coordinates":[-75.163789,39.952335]}},{"properties":{"city":"PHILADELPHIA","geo_score":0.857,"id":"a6gebxvm69ux","geo_precision":"city","state":"PA"},"type":"Feature","geometry":{"type":"Point","coordinates":[-75.163789,39.952335]}},{"properties":{"city":"PHILADELPHIA","geo_score":0.857,"id":"a6gebxxtrc4z","geo_precision":"city","state":"PA"},"type":"Feature","geometry":{"type":"Point","coordinates":[-75.163789,39.952335]}},{"properties":{"city":"PHILADELPHIA","geo_score":0.857,"id":"a6gebxzh7nxs","geo_precision":"city","state":"PA"},"type":"Feature","geometry":{"type":"Point","coordinates":[-75.163789,39.952335]}},{"properties":{"city":"PHILADELPHIA","geo_score":0.857,"id":"a6gebxyryh2v","geo_precision":"city","state":"PA"},"type":"Feature","geometry":{"type":"Point","coordinates":[-75.163789,39.952335]}},{"properties":{"city":"PHILADELPHIA","geo_score":0.857,"id":"a6gebxzazrlb","geo_precision":"city","state":"PA"},"type":"Feature","geometry":{"type":"Point","coordinates":[-75.163789,39.952335]}},{"properties":{"city":"PHILADELPHIA","geo_score":0.857,"id":"a6gebxy2usru","geo_precision":"city","state":"PA"},"type":"Feature","geometry":{"type":"Point","coordinates":[-75.163789,39.952335]}},{"properties":{"city":"PHILADELPHIA","geo_score":0.857,"id":"a6gebxol4qzs","geo_precision":"city","state":"PA"},"type":"Feature","geometry":{"type":"Point","coordinates":[-75.163789,39.952335]}},{"properties":{"city":"PHILADELPHIA","geo_score":0.857,"id":"a6gebxtmsvyr","geo_precision":"city","state":"PA"},"type":"Feature","geometry":{"type":"Point","coordinates":[-75.163789,39.952335]}},{"properties":{"city":"PHILADELPHIA","geo_score":0.857,"id":"a6gebxsvbmrt","geo_precision":"city","state":"PA"},"type":"Feature","geometry":{"type":"Point","coordinates":[-75.163789,39.952335]}},{"properties":{"city":"PHILADELPHIA","geo_score":0.857,"id":"a6gebxpgwiyf","geo_precision":"city","state":"PA"},"type":"Feature","geometry":{"type":"Point","coordinates":[-75.163789,39.952335]}},{"properties":{"city":"PHILADELPHIA","geo_score":0.857,"id":"a6gebxyqfwl2","geo_precision":"city","state":"PA"},"type":"Feature","geometry":{"type":"Point","coordinates":[-75.163789,39.952335]}},{"properties":{"city":"PHILADELPHIA","geo_score":0.857,"id":"a6gebxpufm20","geo_precision":"city","state":"PA"},"type":"Feature","geometry":{"type":"Point","coordinates":[-75.163789,39.952335]}},{"properties":{"city":"PHILADELPHIA","geo_score":0.857,"id":"a6gebxo29ynk","geo_precision":"city","state":"PA"},"type":"Feature","geometry":{"type":"Point","coordinates":[-75.163789,39.952335]}},{"properties":{"city":"PHILADELPHIA","geo_score":0.857,"id":"a6gebxwehvn2","geo_precision":"city","state":"PA"},"type":"Feature","geometry":{"type":"Point","coordinates":[-75.163789,39.952335]}},{"properties":{"city":"PHILADELPHIA","geo_score":0.857,"id":"a6geby14hsbv","geo_precision":"city","state":"PA"},"type":"Feature","geometry":{"type":"Point","coordinates":[-75.163789,39.952335]}},{"properties":{"city":"PHILADELPHIA","geo_score":0.857,"id":"a6gebxl4v2vd","geo_precision":"city","state":"PA"},"type":"Feature","geometry":{"type":"Point","coordinates":[-75.163789,39.952335]}},{"properties":{"city":"PHILADELPHIA","geo_score":0.857,"id":"a6gebxo589hq","geo_precision":"city","state":"PA"},"type":"Feature","geometry":{"type":"Point","coordinates":[-75.163789,39.952335]}},{"properties":{"city":"PHILADELPHIA","geo_score":0.857,"id":"a6gebxu0kjt2","geo_precision":"city","state":"PA"},"type":"Feature","geometry":{"type":"Point","coordinates":[-75.163789,39.952335]}},{"properties":{"city":"PHILADELPHIA","geo_score":0.857,"id":"a6gebxmo7s3e","geo_precision":"city","state":"PA"},"type":"Feature","geometry":{"type":"Point","coordinates":[-75.163789,39.952335]}},{"properties":{"city":"PHILADELPHIA","geo_score":0.857,"id":"a6gebxvmynnb","geo_precision":"city","state":"PA"},"type":"Feature","geometry":{"type":"Point","coordinates":[-75.163789,39.952335]}},{"properties":{"city":"PHILADELPHIA","geo_score":0.857,"id":"a6gebxsdb8z6","geo_precision":"city","state":"PA"},"type":"Feature","geometry":{"type":"Point","coordinates":[-75.163789,39.952335]}},{"properties":{"city":"PHILADELPHIA","geo_score":0.857,"id":"a6gebxnorh9o","geo_precision":"city","state":"PA"},"type":"Feature","geometry":{"type":"Point","coordinates":[-75.163789,39.952335]}},{"properties":{"city":"PHILADELPHIA","geo_score":0.857,"id":"a6gebxw1w8oq","geo_precision":"city","state":"PA"},"type":"Feature","geometry":{"type":"Point","coordinates":[-75.163789,39.952335]}},{"properties":{"city":"PHILADELPHIA","geo_score":0.857,"id":"a6gebxndquog","geo_precision":"city","state":"PA"},"type":"Feature","geometry":{"type":"Point","coordinates":[-75.163789,39.952335]}},{"properties":{"city":"PHILADELPHIA","geo_score":0.857,"id":"a6gebxwaodh8","geo_precision":"city","state":"PA"},"type":"Feature","geometry":{"type":"Point","coordinates":[-75.163789,39.952335]}},{"properties":{"city":"PHILADELPHIA","geo_score":0.857,"id":"a6gebxvq11fl","geo_precision":"city","state":"PA"},"type":"Feature","geometry":{"type":"Point","coordinates":[-75.163789,39.952335]}},{"properties":{"city":"PHILADELPHIA","geo_score":0.857,"id":"a6gebxx7roye","geo_precision":"city","state":"PA"},"type":"Feature","geometry":{"type":"Point","coordinates":[-75.163789,39.952335]}},{"properties":{"city":"YORK","geo_score":0.857,"id":"a6gebxyd5tj4","geo_precision":"city","state":"PA"},"type":"Feature","geometry":{"type":"Point","coordinates":[-76.727139,39.962998]}},{"properties":{"city":"YORK","geo_score":0.857,"id":"a6gebxox8mxb","geo_precision":"city","state":"PA"},"type":"Feature","geometry":{"type":"Point","coordinates":[-76.727139,39.962998]}},{"properties":{"city":"YORK","geo_score":0.857,"id":"a6gebxvf88qy","geo_precision":"city","state":"PA"},"type":"Feature","geometry":{"type":"Point","coordinates":[-76.727139,39.962998]}},{"properties":{"city":"YORK","geo_score":0.857,"id":"a6gebxownha3","geo_precision":"city","state":"PA"},"type":"Feature","geometry":{"type":"Point","coordinates":[-76.727139,39.962998]}},{"properties":{"city":"YORK","geo_score":0.857,"id":"a6gebxpf4s28","geo_precision":"city","state":"PA"},"type":"Feature","geometry":{"type":"Point","coordinates":[-76.727139,39.962998]}},{"properties":{"city":"YORK","geo_score":0.857,"id":"a6gebxxfb0qy","geo_precision":"city","state":"PA"},"type":"Feature","geometry":{"type":"Point","coordinates":[-76.727139,39.962998]}},{"properties":{"city":"YORK","geo_score":0.857,"id":"a6gebxzx37rj","geo_precision":"city","state":"PA"},"type":"Feature","geometry":{"type":"Point","coordinates":[-76.727139,39.962998]}},{"properties":{"city":"BAYAMON","geo_score":0.857,"id":"a6gebxtn2r25","geo_precision":"city","state":"PR"},"type":"Feature","geometry":{"type":"Point","coordinates":[-66.174176,18.326702]}},{"properties":{"city":"BAYAMON","geo_score":0.857,"id":"a6gebxqvv28f","geo_precision":"city","state":"PR"},"type":"Feature","geometry":{"type":"Point","coordinates":[-66.174176,18.326702]}},{"properties":{"city":"GUAYAMA","geo_score":0.857,"id":"a6gebxrhzvly","geo_precision":"city","state":"PR"},"type":"Feature","geometry":{"type":"Point","coordinates":[-66.139253,17.99229]}},{"properties":{"city":"MAYAGUEZ","geo_score":0.857,"id":"a6gebxo3f4lc","geo_precision":"city","state":"PR"},"type":"Feature","geometry":{"type":"Point","coordinates":[-67.508068,18.219023]}},{"properties":{"city":"MAYAGUEZ","geo_score":0.857,"id":"a6gebxp2pm4v","geo_precision":"city","state":"PR"},"type":"Feature","geometry":{"type":"Point","coordinates":[-67.508068,18.219023]}},{"properties":{"city":"MAYAGUEZ","geo_score":0.857,"id":"a6geby0b03cy","geo_precision":"city","state":"PR"},"type":"Feature","geometry":{"type":"Point","coordinates":[-67.508068,18.219023]}},{"properties":{"city":"PONCE","geo_score":0.857,"id":"a6gebxy58oob","geo_precision":"city","state":"PR"},"type":"Feature","geometry":{"type":"Point","coordinates":[-66.607429,18.001995]}},{"properties":{"city":"SAN JUAN","geo_score":0.857,"id":"a6gebxycper9","geo_precision":"city","state":"PR"},"type":"Feature","geometry":{"type":"Point","coordinates":[-66.105722,18.466334]}},{"properties":{"city":"PROVIDENCE","geo_score":0.857,"id":"a6gebxyjtvrx","geo_precision":"city","state":"RI"},"type":"Feature","geometry":{"type":"Point","coordinates":[-71.412834,41.823989]}},{"properties":{"city":"PROVIDENCE","geo_score":0.857,"id":"a6gebxmjnkzd","geo_precision":"city","state":"RI"},"type":"Feature","geometry":{"type":"Point","coordinates":[-71.412834,41.823989]}},{"properties":{"city":"PROVIDENCE","geo_score":0.857,"id":"a6gebxku4xec","geo_precision":"city","state":"RI"},"type":"Feature","geometry":{"type":"Point","coordinates":[-71.412834,41.823989]}},{"properties":{"city":"PROVIDENCE","geo_score":0.857,"id":"a6gebxtx1r46","geo_precision":"city","state":"RI"},"type":"Feature","geometry":{"type":"Point","coordinates":[-71.412834,41.823989]}},{"properties":{"city":"PROVIDENCE","geo_score":0.857,"id":"a6gebxssbw0h","geo_precision":"city","state":"RI"},"type":"Feature","geometry":{"type":"Point","coordinates":[-71.412834,41.823989]}},{"properties":{"city":"CHATTANOOGA","geo_score":0.857,"id":"a6gebxpfivma","geo_precision":"city","state":"TN"},"type":"Feature","geometry":{"type":"Point","coordinates":[-85.30968,35.04563]}},{"properties":{"city":"NASHVILLE","geo_score":0.857,"id":"a6gebxvxe4po","geo_precision":"city","state":"TN"},"type":"Feature","geometry":{"type":"Point","coordinates":[-86.784443,36.16589]}},{"properties":{"city":"NASHVILLE","geo_score":0.857,"id":"a6gebxu9b2px","geo_precision":"city","state":"TN"},"type":"Feature","geometry":{"type":"Point","coordinates":[-86.784443,36.16589]}},{"properties":{"city":"AUSTIN","geo_score":0.857,"id":"a6gebxzmuj6a","geo_precision":"city","state":"TX"},"type":"Feature","geometry":{"type":"Point","coordinates":[-97.743061,30.267153]}},{"properties":{"city":"AUSTIN","geo_score":0.857,"id":"a6gebxp990kz","geo_precision":"city","state":"TX"},"type":"Feature","geometry":{"type":"Point","coordinates":[-97.743061,30.267153]}},{"properties":{"city":"AUSTIN","geo_score":0.857,"id":"a6gebxpbq5xm","geo_precision":"city","state":"TX"},"type":"Feature","geometry":{"type":"Point","coordinates":[-97.743061,30.267153]}},{"properties":{"city":"AUSTIN","geo_score":0.857,"id":"a6gebxsdcuu5","geo_precision":"city","state":"TX"},"type":"Feature","geometry":{"type":"Point","coordinates":[-97.743061,30.267153]}},{"properties":{"city":"AUSTIN","geo_score":0.857,"id":"a6gebxqtrxyj","geo_precision":"city","state":"TX"},"type":"Feature","geometry":{"type":"Point","coordinates":[-97.743061,30.267153]}},{"properties":{"city":"AUSTIN","geo_score":0.857,"id":"a6gebxo3m5dr","geo_precision":"city","state":"TX"},"type":"Feature","geometry":{"type":"Point","coordinates":[-97.743061,30.267153]}},{"properties":{"city":"AUSTIN","geo_score":0.857,"id":"a6gebxmq5ajb","geo_precision":"city","state":"TX"},"type":"Feature","geometry":{"type":"Point","coordinates":[-97.743061,30.267153]}},{"properties":{"city":"BROWNSVILLE","geo_score":0.857,"id":"a6gebxze15go","geo_precision":"city","state":"TX"},"type":"Feature","geometry":{"type":"Point","coordinates":[-97.497484,25.901747]}},{"properties":{"city":"BROWNSVILLE","geo_score":0.857,"id":"a6gebxnuvsoz","geo_precision":"city","state":"TX"},"type":"Feature","geometry":{"type":"Point","coordinates":[-97.497484,25.901747]}},{"properties":{"city":"BROWNSVILLE","geo_score":0.857,"id":"a6gebxt20f5p","geo_precision":"city","state":"TX"},"type":"Feature","geometry":{"type":"Point","coordinates":[-97.497484,25.901747]}},{"properties":{"city":"BROWNSVILLE","geo_score":0.857,"id":"a6gebxr9yvne","geo_precision":"city","state":"TX"},"type":"Feature","geometry":{"type":"Point","coordinates":[-97.497484,25.901747]}},{"properties":{"city":"CEDAR PARK","geo_score":0.746,"id":"a6gebxvoow48","geo_precision":"city","state":"TX"},"type":"Feature","geometry":{"type":"Point","coordinates":[-102.864369,36.276419]}},{"properties":{"city":"CORPUS CHRISTI","geo_score":0.857,"id":"a6gebxs6ktws","geo_precision":"city","state":"TX"},"type":"Feature","geometry":{"type":"Point","coordinates":[-97.396381,27.800583]}},{"properties":{"city":"DALLAS","geo_score":0.857,"id":"a6gebxs6gywy","geo_precision":"city","state":"TX"},"type":"Feature","geometry":{"type":"Point","coordinates":[-96.806667,32.783056]}},{"properties":{"city":"DALLAS","geo_score":0.857,"id":"a6gebxycmt8g","geo_precision":"city","state":"TX"},"type":"Feature","geometry":{"type":"Point","coordinates":[-96.806667,32.783056]}},{"properties":{"city":"EL PASO","geo_score":0.857,"id":"a6gebxzlerwu","geo_precision":"city","state":"TX"},"type":"Feature","geometry":{"type":"Point","coordinates":[-106.486931,31.75872]}},{"properties":{"city":"EL PASO","geo_score":0.857,"id":"a6gebxqeydeh","geo_precision":"city","state":"TX"},"type":"Feature","geometry":{"type":"Point","coordinates":[-106.486931,31.75872]}},{"properties":{"city":"FORT WORTH","geo_score":0.746,"id":"a6geby17vkbx","geo_precision":"city","state":"TX"},"type":"Feature","geometry":{"type":"Point","coordinates":[-95.262161,31.108239]}},{"properties":{"city":"HOUSTON","geo_score":0.816,"id":"a6gebxy2z2ku","geo_precision":"city","state":"TX"},"type":"Feature","geometry":{"type":"Point","coordinates":[-96.919704,29.845783]}},{"properties":{"city":"HOUSTON","geo_score":0.816,"id":"a6gebxs9a2pe","geo_precision":"city","state":"TX"},"type":"Feature","geometry":{"type":"Point","coordinates":[-96.919704,29.845783]}},{"properties":{"city":"HOUSTON","geo_score":0.816,"id":"a6gebxzsybu6","geo_precision":"city","state":"TX"},"type":"Feature","geometry":{"type":"Point","coordinates":[-96.919704,29.845783]}},{"properties":{"city":"HOUSTON","geo_score":0.816,"id":"a6gebxl5v7nq","geo_precision":"city","state":"TX"},"type":"Feature","geometry":{"type":"Point","coordinates":[-96.919704,29.845783]}},{"properties":{"city":"KYLE","geo_score":0.771,"id":"a6gebxt1dyvu","geo_precision":"city","state":"TX"},"type":"Feature","geometry":{"type":"Point","coordinates":[-96.618879,33.362612]}},{"properties":{"city":"LUBBOCK","geo_score":0.857,"id":"a6geby0n5urv","geo_precision":"city","state":"TX"},"type":"Feature","geometry":{"type":"Point","coordinates":[-101.855167,33.577863]}},{"properties":{"city":"LUBBOCK","geo_score":0.857,"id":"a6gebxkwn1pi","geo_precision":"city","state":"TX"},"type":"Feature","geometry":{"type":"Point","coordinates":[-101.855167,33.577863]}},{"properties":{"city":"MANSFIELD","geo_score":0.857,"id":"a6gebxu5ca2g","geo_precision":"city","state":"TX"},"type":"Feature","geometry":{"type":"Point","coordinates":[-97.291484,32.771419]}},{"properties":{"city":"ODESSA","geo_score":0.857,"id":"a6gebxmrn6rr","geo_precision":"city","state":"TX"},"type":"Feature","geometry":{"type":"Point","coordinates":[-102.367643,31.845682]}},{"properties":{"city":"ROUND ROCK","geo_score":0.857,"id":"a6gebxmgpqdv","geo_precision":"city","state":"TX"},"type":"Feature","geometry":{"type":"Point","coordinates":[-97.678896,30.508255]}},{"properties":{"city":"ROUND ROCK","geo_score":0.857,"id":"a6gebxu7py88","geo_precision":"city","state":"TX"},"type":"Feature","geometry":{"type":"Point","coordinates":[-97.678896,30.508255]}},{"properties":{"city":"ROUND ROCK","geo_score":0.857,"id":"a6gebxoe0cp0","geo_precision":"city","state":"TX"},"type":"Feature","geometry":{"type":"Point","coordinates":[-97.678896,30.508255]}},{"properties":{"city":"ROUND ROCK","geo_score":0.857,"id":"a6gebxqexly4","geo_precision":"city","state":"TX"},"type":"Feature","geometry":{"type":"Point","coordinates":[-97.678896,30.508255]}},{"properties":{"city":"ROUND ROCK","geo_score":0.857,"id":"a6gebxwtjwaf","geo_precision":"city","state":"TX"},"type":"Feature","geometry":{"type":"Point","coordinates":[-97.678896,30.508255]}},{"properties":{"city":"SAN ANTONIO","geo_score":0.857,"id":"a6gebxup3fds","geo_precision":"city","state":"TX"},"type":"Feature","geometry":{"type":"Point","coordinates":[-98.493628,29.424122]}},{"properties":{"city":"SUNNYVALE","geo_score":0.794,"id":"a6gebxmm1hii","geo_precision":"city","state":"TX"},"type":"Feature","geometry":{"type":"Point","coordinates":[-95.428288,33.664551]}},{"properties":{"city":"WHARTON","geo_score":0.857,"id":"a6gebxrfe6jo","geo_precision":"city","state":"TX"},"type":"Feature","geometry":{"type":"Point","coordinates":[-96.091123,29.323344]}},{"properties":{"city":"WHARTON","geo_score":0.857,"id":"a6gebxsmleyi","geo_precision":"city","state":"TX"},"type":"Feature","geometry":{"type":"Point","coordinates":[-96.091123,29.323344]}},{"properties":{"city":"WHARTON","geo_score":0.857,"id":"a6gebxwoizns","geo_precision":"city","state":"TX"},"type":"Feature","geometry":{"type":"Point","coordinates":[-96.091123,29.323344]}},{"properties":{"city":"WICHITA FALLS","geo_score":0.857,"id":"a6gebxpqwegn","geo_precision":"city","state":"TX"},"type":"Feature","geometry":{"type":"Point","coordinates":[-98.493387,33.913709]}},{"properties":{"city":"WICHITA FALLS","geo_score":0.857,"id":"a6gebxnbugjn","geo_precision":"city","state":"TX"},"type":"Feature","geometry":{"type":"Point","coordinates":[-98.493387,33.913709]}},{"properties":{"city":"WICHITA FALLS","geo_score":0.857,"id":"a6gebxxrq4c8","geo_precision":"city","state":"TX"},"type":"Feature","geometry":{"type":"Point","coordinates":[-98.493387,33.913709]}},{"properties":{"city":"OGDEN","geo_score":0.857,"id":"a6gebxkyxwcm","geo_precision":"city","state":"UT"},"type":"Feature","geometry":{"type":"Point","coordinates":[-111.97383,41.223]}},{"properties":{"city":"OGDEN","geo_score":0.857,"id":"a6gebxq0r1r2","geo_precision":"city","state":"UT"},"type":"Feature","geometry":{"type":"Point","coordinates":[-111.97383,41.223]}},{"properties":{"city":"CHARLOTTESVILLE","geo_score":0.857,"id":"a6gebxtr8e3s","geo_precision":"city","state":"VA"},"type":"Feature","geometry":{"type":"Point","coordinates":[-78.476678,38.029306]}},{"properties":{"city":"CHARLOTTESVILLE","geo_score":0.857,"id":"a6gebxlfq3jv","geo_precision":"city","state":"VA"},"type":"Feature","geometry":{"type":"Point","coordinates":[-78.476678,38.029306]}},{"properties":{"city":"CHARLOTTESVILLE","geo_score":0.857,"id":"a6gebxnwxd7h","geo_precision":"city","state":"VA"},"type":"Feature","geometry":{"type":"Point","coordinates":[-78.476678,38.029306]}},{"properties":{"city":"RICHMOND","geo_score":0.857,"id":"a6gebxy8ncbt","geo_precision":"city","state":"VA"},"type":"Feature","geometry":{"type":"Point","coordinates":[-77.460262,37.553758]}},{"properties":{"city":"RICHMOND","geo_score":0.857,"id":"a6gebxqy5800","geo_precision":"city","state":"VA"},"type":"Feature","geometry":{"type":"Point","coordinates":[-77.460262,37.553758]}},{"properties":{"city":"RICHMOND","geo_score":0.857,"id":"a6gebxq60tzk","geo_precision":"city","state":"VA"},"type":"Feature","geometry":{"type":"Point","coordinates":[-77.460262,37.553758]}},{"properties":{"city":"RICHMOND","geo_score":0.857,"id":"a6gebxxbkqp2","geo_precision":"city","state":"VA"},"type":"Feature","geometry":{"type":"Point","coordinates":[-77.460262,37.553758]}},{"properties":{"city":"RICHMOND","geo_score":0.857,"id":"a6gebxledgg4","geo_precision":"city","state":"VA"},"type":"Feature","geometry":{"type":"Point","coordinates":[-77.460262,37.553758]}},{"properties":{"city":"EVERETT","geo_score":0.857,"id":"a6geby18mvm6","geo_precision":"city","state":"WA"},"type":"Feature","geometry":{"type":"Point","coordinates":[-122.202079,47.978985]}},{"properties":{"city":"EVERETT","geo_score":0.857,"id":"a6gebxuod7m6","geo_precision":"city","state":"WA"},"type":"Feature","geometry":{"type":"Point","coordinates":[-122.202079,47.978985]}},{"properties":{"city":"EVERETT","geo_score":0.857,"id":"a6gebxwodozd","geo_precision":"city","state":"WA"},"type":"Feature","geometry":{"type":"Point","coordinates":[-122.202079,47.978985]}},{"properties":{"city":"SEATTLE","geo_score":0.857,"id":"a6gebxxmpvym","geo_precision":"city","state":"WA"},"type":"Feature","geometry":{"type":"Point","coordinates":[-122.332071,47.60621]}},{"properties":{"city":"VANCOUVER","geo_score":0.857,"id":"a6gebxppiinr","geo_precision":"city","state":"WA"},"type":"Feature","geometry":{"type":"Point","coordinates":[-122.661486,45.638728]}},{"properties":{"city":"GREEN BAY","geo_score":0.857,"id":"a6gebxs1rknz","geo_precision":"city","state":"WI"},"type":"Feature","geometry":{"type":"Point","coordinates":[-88.019826,44.519159]}},{"properties":{"city":"BECKLEY","geo_score":0.857,"id":"a6gebxvq7eak","geo_precision":"city","state":"WV"},"type":"Feature","geometry":{"type":"Point","coordinates":[-81.216446,37.767248]}},{"properties":{"city":"CASPER","geo_score":0.857,"id":"a6gebxlb37ty","geo_precision":"city","state":"WY"},"type":"Feature","geometry":{"type":"Point","coordinates":[-106.313081,42.866632]}},{"properties":{"city":"CASPER","geo_score":0.857,"id":"a6gebxlmobge","geo_precision":"city","state":"WY"},"type":"Feature","geometry":{"type":"Point","coordinates":[-106.313081,42.866632]}},{"properties":{"city":"CASPER","geo_score":0.857,"id":"a6gebxz4qtqm","geo_precision":"city","state":"WY"},"type":"Feature","geometry":{"type":"Point","coordinates":[-106.313081,42.866632]}}],"is_temporal":false,"author":{"url":"","metadata":"","contact_name":"","contact_address":"","source":"","contact_phone":""},"source":"","pagination":{"sort":null,"start":0,"total":433,"limit":1000000},"state":"complete","tags":"","published":"2014-08-13T08:00:20-04:00","id":126734}