{"type":"FeatureCollection","data_type":"Dataset","url_type":null,"permissions":[{"permissions":{"download":true,"view":true},"group_id":"everyone"}],"classification":null,"title":"Pyramid Hotel Group","count":49,"stream_id":12698,"contributor":{"url":"http://geocommons.com/users/4898","name":"jphaus"},"data_attributes":null,"calculation_params":null,"icon_link":null,"link":"http://geocommons.com/overlays/12698.json","extent":[-156.338,20.8031,-70.879,42.732],"geometry_types":["point"],"unique_name":null,"name":"Pyramid Hotel Group","feature_count":49,"description":"","next_feature":null,"is_raster":false,"short_classification":"Y","stats":{"latitude":{"max":42.73202,"mean":35.5709845306122,"variance":35.6796685353969,"stdev":5.97324606352333,"min":20.80308,"median":37.432539},"keys":{"max":1102.0,"mean":403.142857142857,"variance":59448.1666666666,"stdev":243.819947228824,"min":92.0,"median":300.0},"longitude":{"max":-70.878979,"mean":-90.5504058571429,"variance":406.519654512807,"stdev":20.1623325662684,"min":-156.338104,"median":-81.377389}},"features":[{"properties":{"city":"Berkeley","latitude":37.869505,"hotel":"Claremont Resort &amp; Spa","keys":279.0,"longitude":-122.270499,"id":"a69i6mikdaxu","state":"CA","pyramid role":"Manager/Owner"},"type":"Feature","geometry":{"type":"Point","coordinates":[-122.270499,37.869505]}},{"properties":{"city":"Beverly","latitude":42.547745,"hotel":"Wylie Inn &amp; Conference Center","keys":92.0,"longitude":-70.878979,"id":"a69i6mhn8oaq","state":"MA","pyramid role":"Manager"},"type":"Feature","geometry":{"type":"Point","coordinates":[-70.878979,42.547745]}},{"properties":{"city":"Boston","latitude":42.358635,"hotel":"Marriott Residence Inn Boston Harbor on Tudor Wharf","keys":168.0,"longitude":-71.056699,"id":"a69i6mc3rml8","state":"MA","pyramid role":"Manager/Owner"},"type":"Feature","geometry":{"type":"Point","coordinates":[-71.056699,42.358635]}},{"properties":{"city":"Boston","latitude":42.358635,"hotel":"Boston Harbor Hotel","keys":230.0,"longitude":-71.056699,"id":"a69i6mjcw3dm","state":"MA","pyramid role":"Manager"},"type":"Feature","geometry":{"type":"Point","coordinates":[-71.056699,42.358635]}},{"properties":{"city":"Buckhead","latitude":33.56835,"hotel":"Buckhead Marriott Hotel &amp; Conference Center","keys":369.0,"longitude":-83.361989,"id":"a69i6macmn8l","state":"GA","pyramid role":"Manager/Owner"},"type":"Feature","geometry":{"type":"Point","coordinates":[-83.361989,33.56835]}},{"properties":{"city":"Burbank","latitude":34.18147,"hotel":"Burbank Airport Marriott Hotel &amp; Convention Center","keys":488.0,"longitude":-118.308124,"id":"a69i6mgijrke","state":"CA","pyramid role":"Manager/Owner"},"type":"Feature","geometry":{"type":"Point","coordinates":[-118.308124,34.18147]}},{"properties":{"city":"Colorado Springs","latitude":38.83311,"hotel":"Antlers Hilton Colorado Springs","keys":292.0,"longitude":-104.821729,"id":"a69i6m9gf9v6","state":"CO","pyramid role":"Manager/Owner"},"type":"Feature","geometry":{"type":"Point","coordinates":[-104.821729,38.83311]}},{"properties":{"city":"Columbia","latitude":33.99855,"hotel":"Columbia Marriott","keys":300.0,"longitude":-81.045249,"id":"a69i6mdkm1u4","state":"SC","pyramid role":"Manager/Owner"},"type":"Feature","geometry":{"type":"Point","coordinates":[-81.045249,33.99855]}},{"properties":{"city":"Columbia","latitude":33.99855,"hotel":"Columbia Courtyard Marriott","keys":189.0,"longitude":-81.045249,"id":"a69i6mc3x4l5","state":"SC","pyramid role":"Manager/Owner"},"type":"Feature","geometry":{"type":"Point","coordinates":[-81.045249,33.99855]}},{"properties":{"city":"Danbury","latitude":41.392682,"hotel":"Danbury Plaza Hotel &amp; Conference Center","keys":242.0,"longitude":-73.453592,"id":"a69i6m6rqtz7","state":"CT","pyramid role":"Manager/Owner"},"type":"Feature","geometry":{"type":"Point","coordinates":[-73.453592,41.392682]}},{"properties":{"city":"Daytona Beach","latitude":29.203575,"hotel":"Hilton Daytona Beach / Ocean Walk Village","keys":744.0,"longitude":-81.039404,"id":"a69i6medst9f","state":"FL","pyramid role":"Manager/Owner"},"type":"Feature","geometry":{"type":"Point","coordinates":[-81.039404,29.203575]}},{"properties":{"city":"Denver","latitude":39.74001,"hotel":"Renaissance Denver Hotel and Executive Meeting Center","keys":400.0,"longitude":-104.992259,"id":"a69i6mki96py","state":"CO","pyramid role":"Manager/Owner"},"type":"Feature","geometry":{"type":"Point","coordinates":[-104.992259,39.74001]}},{"properties":{"city":"Durham","latitude":35.995275,"hotel":"Washington Duke Inn &amp; Golf Club","keys":271.0,"longitude":-78.896014,"id":"a69i6mespmma","state":"NC","pyramid role":"Asset Manager"},"type":"Feature","geometry":{"type":"Point","coordinates":[-78.896014,35.995275]}},{"properties":{"city":"East Brunswick","latitude":40.417592,"hotel":"Hilton East Brunswick","keys":405.0,"longitude":-74.420076,"id":"a69i6mi8mvog","state":"NJ","pyramid role":"Manager/Owner"},"type":"Feature","geometry":{"type":"Point","coordinates":[-74.420076,40.417592]}},{"properties":{"city":"Framingham","latitude":42.279519,"hotel":"Sheraton Framingham Hotel and Executive Meeting Center","keys":375.0,"longitude":-71.416519,"id":"a69i6m6hvoqp","state":"MA","pyramid role":"Manager/Owner"},"type":"Feature","geometry":{"type":"Point","coordinates":[-71.416519,42.279519]}},{"properties":{"city":"Ft. Lauderdale","latitude":26.12367,"hotel":"Courtyard Fort Lauderdale Beach","keys":261.0,"longitude":-80.143564,"id":"a69i6m62ktek","state":"FL","pyramid role":"Manager/Owner"},"type":"Feature","geometry":{"type":"Point","coordinates":[-80.143564,26.12367]}},{"properties":{"city":"Houston","latitude":29.76045,"hotel":"Houston Marriott Westchase","keys":600.0,"longitude":-95.369784,"id":"a69i6mcxm755","state":"TX","pyramid role":"Manager/Owner"},"type":"Feature","geometry":{"type":"Point","coordinates":[-95.369784,29.76045]}},{"properties":{"city":"Indianapolis","latitude":39.76691,"hotel":"Hilton Indianapolis","keys":332.0,"longitude":-86.149964,"id":"a69i6mjm4n7v","state":"IN","pyramid role":"Manager/Owner"},"type":"Feature","geometry":{"type":"Point","coordinates":[-86.149964,39.76691]}},{"properties":{"city":"Lansing","latitude":42.73202,"hotel":"Candlewood Suites East Lansing","keys":128.0,"longitude":-84.552279,"id":"a69i6m5bdvje","state":"MI","pyramid role":"Manager"},"type":"Feature","geometry":{"type":"Point","coordinates":[-84.552279,42.73202]}},{"properties":{"city":"Maui","latitude":20.80308,"hotel":"Grand Wailea Resort Hotel &amp; Spa, The Waldorf-Astoria Collection","keys":780.0,"longitude":-156.338104,"id":"a69i6m4meqw1","state":"HI","pyramid role":"Asset Manager/Owner"},"type":"Feature","geometry":{"type":"Point","coordinates":[-156.338104,20.80308]}},{"properties":{"city":"Metairie","latitude":29.988052,"hotel":"New Orleans Marriott Metairie at Lakeway","keys":220.0,"longitude":-90.131028,"id":"a69i6md8wb6d","state":"LA","pyramid role":"Manager/Owner"},"type":"Feature","geometry":{"type":"Point","coordinates":[-90.131028,29.988052]}},{"properties":{"city":"Miami","latitude":25.728985,"hotel":"Doral Golf Resort &amp; Spa, A Marriott Resort","keys":692.0,"longitude":-80.237419,"id":"a69i6maalzkc","state":"FL","pyramid role":"Asset Manager/Owner"},"type":"Feature","geometry":{"type":"Point","coordinates":[-80.237419,25.728985]}},{"properties":{"city":"Miami","latitude":25.728985,"hotel":"Doubletree Hotel Coconut Grove","keys":192.0,"longitude":-80.237419,"id":"a69i6m960155","state":"FL","pyramid role":"Asset Manager"},"type":"Feature","geometry":{"type":"Point","coordinates":[-80.237419,25.728985]}},{"properties":{"city":"Miami","latitude":25.728985,"hotel":"Hilton Miami Downtown","keys":528.0,"longitude":-80.237419,"id":"a69i6mcenxho","state":"FL","pyramid role":"Manager"},"type":"Feature","geometry":{"type":"Point","coordinates":[-80.237419,25.728985]}},{"properties":{"city":"Milpitas","latitude":37.432539,"hotel":"The Beverly Heritage Hotel","keys":236.0,"longitude":-121.898065,"id":"a69i6m6omv4i","state":"CA","pyramid role":"Manager/Owner"},"type":"Feature","geometry":{"type":"Point","coordinates":[-121.898065,37.432539]}},{"properties":{"city":"New Orleans French Qtr.","latitude":29.95369,"hotel":"Maison Dupuy Hotel","keys":200.0,"longitude":-90.077728,"id":"a69i6mc0zz3o","state":"LA","pyramid role":"Manager/Owner"},"type":"Feature","geometry":{"type":"Point","coordinates":[-90.077728,29.95369]}},{"properties":{"city":"New York","latitude":40.71455,"hotel":"Crowne Plaza Times Square Manhattan","keys":770.0,"longitude":-74.007124,"id":"a69i6m8xmasx","state":"NY","pyramid role":"Asset Manager"},"type":"Feature","geometry":{"type":"Point","coordinates":[-74.007124,40.71455]}},{"properties":{"city":"Newton","latitude":42.338495,"hotel":"Hotel Indigo Boston-Newton Riverside","keys":191.0,"longitude":-71.207074,"id":"a69i6mk762ch","state":"MA","pyramid role":"Manager"},"type":"Feature","geometry":{"type":"Point","coordinates":[-71.207074,42.338495]}},{"properties":{"city":"Norfolk","latitude":36.846825,"hotel":"Sheraton Norfolk Waterside","keys":468.0,"longitude":-76.285069,"id":"a69i6m90528e","state":"VA","pyramid role":"Manager/Owner"},"type":"Feature","geometry":{"type":"Point","coordinates":[-76.285069,36.846825]}},{"properties":{"city":"Oak Brook","latitude":41.83245,"hotel":"Doubletree Hotel Chicago-Oak Brook","keys":427.0,"longitude":-87.947179,"id":"a69i6mis967n","state":"IL","pyramid role":"Manager/Owner"},"type":"Feature","geometry":{"type":"Point","coordinates":[-87.947179,41.83245]}},{"properties":{"city":"Orlando","latitude":28.53774,"hotel":"JW Marriott Orlando, Grande Lakes","keys":998.0,"longitude":-81.377389,"id":"a69i6mbwod55","state":"FL","pyramid role":"Asset Manager/Owner"},"type":"Feature","geometry":{"type":"Point","coordinates":[-81.377389,28.53774]}},{"properties":{"city":"Orlando","latitude":28.53774,"hotel":"The Ritz-Carlton Orlando, Grande Lakes","keys":584.0,"longitude":-81.377389,"id":"a69i6md2vls5","state":"FL","pyramid role":"Asset Manager/Owner"},"type":"Feature","geometry":{"type":"Point","coordinates":[-81.377389,28.53774]}},{"properties":{"city":"Orlando","latitude":28.53774,"hotel":"International Plaza Resort &amp; Spa","keys":1102.0,"longitude":-81.377389,"id":"a69i6mj7eth8","state":"FL","pyramid role":"Manager"},"type":"Feature","geometry":{"type":"Point","coordinates":[-81.377389,28.53774]}},{"properties":{"city":"Palm Springs","latitude":33.823215,"hotel":"La Quinta Resort &amp; Club and PGA West, The Waldorf-Astoria Collection","keys":796.0,"longitude":-116.512114,"id":"a69i6mjh7u5l","state":"CA","pyramid role":"Asset Manager/Owner"},"type":"Feature","geometry":{"type":"Point","coordinates":[-116.512114,33.823215]}},{"properties":{"city":"Phoenix","latitude":33.44826,"hotel":"Arizona Biltmore Resort &amp; Spa, The Waldorf-Astoria Collection","keys":738.0,"longitude":-112.075774,"id":"a69i6m9v38ec","state":"AZ","pyramid role":"Asset Manager/Owner"},"type":"Feature","geometry":{"type":"Point","coordinates":[-112.075774,33.44826]}},{"properties":{"city":"Phoenix","latitude":33.44826,"hotel":"JW Marriott Desert Ridge Resort &amp; Spa","keys":950.0,"longitude":-112.075774,"id":"a69i6m5vd8hi","state":"AZ","pyramid role":"Asset Manager/Owner"},"type":"Feature","geometry":{"type":"Point","coordinates":[-112.075774,33.44826]}},{"properties":{"city":"Plantation","latitude":26.12739,"hotel":"Sheraton Suites Plantation","keys":264.0,"longitude":-80.245151,"id":"a69i6m503pa2","state":"FL","pyramid role":"Manager/Owner"},"type":"Feature","geometry":{"type":"Point","coordinates":[-80.245151,26.12739]}},{"properties":{"city":"Pleasanton","latitude":37.658034,"hotel":"Pleasanton Marriott","keys":242.0,"longitude":-121.87722,"id":"a69i6mintjmc","state":"CA","pyramid role":"Manager/Owner"},"type":"Feature","geometry":{"type":"Point","coordinates":[-121.87722,37.658034]}},{"properties":{"city":"Rockville","latitude":39.081665,"hotel":"Hilton Rockville Hotel &amp; Executive Meeting Center","keys":315.0,"longitude":-77.15124,"id":"a69i6m9skhm8","state":"MD","pyramid role":"Manager"},"type":"Feature","geometry":{"type":"Point","coordinates":[-77.15124,39.081665]}},{"properties":{"city":"San Diego","latitude":32.715685,"hotel":"Sheraton Suites San Diego","keys":264.0,"longitude":-117.161724,"id":"a69i6m5wv5wf","state":"CA","pyramid role":"Manager/Owner"},"type":"Feature","geometry":{"type":"Point","coordinates":[-117.161724,32.715685]}},{"properties":{"city":"San Diego","latitude":32.715685,"hotel":"Doubletree Hotel San Diego/Del Mar","keys":224.0,"longitude":-117.161724,"id":"a69i6mgg9y7g","state":"CA","pyramid role":"Manager/Owner"},"type":"Feature","geometry":{"type":"Point","coordinates":[-117.161724,32.715685]}},{"properties":{"city":"San Francisco","latitude":37.77916,"hotel":"Hilton San Francisco Fisherman's Wharf","keys":234.0,"longitude":-122.420049,"id":"a69i6mih4u8r","state":"CA","pyramid role":"Manager/Owner"},"type":"Feature","geometry":{"type":"Point","coordinates":[-122.420049,37.77916]}},{"properties":{"city":"Santa Rosa","latitude":38.437731,"hotel":"Hilton Sonoma Wine Country","keys":250.0,"longitude":-122.712427,"id":"a69i6mgl2d74","state":"CA","pyramid role":"Manager/Owner"},"type":"Feature","geometry":{"type":"Point","coordinates":[-122.712427,38.437731]}},{"properties":{"city":"Somerset","latitude":40.497508,"hotel":"Doubletree Hotel Somerset and Executive Meeting Center","keys":364.0,"longitude":-74.524099,"id":"a69i6mk4du9j","state":"NJ","pyramid role":"Manager/Owner"},"type":"Feature","geometry":{"type":"Point","coordinates":[-74.524099,40.497508]}},{"properties":{"city":"Southfield","latitude":42.481755,"hotel":"Westin Southfield Detroit Hotel and Executive Meeting Center","keys":388.0,"longitude":-83.240929,"id":"a69i6mb40tns","state":"MI","pyramid role":"Manager/Owner"},"type":"Feature","geometry":{"type":"Point","coordinates":[-83.240929,42.481755]}},{"properties":{"city":"Stamford","latitude":41.05182,"hotel":"Hilton Stamford Hotel and Executive Meeting Center","keys":484.0,"longitude":-73.542234,"id":"a69i6mk4kg6o","state":"CT","pyramid role":"Manager/Owner"},"type":"Feature","geometry":{"type":"Point","coordinates":[-73.542234,41.05182]}},{"properties":{"city":"Wakefield","latitude":42.5064,"hotel":"Sheraton Colonial Boston North Hotel and Executive Meeting Center","keys":280.0,"longitude":-71.072399,"id":"a69i6mkvso53","state":"MA","pyramid role":"Manager/Owner"},"type":"Feature","geometry":{"type":"Point","coordinates":[-71.072399,42.5064]}},{"properties":{"city":"Washington","latitude":38.89037,"hotel":"The Fairfax at Embassy Row, a Luxury Collection Hotel","keys":259.0,"longitude":-77.031959,"id":"a69i6m74wwo9","state":"DC","pyramid role":"Manager/Owner"},"type":"Feature","geometry":{"type":"Point","coordinates":[-77.031959,38.89037]}},{"properties":{"city":"Woburn","latitude":42.479195,"hotel":"Marriott Residence Inn Boston Woburn","keys":149.0,"longitude":-71.150604,"id":"a69i6mkqoth7","state":"MA","pyramid role":"Manager/Owner"},"type":"Feature","geometry":{"type":"Point","coordinates":[-71.150604,42.479195]}}],"is_temporal":false,"author":{"url":"","metadata":"","contact_name":"","contact_address":"","source":"","contact_phone":""},"source":"","pagination":{"sort":null,"start":0,"total":49,"limit":1000000},"state":"complete","tags":"","published":"2014-08-10T15:23:17-04:00","id":12698}