{"type":"FeatureCollection","data_type":"Dataset","url_type":null,"permissions":[{"permissions":{"download":true,"view":true},"group_id":"everyone"}],"classification":null,"title":"Untitled","count":235,"stream_id":12825,"contributor":{"url":"http://geocommons.com/users/4048","name":"cskelton"},"data_attributes":null,"calculation_params":null,"icon_link":null,"link":"http://geocommons.com/overlays/12825.json","extent":[-123.342,49.0097,-121.856,49.3799],"geometry_types":["point"],"unique_name":null,"name":"Untitled","feature_count":235,"description":"","next_feature":null,"is_raster":false,"short_classification":"Y","stats":{"rating":{"max":10.0,"mean":7.46978723404255,"variance":1.69288670667393,"stdev":1.30110979808544,"min":6.0,"median":6.8},"lat":{"max":49.379868,"mean":49.1930807361702,"variance":0.00879126174757967,"stdev":0.0937617285867729,"min":49.009746,"median":49.204688},"long":{"max":-121.856078,"mean":-122.842921417021,"variance":0.112165500736133,"stdev":0.334911183354831,"min":-123.341911,"median":-122.954868}},"features":[{"properties":{"rating":10.0,"city":"Vancouver","schoolname":"Crofton House","type":"Independent","street":"3200 41st Ave W","id":"a66d2mxrj9w0","province":"BC","lat":49.234622,"long":-123.176891},"type":"Feature","geometry":{"type":"Point","coordinates":[-123.176891,49.234622]}},{"properties":{"rating":10.0,"city":"Burnaby","schoolname":"Holy Cross","type":"Independent","street":"1450 Delta Ave","id":"a66d2mva370x","province":"BC","lat":49.271533,"long":-122.991974},"type":"Feature","geometry":{"type":"Point","coordinates":[-122.991974,49.271533]}},{"properties":{"rating":10.0,"city":"Maple Ridge","schoolname":"Meadowridge","type":"Independent","street":"12224 240 St","id":"a66d2mp1lwsa","province":"BC","lat":49.22411,"long":-122.556907},"type":"Feature","geometry":{"type":"Point","coordinates":[-122.556907,49.22411]}},{"properties":{"rating":10.0,"city":"West Vancouver","schoolname":"Mulgrave","type":"Independent","street":"2330 Cypress Lane","id":"a66d2mjaopyf","province":"BC","lat":49.348708,"long":-123.197946},"type":"Feature","geometry":{"type":"Point","coordinates":[-123.197946,49.348708]}},{"properties":{"rating":10.0,"city":"Surrey","schoolname":"Our Lady Of Good Counsel","type":"Independent","street":"10504 139 St","id":"a66d2mzbsvxx","province":"BC","lat":49.18774,"long":-122.837219},"type":"Feature","geometry":{"type":"Point","coordinates":[-122.837219,49.18774]}},{"properties":{"rating":10.0,"city":"Coquitlam","schoolname":"Queen Of All Saints","type":"Independent","street":"1405 Como Lake Ave","id":"a66d2mrolm2y","province":"BC","lat":49.263579,"long":-122.853344},"type":"Feature","geometry":{"type":"Point","coordinates":[-122.853344,49.263579]}},{"properties":{"rating":10.0,"city":"Delta","schoolname":"Sacred Heart","type":"Independent","street":"PO Box 10 STN Main","id":"a66d2mz5te91","province":"BC","lat":49.0848,"long":-123.059619},"type":"Feature","geometry":{"type":"Point","coordinates":[-123.059619,49.0848]}},{"properties":{"rating":10.0,"city":"Surrey","schoolname":"Southridge","type":"Independent","street":"2656 160 St","id":"a66d2mxrqk31","province":"BC","lat":49.050159,"long":-122.779074},"type":"Feature","geometry":{"type":"Point","coordinates":[-122.779074,49.050159]}},{"properties":{"rating":10.0,"city":"Vancouver","schoolname":"St George's","type":"Independent","street":"4175 W 29th Ave","id":"a66d2mv0yefd","province":"BC","lat":49.24622,"long":-123.196669},"type":"Feature","geometry":{"type":"Point","coordinates":[-123.196669,49.24622]}},{"properties":{"rating":10.0,"city":"Abbotsford","schoolname":"St James","type":"Independent","street":"2767 Townline Rd","id":"a66d2mxjtfhi","province":"BC","lat":49.052579,"long":-122.360276},"type":"Feature","geometry":{"type":"Point","coordinates":[-122.360276,49.052579]}},{"properties":{"rating":10.0,"city":"Vancouver","schoolname":"St Jude's","type":"Independent","street":"2953 15th Ave E","id":"a66d2moprny1","province":"BC","lat":49.256536,"long":-123.042877},"type":"Feature","geometry":{"type":"Point","coordinates":[-123.042877,49.256536]}},{"properties":{"rating":10.0,"city":"Richmond","schoolname":"St Paul's","type":"Independent","street":"8251 St. Albans Rd","id":"a66d2ml0735w","province":"BC","lat":49.153754,"long":-123.131163},"type":"Feature","geometry":{"type":"Point","coordinates":[-123.131163,49.153754]}},{"properties":{"rating":10.0,"city":"North Vancouver","schoolname":"St Pius X","type":"Independent","street":"1150 Mount Seymour Rd","id":"a66d2mxbtwkh","province":"BC","lat":49.317348,"long":-122.968788},"type":"Feature","geometry":{"type":"Point","coordinates":[-122.968788,49.317348]}},{"properties":{"rating":10.0,"city":"Vancouver","schoolname":"Vancouver College","type":"Independent","street":"5400 Cartier St","id":"a66d2ms6uz11","province":"BC","lat":49.236981,"long":-123.136923},"type":"Feature","geometry":{"type":"Point","coordinates":[-123.136923,49.236981]}},{"properties":{"rating":6.1,"city":"Surrey","schoolname":"White Rock Christian","type":"Independent","street":"2265 152 St","id":"a66d2mpf1llc","province":"BC","lat":49.043328,"long":-122.801391},"type":"Feature","geometry":{"type":"Point","coordinates":[-122.801391,49.043328]}},{"properties":{"rating":10.0,"city":"Vancouver","schoolname":"West Point Grey","type":"Independent","street":"4125 8th Ave W","id":"a66d2mtgytbu","province":"BC","lat":49.265503,"long":-123.197131},"type":"Feature","geometry":{"type":"Point","coordinates":[-123.197131,49.265503]}},{"properties":{"rating":10.0,"city":"Vancouver","schoolname":"York House","type":"Independent","street":"4176 Alexandra St","id":"a66d2mjn7ox0","province":"BC","lat":49.248702,"long":-123.141122},"type":"Feature","geometry":{"type":"Point","coordinates":[-123.141122,49.248702]}},{"properties":{"rating":9.9,"city":"Vancouver","schoolname":"Vancouver Talmud Torah","type":"Independent","street":"998 West 26th Ave","id":"a66d2mldaq9c","province":"BC","lat":49.24809,"long":-123.127269},"type":"Feature","geometry":{"type":"Point","coordinates":[-123.127269,49.24809]}},{"properties":{"rating":6.5,"city":"Surrey","schoolname":"St Bernadette","type":"Independent","street":"13130 65b Ave","id":"a66d2mt2tjsd","province":"BC","lat":49.10518,"long":-122.830217},"type":"Feature","geometry":{"type":"Point","coordinates":[-122.830217,49.10518]}},{"properties":{"rating":6.6,"city":"Surrey","schoolname":"Surrey Christian","type":"Independent","street":"9115 160 St","id":"a66d2mqe16th","province":"BC","lat":49.168661,"long":-122.779097},"type":"Feature","geometry":{"type":"Point","coordinates":[-122.779097,49.168661]}},{"properties":{"rating":6.9,"city":"Maple Ridge","schoolname":"St Patrick's","type":"Independent","street":"22589 121 Ave","id":"a66d2mlu1zha","province":"BC","lat":49.222449,"long":-122.595757},"type":"Feature","geometry":{"type":"Point","coordinates":[-122.595757,49.222449]}},{"properties":{"rating":9.5,"city":"Vancouver","schoolname":"Stratford Hall","type":"Independent","street":"3000 Commercial Dr","id":"a66d2mwlbldt","province":"BC","lat":49.25769,"long":-123.069849},"type":"Feature","geometry":{"type":"Point","coordinates":[-123.069849,49.25769]}},{"properties":{"rating":6.9,"city":"Vancouver","schoolname":"St Patrick's","type":"Independent","street":"2850 Quebec St","id":"a66d2mrcolp7","province":"BC","lat":49.259816,"long":-123.102763},"type":"Feature","geometry":{"type":"Point","coordinates":[-123.102763,49.259816]}},{"properties":{"rating":9.4,"city":"West Vancouver","schoolname":"Collingwood","type":"Independent","street":"70 Morven Dr","id":"a66d2mr1ivmn","province":"BC","lat":49.361146,"long":-123.119298},"type":"Feature","geometry":{"type":"Point","coordinates":[-123.119298,49.361146]}},{"properties":{"rating":9.4,"city":"Richmond","schoolname":"St Joseph The Worker","type":"Independent","street":"4451 Williams Rd","id":"a66d2mno9vp5","province":"BC","lat":49.141226,"long":-123.175291},"type":"Feature","geometry":{"type":"Point","coordinates":[-123.175291,49.141226]}},{"properties":{"rating":6.9,"city":"Richmond","schoolname":"Richmond Jewish","type":"Independent","street":"8760 No. 5 Rd","id":"a66d2mte2mlb","province":"BC","lat":49.149998,"long":-123.091618},"type":"Feature","geometry":{"type":"Point","coordinates":[-123.091618,49.149998]}},{"properties":{"rating":9.2,"city":"Vancouver","schoolname":"Blessed Sacrament","type":"Independent","street":"3020 Heather St","id":"a66d2mr2txi8","province":"BC","lat":49.258399,"long":-123.119721},"type":"Feature","geometry":{"type":"Point","coordinates":[-123.119721,49.258399]}},{"properties":{"rating":9.2,"city":"Vancouver","schoolname":"Corpus Christi","type":"Independent","street":"6344 Nanaimo St","id":"a66d2mwqhflk","province":"BC","lat":49.22674,"long":-123.058887},"type":"Feature","geometry":{"type":"Point","coordinates":[-123.058887,49.22674]}},{"properties":{"rating":9.2,"city":"Vancouver","schoolname":"Immaculate Conception","type":"Independent","street":"3745 28 Ave W","id":"a66d2my8mxec","province":"BC","lat":49.247268,"long":-123.187262},"type":"Feature","geometry":{"type":"Point","coordinates":[-123.187262,49.247268]}},{"properties":{"rating":9.2,"city":"Vancouver","schoolname":"St Anthony Of Padua","type":"Independent","street":"1370 73rd Ave W","id":"a66d2mpy24v1","province":"BC","lat":49.204688,"long":-123.137136},"type":"Feature","geometry":{"type":"Point","coordinates":[-123.137136,49.204688]}},{"properties":{"rating":9.2,"city":"North Vancouver","schoolname":"St Edmund's","type":"Independent","street":"535 Mahon Ave","id":"a66d2mtq2cvk","province":"BC","lat":49.318356,"long":-123.081213},"type":"Feature","geometry":{"type":"Point","coordinates":[-123.081213,49.318356]}},{"properties":{"rating":9.2,"city":"Vancouver","schoolname":"St Francis of Assisi","type":"Independent","street":"870 Victoria Dr","id":"a66d2mq2jn4c","province":"BC","lat":49.276968,"long":-123.065429},"type":"Feature","geometry":{"type":"Point","coordinates":[-123.065429,49.276968]}},{"properties":{"rating":9.2,"city":"Vancouver","schoolname":"St Joseph's","type":"Independent","street":"3261 Fleming St","id":"a66d2mxo00qq","province":"BC","lat":49.255704,"long":-123.071046},"type":"Feature","geometry":{"type":"Point","coordinates":[-123.071046,49.255704]}},{"properties":{"rating":6.9,"city":"Vancouver","schoolname":"Our Lady Of Sorrows","type":"Independent","street":"575 Slocan St","id":"a66d2mltyjug","province":"BC","lat":49.279433,"long":-123.049424},"type":"Feature","geometry":{"type":"Point","coordinates":[-123.049424,49.279433]}},{"properties":{"rating":9.1,"city":"Langley","schoolname":"St Catherines","type":"Independent","street":"20244 32 Ave","id":"a66d2mt9kj5c","province":"BC","lat":49.060038,"long":-122.662453},"type":"Feature","geometry":{"type":"Point","coordinates":[-122.662453,49.060038]}},{"properties":{"rating":6.9,"city":"Langley","schoolname":"Langley Christian","type":"Independent","street":"22930 48 Ave","id":"a66d2mj5tx6j","province":"BC","lat":49.089233,"long":-122.588437},"type":"Feature","geometry":{"type":"Point","coordinates":[-122.588437,49.089233]}},{"properties":{"rating":8.0,"city":"Chilliwack","schoolname":"St Mary's","type":"Independent","street":"8909 Mary St","id":"a66d2myla8g6","province":"BC","lat":49.164326,"long":-121.961992},"type":"Feature","geometry":{"type":"Point","coordinates":[-121.961992,49.164326]}},{"properties":{"rating":8.0,"city":"Burnaby","schoolname":"Our Lady Of Mercy","type":"Independent","street":"7481 10th Ave","id":"a66d2mrgv364","province":"BC","lat":49.214937,"long":-122.935424},"type":"Feature","geometry":{"type":"Point","coordinates":[-122.935424,49.214937]}},{"properties":{"rating":8.0,"city":"Surrey","schoolname":"Cloverdale Catholic","type":"Independent","street":"17511 59 Ave","id":"a66d2msg8jxr","province":"BC","lat":49.109731,"long":-122.737645},"type":"Feature","geometry":{"type":"Point","coordinates":[-122.737645,49.109731]}},{"properties":{"rating":8.1,"city":"Coquitlam","schoolname":"Traditional Learning Academy","type":"Independent","street":"1189 Rochester Ave","id":"a66d2mze86ed","province":"BC","lat":49.245123,"long":-122.856865},"type":"Feature","geometry":{"type":"Point","coordinates":[-122.856865,49.245123]}},{"properties":{"rating":9.0,"city":"West Vancouver","schoolname":"St Anthony's","type":"Independent","street":"595 Keith Rd","id":"a66d2mnlvpv2","province":"BC","lat":49.330882,"long":-123.132255},"type":"Feature","geometry":{"type":"Point","coordinates":[-123.132255,49.330882]}},{"properties":{"rating":9.0,"city":"Vancouver","schoolname":"St John's","type":"Independent","street":"2215 10th Ave W","id":"a66d2mty919d","province":"BC","lat":49.263093,"long":-123.155785},"type":"Feature","geometry":{"type":"Point","coordinates":[-123.155785,49.263093]}},{"properties":{"rating":8.2,"city":"Abbotsford","schoolname":"Mennonite Educational Institute","type":"Independent","street":"4081 Clearbrook Rd","id":"a66d2mxxrr1w","province":"BC","lat":49.075476,"long":-122.345768},"type":"Feature","geometry":{"type":"Point","coordinates":[-122.345768,49.075476]}},{"properties":{"rating":8.2,"city":"Chilliwack","schoolname":"Highroad","type":"Independent","street":"46641 Chilliwack Central Rd","id":"a66d2mq02mbm","province":"BC","lat":49.162089,"long":-121.931903},"type":"Feature","geometry":{"type":"Point","coordinates":[-121.931903,49.162089]}},{"properties":{"rating":8.9,"city":"Burnaby","schoolname":"St Helen's","type":"Independent","street":"3894 Triumph St","id":"a66d2ml7m0th","province":"BC","lat":49.283624,"long":-123.018711},"type":"Feature","geometry":{"type":"Point","coordinates":[-123.018711,49.283624]}},{"properties":{"rating":8.3,"city":"Maple Ridge","schoolname":"Maple Ridge Christian","type":"Independent","street":"12140 203 St","id":"a66d2mvh3xcw","province":"BC","lat":49.22311,"long":-122.656488},"type":"Feature","geometry":{"type":"Point","coordinates":[-122.656488,49.22311]}},{"properties":{"rating":8.3,"city":"North Vancouver","schoolname":"Holy Trinity","type":"Independent","street":"128 27th St W","id":"a66d2mytge7j","province":"BC","lat":49.334301,"long":-123.073295},"type":"Feature","geometry":{"type":"Point","coordinates":[-123.073295,49.334301]}},{"properties":{"rating":8.8,"city":"Vancouver","schoolname":"St Augustine's","type":"Independent","street":"2145 8th Ave W","id":"a66d2mw9lcy2","province":"BC","lat":49.264918,"long":-123.153914},"type":"Feature","geometry":{"type":"Point","coordinates":[-123.153914,49.264918]}},{"properties":{"rating":8.8,"city":"Vancouver","schoolname":"St Mary's","type":"Independent","street":"5239 Joyce St","id":"a66d2mpu3zam","province":"BC","lat":49.237085,"long":-123.033303},"type":"Feature","geometry":{"type":"Point","coordinates":[-123.033303,49.237085]}},{"properties":{"rating":8.4,"city":"Richmond","schoolname":"Richmond Christian","type":"Independent","street":"5240 Woodwards Rd","id":"a66d2mu0137a","province":"BC","lat":49.143813,"long":-123.166374},"type":"Feature","geometry":{"type":"Point","coordinates":[-123.166374,49.143813]}},{"properties":{"rating":8.4,"city":"Burnaby","schoolname":"John Knox Christian","type":"Independent","street":"8260 13th Ave","id":"a66d2mqtm3wq","province":"BC","lat":49.226338,"long":-122.92071},"type":"Feature","geometry":{"type":"Point","coordinates":[-122.92071,49.226338]}},{"properties":{"rating":8.7,"city":"Vancouver","schoolname":"Khalsa (Vancouver)","type":"Independent","street":"5987 Prince Albert St","id":"a66d2myn3ec1","province":"BC","lat":49.229768,"long":-123.088053},"type":"Feature","geometry":{"type":"Point","coordinates":[-123.088053,49.229768]}},{"properties":{"rating":8.7,"city":"North Vancouver","schoolname":"Vancouver Waldorf","type":"Independent","street":"2725 St. Christophers Rd","id":"a66d2mpzl9dy","province":"BC","lat":49.333518,"long":-123.046252},"type":"Feature","geometry":{"type":"Point","coordinates":[-123.046252,49.333518]}},{"properties":{"rating":8.5,"city":"Burnaby","schoolname":"St Michaels","type":"Independent","street":"9387 Holmes St","id":"a66d2mrizvnt","province":"BC","lat":49.235473,"long":-122.897689},"type":"Feature","geometry":{"type":"Point","coordinates":[-122.897689,49.235473]}},{"properties":{"rating":8.6,"city":"Chilliwack","schoolname":"John Calvin","type":"Independent","street":"4268 Stewart Rd","id":"a66d2mrgo7dl","province":"BC","lat":49.078904,"long":-122.067455},"type":"Feature","geometry":{"type":"Point","coordinates":[-122.067455,49.078904]}},{"properties":{"rating":8.6,"city":"Coquitlam","schoolname":"Our Lady Of Fatima","type":"Independent","street":"315 Walker St","id":"a66d2mpmaioh","province":"BC","lat":49.242389,"long":-122.877517},"type":"Feature","geometry":{"type":"Point","coordinates":[-122.877517,49.242389]}},{"properties":{"rating":8.6,"city":"Surrey","schoolname":"Pacific Academy","type":"Independent","street":"10238 168 St","id":"a66d2mqcg2wr","province":"BC","lat":49.188453,"long":-122.756268},"type":"Feature","geometry":{"type":"Point","coordinates":[-122.756268,49.188453]}},{"properties":{"rating":8.5,"city":"Delta","schoolname":"Southpointe","type":"Independent","street":"1741 56 St","id":"a66d2mx8mtm9","province":"BC","lat":49.034446,"long":-123.068794},"type":"Feature","geometry":{"type":"Point","coordinates":[-123.068794,49.034446]}},{"properties":{"rating":8.6,"city":"Vancouver","schoolname":"St Francis Xavier","type":"Independent","street":"428 Great Northern Way","id":"a66d2mnj8umo","province":"BC","lat":49.266701,"long":-123.094283},"type":"Feature","geometry":{"type":"Point","coordinates":[-123.094283,49.266701]}},{"properties":{"rating":8.5,"city":"Delta","schoolname":"Immaculate Conception","type":"Independent","street":"8840 119 St","id":"a66d2mkce65o","province":"BC","lat":49.163562,"long":-122.892426},"type":"Feature","geometry":{"type":"Point","coordinates":[-122.892426,49.163562]}},{"properties":{"rating":6.2,"city":"Vancouver","schoolname":"John Henderson Annex","type":"Public","street":"801 E 54th Ave","id":"a66d2moyg0w6","province":"BC","lat":49.220725,"long":-123.088481},"type":"Feature","geometry":{"type":"Point","coordinates":[-123.088481,49.220725]}},{"properties":{"rating":8.5,"city":"North Vancouver","schoolname":"Blueridge","type":"Public","street":"2650 Bronte Dr","id":"a66d2mv8gs8p","province":"BC","lat":49.324515,"long":-123.002527},"type":"Feature","geometry":{"type":"Point","coordinates":[-123.002527,49.324515]}},{"properties":{"rating":8.6,"city":"West Vancouver","schoolname":"Pauline Johnson","type":"Public","street":"1150 22nd St","id":"a66d2mkw46dg","province":"BC","lat":49.335042,"long":-123.170577},"type":"Feature","geometry":{"type":"Point","coordinates":[-123.170577,49.335042]}},{"properties":{"rating":8.6,"city":"Richmond","schoolname":"James McKinney","type":"Public","street":"10451 Lassam Rd","id":"a66d2mru3cag","province":"BC","lat":49.136825,"long":-123.163848},"type":"Feature","geometry":{"type":"Point","coordinates":[-123.163848,49.136825]}},{"properties":{"rating":8.4,"city":"Surrey","schoolname":"Bayridge","type":"Public","street":"1730 142 St","id":"a66d2mq39fuq","province":"BC","lat":49.033503,"long":-122.828461},"type":"Feature","geometry":{"type":"Point","coordinates":[-122.828461,49.033503]}},{"properties":{"rating":8.4,"city":"Abbotsford","schoolname":"Dr Thomas A Swift","type":"Public","street":"34800 Mierau St","id":"a66d2ms8fu7r","province":"BC","lat":49.06648,"long":-122.260829},"type":"Feature","geometry":{"type":"Point","coordinates":[-122.260829,49.06648]}},{"properties":{"rating":8.4,"city":"Langley","schoolname":"Glenwood","type":"Public","street":"20785 24 Ave","id":"a66d2my2tv2n","province":"BC","lat":49.045899,"long":-122.648184},"type":"Feature","geometry":{"type":"Point","coordinates":[-122.648184,49.045899]}},{"properties":{"rating":8.4,"city":"Langley","schoolname":"James Kennedy","type":"Public","street":"9060 212 St","id":"a66d2myuixg6","province":"BC","lat":49.167237,"long":-122.634776},"type":"Feature","geometry":{"type":"Point","coordinates":[-122.634776,49.167237]}},{"properties":{"rating":8.7,"city":"Delta","schoolname":"Cliff Drive","type":"Public","street":"5025 12 Ave","id":"a66d2mkqe302","province":"BC","lat":49.024856,"long":-123.084586},"type":"Feature","geometry":{"type":"Point","coordinates":[-123.084586,49.024856]}},{"properties":{"rating":8.4,"city":"Coquitlam","schoolname":"Panorama Heights","type":"Public","street":"1455 Johnson St","id":"a66d2mtkcjjd","province":"BC","lat":49.300088,"long":-122.800079},"type":"Feature","geometry":{"type":"Point","coordinates":[-122.800079,49.300088]}},{"properties":{"rating":8.7,"city":"Abbotsford","schoolname":"Abbotsford Schl of Integrated Arts-North Poplar","type":"Public","street":"32041 Marshall Rd","id":"a66d2ms67i76","province":"BC","lat":49.03749,"long":-122.338809},"type":"Feature","geometry":{"type":"Point","coordinates":[-122.338809,49.03749]}},{"properties":{"rating":8.4,"city":"Richmond","schoolname":"Spul'u'kwuks","type":"Public","street":"5999 Blanshard Dr","id":"a66d2mzij4id","province":"BC","lat":49.170239,"long":-123.184007},"type":"Feature","geometry":{"type":"Point","coordinates":[-123.184007,49.170239]}},{"properties":{"rating":8.3,"city":"North Vancouver","schoolname":"Braemar","type":"Public","street":"3600 Mahon Ave","id":"a66d2mt9lwg3","province":"BC","lat":49.341867,"long":-123.079384},"type":"Feature","geometry":{"type":"Point","coordinates":[-123.079384,49.341867]}},{"properties":{"rating":8.3,"city":"Fort Langley","schoolname":"Fort Langley","type":"Public","street":"8877 Bartlett St","id":"a66d2mvn2h43","province":"BC","lat":49.163874,"long":-122.58129},"type":"Feature","geometry":{"type":"Point","coordinates":[-122.58129,49.163874]}},{"properties":{"rating":8.8,"city":"Langley","schoolname":"Alex Hope","type":"Public","street":"21150 85 Ave","id":"a66d2msqwg93","province":"BC","lat":49.15754,"long":-122.636132},"type":"Feature","geometry":{"type":"Point","coordinates":[-122.636132,49.15754]}},{"properties":{"rating":8.3,"city":"Richmond","schoolname":"John G Diefenbaker","type":"Public","street":"4511 Hermitage Dr","id":"a66d2mmu1w6a","province":"BC","lat":49.137356,"long":-123.175295},"type":"Feature","geometry":{"type":"Point","coordinates":[-123.175295,49.137356]}},{"properties":{"rating":8.9,"city":"Langley","schoolname":"West Langley","type":"Public","street":"9403 212 St","id":"a66d2mp2vkyb","province":"BC","lat":49.173389,"long":-122.634766},"type":"Feature","geometry":{"type":"Point","coordinates":[-122.634766,49.173389]}},{"properties":{"rating":8.3,"city":"Port Moody","schoolname":"Mountain Meadows","type":"Public","street":"999 Noons Creek Dr","id":"a66d2muweil4","province":"BC","lat":49.2898,"long":-122.823089},"type":"Feature","geometry":{"type":"Point","coordinates":[-122.823089,49.2898]}},{"properties":{"rating":8.2,"city":"Vancouver","schoolname":"Dr George M Weir","type":"Public","street":"2900 44th Ave E","id":"a66d2mjk3itd","province":"BC","lat":49.230102,"long":-123.045686},"type":"Feature","geometry":{"type":"Point","coordinates":[-123.045686,49.230102]}},{"properties":{"rating":8.9,"city":"Delta","schoolname":"Neilson Grove","type":"Public","street":"5500 Admiral Blvd","id":"a66d2mmjkydm","province":"BC","lat":49.105,"long":-123.073267},"type":"Feature","geometry":{"type":"Point","coordinates":[-123.073267,49.105]}},{"properties":{"rating":8.2,"city":"Vancouver","schoolname":"Jules Quesnel","type":"Public","street":"3050 Crown St","id":"a66d2mr5tbsr","province":"BC","lat":49.259523,"long":-123.193894},"type":"Feature","geometry":{"type":"Point","coordinates":[-123.193894,49.259523]}},{"properties":{"rating":8.9,"city":"West Vancouver","schoolname":"Gleneagles","type":"Public","street":"6350 Marine Dr","id":"a66d2mmzqzu7","province":"BC","lat":49.36778,"long":-123.276907},"type":"Feature","geometry":{"type":"Point","coordinates":[-123.276907,49.36778]}},{"properties":{"rating":8.2,"city":"West Vancouver","schoolname":"Westcot","type":"Public","street":"760 Westcot Rd","id":"a66d2mkid8ae","province":"BC","lat":49.339128,"long":-123.137022},"type":"Feature","geometry":{"type":"Point","coordinates":[-123.137022,49.339128]}},{"properties":{"rating":8.1,"city":"Abbotsford","schoolname":"Auguston Traditional","type":"Public","street":"36367 Stephen Leacock Dr","id":"a66d2mto6d7z","province":"BC","lat":49.082843,"long":-122.221131},"type":"Feature","geometry":{"type":"Point","coordinates":[-122.221131,49.082843]}},{"properties":{"rating":8.1,"city":"Bowen Island","schoolname":"Bowen Island","type":"Public","street":"PO Box 220","id":"a66d2mj6u6qb","province":"BC","lat":49.379868,"long":-123.341911},"type":"Feature","geometry":{"type":"Point","coordinates":[-123.341911,49.379868]}},{"properties":{"rating":8.1,"city":"Coquitlam","schoolname":"Bramblewood","type":"Public","street":"2875 Panorama Dr","id":"a66d2mwyl6ga","province":"BC","lat":49.297633,"long":-122.812158},"type":"Feature","geometry":{"type":"Point","coordinates":[-122.812158,49.297633]}},{"properties":{"rating":8.1,"city":"Surrey","schoolname":"Ocean Cliff","type":"Public","street":"12550 20 Ave","id":"a66d2mm50xbw","province":"BC","lat":49.038496,"long":-122.874973},"type":"Feature","geometry":{"type":"Point","coordinates":[-122.874973,49.038496]}},{"properties":{"rating":8.1,"city":"Surrey","schoolname":"South Meridian","type":"Public","street":"16244 13 Ave","id":"a66d2mvofum6","province":"BC","lat":49.02599,"long":-122.772403},"type":"Feature","geometry":{"type":"Point","coordinates":[-122.772403,49.02599]}},{"properties":{"rating":8.1,"city":"Richmond","schoolname":"Tomekichi Homma","type":"Public","street":"5100 Brunswick Dr","id":"a66d2mktinao","province":"BC","lat":49.123396,"long":-123.168213},"type":"Feature","geometry":{"type":"Point","coordinates":[-123.168213,49.123396]}},{"properties":{"rating":9.0,"city":"Burnaby","schoolname":"Montecito","type":"Public","street":"2176 Duthie Ave","id":"a66d2mqj2lxo","province":"BC","lat":49.264241,"long":-122.953028},"type":"Feature","geometry":{"type":"Point","coordinates":[-122.953028,49.264241]}},{"properties":{"rating":8.0,"city":"Delta","schoolname":"Beach Grove","type":"Public","street":"5955 17a Ave","id":"a66d2mo6a0pr","province":"BC","lat":49.0848,"long":-123.059619},"type":"Feature","geometry":{"type":"Point","coordinates":[-123.059619,49.0848]}},{"properties":{"rating":8.0,"city":"Burnaby","schoolname":"Brentwood Park","type":"Public","street":"1455 Delta Ave","id":"a66d2mkys10c","province":"BC","lat":49.271504,"long":-122.992244},"type":"Feature","geometry":{"type":"Point","coordinates":[-122.992244,49.271504]}},{"properties":{"rating":8.0,"city":"Burnaby","schoolname":"Capitol Hill","type":"Public","street":"350S Holdom Ave","id":"a66d2mury9jr","province":"BC","lat":49.28094,"long":-122.980657},"type":"Feature","geometry":{"type":"Point","coordinates":[-122.980657,49.28094]}},{"properties":{"rating":9.0,"city":"West Vancouver","schoolname":"Irwin Park","type":"Public","street":"2455 Haywood Ave","id":"a66d2mumf038","province":"BC","lat":49.335696,"long":-123.180797},"type":"Feature","geometry":{"type":"Point","coordinates":[-123.180797,49.335696]}},{"properties":{"rating":8.0,"city":"Burnaby","schoolname":"Nelson","type":"Public","street":"4850 Irmin St","id":"a66d2mxgl1ol","province":"BC","lat":49.215595,"long":-122.994853},"type":"Feature","geometry":{"type":"Point","coordinates":[-122.994853,49.215595]}},{"properties":{"rating":9.0,"city":"West Vancouver","schoolname":"Hollyburn","type":"Public","street":"1329 Duchess Ave","id":"a66d2mtqcgau","province":"BC","lat":49.329731,"long":-123.152433},"type":"Feature","geometry":{"type":"Point","coordinates":[-123.152433,49.329731]}},{"properties":{"rating":8.0,"city":"Abbotsford","schoolname":"Sandy Hill","type":"Public","street":"3836 Old Clayburn Rd","id":"a66d2mraqmid","province":"BC","lat":49.07181,"long":-122.249226},"type":"Feature","geometry":{"type":"Point","coordinates":[-122.249226,49.07181]}},{"properties":{"rating":9.0,"city":"Mission","schoolname":"Edwin S Richards","type":"Public","street":"33419 Cherry Ave","id":"a66d2mwsyzxf","province":"BC","lat":49.154707,"long":-122.299107},"type":"Feature","geometry":{"type":"Point","coordinates":[-122.299107,49.154707]}},{"properties":{"rating":8.0,"city":"Vancouver","schoolname":"Trafalgar","type":"Public","street":"4170 Trafalgar St","id":"a66d2mpwzq3x","province":"BC","lat":49.249539,"long":-123.165113},"type":"Feature","geometry":{"type":"Point","coordinates":[-123.165113,49.249539]}},{"properties":{"rating":6.9,"city":"Surrey","schoolname":"Boundary Park","type":"Public","street":"12332 North Boundary Dr","id":"a66d2mogoan9","province":"BC","lat":49.117303,"long":-122.88145},"type":"Feature","geometry":{"type":"Point","coordinates":[-122.88145,49.117303]}},{"properties":{"rating":6.9,"city":"Burnaby","schoolname":"Brantford","type":"Public","street":"6512 Brantford Ave","id":"a66d2mv79vww","province":"BC","lat":49.224848,"long":-122.967562},"type":"Feature","geometry":{"type":"Point","coordinates":[-122.967562,49.224848]}},{"properties":{"rating":6.9,"city":"New Westminster","schoolname":"Connaught Heights","type":"Public","street":"2201 London St","id":"a66d2ml4u2ra","province":"BC","lat":49.202683,"long":-122.954868},"type":"Feature","geometry":{"type":"Point","coordinates":[-122.954868,49.202683]}},{"properties":{"rating":6.9,"city":"Delta","schoolname":"English Bluff","type":"Public","street":"402 English Bluff Rd","id":"a66d2mkxxe1f","province":"BC","lat":49.009746,"long":-123.089746},"type":"Feature","geometry":{"type":"Point","coordinates":[-123.089746,49.009746]}},{"properties":{"rating":6.9,"city":"Richmond","schoolname":"Garden City","type":"Public","street":"8311 Garden City Rd","id":"a66d2mpxlqv4","province":"BC","lat":49.152794,"long":-123.125415},"type":"Feature","geometry":{"type":"Point","coordinates":[-123.125415,49.152794]}},{"properties":{"rating":6.9,"city":"Richmond","schoolname":"Henry Anderson","type":"Public","street":"9460 Alberta Rd","id":"a66d2myu3ygw","province":"BC","lat":49.165628,"long":-123.119534},"type":"Feature","geometry":{"type":"Point","coordinates":[-123.119534,49.165628]}},{"properties":{"rating":6.9,"city":"Abbotsford","schoolname":"Jackson","type":"Public","street":"33165 King Rd","id":"a66d2mlyh87e","province":"BC","lat":49.031128,"long":-122.305055},"type":"Feature","geometry":{"type":"Point","coordinates":[-122.305055,49.031128]}},{"properties":{"rating":6.9,"city":"Vancouver","schoolname":"Kerrisdale","type":"Public","street":"5555 Carnarvon St","id":"a66d2mtrbesc","province":"BC","lat":49.236159,"long":-123.1732},"type":"Feature","geometry":{"type":"Point","coordinates":[-123.1732,49.236159]}},{"properties":{"rating":9.0,"city":"West Vancouver","schoolname":"Caulfeild","type":"Public","street":"4685 Keith Rd","id":"a66d2msac7zi","province":"BC","lat":49.343887,"long":-123.251359},"type":"Feature","geometry":{"type":"Point","coordinates":[-123.251359,49.343887]}},{"properties":{"rating":6.9,"city":"Richmond","schoolname":"Manoah Steves","type":"Public","street":"10111 Fourth Ave","id":"a66d2mtykk3j","province":"BC","lat":49.140056,"long":-123.186949},"type":"Feature","geometry":{"type":"Point","coordinates":[-123.186949,49.140056]}},{"properties":{"rating":9.1,"city":"Langley","schoolname":"Langley Fundamental","type":"Public","street":"21789 50 Ave","id":"a66d2mtphrz9","province":"BC","lat":49.093213,"long":-122.619633},"type":"Feature","geometry":{"type":"Point","coordinates":[-122.619633,49.093213]}},{"properties":{"rating":6.9,"city":"Delta","schoolname":"Pebble Hill","type":"Public","street":"246 52a St","id":"a66d2mjbztb2","province":"BC","lat":49.0848,"long":-123.059619},"type":"Feature","geometry":{"type":"Point","coordinates":[-123.059619,49.0848]}},{"properties":{"rating":6.9,"city":"Surrey","schoolname":"Ray Shepherd","type":"Public","street":"1650 136 St","id":"a66d2mjd9zvo","province":"BC","lat":49.032303,"long":-122.845294},"type":"Feature","geometry":{"type":"Point","coordinates":[-122.845294,49.032303]}},{"properties":{"rating":9.3,"city":"West Vancouver","schoolname":"Ridgeview","type":"Public","street":"1250 Mathers Ave","id":"a66d2ml6c40t","province":"BC","lat":49.337987,"long":-123.149701},"type":"Feature","geometry":{"type":"Point","coordinates":[-123.149701,49.337987]}},{"properties":{"rating":9.4,"city":"Burnaby","schoolname":"Buckingham","type":"Public","street":"6066 Buckingham Ave","id":"a66d2my3sj4o","province":"BC","lat":49.232916,"long":-122.955137},"type":"Feature","geometry":{"type":"Point","coordinates":[-122.955137,49.232916]}},{"properties":{"rating":9.5,"city":"Abbotsford","schoolname":"King Traditional","type":"Public","street":"28776 King Rd","id":"a66d2mntxc5q","province":"BC","lat":49.031064,"long":-122.429355},"type":"Feature","geometry":{"type":"Point","coordinates":[-122.429355,49.031064]}},{"properties":{"rating":6.9,"city":"Abbotsford","schoolname":"Ten Broeck","type":"Public","street":"2580 Stanley St","id":"a66d2mqw36vp","province":"BC","lat":49.04877,"long":-122.344807},"type":"Feature","geometry":{"type":"Point","coordinates":[-122.344807,49.04877]}},{"properties":{"rating":6.8,"city":"Anmore","schoolname":"Anmore","type":"Public","street":"30 Elementary Rd","id":"a66d2mloqgnb","province":"BC","lat":49.311541,"long":-122.858283},"type":"Feature","geometry":{"type":"Point","coordinates":[-122.858283,49.311541]}},{"properties":{"rating":6.8,"city":"North Vancouver","schoolname":"Canyon Heights","type":"Public","street":"4501 Highland Blvd","id":"a66d2msbse3k","province":"BC","lat":49.352814,"long":-123.095132},"type":"Feature","geometry":{"type":"Point","coordinates":[-123.095132,49.352814]}},{"properties":{"rating":6.8,"city":"Chilliwack","schoolname":"F G Leary","type":"Public","street":"9320 Walden St","id":"a66d2mjwv8bh","province":"BC","lat":49.170577,"long":-121.921326},"type":"Feature","geometry":{"type":"Point","coordinates":[-121.921326,49.170577]}},{"properties":{"rating":6.8,"city":"New Westminster","schoolname":"Herbert Spencer","type":"Public","street":"605 Second St","id":"a66d2mx0j87z","province":"BC","lat":49.216841,"long":-122.914194},"type":"Feature","geometry":{"type":"Point","coordinates":[-122.914194,49.216841]}},{"properties":{"rating":6.8,"city":"Abbotsford","schoolname":"John MacLure","type":"Public","street":"2990 Oriole Cres","id":"a66d2ml2ex56","province":"BC","lat":49.056429,"long":-122.320722},"type":"Feature","geometry":{"type":"Point","coordinates":[-122.320722,49.056429]}},{"properties":{"rating":6.8,"city":"Vancouver","schoolname":"John Norquay","type":"Public","street":"4710 Slocan St","id":"a66d2mm84dpa","province":"BC","lat":49.2422,"long":-123.051635},"type":"Feature","geometry":{"type":"Point","coordinates":[-123.051635,49.2422]}},{"properties":{"rating":6.8,"city":"Richmond","schoolname":"Kingswood","type":"Public","street":"11511 King Rd","id":"a66d2mv3j636","province":"BC","lat":49.144526,"long":-123.095688},"type":"Feature","geometry":{"type":"Point","coordinates":[-123.095688,49.144526]}},{"properties":{"rating":6.8,"city":"North Vancouver","schoolname":"Lynnmour","type":"Public","street":"800 Forsman Ave","id":"a66d2mk8t2mj","province":"BC","lat":49.313638,"long":-123.030728},"type":"Feature","geometry":{"type":"Point","coordinates":[-123.030728,49.313638]}},{"properties":{"rating":6.8,"city":"Coquitlam","schoolname":"Nestor","type":"Public","street":"1266 Nestor St","id":"a66d2ms13obc","province":"BC","lat":49.290329,"long":-122.77853},"type":"Feature","geometry":{"type":"Point","coordinates":[-122.77853,49.290329]}},{"properties":{"rating":6.8,"city":"Abbotsford","schoolname":"Ross","type":"Public","street":"2451 Ross Rd","id":"a66d2mnew3ac","province":"BC","lat":49.047236,"long":-122.403959},"type":"Feature","geometry":{"type":"Point","coordinates":[-122.403959,49.047236]}},{"properties":{"rating":6.8,"city":"North Vancouver","schoolname":"Ross Road","type":"Public","street":"2875 Bushnell Pl","id":"a66d2mzgxllu","province":"BC","lat":49.335019,"long":-123.030301},"type":"Feature","geometry":{"type":"Point","coordinates":[-123.030301,49.335019]}},{"properties":{"rating":6.8,"city":"Vancouver","schoolname":"Sir Wilfred Grenfell","type":"Public","street":"3323 Wellington Ave","id":"a66d2muc8ed2","province":"BC","lat":49.242268,"long":-123.035076},"type":"Feature","geometry":{"type":"Point","coordinates":[-123.035076,49.242268]}},{"properties":{"rating":6.8,"city":"Burnaby","schoolname":"South Slope","type":"Public","street":"4446 Watling St","id":"a66d2mytwb66","province":"BC","lat":49.216501,"long":-123.004127},"type":"Feature","geometry":{"type":"Point","coordinates":[-123.004127,49.216501]}},{"properties":{"rating":6.7,"city":"Langley","schoolname":"Belmont","type":"Public","street":"20390 40 Ave","id":"a66d2mjh9xht","province":"BC","lat":49.074557,"long":-122.658987},"type":"Feature","geometry":{"type":"Point","coordinates":[-122.658987,49.074557]}},{"properties":{"rating":6.7,"city":"North Vancouver","schoolname":"Brooksbank","type":"Public","street":"980 13th St E","id":"a66d2mmd97lq","province":"BC","lat":49.31979,"long":-123.054649},"type":"Feature","geometry":{"type":"Point","coordinates":[-123.054649,49.31979]}},{"properties":{"rating":6.7,"city":"Surrey","schoolname":"Dr F D Sinclair","type":"Public","street":"7480 128 St","id":"a66d2mx1rizk","province":"BC","lat":49.14106,"long":-122.867929},"type":"Feature","geometry":{"type":"Point","coordinates":[-122.867929,49.14106]}},{"properties":{"rating":6.7,"city":"Abbotsford","schoolname":"Harry Sayers","type":"Public","street":"31321 Blueridge Dr","id":"a66d2mz7u2ho","province":"BC","lat":49.067739,"long":-122.356329},"type":"Feature","geometry":{"type":"Point","coordinates":[-122.356329,49.067739]}},{"properties":{"rating":6.7,"city":"Burnaby","schoolname":"Lochdale","type":"Public","street":"6990 Aubrey St","id":"a66d2mlonhod","province":"BC","lat":49.273213,"long":-122.959671},"type":"Feature","geometry":{"type":"Point","coordinates":[-122.959671,49.273213]}},{"properties":{"rating":6.7,"city":"Richmond","schoolname":"Tomsett","type":"Public","street":"9671 Odlin Rd","id":"a66d2myppmu8","province":"BC","lat":49.181918,"long":-123.11718},"type":"Feature","geometry":{"type":"Point","coordinates":[-123.11718,49.181918]}},{"properties":{"rating":6.7,"city":"Chilliwack","schoolname":"Tyson","type":"Public","street":"45170 South Sumas Rd","id":"a66d2mrhjzrr","province":"BC","lat":49.11838,"long":-121.976089},"type":"Feature","geometry":{"type":"Point","coordinates":[-121.976089,49.11838]}},{"properties":{"rating":6.7,"city":"Langley","schoolname":"Willoughby","type":"Public","street":"20766 80 Ave","id":"a66d2mlq8nvm","province":"BC","lat":49.147895,"long":-122.647562},"type":"Feature","geometry":{"type":"Point","coordinates":[-122.647562,49.147895]}},{"properties":{"rating":6.6,"city":"North Vancouver","schoolname":"Eastview","type":"Public","street":"1801 Mountain Hwy","id":"a66d2moqx80t","province":"BC","lat":49.325076,"long":-123.038542},"type":"Feature","geometry":{"type":"Point","coordinates":[-123.038542,49.325076]}},{"properties":{"rating":6.6,"city":"Chilliwack","schoolname":"Fraser Valley Distance Ed","type":"Public","street":"49520 Prairie Central Rd","id":"a66d2mooty0b","province":"BC","lat":49.147049,"long":-121.856078},"type":"Feature","geometry":{"type":"Point","coordinates":[-121.856078,49.147049]}},{"properties":{"rating":6.6,"city":"Surrey","schoolname":"H T Thrift","type":"Public","street":"1739 148 St","id":"a66d2mn2ivw2","province":"BC","lat":49.033842,"long":-122.812294},"type":"Feature","geometry":{"type":"Point","coordinates":[-122.812294,49.033842]}},{"properties":{"rating":6.6,"city":"Surrey","schoolname":"Hillcrest","type":"Public","street":"18599 65 Ave","id":"a66d2mkod2fi","province":"BC","lat":49.120772,"long":-122.707126},"type":"Feature","geometry":{"type":"Point","coordinates":[-122.707126,49.120772]}},{"properties":{"rating":6.6,"city":"Burnaby","schoolname":"Inman","type":"Public","street":"3963 Brandon St","id":"a66d2mnl3mzo","province":"BC","lat":49.238947,"long":-123.016805},"type":"Feature","geometry":{"type":"Point","coordinates":[-123.016805,49.238947]}},{"properties":{"rating":6.6,"city":"Richmond","schoolname":"James Gilmore","type":"Public","street":"8380 Elsmore Rd","id":"a66d2mq0tg99","province":"BC","lat":49.151917,"long":-123.188181},"type":"Feature","geometry":{"type":"Point","coordinates":[-123.188181,49.151917]}},{"properties":{"rating":6.6,"city":"Surrey","schoolname":"Laronde","type":"Public","street":"1880 Laronde Dr","id":"a66d2mz6h195","province":"BC","lat":49.035925,"long":-122.859196},"type":"Feature","geometry":{"type":"Point","coordinates":[-122.859196,49.035925]}},{"properties":{"rating":6.6,"city":"North Vancouver","schoolname":"Larson","type":"Public","street":"2605 Larson Rd","id":"a66d2mux9sii","province":"BC","lat":49.33341,"long":-123.084658},"type":"Feature","geometry":{"type":"Point","coordinates":[-123.084658,49.33341]}},{"properties":{"rating":6.6,"city":"Delta","schoolname":"Port Guichon","type":"Public","street":"4381 46a St","id":"a66d2mt213f1","province":"BC","lat":49.0848,"long":-123.059619},"type":"Feature","geometry":{"type":"Point","coordinates":[-123.059619,49.0848]}},{"properties":{"rating":6.6,"city":"Richmond","schoolname":"Samuel Brighouse","type":"Public","street":"6800 Azure Rd","id":"a66d2mq2aykd","province":"BC","lat":49.16606,"long":-123.149828},"type":"Feature","geometry":{"type":"Point","coordinates":[-123.149828,49.16606]}},{"properties":{"rating":6.6,"city":"Chilliwack","schoolname":"Strathcona","type":"Public","street":"46375 Strathcona Rd","id":"a66d2mk1qtmi","province":"BC","lat":49.186892,"long":-121.941226},"type":"Feature","geometry":{"type":"Point","coordinates":[-121.941226,49.186892]}},{"properties":{"rating":9.6,"city":"West Vancouver","schoolname":"Chartwell","type":"Public","street":"1300 Chartwell Dr","id":"a66d2moujd44","province":"BC","lat":49.346786,"long":-123.153515},"type":"Feature","geometry":{"type":"Point","coordinates":[-123.153515,49.346786]}},{"properties":{"rating":6.6,"city":"Surrey","schoolname":"Walnut Road","type":"Public","street":"16152 82 Ave","id":"a66d2mppt9oy","province":"BC","lat":49.151766,"long":-122.774516},"type":"Feature","geometry":{"type":"Point","coordinates":[-122.774516,49.151766]}},{"properties":{"rating":6.5,"city":"Burnaby","schoolname":"Aubrey","type":"Public","street":"1075 Stratford Ave","id":"a66d2mpkgqco","province":"BC","lat":49.274432,"long":-122.977061},"type":"Feature","geometry":{"type":"Point","coordinates":[-122.977061,49.274432]}},{"properties":{"rating":6.5,"city":"North Vancouver","schoolname":"Boundary","type":"Public","street":"750 26th St E","id":"a66d2mn64l9y","province":"BC","lat":49.3331,"long":-123.060759},"type":"Feature","geometry":{"type":"Point","coordinates":[-123.060759,49.3331]}},{"properties":{"rating":6.5,"city":"Surrey","schoolname":"Brookside","type":"Public","street":"8555 142A St","id":"a66d2mmgixkr","province":"BC","lat":49.10518,"long":-122.830217},"type":"Feature","geometry":{"type":"Point","coordinates":[-122.830217,49.10518]}},{"properties":{"rating":6.5,"city":"Coquitlam","schoolname":"Cape Horn","type":"Public","street":"155 Finnigan St","id":"a66d2mxl1uyu","province":"BC","lat":49.234535,"long":-122.836565},"type":"Feature","geometry":{"type":"Point","coordinates":[-122.836565,49.234535]}},{"properties":{"rating":6.5,"city":"Abbotsford","schoolname":"Dave Kandal","type":"Public","street":"3551 Crestview Ave","id":"a66d2mnoiazj","province":"BC","lat":49.066678,"long":-122.377618},"type":"Feature","geometry":{"type":"Point","coordinates":[-122.377618,49.066678]}},{"properties":{"rating":6.5,"city":"Burnaby","schoolname":"Gilpin","type":"Public","street":"5490 Eglinton St","id":"a66d2mrkpm1h","province":"BC","lat":49.243682,"long":-122.984278},"type":"Feature","geometry":{"type":"Point","coordinates":[-122.984278,49.243682]}},{"properties":{"rating":6.5,"city":"Delta","schoolname":"Gray","type":"Public","street":"10855 80 Ave","id":"a66d2msp4j5c","province":"BC","lat":49.148656,"long":-122.922502},"type":"Feature","geometry":{"type":"Point","coordinates":[-122.922502,49.148656]}},{"properties":{"rating":6.5,"city":"Abbotsford","schoolname":"Margaret Stenersen","type":"Public","street":"3060 Old Clayburn Rd","id":"a66d2mj9arty","province":"BC","lat":49.057812,"long":-122.269744},"type":"Feature","geometry":{"type":"Point","coordinates":[-122.269744,49.057812]}},{"properties":{"rating":6.5,"city":"Richmond","schoolname":"Mitchell","type":"Public","street":"12091 Cambie Rd","id":"a66d2ml32joo","province":"BC","lat":49.184766,"long":-123.089378},"type":"Feature","geometry":{"type":"Point","coordinates":[-123.089378,49.184766]}},{"properties":{"rating":9.8,"city":"Abbotsford","schoolname":"Matsqui","type":"Public","street":"33661 Elizabeth Ave","id":"a66d2mx7pfsq","province":"BC","lat":49.105556,"long":-122.292307},"type":"Feature","geometry":{"type":"Point","coordinates":[-122.292307,49.105556]}},{"properties":{"rating":6.4,"city":"Abbotsford","schoolname":"Abbotsford Virtual","type":"Public","street":"33952 Pine St","id":"a66d2mp29x7c","province":"BC","lat":49.051171,"long":-122.285033},"type":"Feature","geometry":{"type":"Point","coordinates":[-122.285033,49.051171]}},{"properties":{"rating":6.4,"city":"North Vancouver","schoolname":"Capilano","type":"Public","street":"1230 20th St W","id":"a66d2mlr3feu","province":"BC","lat":49.3275,"long":-123.097839},"type":"Feature","geometry":{"type":"Point","coordinates":[-123.097839,49.3275]}},{"properties":{"rating":6.4,"city":"Port Coquitlam","schoolname":"Castle Park","type":"Public","street":"1144 Confederation Dr","id":"a66d2mtrft9g","province":"BC","lat":49.233468,"long":-122.785412},"type":"Feature","geometry":{"type":"Point","coordinates":[-122.785412,49.233468]}},{"properties":{"rating":6.4,"city":"Surrey","schoolname":"Chimney Hill","type":"Public","street":"14755 74 Ave","id":"a66d2mv4pngd","province":"BC","lat":49.137566,"long":-122.813401},"type":"Feature","geometry":{"type":"Point","coordinates":[-122.813401,49.137566]}},{"properties":{"rating":6.4,"city":"Surrey","schoolname":"Coast Meridian","type":"Public","street":"8222 168A St","id":"a66d2mpvcfln","province":"BC","lat":49.10518,"long":-122.830217},"type":"Feature","geometry":{"type":"Point","coordinates":[-122.830217,49.10518]}},{"properties":{"rating":6.4,"city":"Abbotsford","schoolname":"Dormick Park","type":"Public","street":"32161 Dormick Ave","id":"a66d2mjkh0he","province":"BC","lat":49.043992,"long":-122.333098},"type":"Feature","geometry":{"type":"Point","coordinates":[-122.333098,49.043992]}},{"properties":{"rating":6.4,"city":"Vancouver","schoolname":"Edith Cavell","type":"Public","street":"500 20th Ave W","id":"a66d2mlx9hlr","province":"BC","lat":49.253098,"long":-123.11533},"type":"Feature","geometry":{"type":"Point","coordinates":[-123.11533,49.253098]}},{"properties":{"rating":6.4,"city":"Port Moody","schoolname":"Glenayre","type":"Public","street":"495 Glencoe Dr","id":"a66d2mtvscnf","province":"BC","lat":49.274442,"long":-122.887955},"type":"Feature","geometry":{"type":"Point","coordinates":[-122.887955,49.274442]}},{"properties":{"rating":6.4,"city":"Vancouver","schoolname":"J.W. Sexsmith","type":"Public","street":"7455 Ontario St","id":"a66d2mkxrf8p","province":"BC","lat":49.217233,"long":-123.106441},"type":"Feature","geometry":{"type":"Point","coordinates":[-123.106441,49.217233]}},{"properties":{"rating":6.4,"city":"Burnaby","schoolname":"Parkcrest","type":"Public","street":"6055 Halifax St","id":"a66d2mms0hiz","province":"BC","lat":49.268196,"long":-122.976323},"type":"Feature","geometry":{"type":"Point","coordinates":[-122.976323,49.268196]}},{"properties":{"rating":6.4,"city":"Pitt Meadows","schoolname":"Pitt Meadows","type":"Public","street":"11941 Harris Rd","id":"a66d2mocvv7e","province":"BC","lat":49.219912,"long":-122.68982},"type":"Feature","geometry":{"type":"Point","coordinates":[-122.68982,49.219912]}},{"properties":{"rating":6.4,"city":"Coquitlam","schoolname":"Ranch Park","type":"Public","street":"2701 Spuraway Ave","id":"a66d2mqj7qvj","province":"BC","lat":49.264339,"long":-122.813193},"type":"Feature","geometry":{"type":"Point","coordinates":[-122.813193,49.264339]}},{"properties":{"rating":6.4,"city":"Mission","schoolname":"Silverdale","type":"Public","street":"29715 Donatelli Ave","id":"a66d2mtqepu1","province":"BC","lat":49.162377,"long":-122.400292},"type":"Feature","geometry":{"type":"Point","coordinates":[-122.400292,49.162377]}},{"properties":{"rating":6.4,"city":"North Vancouver","schoolname":"Upper Lynn","type":"Public","street":"1540 Coleman St","id":"a66d2mj6fjfo","province":"BC","lat":49.350869,"long":-123.030528},"type":"Feature","geometry":{"type":"Point","coordinates":[-123.030528,49.350869]}},{"properties":{"rating":6.4,"city":"Richmond","schoolname":"William Bridge","type":"Public","street":"10400 Leonard Rd","id":"a66d2msyu3y5","province":"BC","lat":49.136961,"long":-123.133641},"type":"Feature","geometry":{"type":"Point","coordinates":[-123.133641,49.136961]}},{"properties":{"rating":6.4,"city":"Surrey","schoolname":"Woodland Park","type":"Public","street":"9025 158 St","id":"a66d2mvx9u8f","province":"BC","lat":49.166935,"long":-122.784707},"type":"Feature","geometry":{"type":"Point","coordinates":[-122.784707,49.166935]}},{"properties":{"rating":6.3,"city":"Abbotsford","schoolname":"Bradner","type":"Public","street":"5291 Bradner Rd","id":"a66d2mrt1bst","province":"BC","lat":49.098193,"long":-122.426663},"type":"Feature","geometry":{"type":"Point","coordinates":[-122.426663,49.098193]}},{"properties":{"rating":6.3,"city":"Vancouver","schoolname":"David Livingstone","type":"Public","street":"315 23rd Ave E","id":"a66d2mlp6nuk","province":"BC","lat":49.250388,"long":-123.098118},"type":"Feature","geometry":{"type":"Point","coordinates":[-123.098118,49.250388]}},{"properties":{"rating":6.3,"city":"Surrey","schoolname":"Don Christian","type":"Public","street":"6256 184 St","id":"a66d2mvkg2qm","province":"BC","lat":49.11879,"long":-122.712569},"type":"Feature","geometry":{"type":"Point","coordinates":[-122.712569,49.11879]}},{"properties":{"rating":6.3,"city":"Vancouver","schoolname":"Dr A R Lord","type":"Public","street":"555 Lillooet St","id":"a66d2muris9r","province":"BC","lat":49.279578,"long":-123.038956},"type":"Feature","geometry":{"type":"Point","coordinates":[-123.038956,49.279578]}},{"properties":{"rating":6.3,"city":"North Vancouver","schoolname":"Fromme","type":"Public","street":"3657 Fromme Rd","id":"a66d2mtdylpo","province":"BC","lat":49.342783,"long":-123.043773},"type":"Feature","geometry":{"type":"Point","coordinates":[-123.043773,49.342783]}},{"properties":{"rating":6.3,"city":"Surrey","schoolname":"Frost Road","type":"Public","street":"8606 162 St","id":"a66d2mnlwsqd","province":"BC","lat":49.159309,"long":-122.773028},"type":"Feature","geometry":{"type":"Point","coordinates":[-122.773028,49.159309]}},{"properties":{"rating":6.3,"city":"Coquitlam","schoolname":"Glen","type":"Public","street":"3064 Glen Dr","id":"a66d2mvwm6zs","province":"BC","lat":49.282434,"long":-122.789835},"type":"Feature","geometry":{"type":"Point","coordinates":[-122.789835,49.282434]}},{"properties":{"rating":6.3,"city":"Abbotsford","schoolname":"Godson","type":"Public","street":"33130 Bevan Ave","id":"a66d2mqtxkcl","province":"BC","lat":49.041792,"long":-122.306566},"type":"Feature","geometry":{"type":"Point","coordinates":[-122.306566,49.041792]}},{"properties":{"rating":6.3,"city":"Coquitlam","schoolname":"Harbour View","type":"Public","street":"960 Lillian St","id":"a66d2muugs1l","province":"BC","lat":49.268851,"long":-122.860385},"type":"Feature","geometry":{"type":"Point","coordinates":[-122.860385,49.268851]}},{"properties":{"rating":6.3,"city":"Delta","schoolname":"Hawthorne","type":"Public","street":"5160 Central Ave","id":"a66d2mlrw33q","province":"BC","lat":49.096791,"long":-123.073206},"type":"Feature","geometry":{"type":"Point","coordinates":[-123.073206,49.096791]}},{"properties":{"rating":6.3,"city":"Richmond","schoolname":"Howard de Beck","type":"Public","street":"8600 Ash St","id":"a66d2mnh9jah","province":"BC","lat":49.150838,"long":-123.119568},"type":"Feature","geometry":{"type":"Point","coordinates":[-123.119568,49.150838]}},{"properties":{"rating":6.3,"city":"Burnaby","schoolname":"Kitchener","type":"Public","street":"1351S Gilmore Ave","id":"a66d2mv3utlu","province":"BC","lat":49.27262,"long":-123.014374},"type":"Feature","geometry":{"type":"Point","coordinates":[-123.014374,49.27262]}},{"properties":{"rating":6.3,"city":"Maple Ridge","schoolname":"Laity View","type":"Public","street":"21023 123 Ave","id":"a66d2mspxqas","province":"BC","lat":49.226496,"long":-122.638674},"type":"Feature","geometry":{"type":"Point","coordinates":[-122.638674,49.226496]}},{"properties":{"rating":6.3,"city":"Abbotsford","schoolname":"Mountain","type":"Public","street":"2299 Mountain Dr","id":"a66d2mvwu1hp","province":"BC","lat":49.042914,"long":-122.233642},"type":"Feature","geometry":{"type":"Point","coordinates":[-122.233642,49.042914]}},{"properties":{"rating":6.3,"city":"Chilliwack","schoolname":"Promontory Heights","type":"Public","street":"46200 Stoneview Dr","id":"a66d2mrpdg2h","province":"BC","lat":49.101312,"long":-121.945615},"type":"Feature","geometry":{"type":"Point","coordinates":[-121.945615,49.101312]}},{"properties":{"rating":6.3,"city":"Vancouver","schoolname":"Queen Elizabeth","type":"Public","street":"4102 16th Ave W","id":"a66d2mnx1qh7","province":"BC","lat":49.257919,"long":-123.19669},"type":"Feature","geometry":{"type":"Point","coordinates":[-123.19669,49.257919]}},{"properties":{"rating":6.3,"city":"Surrey","schoolname":"Semiahmoo Trail","type":"Public","street":"3040 145A St","id":"a66d2msjyhdi","province":"BC","lat":49.10518,"long":-122.830217},"type":"Feature","geometry":{"type":"Point","coordinates":[-122.830217,49.10518]}},{"properties":{"rating":6.3,"city":"Langley","schoolname":"Uplands","type":"Public","street":"4471 207A St","id":"a66d2mu3z2yd","province":"BC","lat":49.104124,"long":-122.656569},"type":"Feature","geometry":{"type":"Point","coordinates":[-122.656569,49.104124]}},{"properties":{"rating":6.3,"city":"Abbotsford","schoolname":"Upper Sumas","type":"Public","street":"36321 Vye Rd","id":"a66d2mt2wfn1","province":"BC","lat":49.01724,"long":-122.218531},"type":"Feature","geometry":{"type":"Point","coordinates":[-122.218531,49.01724]}},{"properties":{"rating":6.3,"city":"Chilliwack","schoolname":"Yarrow","type":"Public","street":"4605 Wilson Rd","id":"a66d2mlaor8m","province":"BC","lat":49.085794,"long":-122.045666},"type":"Feature","geometry":{"type":"Point","coordinates":[-122.045666,49.085794]}},{"properties":{"rating":6.2,"city":"Port Coquitlam","schoolname":"Birchland","type":"Public","street":"1331 Fraser Ave","id":"a66d2mj9fsr0","province":"BC","lat":49.269063,"long":-122.75135},"type":"Feature","geometry":{"type":"Point","coordinates":[-122.75135,49.269063]}},{"properties":{"rating":6.2,"city":"Maple Ridge","schoolname":"Blue Mountain","type":"Public","street":"12153 248 St","id":"a66d2mn1hluy","province":"BC","lat":49.222687,"long":-122.534969},"type":"Feature","geometry":{"type":"Point","coordinates":[-122.534969,49.222687]}},{"properties":{"rating":6.2,"city":"Surrey","schoolname":"Dogwood","type":"Public","street":"10752 157 St","id":"a66d2mv862i8","province":"BC","lat":49.198073,"long":-122.786792},"type":"Feature","geometry":{"type":"Point","coordinates":[-122.786792,49.198073]}},{"properties":{"rating":6.2,"city":"Richmond","schoolname":"Donald E McKay","type":"Public","street":"7360 Lombard Rd","id":"a66d2mvuna6h","province":"BC","lat":49.158715,"long":-123.166803},"type":"Feature","geometry":{"type":"Point","coordinates":[-123.166803,49.158715]}},{"properties":{"rating":6.2,"city":"Chilliwack","schoolname":"East Chilliwack","type":"Public","street":"49190 Chilliwack Central Rd","id":"a66d2mpihw71","province":"BC","lat":49.161545,"long":-121.86232},"type":"Feature","geometry":{"type":"Point","coordinates":[-121.86232,49.161545]}},{"properties":{"rating":6.2,"city":"Vancouver","schoolname":"General Gordon","type":"Public","street":"2896 6th Ave W","id":"a66d2my6bv35","province":"BC","lat":49.266541,"long":-123.170694},"type":"Feature","geometry":{"type":"Point","coordinates":[-123.170694,49.266541]}},{"properties":{"rating":6.2,"city":"Maple Ridge","schoolname":"Golden Ears","type":"Public","street":"23124 118 Ave","id":"a66d2myaql4s","province":"BC","lat":49.216374,"long":-122.581724},"type":"Feature","geometry":{"type":"Point","coordinates":[-122.581724,49.216374]}},{"properties":{"rating":6.2,"city":"Mission","schoolname":"Hillside","type":"Public","street":"33621 Best Ave","id":"a66d2mxeknys","province":"BC","lat":49.151096,"long":-122.29313},"type":"Feature","geometry":{"type":"Point","coordinates":[-122.29313,49.151096]}},{"properties":{"rating":8.5,"city":"North Vancouver","schoolname":"Highlands","type":"Public","street":"3150 Colwood Dr","id":"a66d2mot74qz","province":"BC","lat":49.338087,"long":-123.097696},"type":"Feature","geometry":{"type":"Point","coordinates":[-123.097696,49.338087]}},{"properties":{"rating":6.2,"city":"New Westminster","schoolname":"John Robson","type":"Public","street":"120 Eighth St","id":"a66d2mnhsqv4","province":"BC","lat":49.203903,"long":-122.915115},"type":"Feature","geometry":{"type":"Point","coordinates":[-122.915115,49.203903]}},{"properties":{"rating":6.2,"city":"Vancouver","schoolname":"Nootka","type":"Public","street":"3375 Nootka St","id":"a66d2mklo5fz","province":"BC","lat":49.254123,"long":-123.041672},"type":"Feature","geometry":{"type":"Point","coordinates":[-123.041672,49.254123]}},{"properties":{"rating":6.2,"city":"Vancouver","schoolname":"Renfrew","type":"Public","street":"3315 22nd Ave E","id":"a66d2my6yta1","province":"BC","lat":49.250741,"long":-123.033143},"type":"Feature","geometry":{"type":"Point","coordinates":[-123.033143,49.250741]}},{"properties":{"rating":6.2,"city":"Richmond","schoolname":"Thomas Kidd","type":"Public","street":"10851 Shell Rd","id":"a66d2mt402i6","province":"BC","lat":49.135233,"long":-123.103328},"type":"Feature","geometry":{"type":"Point","coordinates":[-123.103328,49.135233]}},{"properties":{"rating":6.1,"city":"Maple Ridge","schoolname":"Albion","type":"Public","street":"PO Box 1077 STN Albion","id":"a66d2mm7be50","province":"BC","lat":49.216845,"long":-122.605829},"type":"Feature","geometry":{"type":"Point","coordinates":[-122.605829,49.216845]}},{"properties":{"rating":6.1,"city":"Delta","schoolname":"Annieville","type":"Public","street":"9240 112 St","id":"a66d2mx110bo","province":"BC","lat":49.170886,"long":-122.910842},"type":"Feature","geometry":{"type":"Point","coordinates":[-122.910842,49.170886]}},{"properties":{"rating":6.1,"city":"Surrey","schoolname":"Bothwell","type":"Public","street":"17070 102 Ave","id":"a66d2mxod574","province":"BC","lat":49.187724,"long":-122.748176},"type":"Feature","geometry":{"type":"Point","coordinates":[-122.748176,49.187724]}},{"properties":{"rating":6.1,"city":"Maple Ridge","schoolname":"Kanaka Creek","type":"Public","street":"11120 234a St","id":"a66d2mylv84v","province":"BC","lat":49.216845,"long":-122.605829},"type":"Feature","geometry":{"type":"Point","coordinates":[-122.605829,49.216845]}},{"properties":{"rating":6.1,"city":"Richmond","schoolname":"Kathleen McNeely","type":"Public","street":"12440 Woodhead Rd","id":"a66d2mnw4hd6","province":"BC","lat":49.182154,"long":-123.087166},"type":"Feature","geometry":{"type":"Point","coordinates":[-123.087166,49.182154]}},{"properties":{"rating":6.1,"city":"Port Moody","schoolname":"Pleasantside","type":"Public","street":"195 Barber St","id":"a66d2mvko6x7","province":"BC","lat":49.2942,"long":-122.855699},"type":"Feature","geometry":{"type":"Point","coordinates":[-122.855699,49.2942]}},{"properties":{"rating":6.1,"city":"Richmond","schoolname":"Robert J Tait","type":"Public","street":"10071 Finlayson Dr","id":"a66d2mz32m99","province":"BC","lat":49.195911,"long":-123.112167},"type":"Feature","geometry":{"type":"Point","coordinates":[-123.112167,49.195911]}},{"properties":{"rating":6.1,"city":"Chilliwack","schoolname":"Sardis","type":"Public","street":"45775 Manuel Rd","id":"a66d2muhv5se","province":"BC","lat":49.127822,"long":-121.956847},"type":"Feature","geometry":{"type":"Point","coordinates":[-121.956847,49.127822]}},{"properties":{"rating":6.1,"city":"Vancouver","schoolname":"Simon Fraser","type":"Public","street":"100 15th Ave W","id":"a66d2mq1ixy6","province":"BC","lat":49.257531,"long":-123.107237},"type":"Feature","geometry":{"type":"Point","coordinates":[-123.107237,49.257531]}},{"properties":{"rating":6.1,"city":"Surrey","schoolname":"Sullivan","type":"Public","street":"6016 152 St","id":"a66d2mq73vcx","province":"BC","lat":49.112198,"long":-122.800779},"type":"Feature","geometry":{"type":"Point","coordinates":[-122.800779,49.112198]}},{"properties":{"rating":6.1,"city":"Chilliwack","schoolname":"Watson","type":"Public","street":"45305 Watson Rd","id":"a66d2mjky36o","province":"BC","lat":49.11122,"long":-121.962769},"type":"Feature","geometry":{"type":"Point","coordinates":[-121.962769,49.11122]}},{"properties":{"rating":10.0,"city":"West Vancouver","schoolname":"West Bay","type":"Public","street":"3175 Thompson Pl","id":"a66d2mxa8i0q","province":"BC","lat":49.344031,"long":-123.205329},"type":"Feature","geometry":{"type":"Point","coordinates":[-123.205329,49.344031]}},{"properties":{"rating":6.1,"city":"Richmond","schoolname":"William Cook","type":"Public","street":"8600 Cook Rd","id":"a66d2mzamzui","province":"BC","lat":49.166401,"long":-123.127556},"type":"Feature","geometry":{"type":"Point","coordinates":[-123.127556,49.166401]}},{"properties":{"rating":6.0,"city":"Abbotsford","schoolname":"Blue Jay","type":"Public","street":"30995 Southern Dr","id":"a66d2mkr79vf","province":"BC","lat":49.057245,"long":-122.365029},"type":"Feature","geometry":{"type":"Point","coordinates":[-122.365029,49.057245]}},{"properties":{"rating":6.0,"city":"Delta","schoolname":"Chalmers","type":"Public","street":"11315 75 Ave","id":"a66d2mxs2uil","province":"BC","lat":49.139569,"long":-122.908018},"type":"Feature","geometry":{"type":"Point","coordinates":[-122.908018,49.139569]}},{"properties":{"rating":6.0,"city":"Vancouver","schoolname":"Champlain Heights","type":"Public","street":"6955 Frontenac St","id":"a66d2moitflf","province":"BC","lat":49.220493,"long":-123.026933},"type":"Feature","geometry":{"type":"Point","coordinates":[-123.026933,49.220493]}},{"properties":{"rating":6.0,"city":"Mission","schoolname":"Christine Morrison","type":"Public","street":"32611 McRae Ave","id":"a66d2mod8ywt","province":"BC","lat":49.143865,"long":-122.321429},"type":"Feature","geometry":{"type":"Point","coordinates":[-122.321429,49.143865]}},{"properties":{"rating":6.0,"city":"Aldergrove","schoolname":"Coghlan","type":"Public","street":"4452 256th St","id":"a66d2murshgq","province":"BC","lat":49.056865,"long":-122.472289},"type":"Feature","geometry":{"type":"Point","coordinates":[-122.472289,49.056865]}},{"properties":{"rating":6.0,"city":"Port Coquitlam","schoolname":"Irvine","type":"Public","street":"3862 Wellington St","id":"a66d2mmluo2f","province":"BC","lat":49.281688,"long":-122.761438},"type":"Feature","geometry":{"type":"Point","coordinates":[-122.761438,49.281688]}},{"properties":{"rating":6.0,"city":"Port Coquitlam","schoolname":"Kilmer","type":"Public","street":"1575 Knappen St","id":"a66d2mtws1rh","province":"BC","lat":49.243924,"long":-122.771646},"type":"Feature","geometry":{"type":"Point","coordinates":[-122.771646,49.243924]}},{"properties":{"rating":6.0,"city":"Vancouver","schoolname":"Lord Beaconsfield","type":"Public","street":"3663 Penticton St","id":"a66d2mzfl3nv","province":"BC","lat":49.251923,"long":-123.052354},"type":"Feature","geometry":{"type":"Point","coordinates":[-123.052354,49.251923]}},{"properties":{"rating":6.0,"city":"Port Coquitlam","schoolname":"Mary Hill","type":"Public","street":"1890 Humber Cres","id":"a66d2mkc4n5o","province":"BC","lat":49.250541,"long":-122.776028},"type":"Feature","geometry":{"type":"Point","coordinates":[-122.776028,49.250541]}},{"properties":{"rating":6.0,"city":"Coquitlam","schoolname":"Porter Street","type":"Public","street":"728 Porter St","id":"a66d2mpx7eiu","province":"BC","lat":49.261486,"long":-122.863278},"type":"Feature","geometry":{"type":"Point","coordinates":[-122.863278,49.261486]}},{"properties":{"rating":6.0,"city":"Richmond","schoolname":"R M Grauer","type":"Public","street":"4440 Blundell Rd","id":"a66d2mqw7kj6","province":"BC","lat":49.15553,"long":-123.174519},"type":"Feature","geometry":{"type":"Point","coordinates":[-123.174519,49.15553]}},{"properties":{"rating":6.0,"city":"Vancouver","schoolname":"Waverley","type":"Public","street":"6111 Elliott St","id":"a66d2myfqtrr","province":"BC","lat":49.228365,"long":-123.054872},"type":"Feature","geometry":{"type":"Point","coordinates":[-123.054872,49.228365]}},{"properties":{"rating":6.0,"city":"White Rock","schoolname":"White Rock","type":"Public","street":"1273 Fir St","id":"a66d2mlnm5si","province":"BC","lat":49.024158,"long":-122.798658},"type":"Feature","geometry":{"type":"Point","coordinates":[-122.798658,49.024158]}}],"is_temporal":false,"author":{"url":null,"metadata":null,"contact_name":null,"contact_address":null,"source":null,"contact_phone":null},"source":null,"pagination":{"sort":null,"start":0,"total":235,"limit":1000000},"state":"complete","tags":"","published":"2014-08-10T15:30:05-04:00","id":12825}