{"type":"FeatureCollection","data_type":"Dataset","url_type":null,"permissions":[{"permissions":{"download":true,"view":true},"group_id":"everyone"}],"classification":null,"title":"greek cities data","count":27,"stream_id":128347,"contributor":{"url":"http://geocommons.com/users/19194","name":"KCorax"},"data_attributes":null,"calculation_params":null,"icon_link":null,"link":"http://geocommons.com/overlays/128347.json","extent":[-93.1863,-21.962,136.7,58.5969],"geometry_types":["point"],"unique_name":null,"name":"greek cities data","feature_count":27,"description":"","next_feature":null,"is_raster":false,"short_classification":"Y","stats":{"percentage":{"max":69.13,"mean":3.70259259259259,"variance":176.927227635327,"stdev":13.3013994615351,"min":0.22,"median":0.45}},"features":[{"properties":{"city":"Athens","geo_score":0.857,"percentage":69.13,"id":"a7f3hqmibln5","geo_precision":"zip"},"type":"Feature","geometry":{"type":"Point","coordinates":[23.7333333,37.9833333]}},{"properties":{"city":"Thessaloniki","geo_score":0.857,"percentage":11.41,"id":"a7f3hqil3anf","geo_precision":"zip"},"type":"Feature","geometry":{"type":"Point","coordinates":[22.9438889,40.6402778]}},{"properties":{"city":"Patras","geo_score":0.768,"percentage":7.16,"id":"a7f3hqhjempz","geo_precision":"zip"},"type":"Feature","geometry":{"type":"Point","coordinates":[0.3333333,46.5833333]}},{"properties":{"city":"Heraklion","geo_score":0.766,"percentage":1.57,"id":"a7f3hqnnh5r4","geo_precision":"zip"},"type":"Feature","geometry":{"type":"Point","coordinates":[-50.3848205914634,-21.9619780670732]}},{"properties":{"city":"Lamia","geo_score":0.8,"percentage":1.34,"id":"a7f3hqqc1dz7","geo_precision":"zip"},"type":"Feature","geometry":{"type":"Point","coordinates":[-77.05,-12.05]}},{"properties":{"city":"Trikala","geo_score":0.857,"percentage":1.34,"id":"a7f3hqi953v5","geo_precision":"zip"},"type":"Feature","geometry":{"type":"Point","coordinates":[21.7675,39.5552778]}},{"properties":{"city":"Ioannina","geo_score":0.857,"percentage":0.67,"id":"a7f3hqu45dya","geo_precision":"zip"},"type":"Feature","geometry":{"type":"Point","coordinates":[20.8508333,39.6675]}},{"properties":{"city":"Crete","geo_score":0.857,"percentage":0.67,"id":"a7f3hqoym4qy","geo_precision":"zip"},"type":"Feature","geometry":{"type":"Point","coordinates":[24.89501953125,35.1558457022654]}},{"properties":{"city":"Megara","geo_score":0.786,"percentage":0.67,"id":"a7f3hqr8zccm","geo_precision":"zip"},"type":"Feature","geometry":{"type":"Point","coordinates":[34.4666667,-1.0666667]}},{"properties":{"city":"Larissa","geo_score":0.837,"percentage":0.67,"id":"a7f3hqx45g99","geo_precision":"zip"},"type":"Feature","geometry":{"type":"Point","coordinates":[22.4202778,39.6372222]}},{"properties":{"city":"Kefalonia","geo_score":0.746,"percentage":0.67,"id":"a7f3hqljteft","geo_precision":"zip"},"type":"Feature","geometry":{"type":"Point","coordinates":[5.0333333,43.8333333]}},{"properties":{"city":"Myconos","geo_score":0.776,"percentage":0.45,"id":"a7f3hqoujpfu","geo_precision":"zip"},"type":"Feature","geometry":{"type":"Point","coordinates":[-5.52496110525405,33.9776073282348]}},{"properties":{"city":"Komotini","geo_score":0.75,"percentage":0.45,"id":"a7f3hqu9t7pe","geo_precision":"zip"},"type":"Feature","geometry":{"type":"Point","coordinates":[-75.1196199,39.9259463]}},{"properties":{"city":"Corfu","geo_score":0.743,"percentage":0.45,"id":"a7f3hqvnayvq","geo_precision":"zip"},"type":"Feature","geometry":{"type":"Point","coordinates":[49.6583333,58.5969444]}},{"properties":{"city":"Corinth","geo_score":0.857,"percentage":0.45,"id":"a7f3hqwvm3ag","geo_precision":"zip"},"type":"Feature","geometry":{"type":"Point","coordinates":[22.9322222,37.9377778]}},{"properties":{"city":"Katerini","geo_score":0.857,"percentage":0.45,"id":"a7f3hqncg0lw","geo_precision":"zip"},"type":"Feature","geometry":{"type":"Point","coordinates":[22.5025,40.2719444]}},{"properties":{"city":"Rodos","geo_score":0.857,"percentage":0.22,"id":"a7f3hqu48czi","geo_precision":"zip"},"type":"Feature","geometry":{"type":"Point","coordinates":[28.2225,36.4408333]}},{"properties":{"city":"Ios","geo_score":0.762,"percentage":0.22,"id":"a7f3hqkg3wp9","geo_precision":"zip"},"type":"Feature","geometry":{"type":"Point","coordinates":[136.7,34.4833333]}},{"properties":{"city":"Serres","geo_score":0.762,"percentage":0.22,"id":"a7f3hqw3idrp","geo_precision":"zip"},"type":"Feature","geometry":{"type":"Point","coordinates":[75.0166667,29.5333333]}},{"properties":{"city":"Gianitsa","geo_score":0.841,"percentage":0.22,"id":"a7f3hqkh1e2t","geo_precision":"zip"},"type":"Feature","geometry":{"type":"Point","coordinates":[22.4075,40.7919444]}},{"properties":{"city":"Rhodes","geo_score":0.857,"percentage":0.22,"id":"a7f3hquj8d88","geo_precision":"zip"},"type":"Feature","geometry":{"type":"Point","coordinates":[-93.1863143,41.9255437]}},{"properties":{"city":"Xanthi","geo_score":0.857,"percentage":0.22,"id":"a7f3hqkndpwa","geo_precision":"zip"},"type":"Feature","geometry":{"type":"Point","coordinates":[24.8836111,41.1413889]}},{"properties":{"city":"Kalimnos","geo_score":0.786,"percentage":0.22,"id":"a7f3hqj7um66","geo_precision":"zip"},"type":"Feature","geometry":{"type":"Point","coordinates":[124.15,6.5166667]}},{"properties":{"city":"Karditsa","geo_score":0.857,"percentage":0.22,"id":"a7f3hqld0ae0","geo_precision":"zip"},"type":"Feature","geometry":{"type":"Point","coordinates":[21.9216667,39.3655556]}},{"properties":{"city":"Edesa","geo_score":0.833,"percentage":0.22,"id":"a7f3hqi9jf9s","geo_precision":"zip"},"type":"Feature","geometry":{"type":"Point","coordinates":[22.0472222,40.8005556]}},{"properties":{"city":"Volos","geo_score":0.857,"percentage":0.22,"id":"a7f3hqw0an04","geo_precision":"zip"},"type":"Feature","geometry":{"type":"Point","coordinates":[22.9458333,39.3666667]}},{"properties":{"city":"Kozani","geo_score":0.81,"percentage":0.22,"id":"a7f3hqmk68w2","geo_precision":"zip"},"type":"Feature","geometry":{"type":"Point","coordinates":[49.1333333,55.75]}}],"is_temporal":false,"author":{"url":null,"metadata":null,"contact_name":null,"contact_address":null,"source":null,"contact_phone":null},"source":null,"pagination":{"sort":null,"start":0,"total":27,"limit":1000000},"state":"complete","tags":"","published":"2014-08-13T10:25:55-04:00","id":128347}