{"type":"FeatureCollection","data_type":"Dataset","url_type":null,"permissions":[{"permissions":{"download":true,"view":true},"group_id":"everyone"}],"classification":null,"title":"greek cities data","count":27,"stream_id":128348,"contributor":{"url":"http://geocommons.com/users/19194","name":"KCorax"},"data_attributes":null,"calculation_params":null,"icon_link":null,"link":"http://geocommons.com/overlays/128348.json","extent":[-93.1863,-21.962,136.7,58.5969],"geometry_types":["point"],"unique_name":null,"name":"greek cities data","feature_count":27,"description":"","next_feature":null,"is_raster":false,"short_classification":"Y","stats":{"percentage":{"max":69.13,"mean":3.70259259259259,"variance":176.927227635327,"stdev":13.3013994615351,"min":0.22,"median":0.45}},"features":[{"properties":{"city":"Athens","geo_score":0.857,"percentage":69.13,"id":"a67qqelm1tro","geo_precision":"zip"},"type":"Feature","geometry":{"type":"Point","coordinates":[23.7333333,37.9833333]}},{"properties":{"city":"Thessaloniki","geo_score":0.857,"percentage":11.41,"id":"a67qqeahnl8w","geo_precision":"zip"},"type":"Feature","geometry":{"type":"Point","coordinates":[22.9438889,40.6402778]}},{"properties":{"city":"Patras","geo_score":0.768,"percentage":7.16,"id":"a67qqekzc1fl","geo_precision":"zip"},"type":"Feature","geometry":{"type":"Point","coordinates":[0.3333333,46.5833333]}},{"properties":{"city":"Heraklion","geo_score":0.766,"percentage":1.57,"id":"a67qqeague5h","geo_precision":"zip"},"type":"Feature","geometry":{"type":"Point","coordinates":[-50.3848205914634,-21.9619780670732]}},{"properties":{"city":"Lamia","geo_score":0.8,"percentage":1.34,"id":"a67qqec5somh","geo_precision":"zip"},"type":"Feature","geometry":{"type":"Point","coordinates":[-77.05,-12.05]}},{"properties":{"city":"Trikala","geo_score":0.857,"percentage":1.34,"id":"a67qqe7t9rfm","geo_precision":"zip"},"type":"Feature","geometry":{"type":"Point","coordinates":[21.7675,39.5552778]}},{"properties":{"city":"Ioannina","geo_score":0.857,"percentage":0.67,"id":"a67qqel28pf3","geo_precision":"zip"},"type":"Feature","geometry":{"type":"Point","coordinates":[20.8508333,39.6675]}},{"properties":{"city":"Crete","geo_score":0.857,"percentage":0.67,"id":"a67qqeacjh3u","geo_precision":"zip"},"type":"Feature","geometry":{"type":"Point","coordinates":[24.89501953125,35.1558457022654]}},{"properties":{"city":"Megara","geo_score":0.786,"percentage":0.67,"id":"a67qqecja7hu","geo_precision":"zip"},"type":"Feature","geometry":{"type":"Point","coordinates":[34.4666667,-1.0666667]}},{"properties":{"city":"Larissa","geo_score":0.837,"percentage":0.67,"id":"a67qqejblmwy","geo_precision":"zip"},"type":"Feature","geometry":{"type":"Point","coordinates":[22.4202778,39.6372222]}},{"properties":{"city":"Kefalonia","geo_score":0.746,"percentage":0.67,"id":"a67qqeavb3n6","geo_precision":"zip"},"type":"Feature","geometry":{"type":"Point","coordinates":[5.0333333,43.8333333]}},{"properties":{"city":"Myconos","geo_score":0.776,"percentage":0.45,"id":"a67qqegu3smq","geo_precision":"zip"},"type":"Feature","geometry":{"type":"Point","coordinates":[-5.52496110525405,33.9776073282348]}},{"properties":{"city":"Komotini","geo_score":0.75,"percentage":0.45,"id":"a67qqed7huzo","geo_precision":"zip"},"type":"Feature","geometry":{"type":"Point","coordinates":[-75.1196199,39.9259463]}},{"properties":{"city":"Corfu","geo_score":0.743,"percentage":0.45,"id":"a67qqe99xdfi","geo_precision":"zip"},"type":"Feature","geometry":{"type":"Point","coordinates":[49.6583333,58.5969444]}},{"properties":{"city":"Corinth","geo_score":0.857,"percentage":0.45,"id":"a67qqehhrf59","geo_precision":"zip"},"type":"Feature","geometry":{"type":"Point","coordinates":[22.9322222,37.9377778]}},{"properties":{"city":"Katerini","geo_score":0.857,"percentage":0.45,"id":"a67qqen49cij","geo_precision":"zip"},"type":"Feature","geometry":{"type":"Point","coordinates":[22.5025,40.2719444]}},{"properties":{"city":"Rodos","geo_score":0.857,"percentage":0.22,"id":"a67qqefsl5fz","geo_precision":"zip"},"type":"Feature","geometry":{"type":"Point","coordinates":[28.2225,36.4408333]}},{"properties":{"city":"Ios","geo_score":0.762,"percentage":0.22,"id":"a67qqebts0v3","geo_precision":"zip"},"type":"Feature","geometry":{"type":"Point","coordinates":[136.7,34.4833333]}},{"properties":{"city":"Serres","geo_score":0.762,"percentage":0.22,"id":"a67qqeh8bhc3","geo_precision":"zip"},"type":"Feature","geometry":{"type":"Point","coordinates":[75.0166667,29.5333333]}},{"properties":{"city":"Gianitsa","geo_score":0.841,"percentage":0.22,"id":"a67qqed5ik88","geo_precision":"zip"},"type":"Feature","geometry":{"type":"Point","coordinates":[22.4075,40.7919444]}},{"properties":{"city":"Rhodes","geo_score":0.857,"percentage":0.22,"id":"a67qqelj7dbf","geo_precision":"zip"},"type":"Feature","geometry":{"type":"Point","coordinates":[-93.1863143,41.9255437]}},{"properties":{"city":"Xanthi","geo_score":0.857,"percentage":0.22,"id":"a67qqeflcu7r","geo_precision":"zip"},"type":"Feature","geometry":{"type":"Point","coordinates":[24.8836111,41.1413889]}},{"properties":{"city":"Kalimnos","geo_score":0.786,"percentage":0.22,"id":"a67qqecn5gx6","geo_precision":"zip"},"type":"Feature","geometry":{"type":"Point","coordinates":[124.15,6.5166667]}},{"properties":{"city":"Karditsa","geo_score":0.857,"percentage":0.22,"id":"a67qqe9fz9kn","geo_precision":"zip"},"type":"Feature","geometry":{"type":"Point","coordinates":[21.9216667,39.3655556]}},{"properties":{"city":"Edesa","geo_score":0.833,"percentage":0.22,"id":"a67qqehkhk6l","geo_precision":"zip"},"type":"Feature","geometry":{"type":"Point","coordinates":[22.0472222,40.8005556]}},{"properties":{"city":"Volos","geo_score":0.857,"percentage":0.22,"id":"a67qqeles2iy","geo_precision":"zip"},"type":"Feature","geometry":{"type":"Point","coordinates":[22.9458333,39.3666667]}},{"properties":{"city":"Kozani","geo_score":0.81,"percentage":0.22,"id":"a67qqehqt6f6","geo_precision":"zip"},"type":"Feature","geometry":{"type":"Point","coordinates":[49.1333333,55.75]}}],"is_temporal":false,"author":{"url":null,"metadata":null,"contact_name":null,"contact_address":null,"source":null,"contact_phone":null},"source":null,"pagination":{"sort":null,"start":0,"total":27,"limit":1000000},"state":"complete","tags":"","published":"2014-08-13T10:25:55-04:00","id":128348}