{"type":"FeatureCollection","data_type":"Dataset","url_type":null,"permissions":[{"permissions":{"download":true,"view":true},"group_id":"everyone"}],"classification":null,"title":"Physical Inactivity","count":52,"stream_id":128995,"contributor":{"url":"http://geocommons.com/users/28224","name":"teaddy"},"data_attributes":null,"calculation_params":null,"icon_link":null,"link":"http://geocommons.com/overlays/128995.json","extent":[-160.577,18.3931,-67.181,55.9886],"geometry_types":["point"],"unique_name":null,"name":"Physical Inactivity","feature_count":52,"description":"The physical inactivity by the population in each state","next_feature":null,"is_raster":false,"short_classification":"Y","stats":{"physical inactivity":{"max":47.4,"mean":25.0923076923077,"variance":21.6858220211161,"stdev":4.65680384181212,"min":17.9,"median":24.5}},"features":[{"properties":{"county":"Henry","geo_score":0.857,"zip code":"36310","physical inactivity":29.3,"id":"a63587711obp","geo_precision":"zip","state":"Alabama"},"type":"Feature","geometry":{"type":"Point","coordinates":[-85.179654,31.55628]}},{"properties":{"county":"Anchorage","geo_score":0.714,"zip code":"99695","physical inactivity":25.1,"id":"a6358794by8r","geo_precision":"zip","state":"Alaska"},"type":"Feature","geometry":{"type":"Point","coordinates":[-160.576944,55.988611]}},{"properties":{"county":"Apache Junction","geo_score":0.714,"zip code":"85290","physical inactivity":22.9,"id":"a6358793sjyj","geo_precision":"zip","state":"Arizona"},"type":"Feature","geometry":{"type":"Point","coordinates":[-111.355407,33.583103]}},{"properties":{"county":"Alma","geo_score":0.714,"zip code":"72921","physical inactivity":29.2,"id":"a63587g1ufgv","geo_precision":"zip","state":"Arkansas"},"type":"Feature","geometry":{"type":"Point","coordinates":[-94.178263,35.4287]}},{"properties":{"county":"Almeda","geo_score":0.714,"zip code":"94710","physical inactivity":23.5,"id":"a63587b57tb8","geo_precision":"zip","state":"California"},"type":"Feature","geometry":{"type":"Point","coordinates":[-122.30273,37.873366]}},{"properties":{"county":"Piktin","geo_score":0.857,"zip code":"81612","physical inactivity":19.1,"id":"a63587dy7430","geo_precision":"zip","state":"Colorado"},"type":"Feature","geometry":{"type":"Point","coordinates":[-106.882774,39.223416]}},{"properties":{"county":"Hartford","geo_score":0.857,"zip code":"6001","physical inactivity":22.0,"id":"a63587ej6muy","geo_precision":"zip","state":"Connecticut"},"type":"Feature","geometry":{"type":"Point","coordinates":[-72.863433,41.789821]}},{"properties":{"county":"New Castle","geo_score":0.857,"zip code":"19706","physical inactivity":24.0,"id":"a635879v54hp","geo_precision":"zip","state":"Delaware"},"type":"Feature","geometry":{"type":"Point","coordinates":[-75.608081,39.594256]}},{"properties":{"county":"Washington","geo_score":0.857,"zip code":"20001","physical inactivity":21.3,"id":"a63587ekatb6","geo_precision":"zip","state":"District of Columbia"},"type":"Feature","geometry":{"type":"Point","coordinates":[-77.011365,38.916778]}},{"properties":{"county":"Duval","geo_score":0.857,"zip code":"32277","physical inactivity":25.4,"id":"a63587d62rkr","geo_precision":"zip","state":"Florida"},"type":"Feature","geometry":{"type":"Point","coordinates":[-81.586394,30.370439]}},{"properties":{"county":"Bacon","geo_score":0.714,"zip code":"31510","physical inactivity":23.2,"id":"a63587b3zyur","geo_precision":"zip","state":"Georgia"},"type":"Feature","geometry":{"type":"Point","coordinates":[-82.41652,31.547982]}},{"properties":{"county":"Hawaii","geo_score":0.857,"zip code":"96743","physical inactivity":19.6,"id":"a635878zg5nd","geo_precision":"zip","state":"Hawaii"},"type":"Feature","geometry":{"type":"Point","coordinates":[-155.827778,19.9325]}},{"properties":{"county":"Ada","geo_score":0.857,"zip code":"83799","physical inactivity":21.1,"id":"a63587iytawf","geo_precision":"zip","state":"Idaho"},"type":"Feature","geometry":{"type":"Point","coordinates":[-116.243984,43.459855]}},{"properties":{"county":"Dupage","geo_score":0.857,"zip code":"60101","physical inactivity":28.0,"id":"a63587fi8ywz","geo_precision":"zip","state":"Illinois"},"type":"Feature","geometry":{"type":"Point","coordinates":[-88.022516,41.887579]}},{"properties":{"county":"Madison","geo_score":0.857,"zip code":"46001","physical inactivity":27.4,"id":"a63587dumr08","geo_precision":"zip","state":"Indiana"},"type":"Feature","geometry":{"type":"Point","coordinates":[-85.601364,40.193931]}},{"properties":{"county":"Dallas","geo_score":0.857,"zip code":"50003","physical inactivity":24.4,"id":"a63587bg9c3m","geo_precision":"zip","state":"Iowa"},"type":"Feature","geometry":{"type":"Point","coordinates":[-94.034515,41.617591]}},{"properties":{"county":"Bultler","geo_score":0.857,"zip code":"67002","physical inactivity":25.4,"id":"a63587exqmcv","geo_precision":"zip","state":"Kansas"},"type":"Feature","geometry":{"type":"Point","coordinates":[-97.098431,37.701532]}},{"properties":{"county":"Clinton","geo_score":0.857,"zip code":"42602","physical inactivity":30.1,"id":"a63587cm0rik","geo_precision":"zip","state":"Kentucky"},"type":"Feature","geometry":{"type":"Point","coordinates":[-85.064676,36.817012]}},{"properties":{"county":"Bienville","geo_score":0.857,"zip code":"71001","physical inactivity":29.8,"id":"a63587immjpd","geo_precision":"zip","state":"Louisiana"},"type":"Feature","geometry":{"type":"Point","coordinates":[-92.886824,32.668205]}},{"properties":{"county":"Kennebec","geo_score":0.857,"zip code":"4338","physical inactivity":22.4,"id":"a635878hqem2","geo_precision":"zip","state":"Maine"},"type":"Feature","geometry":{"type":"Point","coordinates":[-69.751913,44.414056]}},{"properties":{"county":"Anne Arundel","geo_score":0.857,"zip code":"21012","physical inactivity":24.0,"id":"a63587cidvum","geo_precision":"zip","state":"Maryland"},"type":"Feature","geometry":{"type":"Point","coordinates":[-76.510795,39.040389]}},{"properties":{"county":"Plymouth","geo_score":0.857,"zip code":"2351","physical inactivity":21.8,"id":"a63587axqz3g","geo_precision":"zip","state":"Massachusetts"},"type":"Feature","geometry":{"type":"Point","coordinates":[-70.966155,42.091767]}},{"properties":{"county":"Kent","geo_score":0.857,"zip code":"49357","physical inactivity":25.1,"id":"a63587i5ihyb","geo_precision":"zip","state":"Michigan"},"type":"Feature","geometry":{"type":"Point","coordinates":[-85.550267,43.031413]}},{"properties":{"county":"Pope","geo_score":0.857,"zip code":"56334","physical inactivity":17.9,"id":"a63587lnubgi","geo_precision":"zip","state":"Minnesota"},"type":"Feature","geometry":{"type":"Point","coordinates":[-95.417537,45.654684]}},{"properties":{"county":"Grenada","geo_score":0.857,"zip code":"38902","physical inactivity":32.4,"id":"a635877ls1si","geo_precision":"zip","state":"Mississippi"},"type":"Feature","geometry":{"type":"Point","coordinates":[-89.794687,33.824113]}},{"properties":{"county":"Jefferson","geo_score":0.857,"zip code":"63010","physical inactivity":27.2,"id":"a63587glupic","geo_precision":"zip","state":"Missouri"},"type":"Feature","geometry":{"type":"Point","coordinates":[-90.350118,38.433665]}},{"properties":{"county":"Fallon","geo_score":0.857,"zip code":"59354","physical inactivity":22.8,"id":"a63587e9s7yy","geo_precision":"zip","state":"Montana"},"type":"Feature","geometry":{"type":"Point","coordinates":[-104.475079,46.283486]}},{"properties":{"county":"Dodge","geo_score":0.857,"zip code":"68026","physical inactivity":24.4,"id":"a63587hynqql","geo_precision":"zip","state":"Nebraska"},"type":"Feature","geometry":{"type":"Point","coordinates":[-96.617443,41.567907]}},{"properties":{"county":"Clark","geo_score":0.857,"zip code":"89006","physical inactivity":27.6,"id":"a635879604ir","geo_precision":"zip","state":"Nevada"},"type":"Feature","geometry":{"type":"Point","coordinates":[-114.972061,35.927901]}},{"properties":{"county":"Hillsborough","geo_score":0.857,"zip code":"3031","physical inactivity":21.1,"id":"a63587fvma00","geo_precision":"zip","state":"New Hampshire"},"type":"Feature","geometry":{"type":"Point","coordinates":[-71.595626,42.842031]}},{"properties":{"county":"Essex","geo_score":0.714,"zip code":"7051","physical inactivity":26.8,"id":"a63587cr2ad4","geo_precision":"zip","state":"New Jersey"},"type":"Feature","geometry":{"type":"Point","coordinates":[-74.245241,40.79185]}},{"properties":{"county":"Bernalillo","geo_score":0.857,"zip code":"87199","physical inactivity":23.8,"id":"a635877bgpk5","geo_precision":"zip","state":"New Mexico"},"type":"Feature","geometry":{"type":"Point","coordinates":[-106.672872,35.044339]}},{"properties":{"county":"Albany","geo_score":0.857,"zip code":"12288","physical inactivity":26.1,"id":"a635879rf055","geo_precision":"zip","state":"New York"},"type":"Feature","geometry":{"type":"Point","coordinates":[-73.970812,42.614852]}},{"properties":{"county":"Cumberland","geo_score":0.857,"zip code":"28314","physical inactivity":24.5,"id":"a63587d127rv","geo_precision":"zip","state":"North Carolina"},"type":"Feature","geometry":{"type":"Point","coordinates":[-79.011328,35.05425]}},{"properties":{"county":"Burleigh","geo_score":0.714,"zip code":"58507","physical inactivity":25.4,"id":"a63587c5am7z","geo_precision":"zip","state":"North Dakota"},"type":"Feature","geometry":{"type":"Point","coordinates":[-100.520063,46.980475]}},{"properties":{"county":"Summit","geo_score":0.857,"zip code":"44399","physical inactivity":25.6,"id":"a63587bxyln7","geo_precision":"zip","state":"Ohio"},"type":"Feature","geometry":{"type":"Point","coordinates":[-81.53999,41.128705]}},{"properties":{"county":"Pontotoc","geo_score":0.857,"zip code":"74821","physical inactivity":31.0,"id":"a6358784vbp0","geo_precision":"zip","state":"Oklahoma"},"type":"Feature","geometry":{"type":"Point","coordinates":[-96.669321,34.735301]}},{"properties":{"county":"Linn","geo_score":0.857,"zip code":"97322","physical inactivity":18.8,"id":"a63587gxv83v","geo_precision":"zip","state":"Oregon"},"type":"Feature","geometry":{"type":"Point","coordinates":[-123.097041,44.627255]}},{"properties":{"county":"Montgomery","geo_score":0.714,"zip code":"19001","physical inactivity":25.1,"id":"a635876zbnqo","geo_precision":"zip","state":"Pennsylvania"},"type":"Feature","geometry":{"type":"Point","coordinates":[-75.137674,40.131777]}},{"properties":{"county":"Bristol","geo_score":0.857,"zip code":"2806","physical inactivity":23.9,"id":"a63587f5tax4","geo_precision":"zip","state":"Rhode Island"},"type":"Feature","geometry":{"type":"Point","coordinates":[-71.341441,41.743712]}},{"properties":{"county":"Marion","geo_score":0.857,"zip code":"29571","physical inactivity":26.9,"id":"a63587dw57od","geo_precision":"zip","state":"South Carolina"},"type":"Feature","geometry":{"type":"Point","coordinates":[-79.538945,34.205992]}},{"properties":{"county":"Brown","geo_score":0.857,"zip code":"57402","physical inactivity":26.5,"id":"a63587d8r1cc","geo_precision":"zip","state":"South Dakota"},"type":"Feature","geometry":{"type":"Point","coordinates":[-98.352014,45.589567]}},{"properties":{"county":"Oak Ridge","geo_score":0.857,"zip code":"37830","physical inactivity":27.3,"id":"a63587co0eqb","geo_precision":"zip","state":"Tennessee"},"type":"Feature","geometry":{"type":"Point","coordinates":[-84.222143,36.023134]}},{"properties":{"county":"Dallas","geo_score":0.857,"zip code":"75001","physical inactivity":28.8,"id":"a63587l7upfv","geo_precision":"zip","state":"Texas"},"type":"Feature","geometry":{"type":"Point","coordinates":[-96.777626,32.767268]}},{"properties":{"county":"Utah","geo_score":0.857,"zip code":"84003","physical inactivity":20.7,"id":"a63587lmmen9","geo_precision":"zip","state":"Utah"},"type":"Feature","geometry":{"type":"Point","coordinates":[-111.770208,40.44995]}},{"properties":{"county":"Washington","geo_score":0.857,"zip code":"5641","physical inactivity":19.0,"id":"a63587izt64z","geo_precision":"zip","state":"Vermont"},"type":"Feature","geometry":{"type":"Point","coordinates":[-72.402601,44.148396]}},{"properties":{"county":"Washington","geo_score":0.857,"zip code":"24212","physical inactivity":23.6,"id":"a63587cxffgi","geo_precision":"zip","state":"Virginia"},"type":"Feature","geometry":{"type":"Point","coordinates":[-81.970764,36.690942]}},{"properties":{"county":"San Juan","geo_score":0.857,"zip code":"98222","physical inactivity":19.4,"id":"a63587anhrye","geo_precision":"zip","state":"Washington"},"type":"Feature","geometry":{"type":"Point","coordinates":[-122.921551,48.610644]}},{"properties":{"county":"Raleigh","geo_score":0.857,"zip code":"25802","physical inactivity":30.5,"id":"a63587gb4yfx","geo_precision":"zip","state":"West Virginia"},"type":"Feature","geometry":{"type":"Point","coordinates":[-81.224458,37.748935]}},{"properties":{"county":"Adams","geo_score":0.857,"zip code":"53910","physical inactivity":21.9,"id":"a63587ltgz65","geo_precision":"zip","state":"Wisconsin"},"type":"Feature","geometry":{"type":"Point","coordinates":[-89.806792,43.83803]}},{"properties":{"county":"Lincoln","geo_score":0.857,"zip code":"83110","physical inactivity":24.3,"id":"a63587ka5nd0","geo_precision":"zip","state":"Wyoming"},"type":"Feature","geometry":{"type":"Point","coordinates":[-110.619734,42.711296]}},{"properties":{"county":"Aguada","geo_score":0.857,"zip code":"602","physical inactivity":47.4,"id":"a63587lkb83g","geo_precision":"zip","state":"Puerto Rico"},"type":"Feature","geometry":{"type":"Point","coordinates":[-67.180953,18.393103]}}],"is_temporal":false,"author":{"url":"http://apps.nccd.cdc.gov/PASurveillance/StateSumResultV.asp","metadata":"","contact_name":"","contact_address":"\r\n\r\nCenters for Disease Control and Prevention\r\n1600 Clifton Rd. Atlanta, GA 30333, USA\r\n","source":"","contact_phone":""},"source":"http://apps.nccd.cdc.gov/PASurveillance/StateSumResultV.asp","pagination":{"sort":null,"start":0,"total":52,"limit":1000000},"state":"complete","tags":"ages","published":"2014-08-13T11:25:29-04:00","id":128995}