{"type":"FeatureCollection","data_type":"Dataset","url_type":null,"permissions":[{"permissions":{"download":true,"view":true},"group_id":"everyone"}],"classification":null,"title":"BP-O","count":41,"stream_id":129078,"contributor":{"url":"http://geocommons.com/users/29018","name":"nlpcohen"},"data_attributes":null,"calculation_params":null,"icon_link":null,"link":"http://geocommons.com/overlays/129078.json","extent":[-169.512,-14.2267,-74.5844,47.1512],"geometry_types":["point"],"unique_name":null,"name":"BP-O","feature_count":41,"description":"","next_feature":null,"is_raster":false,"short_classification":"Y","stats":{},"features":[{"properties":{"city":"Aurora","geo_score":0.488,"country":"Canada","id":"a66at7uusy01","geo_precision":"city","province":"Ontario","address":"14888 Yonge St."},"type":"Feature","geometry":{"type":"Point","coordinates":[-104.83192,39.729432]}},{"properties":{"city":"Brampton","geo_score":0.321,"country":"Canada","id":"a66at7yp2lza","geo_precision":"street","province":"Ontario","address":"378 Queen St. E"},"type":"Feature","geometry":{"type":"Point","coordinates":[-86.551234,33.546343]}},{"properties":{"city":"Cambridge","geo_score":0.482,"country":"Canada","id":"a66at7zurbmz","geo_precision":"street","province":"Ontario","address":"707 King St. E"},"type":"Feature","geometry":{"type":"Point","coordinates":[-85.771743,38.163249]}},{"properties":{"city":"Don Mills","geo_score":0.634,"country":"Canada","id":"a66at7ve05b4","geo_precision":"street","province":"Ontario","address":"1875 Leslie St."},"type":"Feature","geometry":{"type":"Point","coordinates":[-83.192165,36.863779]}},{"properties":{"city":"Etobicoke","geo_score":0.0,"country":"Canada","id":"a66at7ohvwvm","geo_precision":"unmatched","province":"Ontario","address":"655 Burhamthorpe Rd."},"type":"Feature","geometry":null},{"properties":{"city":"Etobicoke","geo_score":0.0,"country":"Canada","id":"a66at7vhoon9","geo_precision":"unmatched","province":"Ontario","address":"3335 Bloor St. W"},"type":"Feature","geometry":null},{"properties":{"city":"Kitchener","geo_score":0.0,"country":"Canada","id":"a66at7m6ogo4","geo_precision":"unmatched","province":"Ontario","address":"121 Charles St W"},"type":"Feature","geometry":null},{"properties":{"city":"London","geo_score":0.488,"country":"Canada","id":"a66at80n392s","geo_precision":"city","province":"Ontario","address":"355 Wellington St."},"type":"Feature","geometry":{"type":"Point","coordinates":[-86.050237,32.273198]}},{"properties":{"city":"Markham","geo_score":0.823,"country":"Canada","id":"a66at80q1pnk","geo_precision":"range","province":"Ontario","address":"7181 Woodbine Ave."},"type":"Feature","geometry":{"type":"Point","coordinates":[-93.551583,47.151205]}},{"properties":{"city":"Mississauga","geo_score":0.0,"country":"Canada","id":"a66at7zdorst","geo_precision":"unmatched","province":"Ontario","address":"6982 Financial Dr."},"type":"Feature","geometry":null},{"properties":{"city":"Mississauga","geo_score":0.0,"country":"Canada","id":"a66at7zgg3pv","geo_precision":"unmatched","province":"Ontario","address":"2800 Skymark Ave"},"type":"Feature","geometry":null},{"properties":{"city":"Newmarket","geo_score":0.488,"country":"Canada","id":"a66at7lmz90g","geo_precision":"city","province":"Ontario","address":"1091 Gorham St"},"type":"Feature","geometry":{"type":"Point","coordinates":[-85.310795,37.501732]}},{"properties":{"city":"Niagara Falls","geo_score":0.415,"country":"Canada","id":"a66at7qvhqnv","geo_precision":"city","province":"Ontario","address":"6380 Fallsview Blvd."},"type":"Feature","geometry":{"type":"Point","coordinates":[-169.512222,-14.226667]}},{"properties":{"city":"North York","geo_score":0.488,"country":"Canada","id":"a66at7o3cltx","geo_precision":"city","province":"Ontario","address":"4854 Yonge St."},"type":"Feature","geometry":{"type":"Point","coordinates":[-76.733022,39.978154]}},{"properties":{"city":"North York","geo_score":0.512,"country":"Canada","id":"a66at7nd0w3q","geo_precision":"street","province":"Ontario","address":"1999 Avenue Rd"},"type":"Feature","geometry":{"type":"Point","coordinates":[-76.589908,40.029569]}},{"properties":{"city":"Pickering","geo_score":0.649,"country":"Canada","id":"a66at81kz0x8","geo_precision":"street","province":"Ontario","address":"1550 Kingston Rd"},"type":"Feature","geometry":{"type":"Point","coordinates":[-93.090825,31.742258]}},{"properties":{"city":"Richmond Hill","geo_score":0.407,"country":"Canada","id":"a66at7r4knns","geo_precision":"city","province":"Ontario","address":"10300 Yonge St."},"type":"Feature","geometry":{"type":"Point","coordinates":[-80.278106,25.857596]}},{"properties":{"city":"Richond","geo_score":0.0,"country":"Canada","id":"a66at7yjkfuc","geo_precision":"unmatched","province":"Ontario","address":"3500 Cessna Dr."},"type":"Feature","geometry":null},{"properties":{"city":"Scarborough","geo_score":0.434,"country":"Canada","id":"a66at7tw9p0z","geo_precision":"city","province":"Ontario","address":"16 Lebovic Ave."},"type":"Feature","geometry":{"type":"Point","coordinates":[-84.218809,33.630665]}},{"properties":{"city":"Tecumseh","geo_score":0.488,"country":"Canada","id":"a66at7x9g1pw","geo_precision":"city","province":"Ontario","address":"11828 Tecumseh Rd E"},"type":"Feature","geometry":{"type":"Point","coordinates":[-85.424123,33.998989]}},{"properties":{"city":"Toronto","geo_score":0.666,"country":"Canada","id":"a66at7ltxvcu","geo_precision":"street","province":"Ontario","address":"212 King St W"},"type":"Feature","geometry":{"type":"Point","coordinates":[-86.869356,33.430864]}},{"properties":{"city":"Toronto","geo_score":0.432,"country":"Canada","id":"a66at7pra4d3","geo_precision":"city","province":"Ontario","address":"378 Yonge St"},"type":"Feature","geometry":{"type":"Point","coordinates":[-86.768002,33.594533]}},{"properties":{"city":"Toronto","geo_score":0.432,"country":"Canada","id":"a66at7zgkyir","geo_precision":"city","province":"Ontario","address":"1835 Yonge St"},"type":"Feature","geometry":{"type":"Point","coordinates":[-86.768002,33.594533]}},{"properties":{"city":"Toronto","geo_score":0.481,"country":"Canada","id":"a66at7pk8vpn","geo_precision":"street","province":"Ontario","address":"475 Church St."},"type":"Feature","geometry":{"type":"Point","coordinates":[-86.782417,33.630632]}},{"properties":{"city":"Toronto","geo_score":0.464,"country":"Canada","id":"a66at7z9md1u","geo_precision":"street","province":"Ontario","address":"66 Wellington St. W"},"type":"Feature","geometry":{"type":"Point","coordinates":[-86.798262,33.468519]}},{"properties":{"city":"Toronto","geo_score":0.432,"country":"Canada","id":"a66at7u7nbu7","geo_precision":"city","province":"Ontario","address":"649 Yonge St."},"type":"Feature","geometry":{"type":"Point","coordinates":[-86.768002,33.594533]}},{"properties":{"city":"Toronto","geo_score":0.432,"country":"Canada","id":"a66at7u1enpa","geo_precision":"city","province":"Ontario","address":"2315 Yonge St."},"type":"Feature","geometry":{"type":"Point","coordinates":[-86.768002,33.594533]}},{"properties":{"city":"Toronto","geo_score":0.204,"country":"Canada","id":"a66at7rb583x","geo_precision":"street","province":"Ontario","address":"20 Queen St. W"},"type":"Feature","geometry":{"type":"Point","coordinates":[-86.781748,33.623461]}},{"properties":{"city":"Toronto","geo_score":0.408,"country":"Canada","id":"a66at80mr2ps","geo_precision":"street","province":"Ontario","address":"655 Bay St"},"type":"Feature","geometry":{"type":"Point","coordinates":[-86.775891,33.646999]}},{"properties":{"city":"Toronto","geo_score":0.633,"country":"Canada","id":"a66at7ptxp9k","geo_precision":"city","province":"Ontario","address":"77 Adelaide St. W"},"type":"Feature","geometry":{"type":"Point","coordinates":[-86.768002,33.594533]}},{"properties":{"city":"Toronto","geo_score":0.59,"country":"Canada","id":"a66at7qiis74","geo_precision":"street","province":"Ontario","address":"39 Prince Arthur Ave."},"type":"Feature","geometry":{"type":"Point","coordinates":[-86.883134,33.497841]}},{"properties":{"city":"Toronto","geo_score":0.429,"country":"Canada","id":"a66at7mx77b6","geo_precision":"street","province":"Ontario","address":"461 King St. W"},"type":"Feature","geometry":{"type":"Point","coordinates":[-86.869382,33.429924]}},{"properties":{"city":"Toronto","geo_score":0.464,"country":"Canada","id":"a66at7sk44t0","geo_precision":"street","province":"Ontario","address":"49 Wellington St. E"},"type":"Feature","geometry":{"type":"Point","coordinates":[-86.798262,33.468519]}},{"properties":{"city":"Toronto","geo_score":0.432,"country":"Canada","id":"a66at7orchcq","geo_precision":"city","province":"Ontario","address":"51 Eglinton Avenue East"},"type":"Feature","geometry":{"type":"Point","coordinates":[-86.768002,33.594533]}},{"properties":{"city":"Toronto","geo_score":0.561,"country":"Canada","id":"a66at7xvbu1v","geo_precision":"street","province":"Ontario","address":"160 John St."},"type":"Feature","geometry":{"type":"Point","coordinates":[-86.734214,33.537707]}},{"properties":{"city":"Toronto","geo_score":0.276,"country":"Canada","id":"a66at7srylu7","geo_precision":"street","province":"Ontario","address":"1943 Queen St., E"},"type":"Feature","geometry":{"type":"Point","coordinates":[-86.781748,33.623461]}},{"properties":{"city":"Toronto","geo_score":0.432,"country":"Canada","id":"a66at7zw138g","geo_precision":"city","province":"Ontario","address":"1055 Yonge St."},"type":"Feature","geometry":{"type":"Point","coordinates":[-86.768002,33.594533]}},{"properties":{"city":"Toronto","geo_score":0.429,"country":"Canada","id":"a66at7ypvx6q","geo_precision":"street","province":"Ontario","address":"2205 Bloor St. W"},"type":"Feature","geometry":{"type":"Point","coordinates":[-86.720789,33.585147]}},{"properties":{"city":"Toronto","geo_score":0.555,"country":"Canada","id":"a66at7soac88","geo_precision":"street","province":"Ontario","address":"43 Elm St."},"type":"Feature","geometry":{"type":"Point","coordinates":[-86.781022,33.631772]}},{"properties":{"city":"Whitby","geo_score":0.536,"country":"Canada","id":"a66at7uifm04","geo_precision":"street","province":"Ontario","address":"112 A Colborne St. E"},"type":"Feature","geometry":{"type":"Point","coordinates":[-88.67569,32.38006]}},{"properties":{"city":"Woodbridge","geo_score":0.707,"country":"Canada","id":"a66at7zxpcke","geo_precision":"street","province":"Ontario","address":"7600 Weston Rd."},"type":"Feature","geometry":{"type":"Point","coordinates":[-74.584415,40.521937]}}],"is_temporal":false,"author":{"url":"","metadata":"","contact_name":"","contact_address":"","source":"","contact_phone":""},"source":"","pagination":{"sort":null,"start":0,"total":41,"limit":1000000},"state":"complete","tags":"","published":"2014-08-13T11:32:40-04:00","id":129078}