{"type":"FeatureCollection","data_type":"Dataset","url_type":null,"permissions":[{"permissions":{"download":true,"view":true},"group_id":"everyone"}],"classification":null,"title":"fbtxt","count":368,"stream_id":129442,"contributor":{"url":"http://geocommons.com/users/19917","name":"diethrick@gmail.com"},"data_attributes":null,"calculation_params":null,"icon_link":null,"link":"http://geocommons.com/overlays/129442.json","extent":[-122.427,32.8937,-75.4168,42.1508],"geometry_types":["point"],"unique_name":null,"name":"fbtxt","feature_count":368,"description":"","next_feature":null,"is_raster":false,"short_classification":"Y","stats":{"f&b":{"max":75258.0321643836,"mean":35064.4442342168,"variance":72931615.8502369,"stdev":8540.00092799977,"min":15505.8877534247,"median":34097.4631506849},"storeno":{"max":701,"mean":245.619565217391,"variance":14413.5551474944,"stdev":120.056466495955,"min":3,"median":253}},"features":[{"properties":{"city":"HOLLIDAYSBURG","zip":"16648","f&b":33815.362,"geo_score":0.85,"storeno":3,"street":"1100 BLAIR ST","id":"a6g1lz050x0i","geo_precision":"range","state":"PA"},"type":"Feature","geometry":{"type":"Point","coordinates":[-78.383974,40.429773]}},{"properties":{"city":"ALTOONA","zip":"16602","f&b":39454.3989863014,"geo_score":0.73,"storeno":7,"street":"5706 6TH AVE","id":"a6g1lz1ifvt9","geo_precision":"range","state":"PA"},"type":"Feature","geometry":{"type":"Point","coordinates":[-78.424511,40.472906]}},{"properties":{"city":"HUNTINGDON","zip":"16652","f&b":24714.3474794521,"geo_score":0.818,"storeno":10,"street":"1330 MOORE ST","id":"a6g1lyw9s5vm","geo_precision":"range","state":"PA"},"type":"Feature","geometry":{"type":"Point","coordinates":[-78.015977,40.494232]}},{"properties":{"city":"ALTOONA","zip":"16601","f&b":23628.3540547945,"geo_score":0.733,"storeno":11,"street":"1230 14TH AVE","id":"a6g1lza7bsds","geo_precision":"range","state":"PA"},"type":"Feature","geometry":{"type":"Point","coordinates":[-78.403098,40.517529]}},{"properties":{"city":"ALTOONA","zip":"16601","f&b":32313.4017260274,"geo_score":0.817,"storeno":14,"street":"3315 BEALE AVE","id":"a6g1lz10x3q5","geo_precision":"range","state":"PA"},"type":"Feature","geometry":{"type":"Point","coordinates":[-78.417261,40.494702]}},{"properties":{"city":"TYRONE","zip":"16686","f&b":42591.7648493151,"geo_score":0.805,"storeno":15,"street":"1400 LOGAN AVE","id":"a6g1lyvab8l6","geo_precision":"range","state":"PA"},"type":"Feature","geometry":{"type":"Point","coordinates":[-78.237628,40.675844]}},{"properties":{"city":"INDIANA","zip":"15701","f&b":29352.4529315069,"geo_score":0.823,"storeno":19,"street":"768 WAYNE AVE","id":"a6g1lza86u2g","geo_precision":"range","state":"PA"},"type":"Feature","geometry":{"type":"Point","coordinates":[-79.152638,40.618373]}},{"properties":{"city":"JOHNSTOWN","zip":"15902","f&b":46836.9296164384,"geo_score":0.827,"storeno":21,"street":"490 CENTRAL AVE","id":"a6g1lz9jsem2","geo_precision":"range","state":"PA"},"type":"Feature","geometry":{"type":"Point","coordinates":[-78.911702,40.299571]}},{"properties":{"city":"JOHNSTOWN","zip":"15901","f&b":37617.5640821918,"geo_score":0.848,"storeno":22,"street":"208 HAYNES ST","id":"a6g1lz6zyztb","geo_precision":"range","state":"PA"},"type":"Feature","geometry":{"type":"Point","coordinates":[-78.918922,40.321009]}},{"properties":{"city":"EVERETT","zip":"15537","f&b":28379.9112876712,"geo_score":0.815,"storeno":23,"street":"11 W MAIN ST","id":"a6g1lyv8tk7q","geo_precision":"range","state":"PA"},"type":"Feature","geometry":{"type":"Point","coordinates":[-78.373259,40.011222]}},{"properties":{"city":"WINDBER","zip":"15963","f&b":27041.3546027397,"geo_score":0.815,"storeno":27,"street":"1500 GRAHAM AVE","id":"a6g1lz9uf6r4","geo_precision":"range","state":"PA"},"type":"Feature","geometry":{"type":"Point","coordinates":[-78.830913,40.235316]}},{"properties":{"city":"BEDFORD","zip":"15522","f&b":36213.1652054794,"geo_score":0.827,"storeno":28,"street":"9402 LINCOLN HWY","id":"a6g1lz902b79","geo_precision":"range","state":"PA"},"type":"Feature","geometry":{"type":"Point","coordinates":[-78.467972,40.015741]}},{"properties":{"city":"BLAIRSVILLE","zip":"15717","f&b":38697.4464109589,"geo_score":0.805,"storeno":29,"street":"5 E MARKET ST","id":"a6g1lz4c2k94","geo_precision":"range","state":"PA"},"type":"Feature","geometry":{"type":"Point","coordinates":[-79.264526,40.430832]}},{"properties":{"city":"INDIANA","zip":"15701","f&b":54147.6553972603,"geo_score":0.823,"storeno":31,"street":"380 PHILADELPHIA ST","id":"a6g1lzadxyjl","geo_precision":"range","state":"PA"},"type":"Feature","geometry":{"type":"Point","coordinates":[-79.145141,40.622846]}},{"properties":{"city":"MCCONNELLSBURG","zip":"17233","f&b":33149.2372054795,"geo_score":0.812,"storeno":32,"street":"720 LINCOLN WAY E","id":"a6g1lz7231co","geo_precision":"range","state":"PA"},"type":"Feature","geometry":{"type":"Point","coordinates":[-77.99057,39.929657]}},{"properties":{"city":"ALTOONA","zip":"16601","f&b":35415.3140273973,"geo_score":0.628,"storeno":33,"street":"718 BELLWOOD RD","id":"a6g1lz6xbowu","geo_precision":"street","state":"PA"},"type":"Feature","geometry":{"type":"Point","coordinates":[-78.391807,40.520887]}},{"properties":{"city":"ALTOONA","zip":"16602","f&b":39202.3732876712,"geo_score":0.73,"storeno":34,"street":"1701 7TH AVE","id":"a6g1lz8b91sk","geo_precision":"range","state":"PA"},"type":"Feature","geometry":{"type":"Point","coordinates":[-78.401677,40.508476]}},{"properties":{"city":"DUNCANSVILLE","zip":"16635","f&b":44105.0946575342,"geo_score":0.708,"storeno":35,"street":"1371 PLANK RD","id":"a6g1lyzm9pdo","geo_precision":"street","state":"PA"},"type":"Feature","geometry":{"type":"Point","coordinates":[-78.313954,40.110156]}},{"properties":{"city":"ALTOONA","zip":"16601","f&b":38882.2276164384,"geo_score":0.744,"storeno":38,"street":"405 EAST 25TH AVE","id":"a6g1lza8sh3n","geo_precision":"range","state":"PA"},"type":"Feature","geometry":{"type":"Point","coordinates":[-78.402213,40.53446]}},{"properties":{"city":"MOUNT UNION","zip":"17066","f&b":26136.440630137,"geo_score":0.811,"storeno":40,"street":"201 N JEFFERSON ST","id":"a6g1lz4dauqp","geo_precision":"range","state":"PA"},"type":"Feature","geometry":{"type":"Point","coordinates":[-77.882915,40.386987]}},{"properties":{"city":"CUMBERLAND","zip":"21502","f&b":25550.1480547945,"geo_score":0.87,"storeno":41,"street":"361 FREDERICK ST","id":"a6g1lz2035nv","geo_precision":"range","state":"MD"},"type":"Feature","geometry":{"type":"Point","coordinates":[-78.759113,39.657387]}},{"properties":{"city":"HANCOCK","zip":"21750","f&b":30270.598630137,"geo_score":0.805,"storeno":43,"street":"192 W MAIN ST","id":"a6g1lz1vmh61","geo_precision":"range","state":"MD"},"type":"Feature","geometry":{"type":"Point","coordinates":[-78.191495,39.698232]}},{"properties":{"city":"EBENSBURG","zip":"15931","f&b":25024.4532328767,"geo_score":0.816,"storeno":45,"street":"948 W HIGH ST","id":"a6g1lyyeet2y","geo_precision":"range","state":"PA"},"type":"Feature","geometry":{"type":"Point","coordinates":[-78.734907,40.482093]}},{"properties":{"city":"CRESAPTOWN","zip":"21502","f&b":33165.7412876712,"geo_score":0.811,"storeno":46,"street":"14606 MCMULLEN HWY SW","id":"a6g1lz9jk34u","geo_precision":"range","state":"MD"},"type":"Feature","geometry":{"type":"Point","coordinates":[-78.830282,39.59493]}},{"properties":{"city":"NANTY GLO","zip":"15943","f&b":30815.9786027397,"geo_score":0.902,"storeno":48,"street":"115 PACE ST","id":"a6g1lzb7xv0w","geo_precision":"range","state":"PA"},"type":"Feature","geometry":{"type":"Point","coordinates":[-78.838861,40.450769]}},{"properties":{"city":"PORTAGE","zip":"15946","f&b":27973.1035068493,"geo_score":0.826,"storeno":49,"street":"411 MAIN ST","id":"a6g1lz9wmk51","geo_precision":"range","state":"PA"},"type":"Feature","geometry":{"type":"Point","coordinates":[-78.672238,40.389673]}},{"properties":{"city":"CUMBERLAND","zip":"21502","f&b":36316.0630958904,"geo_score":0.87,"storeno":51,"street":"210 GREENE ST","id":"a6g1lz162nn9","geo_precision":"range","state":"MD"},"type":"Feature","geometry":{"type":"Point","coordinates":[-78.769523,39.650182]}},{"properties":{"city":"PATTON","zip":"16668","f&b":23950.2460821918,"geo_score":0.827,"storeno":52,"street":"304 MAGEE AVE","id":"a6g1lyyduu7w","geo_precision":"range","state":"PA"},"type":"Feature","geometry":{"type":"Point","coordinates":[-78.645949,40.633869]}},{"properties":{"city":"NORTHERN CAMBRIA","zip":"15714","f&b":34528.4964931507,"geo_score":0.824,"storeno":55,"street":"4025 CRAWFORD AVE","id":"a6g1lz83si2c","geo_precision":"range","state":"PA"},"type":"Feature","geometry":{"type":"Point","coordinates":[-78.782267,40.660402]}},{"properties":{"city":"SOMERSET","zip":"15501","f&b":33139.461369863,"geo_score":0.817,"storeno":57,"street":"457 E MAIN ST","id":"a6g1lyzujniv","geo_precision":"range","state":"PA"},"type":"Feature","geometry":{"type":"Point","coordinates":[-79.070529,40.007201]}},{"properties":{"city":"CLARION","zip":"16214","f&b":31451.5828219178,"geo_score":0.821,"storeno":58,"street":"1281 E MAIN ST","id":"a6g1lz5tk7gi","geo_precision":"range","state":"PA"},"type":"Feature","geometry":{"type":"Point","coordinates":[-79.368348,41.208723]}},{"properties":{"city":"LATROBE","zip":"15650","f&b":51186.752630137,"geo_score":0.822,"storeno":59,"street":"2853 LIGONIER ST","id":"a6g1lz4l8ivi","geo_precision":"range","state":"PA"},"type":"Feature","geometry":{"type":"Point","coordinates":[-79.3717,40.300833]}},{"properties":{"city":"SOMERSET","zip":"15501","f&b":39532.7011780822,"geo_score":0.817,"storeno":60,"street":"118 S ROSINA AVE","id":"a6g1lywxmujt","geo_precision":"range","state":"PA"},"type":"Feature","geometry":{"type":"Point","coordinates":[-79.082919,40.008298]}},{"properties":{"city":"CLYMER","zip":"15728","f&b":23721.1140273973,"geo_score":0.805,"storeno":61,"street":"825 FRANKLIN ST","id":"a6g1lzanqd7i","geo_precision":"range","state":"PA"},"type":"Feature","geometry":{"type":"Point","coordinates":[-79.014535,40.665673]}},{"properties":{"city":"FROSTBURG","zip":"21532","f&b":46838.5503561644,"geo_score":0.709,"storeno":62,"street":"10601 NEW GEORGES CREEK RD SW","id":"a6g1lzahofwr","geo_precision":"range","state":"MD"},"type":"Feature","geometry":{"type":"Point","coordinates":[-78.915672,39.619704]}},{"properties":{"city":"DUBOIS","zip":"15801","f&b":37676.3771232877,"geo_score":0.814,"storeno":63,"street":"701 E DUBOIS AVE","id":"a6g1lz6tc7q8","geo_precision":"range","state":"PA"},"type":"Feature","geometry":{"type":"Point","coordinates":[-78.743817,41.124877]}},{"properties":{"city":"PHILIPSBURG","zip":"16866","f&b":47125.6635068493,"geo_score":0.805,"storeno":64,"street":"808 N FRONT ST","id":"a6g1lz1zmx26","geo_precision":"range","state":"PA"},"type":"Feature","geometry":{"type":"Point","coordinates":[-78.22808,40.902268]}},{"properties":{"city":"JOHNSTOWN","zip":"15906","f&b":43570.2419178082,"geo_score":0.815,"storeno":65,"street":"1000 BROAD ST","id":"a6g1lzb7xtlk","geo_precision":"range","state":"PA"},"type":"Feature","geometry":{"type":"Point","coordinates":[-78.93431,40.342665]}},{"properties":{"city":"BROOKVILLE","zip":"15825","f&b":49751.5443561644,"geo_score":0.707,"storeno":66,"street":"300 W MAIN ST","id":"a6g1lz64v5io","geo_precision":"street","state":"PA"},"type":"Feature","geometry":{"type":"Point","coordinates":[-79.097807,41.163328]}},{"properties":{"city":"WILLIAMSPORT","zip":"21795","f&b":28182.1511232877,"geo_score":0.829,"storeno":68,"street":"100 E POTOMAC ST","id":"a6g1lyzc9fct","geo_precision":"range","state":"MD"},"type":"Feature","geometry":{"type":"Point","coordinates":[-77.818734,39.600497]}},{"properties":{"city":"CHAMBERSBURG","zip":"17201","f&b":43321.1581369863,"geo_score":0.764,"storeno":69,"street":"1 MONTICELLO CT","id":"a6g1lz05l3uc","geo_precision":"range","state":"PA"},"type":"Feature","geometry":{"type":"Point","coordinates":[-77.671983,39.937802]}},{"properties":{"city":"SHIPPENSBURG","zip":"17257","f&b":46046.2683013699,"geo_score":0.813,"storeno":70,"street":"359 E KING ST","id":"a6g1lz1m71lv","geo_precision":"range","state":"PA"},"type":"Feature","geometry":{"type":"Point","coordinates":[-77.514887,40.0533]}},{"properties":{"city":"YOUNGWOOD","zip":"15697","f&b":40210.7135068493,"geo_score":0.707,"storeno":72,"street":"301 N 3RD ST","id":"a6g1lz6un4xp","geo_precision":"range","state":"PA"},"type":"Feature","geometry":{"type":"Point","coordinates":[-79.575972,40.242619]}},{"properties":{"city":"CLEARFIELD","zip":"16830","f&b":45542.3281369863,"geo_score":0.815,"storeno":73,"street":"101 NICHOLS ST","id":"a6g1lz25yt6o","geo_precision":"range","state":"PA"},"type":"Feature","geometry":{"type":"Point","coordinates":[-78.440469,41.02728]}},{"properties":{"city":"HAGERSTOWN","zip":"21740","f&b":24013.7431780822,"geo_score":0.815,"storeno":74,"street":"700 POTOMAC AVE","id":"a6g1lyx209ln","geo_precision":"range","state":"MD"},"type":"Feature","geometry":{"type":"Point","coordinates":[-77.71217,39.65071]}},{"properties":{"city":"SLIPPERY ROCK","zip":"16057","f&b":41923.4873150685,"geo_score":0.829,"storeno":75,"street":"304 S MAIN ST","id":"a6g1lz4oscza","geo_precision":"range","state":"PA"},"type":"Feature","geometry":{"type":"Point","coordinates":[-80.054352,41.062223]}},{"properties":{"city":"CHAMBERSBURG","zip":"17201","f&b":34615.4639178082,"geo_score":0.62,"storeno":76,"street":"1315 LINCOLN WAY E","id":"a6g1lyvj15w3","geo_precision":"street","state":"PA"},"type":"Feature","geometry":{"type":"Point","coordinates":[-77.632379,39.928233]}},{"properties":{"city":"PUNXSUTAWNEY","zip":"15767","f&b":42061.9143287671,"geo_score":0.813,"storeno":79,"street":"100 ELK RUN AVE","id":"a6g1lzawn3ax","geo_precision":"range","state":"PA"},"type":"Feature","geometry":{"type":"Point","coordinates":[-78.963847,40.949677]}},{"properties":{"city":"HAGERSTOWN","zip":"21740","f&b":38853.0032876712,"geo_score":0.815,"storeno":82,"street":"301 E WASHINGTON ST","id":"a6g1lz4t9y78","geo_precision":"range","state":"MD"},"type":"Feature","geometry":{"type":"Point","coordinates":[-77.714739,39.63942]}},{"properties":{"city":"FRANKLIN","zip":"16323","f&b":35276.0447123288,"geo_score":0.824,"storeno":84,"street":"1107 LIBERTY ST","id":"a6g1lyw62ntg","geo_precision":"range","state":"PA"},"type":"Feature","geometry":{"type":"Point","coordinates":[-79.826491,41.395132]}},{"properties":{"city":"JOHNSTOWN","zip":"15905","f&b":23739.1671232877,"geo_score":0.827,"storeno":86,"street":"1791 GOUCHER ST","id":"a6g1lz40gpbh","geo_precision":"range","state":"PA"},"type":"Feature","geometry":{"type":"Point","coordinates":[-78.951373,40.3261]}},{"properties":{"city":"SCOTTDALE","zip":"15683","f&b":27002.8051232877,"geo_score":0.823,"storeno":87,"street":"5 S BROADWAY ST","id":"a6g1lyzmqtrw","geo_precision":"range","state":"PA"},"type":"Feature","geometry":{"type":"Point","coordinates":[-79.587151,40.100238]}},{"properties":{"city":"MEYERSDALE","zip":"15552","f&b":26774.0917260274,"geo_score":0.815,"storeno":89,"street":"24 CENTER ST","id":"a6g1lz4drbyt","geo_precision":"range","state":"PA"},"type":"Feature","geometry":{"type":"Point","coordinates":[-79.026097,39.812568]}},{"properties":{"city":"MONONGAHELA","zip":"15063","f&b":41912.5304931507,"geo_score":0.812,"storeno":92,"street":"111 E MAIN ST","id":"a6g1lz9i3nvn","geo_precision":"range","state":"PA"},"type":"Feature","geometry":{"type":"Point","coordinates":[-79.921819,40.199708]}},{"properties":{"city":"RIDGWAY","zip":"15853","f&b":42976.1030136986,"geo_score":0.805,"storeno":96,"street":"138 N BROAD ST","id":"a6g1lz3c3cd4","geo_precision":"range","state":"PA"},"type":"Feature","geometry":{"type":"Point","coordinates":[-78.730989,41.424316]}},{"properties":{"city":"NEW KENSINGTON","zip":"15068","f&b":26666.230739726,"geo_score":0.695,"storeno":99,"street":"700 7TH ST","id":"a6g1lywiav8i","geo_precision":"range","state":"PA"},"type":"Feature","geometry":{"type":"Point","coordinates":[-79.76311,40.562729]}},{"properties":{"city":"ALTOONA","zip":"16602","f&b":23800.8225479452,"geo_score":0.827,"storeno":100,"street":"1661 E PLEASANT VALLEY BLVD","id":"a6g1lz476i2v","geo_precision":"range","state":"PA"},"type":"Feature","geometry":{"type":"Point","coordinates":[-78.355098,40.540093]}},{"properties":{"city":"FORD CITY","zip":"16226","f&b":32118.2910136986,"geo_score":0.824,"storeno":101,"street":"503 MAIN ST","id":"a6g1lz643w6w","geo_precision":"range","state":"PA"},"type":"Feature","geometry":{"type":"Point","coordinates":[-79.527296,40.765721]}},{"properties":{"city":"SIDMAN","zip":"15955","f&b":22728.7249863014,"geo_score":0.622,"storeno":113,"street":"101 FOREST HILLS DR BOX 188","id":"a6g1lz3lgtcs","geo_precision":"street","state":"PA"},"type":"Feature","geometry":{"type":"Point","coordinates":[-78.747228,40.328627]}},{"properties":{"city":"KITTANNING","zip":"16201","f&b":41112.7643835616,"geo_score":0.824,"storeno":114,"street":"100 WALNUT ST","id":"a6g1lz389ajq","geo_precision":"range","state":"PA"},"type":"Feature","geometry":{"type":"Point","coordinates":[-79.516933,40.809492]}},{"properties":{"city":"PITTSBURGH","zip":"15237","f&b":34289.7289863014,"geo_score":0.815,"storeno":115,"street":"8607 PERRY HWY","id":"a6g1lz845kla","geo_precision":"range","state":"PA"},"type":"Feature","geometry":{"type":"Point","coordinates":[-80.039399,40.561131]}},{"properties":{"city":"GREENCASTLE","zip":"17225","f&b":29761.9999178082,"geo_score":0.814,"storeno":116,"street":"215 W BALTIMORE ST","id":"a6g1lz332b31","geo_precision":"range","state":"PA"},"type":"Feature","geometry":{"type":"Point","coordinates":[-77.730308,39.791033]}},{"properties":{"city":"HARRISVILLE","zip":"16038","f&b":31040.9144931507,"geo_score":0.823,"storeno":121,"street":"103 N MAIN ST","id":"a6g1lz29ktis","geo_precision":"range","state":"PA"},"type":"Feature","geometry":{"type":"Point","coordinates":[-80.009287,41.13684]}},{"properties":{"city":"STATE COLLEGE","zip":"16803","f&b":33213.7704931507,"geo_score":0.902,"storeno":122,"street":"1781 N ATHERTON ST","id":"a6g1lz74m9hk","geo_precision":"range","state":"PA"},"type":"Feature","geometry":{"type":"Point","coordinates":[-77.901864,40.808816]}},{"properties":{"city":"GIBSONIA","zip":"15044","f&b":41861.1355342466,"geo_score":0.494,"storeno":123,"street":"5300 ROUTE 8","id":"a6g1lz242zwq","geo_precision":"street","state":"PA"},"type":"Feature","geometry":{"type":"Point","coordinates":[-79.934372,40.654735]}},{"properties":{"city":"CONNELLSVILLE","zip":"15425","f&b":28433.1183835616,"geo_score":0.82,"storeno":124,"street":"1002 W CRAWFORD AVE","id":"a6g1lz6e66d2","geo_precision":"range","state":"PA"},"type":"Feature","geometry":{"type":"Point","coordinates":[-79.600013,40.016263]}},{"properties":{"city":"BERKELEY SPRINGS","zip":"25411","f&b":25978.5072054795,"geo_score":0.823,"storeno":126,"street":"245 S WASHINGTON ST","id":"a6g1lz2uxzc3","geo_precision":"range","state":"WV"},"type":"Feature","geometry":{"type":"Point","coordinates":[-78.229023,39.625045]}},{"properties":{"city":"CARROLLTOWN","zip":"15722","f&b":25574.7458630137,"geo_score":0.652,"storeno":127,"street":"128 MAIN ST BOX 305","id":"a6g1lz531r0x","geo_precision":"range","state":"PA"},"type":"Feature","geometry":{"type":"Point","coordinates":[-78.708979,40.603152]}},{"properties":{"city":"ROCHESTER","zip":"15074","f&b":36129.1740273973,"geo_score":0.815,"storeno":128,"street":"494 ADAMS ST","id":"a6g1lz9644nw","geo_precision":"range","state":"PA"},"type":"Feature","geometry":{"type":"Point","coordinates":[-80.278122,40.704592]}},{"properties":{"city":"CUMBERLAND","zip":"21502","f&b":33623.1055616438,"geo_score":0.87,"storeno":129,"street":"429 VIRGINIA AVE","id":"a6g1lz6n4cc1","geo_precision":"range","state":"MD"},"type":"Feature","geometry":{"type":"Point","coordinates":[-78.764034,39.634069]}},{"properties":{"city":"CREIGHTON","zip":"15030","f&b":28299.6042191781,"geo_score":0.834,"storeno":130,"street":"899 FREEPORT RD","id":"a6g1lz59fj8h","geo_precision":"range","state":"PA"},"type":"Feature","geometry":{"type":"Point","coordinates":[-79.77836,40.577104]}},{"properties":{"city":"TANEYTOWN","zip":"21787","f&b":25637.032630137,"geo_score":0.805,"storeno":132,"street":"226 E BALTIMORE ST","id":"a6g1lz34pp70","geo_precision":"range","state":"MD"},"type":"Feature","geometry":{"type":"Point","coordinates":[-77.172015,39.65624]}},{"properties":{"city":"MARS","zip":"16046","f&b":42184.5531780822,"geo_score":0.902,"storeno":133,"street":"1338 FREEDOM RD","id":"a6g1lz9bdwb5","geo_precision":"range","state":"PA"},"type":"Feature","geometry":{"type":"Point","coordinates":[-80.104576,40.684787]}},{"properties":{"city":"MERCER","zip":"16137","f&b":27769.2287945205,"geo_score":0.821,"storeno":136,"street":"105 N ERIE ST","id":"a6g1lzamsfxd","geo_precision":"range","state":"PA"},"type":"Feature","geometry":{"type":"Point","coordinates":[-80.239936,41.227355]}},{"properties":{"city":"KEARNEYSVILLE","zip":"25430","f&b":27733.4403835616,"geo_score":0.625,"storeno":137,"street":"3728 CHARLES TOWN RD","id":"a6g1lzaoy42g","geo_precision":"street","state":"WV"},"type":"Feature","geometry":{"type":"Point","coordinates":[-77.926491,39.423103]}},{"properties":{"city":"GREENVILLE","zip":"16125","f&b":33044.2291506849,"geo_score":0.815,"storeno":139,"street":"294 MAIN ST","id":"a6g1lyx5b2t8","geo_precision":"range","state":"PA"},"type":"Feature","geometry":{"type":"Point","coordinates":[-80.383165,41.40699]}},{"properties":{"city":"LITTLESTOWN","zip":"17340","f&b":32316.2343287671,"geo_score":0.823,"storeno":141,"street":"35 E KING ST","id":"a6g1lz3pwwbv","geo_precision":"range","state":"PA"},"type":"Feature","geometry":{"type":"Point","coordinates":[-77.086995,39.745321]}},{"properties":{"city":"INWOOD","zip":"25428","f&b":37275.887369863,"geo_score":0.707,"storeno":143,"street":"7899 WINCHESTER AVE","id":"a6g1lz1uycco","geo_precision":"street","state":"WV"},"type":"Feature","geometry":{"type":"Point","coordinates":[-77.987719,39.425647]}},{"properties":{"city":"MOOREFIELD","zip":"26836","f&b":26765.0312328767,"geo_score":0.815,"storeno":144,"street":"701 N MAIN ST","id":"a6g1lz7jpvdc","geo_precision":"range","state":"WV"},"type":"Feature","geometry":{"type":"Point","coordinates":[-78.967322,39.07186]}},{"properties":{"city":"HAGERSTOWN","zip":"21742","f&b":48830.0031780822,"geo_score":0.902,"storeno":145,"street":"18717 LONGMEADOW RD","id":"a6g1lz8w0v6t","geo_precision":"range","state":"MD"},"type":"Feature","geometry":{"type":"Point","coordinates":[-77.72037,39.686105]}},{"properties":{"city":"BROCKWAY","zip":"15824","f&b":31277.4866849315,"geo_score":0.805,"storeno":146,"street":"1408 MAIN ST","id":"a6g1lz3e963b","geo_precision":"range","state":"PA"},"type":"Feature","geometry":{"type":"Point","coordinates":[-78.7869,41.246891]}},{"properties":{"city":"OAKLAND","zip":"21550","f&b":33844.076,"geo_score":0.707,"storeno":147,"street":"5 N 3RD ST","id":"a6g1lyzmndlz","geo_precision":"range","state":"MD"},"type":"Feature","geometry":{"type":"Point","coordinates":[-79.405646,39.410418]}},{"properties":{"city":"DUBOIS","zip":"15801","f&b":35737.2014520548,"geo_score":0.497,"storeno":148,"street":"2120 BLINKER PKWY","id":"a6g1lz3xpusa","geo_precision":"zip","state":"PA"},"type":"Feature","geometry":{"type":"Point","coordinates":[-78.786975,41.078951]}},{"properties":{"city":"DUBOIS","zip":"15801","f&b":33464.8133150685,"geo_score":0.814,"storeno":149,"street":"124 N BRADY ST","id":"a6g1lz6etfo8","geo_precision":"range","state":"PA"},"type":"Feature","geometry":{"type":"Point","coordinates":[-78.760855,41.11921]}},{"properties":{"city":"STATE COLLEGE","zip":"16801","f&b":30237.9790136986,"geo_score":0.813,"storeno":150,"street":"2000 E COLLEGE AVE","id":"a6g1lz787y12","geo_precision":"range","state":"PA"},"type":"Feature","geometry":{"type":"Point","coordinates":[-77.818589,40.818155]}},{"properties":{"city":"EMPORIUM","zip":"15834","f&b":28704.063260274,"geo_score":0.729,"storeno":151,"street":"1 W 4TH ST","id":"a6g1lz5mvj0p","geo_precision":"range","state":"PA"},"type":"Feature","geometry":{"type":"Point","coordinates":[-78.237746,41.511531]}},{"properties":{"city":"BEAVER FALLS","zip":"15010","f&b":34589.2041369863,"geo_score":0.732,"storeno":152,"street":"3611 4TH AVE","id":"a6g1lz0c5avx","geo_precision":"range","state":"PA"},"type":"Feature","geometry":{"type":"Point","coordinates":[-80.324323,40.777263]}},{"properties":{"city":"MEADVILLE","zip":"16335","f&b":26725.2904109589,"geo_score":0.844,"storeno":153,"street":"18425 SMOCK HWY","id":"a6g1lz3t2tzu","geo_precision":"range","state":"PA"},"type":"Feature","geometry":{"type":"Point","coordinates":[-80.168683,41.62053]}},{"properties":{"city":"GREENSBURG","zip":"15601","f&b":46327.0189315068,"geo_score":0.805,"storeno":154,"street":"211 HARVEY AVE","id":"a6g1lyx7bas1","geo_precision":"range","state":"PA"},"type":"Feature","geometry":{"type":"Point","coordinates":[-79.539341,40.306981]}},{"properties":{"city":"MARTINSBURG","zip":"25401","f&b":30346.0722465753,"geo_score":0.823,"storeno":155,"street":"1617 W KING ST","id":"a6g1lyz8gxea","geo_precision":"range","state":"WV"},"type":"Feature","geometry":{"type":"Point","coordinates":[-77.98665,39.463065]}},{"properties":{"city":"LEWISTOWN","zip":"17044","f&b":34579.7127123288,"geo_score":0.786,"storeno":158,"street":"113 JUNIATA STREET","id":"a6g1lyuwlz7w","geo_precision":"range","state":"PA"},"type":"Feature","geometry":{"type":"Point","coordinates":[-77.580829,40.595557]}},{"properties":{"city":"CONNEAUT LAKE","zip":"16316","f&b":35476.2554520548,"geo_score":0.659,"storeno":159,"street":"315 WATER ST BOX 5096","id":"a6g1lz6c54gv","geo_precision":"range","state":"PA"},"type":"Feature","geometry":{"type":"Point","coordinates":[-80.304504,41.603291]}},{"properties":{"city":"SHEPHERDSTOWN","zip":"25443","f&b":24139.3952876712,"geo_score":0.497,"storeno":160,"street":"8332 MARTINSBURG PIKE","id":"a6g1lz0bqvuh","geo_precision":"street","state":"WV"},"type":"Feature","geometry":{"type":"Point","coordinates":[-77.834263,39.43576]}},{"properties":{"city":"FREDERICK","zip":"21701","f&b":36914.4200273973,"geo_score":0.625,"storeno":161,"street":"5601 BUCKEYSTOWN PIKE","id":"a6g1lz0xsc8s","geo_precision":"street","state":"MD"},"type":"Feature","geometry":{"type":"Point","coordinates":[-77.431545,39.335993]}},{"properties":{"city":"JOHNSTOWN","zip":"15904","f&b":34506.432109589,"geo_score":0.816,"storeno":162,"street":"1500 SCALP AVE","id":"a6g1lz342sll","geo_precision":"range","state":"PA"},"type":"Feature","geometry":{"type":"Point","coordinates":[-78.857899,40.271083]}},{"properties":{"city":"HAGERSTOWN","zip":"21740","f&b":30687.196630137,"geo_score":0.815,"storeno":163,"street":"17550 VIRGINIA AVE","id":"a6g1lz60p21w","geo_precision":"range","state":"MD"},"type":"Feature","geometry":{"type":"Point","coordinates":[-77.762335,39.619281]}},{"properties":{"city":"WESTMINSTER","zip":"21157","f&b":24465.4056164384,"geo_score":0.831,"storeno":164,"street":"304 E MAIN ST","id":"a6g1lz5ctffv","geo_precision":"range","state":"MD"},"type":"Feature","geometry":{"type":"Point","coordinates":[-76.987078,39.566447]}},{"properties":{"city":"COUDERSPORT","zip":"16915","f&b":36718.8352328767,"geo_score":0.699,"storeno":165,"street":"208 S MAIN ST","id":"a6g1lz62shgz","geo_precision":"range","state":"PA"},"type":"Feature","geometry":{"type":"Point","coordinates":[-78.021344,41.770475]}},{"properties":{"city":"PORT ALLEGANY","zip":"16743","f&b":37967.09,"geo_score":0.821,"storeno":166,"street":"101 N MAIN ST","id":"a6g1lyywjp7m","geo_precision":"range","state":"PA"},"type":"Feature","geometry":{"type":"Point","coordinates":[-78.281345,41.812428]}},{"properties":{"city":"CORRIGANVILLE","zip":"21524","f&b":27303.6371232877,"geo_score":0.767,"storeno":167,"street":"100 E MAIN ST BOX 298","id":"a6g1lz042ewn","geo_precision":"range","state":"MD"},"type":"Feature","geometry":{"type":"Point","coordinates":[-78.926001,39.656188]}},{"properties":{"city":"KEYSER","zip":"26726","f&b":30872.1201369863,"geo_score":0.344,"storeno":168,"street":"1280 NEW CREEK HIGHWAY","id":"a6g1lz6dcqf1","geo_precision":"street","state":"WV"},"type":"Feature","geometry":{"type":"Point","coordinates":[-78.975472,39.458576]}},{"properties":{"city":"EAST FREEDOM","zip":"16637","f&b":32855.1426575342,"geo_score":0.707,"storeno":169,"street":"8711 WOODBURY PIKE","id":"a6g1lzarrvsj","geo_precision":"street","state":"PA"},"type":"Feature","geometry":{"type":"Point","coordinates":[-78.366556,40.264851]}},{"properties":{"city":"INDIANA","zip":"15701","f&b":42955.8595890411,"geo_score":0.823,"storeno":170,"street":"525 BEN FRANKLIN RD S","id":"a6g1lz0wfa5n","geo_precision":"range","state":"PA"},"type":"Feature","geometry":{"type":"Point","coordinates":[-79.189509,40.611398]}},{"properties":{"city":"PHILIPPI","zip":"26416","f&b":26214.9948219178,"geo_score":0.643,"storeno":171,"street":"125 N MAIN ST","id":"a6g1lyw96jsn","geo_precision":"street","state":"WV"},"type":"Feature","geometry":{"type":"Point","coordinates":[-80.04084,39.152964]}},{"properties":{"city":"LIGONIER","zip":"15658","f&b":28220.8891232877,"geo_score":0.621,"storeno":173,"street":"3832 STATE ROUTE 711","id":"a6g1lyzic126","geo_precision":"street","state":"PA"},"type":"Feature","geometry":{"type":"Point","coordinates":[-79.231568,40.246508]}},{"properties":{"city":"BELINGTON","zip":"26250","f&b":22561.1035616438,"geo_score":0.827,"storeno":174,"street":"103 E CRIM AVE","id":"a6g1lyym8h6m","geo_precision":"range","state":"WV"},"type":"Feature","geometry":{"type":"Point","coordinates":[-79.934249,39.015826]}},{"properties":{"city":"PARSONS","zip":"26287","f&b":17214.9367945205,"geo_score":0.604,"storeno":175,"street":"200 1ST ST","id":"a6g1lz4jcffv","geo_precision":"street","state":"WV"},"type":"Feature","geometry":{"type":"Point","coordinates":[-79.675586,39.098161]}},{"properties":{"city":"KNOXVILLE","zip":"21758","f&b":40086.9088219178,"geo_score":0.692,"storeno":176,"street":"3842 BURKITTSVILLE RD","id":"a6g1lzaluchg","geo_precision":"range","state":"MD"},"type":"Feature","geometry":{"type":"Point","coordinates":[-77.638447,39.336099]}},{"properties":{"city":"MANCHESTER","zip":"21102","f&b":33000.635260274,"geo_score":0.834,"storeno":177,"street":"3281 MAIN ST","id":"a6g1lz0va07h","geo_precision":"range","state":"MD"},"type":"Feature","geometry":{"type":"Point","coordinates":[-76.886292,39.664069]}},{"properties":{"city":"CHAMBERSBURG","zip":"17201","f&b":31898.1876164384,"geo_score":0.813,"storeno":178,"street":"5234 PHILADELPHIA AVE","id":"a6g1lz8mt6l5","geo_precision":"range","state":"PA"},"type":"Feature","geometry":{"type":"Point","coordinates":[-77.607326,39.992476]}},{"properties":{"city":"SOMERSET","zip":"15501","f&b":26371.3901643836,"geo_score":0.817,"storeno":179,"street":"1212 N CENTER AVE","id":"a6g1lz0p78cx","geo_precision":"range","state":"PA"},"type":"Feature","geometry":{"type":"Point","coordinates":[-79.077169,40.022826]}},{"properties":{"city":"ROMNEY","zip":"26757","f&b":26416.302739726,"geo_score":0.775,"storeno":180,"street":"136 E MAIN ST","id":"a6g1lz4bufpa","geo_precision":"range","state":"WV"},"type":"Feature","geometry":{"type":"Point","coordinates":[-78.757914,39.342438]}},{"properties":{"city":"BELLEFONTE","zip":"16823","f&b":34752.110630137,"geo_score":0.824,"storeno":181,"street":"820 S EAGLE VALLEY RD","id":"a6g1lz4nk82g","geo_precision":"range","state":"PA"},"type":"Feature","geometry":{"type":"Point","coordinates":[-77.815262,40.934366]}},{"properties":{"city":"BRIDGEPORT","zip":"26330","f&b":36612.4720547945,"geo_score":0.815,"storeno":182,"street":"1220 JOHNSON AVE","id":"a6g1lz32s671","geo_precision":"range","state":"WV"},"type":"Feature","geometry":{"type":"Point","coordinates":[-80.277506,39.300061]}},{"properties":{"city":"CONNELLSVILLE","zip":"15425","f&b":42058.0071780822,"geo_score":0.82,"storeno":183,"street":"2601 MEMORIAL BLVD","id":"a6g1lyxpqan1","geo_precision":"range","state":"PA"},"type":"Feature","geometry":{"type":"Point","coordinates":[-79.56168,40.055089]}},{"properties":{"city":"HAGERSTOWN","zip":"21740","f&b":45979.489260274,"geo_score":0.498,"storeno":184,"street":"12404 LAGER AVE","id":"a6g1lz3hczvv","geo_precision":"zip","state":"MD"},"type":"Feature","geometry":{"type":"Point","coordinates":[-77.738605,39.660651]}},{"properties":{"city":"CHAMBERSBURG","zip":"17201","f&b":30125.7120547945,"geo_score":0.813,"storeno":185,"street":"900 WAYNE AVE","id":"a6g1lz8sx524","geo_precision":"range","state":"PA"},"type":"Feature","geometry":{"type":"Point","coordinates":[-77.653595,39.914517]}},{"properties":{"city":"WINCHESTER","zip":"22601","f&b":34345.0117260274,"geo_score":0.556,"storeno":186,"street":"1503 N FREDERICK PIKE","id":"a6g1lyvfs5bb","geo_precision":"street","state":"VA"},"type":"Feature","geometry":{"type":"Point","coordinates":[-78.143549,39.185122]}},{"properties":{"city":"ALTOONA","zip":"16602","f&b":30178.9122465753,"geo_score":0.827,"storeno":187,"street":"400 E PLANK RD","id":"a6g1lz20b5g1","geo_precision":"range","state":"PA"},"type":"Feature","geometry":{"type":"Point","coordinates":[-78.40261,40.48016]}},{"properties":{"city":"TRANSFER","zip":"16154","f&b":22178.8692328767,"geo_score":0.88,"storeno":188,"street":"270 EDGEWOOD DRIVE EXT","id":"a6g1lz89j4op","geo_precision":"range","state":"PA"},"type":"Feature","geometry":{"type":"Point","coordinates":[-80.414308,41.330123]}},{"properties":{"city":"SPRINGDALE","zip":"15144","f&b":30211.8390958904,"geo_score":0.834,"storeno":189,"street":"627 PITTSBURGH ST","id":"a6g1lyz0aksa","geo_precision":"range","state":"PA"},"type":"Feature","geometry":{"type":"Point","coordinates":[-79.783144,40.541067]}},{"properties":{"city":"PITTSBURGH","zip":"15239","f&b":35936.9883561644,"geo_score":0.82,"storeno":190,"street":"2003 GOLDEN MILE HWY","id":"a6g1lyzfsovf","geo_precision":"range","state":"PA"},"type":"Feature","geometry":{"type":"Point","coordinates":[-79.707604,40.458988]}},{"properties":{"city":"CARLISLE","zip":"17013","f&b":29835.3495616438,"geo_score":0.72,"storeno":191,"street":"1098 HARRISBURG PIKE","id":"a6g1lyyubbr1","geo_precision":"street","state":"PA"},"type":"Feature","geometry":{"type":"Point","coordinates":[-77.162173,40.221434]}},{"properties":{"city":"BOYCE","zip":"22620","f&b":36164.8467945205,"geo_score":0.637,"storeno":192,"street":"12582 LORD FAIRFAX HWY","id":"a6g1lz3e77k3","geo_precision":"street","state":"VA"},"type":"Feature","geometry":{"type":"Point","coordinates":[-78.085092,39.081233]}},{"properties":{"city":"MIFFLINTOWN","zip":"17059","f&b":44844.6220273973,"geo_score":0.443,"storeno":193,"street":"24578 ROUTE 35 N","id":"a6g1lz231j5l","geo_precision":"street","state":"PA"},"type":"Feature","geometry":{"type":"Point","coordinates":[-77.388207,40.573595]}},{"properties":{"city":"FALLS CREEK","zip":"15840","f&b":47790.739260274,"geo_score":0.488,"storeno":194,"street":"1867 RICH HWY","id":"a6g1lz0ym63o","geo_precision":"zip","state":"PA"},"type":"Feature","geometry":{"type":"Point","coordinates":[-78.852809,41.144507]}},{"properties":{"city":"MECHANICSBURG","zip":"17050","f&b":37221.1565753425,"geo_score":0.902,"storeno":195,"street":"6558 CARLISLE PIKE","id":"a6g1lyy6t5qs","geo_precision":"range","state":"PA"},"type":"Feature","geometry":{"type":"Point","coordinates":[-77.029481,40.246112]}},{"properties":{"city":"CRESSON","zip":"16630","f&b":39231.1609315068,"geo_score":0.805,"storeno":196,"street":"7551 ADMIRAL PEARY HWY","id":"a6g1lz5zdjna","geo_precision":"range","state":"PA"},"type":"Feature","geometry":{"type":"Point","coordinates":[-78.593673,40.459514]}},{"properties":{"city":"STEPHENS CITY","zip":"22655","f&b":30276.606739726,"geo_score":0.691,"storeno":197,"street":"747 FAIRFAX ST","id":"a6g1lyx9wl30","geo_precision":"range","state":"VA"},"type":"Feature","geometry":{"type":"Point","coordinates":[-78.216564,39.082178]}},{"properties":{"city":"WOODSTOCK","zip":"22664","f&b":30851.7595342466,"geo_score":0.816,"storeno":198,"street":"111 W RESERVOIR RD","id":"a6g1lyxu2k85","geo_precision":"range","state":"VA"},"type":"Feature","geometry":{"type":"Point","coordinates":[-78.518411,38.867188]}},{"properties":{"city":"HANOVER","zip":"17331","f&b":28150.2320821918,"geo_score":0.827,"storeno":199,"street":"1191 CARLISLE ST","id":"a6g1lyuz1p73","geo_precision":"range","state":"PA"},"type":"Feature","geometry":{"type":"Point","coordinates":[-76.997282,39.822888]}},{"properties":{"city":"THURMONT","zip":"21788","f&b":35589.8928767123,"geo_score":0.817,"storeno":200,"street":"428 N CHURCH ST","id":"a6g1lz37xrpf","geo_precision":"range","state":"MD"},"type":"Feature","geometry":{"type":"Point","coordinates":[-77.41068,39.632533]}},{"properties":{"city":"MECHANICSBURG","zip":"17055","f&b":38918.5629863014,"geo_score":0.812,"storeno":201,"street":"1415 S MARKET ST","id":"a6g1lyv5brl7","geo_precision":"range","state":"PA"},"type":"Feature","geometry":{"type":"Point","coordinates":[-76.992214,40.192955]}},{"properties":{"city":"HERMITAGE","zip":"16148","f&b":39940.6567671233,"geo_score":0.902,"storeno":202,"street":"2381 S HERMITAGE RD","id":"a6g1lz00j5et","geo_precision":"range","state":"PA"},"type":"Feature","geometry":{"type":"Point","coordinates":[-80.456485,41.201556]}},{"properties":{"city":"WINCHESTER","zip":"22601","f&b":28765.9559178082,"geo_score":0.834,"storeno":203,"street":"2311 VALLEY AVE","id":"a6g1lz255016","geo_precision":"range","state":"VA"},"type":"Feature","geometry":{"type":"Point","coordinates":[-78.185251,39.160593]}},{"properties":{"city":"MURRYSVILLE","zip":"15668","f&b":48224.4765205479,"geo_score":0.823,"storeno":204,"street":"4701 WILLIAM PENN HWY","id":"a6g1lz56jryf","geo_precision":"range","state":"PA"},"type":"Feature","geometry":{"type":"Point","coordinates":[-79.666923,40.424313]}},{"properties":{"city":"HAYMARKET","zip":"20169","f&b":49340.1846575342,"geo_score":0.902,"storeno":205,"street":"15315 WASHINGTON ST","id":"a6g1lz4g1zvs","geo_precision":"range","state":"VA"},"type":"Feature","geometry":{"type":"Point","coordinates":[-77.642527,38.815314]}},{"properties":{"city":"WESTON","zip":"26452","f&b":35567.6610684932,"geo_score":0.502,"storeno":206,"street":"39 BERLIN RD","id":"a6g1lz53to8d","geo_precision":"zip","state":"WV"},"type":"Feature","geometry":{"type":"Point","coordinates":[-80.509259,39.047871]}},{"properties":{"city":"WINCHESTER","zip":"22602","f&b":36901.1269315068,"geo_score":0.645,"storeno":207,"street":"1683 BERRYVILLE PIKE","id":"a6g1lz0gc41q","geo_precision":"street","state":"VA"},"type":"Feature","geometry":{"type":"Point","coordinates":[-78.137796,39.184735]}},{"properties":{"city":"WINCHESTER","zip":"22601","f&b":38308.0091780822,"geo_score":0.737,"storeno":208,"street":"601 MILLWOOD AVE","id":"a6g1lz66pvpa","geo_precision":"street","state":"VA"},"type":"Feature","geometry":{"type":"Point","coordinates":[-78.161814,39.165819]}},{"properties":{"city":"BOONSBORO","zip":"21713","f&b":47091.4967945205,"geo_score":0.823,"storeno":209,"street":"20723 NATIONAL PIKE","id":"a6g1lz0f6efe","geo_precision":"range","state":"MD"},"type":"Feature","geometry":{"type":"Point","coordinates":[-77.650469,39.574024]}},{"properties":{"city":"WALKERSVILLE","zip":"21793","f&b":42768.0576438356,"geo_score":0.82,"storeno":210,"street":"8408 WOODSBORO PIKE","id":"a6g1lz10rpmg","geo_precision":"range","state":"MD"},"type":"Feature","geometry":{"type":"Point","coordinates":[-77.364115,39.465161]}},{"properties":{"city":"PALMYRA","zip":"17078","f&b":33193.5309041095,"geo_score":0.816,"storeno":211,"street":"811 E MAIN ST","id":"a6g1lyzmordg","geo_precision":"range","state":"PA"},"type":"Feature","geometry":{"type":"Point","coordinates":[-76.585588,40.312478]}},{"properties":{"city":"PETERSBURG","zip":"26847","f&b":27722.3744383562,"geo_score":0.622,"storeno":212,"street":"299 BRYAN ST","id":"a6g1lz5jb0i3","geo_precision":"street","state":"WV"},"type":"Feature","geometry":{"type":"Point","coordinates":[-79.128577,38.99578]}},{"properties":{"city":"BLOOMSBURG","zip":"17815","f&b":32977.6382465753,"geo_score":0.64,"storeno":213,"street":"2511 NEW BERWICK HWY","id":"a6g1lz0e9xmx","geo_precision":"street","state":"PA"},"type":"Feature","geometry":{"type":"Point","coordinates":[-76.385217,41.019208]}},{"properties":{"city":"BUCKHANNON","zip":"26201","f&b":35347.4752054795,"geo_score":0.507,"storeno":214,"street":"4 CLARKSBURG RD","id":"a6g1lz3gcsh4","geo_precision":"zip","state":"WV"},"type":"Feature","geometry":{"type":"Point","coordinates":[-80.223971,38.963433]}},{"properties":{"city":"HUNTINGDON","zip":"16652","f&b":39476.2683287671,"geo_score":0.414,"storeno":215,"street":"9681 WILLIAM PENN HWY","id":"a6g1lz186xc9","geo_precision":"street","state":"PA"},"type":"Feature","geometry":{"type":"Point","coordinates":[-78.022516,40.503258]}},{"properties":{"city":"ELYSBURG","zip":"17824","f&b":35830.3605205479,"geo_score":0.82,"storeno":216,"street":"38 S MARKET ST","id":"a6g1lyygxzg6","geo_precision":"range","state":"PA"},"type":"Feature","geometry":{"type":"Point","coordinates":[-76.549208,40.861605]}},{"properties":{"city":"BUTLER","zip":"16001","f&b":34043.7848493151,"geo_score":0.902,"storeno":217,"street":"100 FREEPORT RD","id":"a6g1lywtu16y","geo_precision":"range","state":"PA"},"type":"Feature","geometry":{"type":"Point","coordinates":[-79.881242,40.844615]}},{"properties":{"city":"HARRISONBURG","zip":"22801","f&b":33811.5864109589,"geo_score":0.813,"storeno":218,"street":"533 UNIVERSITY BLVD","id":"a6g1lz5mxtq6","geo_precision":"range","state":"VA"},"type":"Feature","geometry":{"type":"Point","coordinates":[-78.8563,38.428929]}},{"properties":{"city":"HARRISBURG","zip":"17112","f&b":35201.1280273973,"geo_score":0.814,"storeno":219,"street":"2300 COLONIAL RD","id":"a6g1lz67o609","geo_precision":"range","state":"PA"},"type":"Feature","geometry":{"type":"Point","coordinates":[-76.825866,40.337723]}},{"properties":{"city":"MARTINSBURG","zip":"25404","f&b":35754.0024109589,"geo_score":0.553,"storeno":220,"street":"1465 EDWIN MILLER BLVD","id":"a6g1lz7npjnw","geo_precision":"street","state":"WV"},"type":"Feature","geometry":{"type":"Point","coordinates":[-122.297117,37.525435]}},{"properties":{"city":"BEALETON","zip":"22712","f&b":58223.4332054795,"geo_score":0.805,"storeno":221,"street":"10101 JAMES MADISON HWY","id":"a6g1lz1qxud5","geo_precision":"range","state":"VA"},"type":"Feature","geometry":{"type":"Point","coordinates":[-77.800485,38.618832]}},{"properties":{"city":"HARRISONBURG","zip":"22801","f&b":33418.2437534247,"geo_score":0.813,"storeno":222,"street":"1825 S MAIN ST","id":"a6g1lyw47is6","geo_precision":"range","state":"VA"},"type":"Feature","geometry":{"type":"Point","coordinates":[-78.888847,38.425236]}},{"properties":{"city":"BADEN","zip":"15005","f&b":39534.3852054795,"geo_score":0.772,"storeno":223,"street":"100 OHIO RIVER BLVD","id":"a6g1lywe9evi","geo_precision":"range","state":"PA"},"type":"Feature","geometry":{"type":"Point","coordinates":[-80.22955,40.628539]}},{"properties":{"city":"YORK","zip":"17402","f&b":31602.8998082192,"geo_score":0.848,"storeno":224,"street":"405 MEMORY LN","id":"a6g1lz09uqyp","geo_precision":"range","state":"PA"},"type":"Feature","geometry":{"type":"Point","coordinates":[-76.681912,39.979247]}},{"properties":{"city":"BREEZEWOOD","zip":"15533","f&b":40269.0357808219,"geo_score":0.512,"storeno":225,"street":"16467 LINCOLN HWY BOX 282","id":"a6g1lz02oa0s","geo_precision":"street","state":"PA"},"type":"Feature","geometry":{"type":"Point","coordinates":[-78.238208,39.999441]}},{"properties":{"city":"READING","zip":"19605","f&b":25800.3315068493,"geo_score":0.816,"storeno":226,"street":"501 E BELLEVUE AVE","id":"a6g1lz2g900b","geo_precision":"range","state":"PA"},"type":"Feature","geometry":{"type":"Point","coordinates":[-75.92639,40.38691]}},{"properties":{"city":"JOHNSTOWN","zip":"15904","f&b":38733.3096164384,"geo_score":0.816,"storeno":227,"street":"405 GALLERIA DR","id":"a6g1lzbbvcg2","geo_precision":"range","state":"PA"},"type":"Feature","geometry":{"type":"Point","coordinates":[-78.838353,40.29234]}},{"properties":{"city":"HALIFAX","zip":"17032","f&b":31687.0375068493,"geo_score":0.823,"storeno":228,"street":"3625 PETERS MOUNTAIN RD","id":"a6g1lz6ax392","geo_precision":"range","state":"PA"},"type":"Feature","geometry":{"type":"Point","coordinates":[-76.929502,40.449122]}},{"properties":{"city":"IRWIN","zip":"15642","f&b":60560.4420821918,"geo_score":0.573,"storeno":229,"street":"7821 ROUTE 30","id":"a6g1lyy47ha0","geo_precision":"range","state":"PA"},"type":"Feature","geometry":{"type":"Point","coordinates":[-79.671087,40.31679]}},{"properties":{"city":"CARMICHAELS","zip":"15320","f&b":50984.1501917808,"geo_score":0.593,"storeno":230,"street":"973 S 88 RD","id":"a6g1lyvuz5zf","geo_precision":"range","state":"PA"},"type":"Feature","geometry":{"type":"Point","coordinates":[-79.954421,39.861337]}},{"properties":{"city":"NEW HOLLAND","zip":"17557","f&b":29194.0977808219,"geo_score":0.805,"storeno":231,"street":"698 W MAIN ST","id":"a6g1lz5gg606","geo_precision":"range","state":"PA"},"type":"Feature","geometry":{"type":"Point","coordinates":[-76.112854,40.094316]}},{"properties":{"city":"MT HOLLY SPRINGS","zip":"17065","f&b":39352.3560547945,"geo_score":0.812,"storeno":232,"street":"420 N BALTIMORE AVE","id":"a6g1lz0lxhqz","geo_precision":"range","state":"PA"},"type":"Feature","geometry":{"type":"Point","coordinates":[-77.190277,40.12126]}},{"properties":{"city":"MANCHESTER","zip":"17345","f&b":21941.463369863,"geo_score":0.807,"storeno":233,"street":"4309 N GEORGE STREET EXT","id":"a6g1lz20iwop","geo_precision":"range","state":"PA"},"type":"Feature","geometry":{"type":"Point","coordinates":[-76.723591,40.047655]}},{"properties":{"city":"WEIRTON","zip":"26062","f&b":26862.6442191781,"geo_score":0.854,"storeno":234,"street":"341 PENCO RD","id":"a6g1lz04c2s6","geo_precision":"range","state":"WV"},"type":"Feature","geometry":{"type":"Point","coordinates":[-80.547158,40.408693]}},{"properties":{"city":"SELINSGROVE","zip":"17870","f&b":42041.0850136986,"geo_score":0.599,"storeno":235,"street":"766 N SUSQUEHANNA TRL","id":"a6g1lzb19oy1","geo_precision":"street","state":"PA"},"type":"Feature","geometry":{"type":"Point","coordinates":[-76.826218,40.842903]}},{"properties":{"city":"MARIETTA","zip":"17547","f&b":39693.7197808219,"geo_score":0.819,"storeno":236,"street":"1158 RIVER RD","id":"a6g1lyyyy2ai","geo_precision":"range","state":"PA"},"type":"Feature","geometry":{"type":"Point","coordinates":[-76.542205,40.062672]}},{"properties":{"city":"LITITZ","zip":"17543","f&b":32508.4545205479,"geo_score":0.805,"storeno":237,"street":"701 FURNACE HILLS PIKE","id":"a6g1lyz9uq1g","geo_precision":"range","state":"PA"},"type":"Feature","geometry":{"type":"Point","coordinates":[-76.308801,40.175765]}},{"properties":{"city":"RUCKERSVILLE","zip":"22968","f&b":40380.3591780822,"geo_score":0.829,"storeno":238,"street":"7020 SEMINOLE TRL","id":"a6g1lz3mq0d3","geo_precision":"range","state":"VA"},"type":"Feature","geometry":{"type":"Point","coordinates":[-78.385663,38.208437]}},{"properties":{"city":"NEW STANTON","zip":"15672","f&b":46868.4973150685,"geo_score":0.833,"storeno":239,"street":"205 N CENTER AVE","id":"a6g1lyw2cggm","geo_precision":"range","state":"PA"},"type":"Feature","geometry":{"type":"Point","coordinates":[-79.609334,40.218645]}},{"properties":{"city":"CHARLES TOWN","zip":"25414","f&b":41460.9211780822,"geo_score":0.676,"storeno":240,"street":"51 FLOWING SPRINGS RD","id":"a6g1lz00bqgj","geo_precision":"street","state":"WV"},"type":"Feature","geometry":{"type":"Point","coordinates":[-77.841886,39.303642]}},{"properties":{"city":"MARTINSBURG","zip":"25405","f&b":39317.6694246575,"geo_score":0.603,"storeno":241,"street":"14686 APPLE HARVEST DR","id":"a6g1lz6j6jrt","geo_precision":"street","state":"WV"},"type":"Feature","geometry":{"type":"Point","coordinates":[-122.257623,37.455065]}},{"properties":{"city":"FREDERICK","zip":"21702","f&b":45142.6536438356,"geo_score":0.902,"storeno":242,"street":"1600 ROSEMONT AVE","id":"a6g1lz508i7z","geo_precision":"range","state":"MD"},"type":"Feature","geometry":{"type":"Point","coordinates":[-77.430753,39.426826]}},{"properties":{"city":"WARRENTON","zip":"20186","f&b":25521.2161917808,"geo_score":0.902,"storeno":243,"street":"600 BLACKWELL RD","id":"a6g1lywoyby8","geo_precision":"range","state":"VA"},"type":"Feature","geometry":{"type":"Point","coordinates":[-77.79086,38.727927]}},{"properties":{"city":"WOODBRIDGE","zip":"22193","f&b":30374.2086027397,"geo_score":0.902,"storeno":244,"street":"4021 PRINCE WILLIAM PKWY","id":"a6g1lyv1cqcs","geo_precision":"range","state":"VA"},"type":"Feature","geometry":{"type":"Point","coordinates":[-77.335701,38.671487]}},{"properties":{"city":"ERIE","zip":"16506","f&b":33795.3421917808,"geo_score":0.831,"storeno":245,"street":"4662 W RIDGE RD","id":"a6g1lz0rgrmf","geo_precision":"range","state":"PA"},"type":"Feature","geometry":{"type":"Point","coordinates":[-80.181103,42.072472]}},{"properties":{"city":"NEW CASTLE","zip":"16101","f&b":35448.9330136986,"geo_score":0.509,"storeno":246,"street":"3208 US 422","id":"a6g1lz6ux170","geo_precision":"street","state":"PA"},"type":"Feature","geometry":{"type":"Point","coordinates":[-80.234048,40.971163]}},{"properties":{"city":"FLEETWOOD","zip":"19522","f&b":48502.983890411,"geo_score":0.834,"storeno":247,"street":"14350 KUTZTOWN RD","id":"a6g1lzaqwiq4","geo_precision":"range","state":"PA"},"type":"Feature","geometry":{"type":"Point","coordinates":[-75.838719,40.485636]}},{"properties":{"city":"GIRARD","zip":"44420","f&b":29119.3375890411,"geo_score":0.805,"storeno":248,"street":"2721 SALT SPRINGS RD","id":"a6g1lz6bcedv","geo_precision":"range","state":"OH"},"type":"Feature","geometry":{"type":"Point","coordinates":[-80.725149,41.145395]}},{"properties":{"city":"FREDERICK","zip":"21701","f&b":46247.2066575342,"geo_score":0.82,"storeno":249,"street":"1300 E PATRICK ST","id":"a6g1lyxyum05","geo_precision":"range","state":"MD"},"type":"Feature","geometry":{"type":"Point","coordinates":[-77.388202,39.407493]}},{"properties":{"city":"BUTLER","zip":"16001","f&b":34216.4173150685,"geo_score":0.811,"storeno":250,"street":"356 NEW CASTLE RD","id":"a6g1lz5d6v65","geo_precision":"range","state":"PA"},"type":"Feature","geometry":{"type":"Point","coordinates":[-79.949863,40.877497]}},{"properties":{"city":"EAST LIVERPOOL","zip":"43920","f&b":32340.6079452055,"geo_score":0.632,"storeno":251,"street":"15744 SAINT CLAIR AVE","id":"a6g1lyzl5xbt","geo_precision":"street","state":"OH"},"type":"Feature","geometry":{"type":"Point","coordinates":[-80.574125,40.653493]}},{"properties":{"city":"CLEARFIELD","zip":"16830","f&b":41877.0819178082,"geo_score":0.815,"storeno":252,"street":"14259 CLEARFIELD SHAWVILLE HWY","id":"a6g1lz2941mh","geo_precision":"range","state":"PA"},"type":"Feature","geometry":{"type":"Point","coordinates":[-78.404105,41.033637]}},{"properties":{"city":"PITTSBURGH","zip":"15236","f&b":38192.5611506849,"geo_score":0.815,"storeno":253,"street":"251 CURRY HOLLOW RD","id":"a6g1lz8f7q8p","geo_precision":"range","state":"PA"},"type":"Feature","geometry":{"type":"Point","coordinates":[-79.971098,40.336602]}},{"properties":{"city":"MORGANTOWN","zip":"26505","f&b":51934.2170410959,"geo_score":0.829,"storeno":254,"street":"900 CHESTNUT RIDGE RD","id":"a6g1lz7l5thf","geo_precision":"range","state":"WV"},"type":"Feature","geometry":{"type":"Point","coordinates":[-79.954535,39.658013]}},{"properties":{"city":"YORK","zip":"17408","f&b":30780.1380273973,"geo_score":0.488,"storeno":255,"street":"1484 CARLISLE RD","id":"a6g1lz64cvmi","geo_precision":"city","state":"PA"},"type":"Feature","geometry":{"type":"Point","coordinates":[-109.202845,32.893678]}},{"properties":{"city":"SHOEMAKERSVILLE","zip":"19555","f&b":34021.2678630137,"geo_score":0.811,"storeno":256,"street":"554 SHOEMAKER AVE","id":"a6g1lzb24kxy","geo_precision":"range","state":"PA"},"type":"Feature","geometry":{"type":"Point","coordinates":[-75.963156,40.500843]}},{"properties":{"city":"LANCASTER","zip":"17601","f&b":48367.9684657534,"geo_score":0.827,"storeno":257,"street":"1699 OREGON PIKE","id":"a6g1lz0zlep1","geo_precision":"range","state":"PA"},"type":"Feature","geometry":{"type":"Point","coordinates":[-76.303086,40.068374]}},{"properties":{"city":"POTTSVILLE","zip":"17901","f&b":36752.086,"geo_score":0.863,"storeno":258,"street":"900 GORDON NAGLE TRL","id":"a6g1lz8fxeec","geo_precision":"range","state":"PA"},"type":"Feature","geometry":{"type":"Point","coordinates":[-76.235154,40.67292]}},{"properties":{"city":"KING GEORGE","zip":"22485","f&b":36374.7025753425,"geo_score":0.814,"storeno":259,"street":"17188 OWENS DR","id":"a6g1lz0mkxui","geo_precision":"range","state":"VA"},"type":"Feature","geometry":{"type":"Point","coordinates":[-77.048436,38.353285]}},{"properties":{"city":"CRANBERRY","zip":"16319","f&b":31913.5655616438,"geo_score":0.445,"storeno":260,"street":"7119 US 322 BOX 228","id":"a6g1lyxy1dpm","geo_precision":"street","state":"PA"},"type":"Feature","geometry":{"type":"Point","coordinates":[-79.569208,41.283443]}},{"properties":{"city":"FOREST","zip":"24551","f&b":34774.2074246575,"geo_score":0.814,"storeno":261,"street":"12259 E LYNCHBURG SALEM TPKE","id":"a6g1lyzjdbls","geo_precision":"range","state":"VA"},"type":"Feature","geometry":{"type":"Point","coordinates":[-79.307088,37.305847]}},{"properties":{"city":"HAGERSTOWN","zip":"21740","f&b":49670.1558356164,"geo_score":0.815,"storeno":262,"street":"1396 S POTOMAC ST","id":"a6g1lyyohy60","geo_precision":"range","state":"MD"},"type":"Feature","geometry":{"type":"Point","coordinates":[-77.730864,39.612747]}},{"properties":{"city":"CARLISLE","zip":"17013","f&b":53323.5839452055,"geo_score":0.817,"storeno":263,"street":"1900 RITNER HWY","id":"a6g1lz5t8rg3","geo_precision":"range","state":"PA"},"type":"Feature","geometry":{"type":"Point","coordinates":[-77.243231,40.190359]}},{"properties":{"city":"FREDERICKSBURG","zip":"22405","f&b":29523.2174520548,"geo_score":0.841,"storeno":264,"street":"10 WASHINGTON SQUARE PLZ","id":"a6g1lz4dwat5","geo_precision":"range","state":"VA"},"type":"Feature","geometry":{"type":"Point","coordinates":[-77.437092,38.286044]}},{"properties":{"city":"LYNCHBURG","zip":"24501","f&b":36459.2460821918,"geo_score":0.618,"storeno":265,"street":"14480 WARDS RD","id":"a6g1lyzo5vni","geo_precision":"street","state":"VA"},"type":"Feature","geometry":{"type":"Point","coordinates":[-79.188902,37.318757]}},{"properties":{"city":"STREETSBORO","zip":"44241","f&b":28227.3985479452,"geo_score":0.902,"storeno":266,"street":"9745 STATE ROUTE 14","id":"a6g1lz60e4a4","geo_precision":"range","state":"OH"},"type":"Feature","geometry":{"type":"Point","coordinates":[-81.365077,41.251156]}},{"properties":{"city":"LEESBURG","zip":"20176","f&b":35464.2279178082,"geo_score":0.902,"storeno":267,"street":"915 EDWARDS FERRY RD NE","id":"a6g1lzai3ce4","geo_precision":"range","state":"VA"},"type":"Feature","geometry":{"type":"Point","coordinates":[-77.53978,39.113578]}},{"properties":{"city":"RED LION","zip":"17356","f&b":28579.9064657534,"geo_score":0.831,"storeno":268,"street":"3200 CAPE HORN RD","id":"a6g1lz710chb","geo_precision":"range","state":"PA"},"type":"Feature","geometry":{"type":"Point","coordinates":[-76.645241,39.942194]}},{"properties":{"city":"EPHRATA","zip":"17522","f&b":40966.8874520548,"geo_score":0.821,"storeno":269,"street":"4179 OREGON PIKE","id":"a6g1lz83wqw9","geo_precision":"range","state":"PA"},"type":"Feature","geometry":{"type":"Point","coordinates":[-76.218032,40.13018]}},{"properties":{"city":"MANASSAS PARK","zip":"20111","f&b":31210.1426575342,"geo_score":0.902,"storeno":270,"street":"8504 CENTREVILLE RD","id":"a6g1lz2y9lgi","geo_precision":"range","state":"VA"},"type":"Feature","geometry":{"type":"Point","coordinates":[-77.452584,38.771961]}},{"properties":{"city":"LYNCHBURG","zip":"24501","f&b":40930.3790958904,"geo_score":0.812,"storeno":271,"street":"2630 LAKESIDE DR","id":"a6g1lz03oolh","geo_precision":"range","state":"VA"},"type":"Feature","geometry":{"type":"Point","coordinates":[-79.228762,37.395994]}},{"properties":{"city":"MADISON HEIGHTS","zip":"24572","f&b":34648.7121917808,"geo_score":0.826,"storeno":272,"street":"4089 S AMHERST HWY","id":"a6g1lzatwsot","geo_precision":"range","state":"VA"},"type":"Feature","geometry":{"type":"Point","coordinates":[-79.119002,37.465994]}},{"properties":{"city":"BIRDSBORO","zip":"19508","f&b":26116.2581917808,"geo_score":0.816,"storeno":273,"street":"6600 PERKIOMEN AVE","id":"a6g1lyyyvltb","geo_precision":"range","state":"PA"},"type":"Feature","geometry":{"type":"Point","coordinates":[-75.819397,40.288318]}},{"properties":{"city":"ASHTABULA","zip":"44004","f&b":24577.6510958904,"geo_score":0.816,"storeno":274,"street":"2411 N RIDGE RD E","id":"a6g1lz4tst5z","geo_precision":"range","state":"OH"},"type":"Feature","geometry":{"type":"Point","coordinates":[-80.763771,41.875957]}},{"properties":{"city":"MORGANTOWN","zip":"26501","f&b":57236.3643561644,"geo_score":0.592,"storeno":275,"street":"1 CHAPLIN RD","id":"a6g1lz64y3f7","geo_precision":"street","state":"WV"},"type":"Feature","geometry":{"type":"Point","coordinates":[-80.001137,39.65929]}},{"properties":{"city":"MIFFLINBURG","zip":"17844","f&b":24070.3578356164,"geo_score":0.813,"storeno":276,"street":"240 E CHESTNUT ST","id":"a6g1lyuvwprq","geo_precision":"range","state":"PA"},"type":"Feature","geometry":{"type":"Point","coordinates":[-77.032194,40.923103]}},{"properties":{"city":"WEXFORD","zip":"15090","f&b":34233.4000821918,"geo_score":0.715,"storeno":277,"street":"12000 PERRY HWY","id":"a6g1lz5qwm91","geo_precision":"street","state":"PA"},"type":"Feature","geometry":{"type":"Point","coordinates":[-80.060763,40.634786]}},{"properties":{"city":"UNIONTOWN","zip":"15401","f&b":49490.7770958904,"geo_score":0.729,"storeno":278,"street":"10 NEW SALEM RD","id":"a6g1lyx30l8v","geo_precision":"range","state":"PA"},"type":"Feature","geometry":{"type":"Point","coordinates":[-79.836167,39.92448]}},{"properties":{"city":"CANONSBURG","zip":"15317","f&b":47461.1700547945,"geo_score":0.805,"storeno":279,"street":"2401 WASHINGTON RD","id":"a6g1lz98xd7c","geo_precision":"range","state":"PA"},"type":"Feature","geometry":{"type":"Point","coordinates":[-80.170498,40.252494]}},{"properties":{"city":"MILL HALL","zip":"17751","f&b":46114.3886575342,"geo_score":0.805,"storeno":280,"street":"288 HOGAN BLVD","id":"a6g1lz9ip8pr","geo_precision":"range","state":"PA"},"type":"Feature","geometry":{"type":"Point","coordinates":[-77.478652,41.115353]}},{"properties":{"city":"AUSTINTOWN","zip":"44515","f&b":29758.5365479452,"geo_score":0.805,"storeno":281,"street":"5499 MAHONING AVE","id":"a6g1lz47w3e3","geo_precision":"range","state":"OH"},"type":"Feature","geometry":{"type":"Point","coordinates":[-80.763852,41.099615]}},{"properties":{"city":"WARREN","zip":"44484","f&b":25061.7948767123,"geo_score":0.812,"storeno":282,"street":"1162 NILES CORTLAND RD SE","id":"a6g1lyxxvy9v","geo_precision":"range","state":"OH"},"type":"Feature","geometry":{"type":"Point","coordinates":[-80.740476,41.225661]}},{"properties":{"city":"WILLIAMSPORT","zip":"17701","f&b":40928.0876986301,"geo_score":0.837,"storeno":283,"street":"330 WESTMINSTER DR","id":"a6g1lz0uvzbv","geo_precision":"range","state":"PA"},"type":"Feature","geometry":{"type":"Point","coordinates":[-76.959219,41.247816]}},{"properties":{"city":"WAYNESBURG","zip":"15370","f&b":37820.4183287671,"geo_score":0.875,"storeno":284,"street":"111 E ROY FURMAN HWY","id":"a6g1lyvigb2p","geo_precision":"range","state":"PA"},"type":"Feature","geometry":{"type":"Point","coordinates":[-80.160015,39.897341]}},{"properties":{"city":"ORANGE","zip":"22960","f&b":31576.2478356164,"geo_score":0.797,"storeno":285,"street":"332 MADISON RD","id":"a6g1lyxgnyal","geo_precision":"range","state":"VA"},"type":"Feature","geometry":{"type":"Point","coordinates":[-78.114493,38.252531]}},{"properties":{"city":"ASHLAND","zip":"23005","f&b":36204.2253424658,"geo_score":0.805,"storeno":286,"street":"10036 SLIDING HILL RD","id":"a6g1lz38rli9","geo_precision":"range","state":"VA"},"type":"Feature","geometry":{"type":"Point","coordinates":[-77.440427,37.691]}},{"properties":{"city":"STATE COLLEGE","zip":"16803","f&b":49193.2489041096,"geo_score":0.735,"storeno":287,"street":"101 VALLEY VISTA DR","id":"a6g1lz9pq70g","geo_precision":"range","state":"PA"},"type":"Feature","geometry":{"type":"Point","coordinates":[-77.922423,40.81197]}},{"properties":{"city":"DUNCANNON","zip":"17020","f&b":37901.4428493151,"geo_score":0.816,"storeno":288,"street":"1550 STATE RD","id":"a6g1lz6cm8cr","geo_precision":"range","state":"PA"},"type":"Feature","geometry":{"type":"Point","coordinates":[-76.986835,40.355348]}},{"properties":{"city":"SINKING SPRING","zip":"19608","f&b":29153.5641369863,"geo_score":0.783,"storeno":289,"street":"4661 PENN AVE","id":"a6g1lz5m0l3w","geo_precision":"range","state":"PA"},"type":"Feature","geometry":{"type":"Point","coordinates":[-76.037286,40.326578]}},{"properties":{"city":"TAPPAHANNOCK","zip":"22560","f&b":26608.3971232877,"geo_score":0.619,"storeno":290,"street":"1804 TAPPAHANNOCK BLVD","id":"a6g1lz0spkon","geo_precision":"street","state":"VA"},"type":"Feature","geometry":{"type":"Point","coordinates":[-76.867184,37.902733]}},{"properties":{"city":"HAZLE TOWNSHIP","zip":"18202","f&b":30565.5629041096,"geo_score":0.713,"storeno":291,"street":"101 AIRPORT RD","id":"a6g1lz42i3ww","geo_precision":"range","state":"PA"},"type":"Feature","geometry":{"type":"Point","coordinates":[-76.010275,40.988916]}},{"properties":{"city":"CALIFORNIA","zip":"20619","f&b":29825.633369863,"geo_score":0.78,"storeno":292,"street":"22711 THREE NOTCH RD","id":"a6g1lz72vpxs","geo_precision":"range","state":"MD"},"type":"Feature","geometry":{"type":"Point","coordinates":[-76.493655,38.291423]}},{"properties":{"city":"LEESPORT","zip":"19533","f&b":35546.4731232877,"geo_score":0.643,"storeno":293,"street":"5515 POTTSVILLE PIKE","id":"a6g1lz4astkl","geo_precision":"street","state":"PA"},"type":"Feature","geometry":{"type":"Point","coordinates":[-75.95459,40.444013]}},{"properties":{"city":"WARREN","zip":"44484","f&b":28547.1261369863,"geo_score":0.902,"storeno":294,"street":"3379 ELM RD NE","id":"a6g1lz8vqdx0","geo_precision":"range","state":"OH"},"type":"Feature","geometry":{"type":"Point","coordinates":[-80.782946,41.265451]}},{"properties":{"city":"ROANOKE","zip":"24019","f&b":29096.5994794521,"geo_score":0.819,"storeno":295,"street":"2703 PETERS CREEK RD NW","id":"a6g1lz2dm6pl","geo_precision":"range","state":"VA"},"type":"Feature","geometry":{"type":"Point","coordinates":[-80.004793,37.315638]}},{"properties":{"city":"STOW","zip":"44224","f&b":30694.1001643836,"geo_score":0.76,"storeno":296,"street":"950 E STEELS CORNERS RD","id":"a6g1lz75suh5","geo_precision":"range","state":"OH"},"type":"Feature","geometry":{"type":"Point","coordinates":[-81.474751,41.181268]}},{"properties":{"city":"WILKES BARRE","zip":"18702","f&b":42756.7489041096,"geo_score":0.861,"storeno":297,"street":"464 WILKES BARRE TOWNSHIP BLVD","id":"a6g1lza02qhl","geo_precision":"range","state":"PA"},"type":"Feature","geometry":{"type":"Point","coordinates":[-75.866529,41.233658]}},{"properties":{"city":"GROVE CITY","zip":"16127","f&b":34899.6947945205,"geo_score":0.8,"storeno":298,"street":"1526 W MAIN STREET EXT","id":"a6g1lyvdtoyp","geo_precision":"range","state":"PA"},"type":"Feature","geometry":{"type":"Point","coordinates":[-80.110587,41.16833]}},{"properties":{"city":"GROVE CITY","zip":"16127","f&b":38011.9619178082,"geo_score":0.902,"storeno":299,"street":"1931 BUTLER PIKE","id":"a6g1lz64dini","geo_precision":"range","state":"PA"},"type":"Feature","geometry":{"type":"Point","coordinates":[-80.156948,41.149369]}},{"properties":{"city":"ROANOKE","zip":"24012","f&b":46634.9098082191,"geo_score":0.819,"storeno":300,"street":"1212 WILLIAMSON RD NE","id":"a6g1lz6c5bmi","geo_precision":"range","state":"VA"},"type":"Feature","geometry":{"type":"Point","coordinates":[-79.933442,37.282499]}},{"properties":{"city":"RAVENNA","zip":"44266","f&b":33328.9870410959,"geo_score":0.823,"storeno":301,"street":"6941 STATE ROUTE 44","id":"a6g1lz9zan9p","geo_precision":"range","state":"OH"},"type":"Feature","geometry":{"type":"Point","coordinates":[-81.246371,41.180012]}},{"properties":{"city":"STAUNTON","zip":"24402","f&b":36166.3070136986,"geo_score":0.902,"storeno":302,"street":"1250 RICHMOND AVE","id":"a6g1lz2ituc3","geo_precision":"range","state":"VA"},"type":"Feature","geometry":{"type":"Point","coordinates":[-79.043089,38.134286]}},{"properties":{"city":"MADISON","zip":"22727","f&b":34104.9393424658,"geo_score":0.608,"storeno":303,"street":"2902 S SEMINOLE TRL","id":"a6g1lyyrtww7","geo_precision":"street","state":"VA"},"type":"Feature","geometry":{"type":"Point","coordinates":[-78.21434,38.406042]}},{"properties":{"city":"CHANTILLY","zip":"20151","f&b":34097.4631506849,"geo_score":0.902,"storeno":304,"street":"25224 POLAND RD","id":"a6g1lz5xb187","geo_precision":"range","state":"VA"},"type":"Feature","geometry":{"type":"Point","coordinates":[-77.496797,38.919094]}},{"properties":{"city":"YORK","zip":"17403","f&b":21786.7340273973,"geo_score":0.813,"storeno":305,"street":"2721 S QUEEN ST","id":"a6g1lz98o6kl","geo_precision":"range","state":"PA"},"type":"Feature","geometry":{"type":"Point","coordinates":[-76.680244,39.907662]}},{"properties":{"city":"DANVILLE","zip":"24541","f&b":28520.279890411,"geo_score":0.827,"storeno":306,"street":"3425 RIVERSIDE DR","id":"a6g1lz1si2ia","geo_precision":"range","state":"VA"},"type":"Feature","geometry":{"type":"Point","coordinates":[-79.427757,36.583371]}},{"properties":{"city":"KING GEORGE","zip":"22485","f&b":41070.4680821918,"geo_score":0.814,"storeno":307,"street":"11449 KINGS HWY","id":"a6g1lz6c3dhh","geo_precision":"range","state":"VA"},"type":"Feature","geometry":{"type":"Point","coordinates":[-77.149058,38.23876]}},{"properties":{"city":"RIDGEWAY","zip":"24148","f&b":26556.0488219178,"geo_score":0.805,"storeno":308,"street":"6758 GREENSBORO RD","id":"a6g1lz250b2w","geo_precision":"range","state":"VA"},"type":"Feature","geometry":{"type":"Point","coordinates":[-79.862225,36.600086]}},{"properties":{"city":"WINCHESTER","zip":"22602","f&b":35209.4392328767,"geo_score":0.902,"storeno":309,"street":"1574 MARTINSBURG PIKE","id":"a6g1lzao5spz","geo_precision":"range","state":"VA"},"type":"Feature","geometry":{"type":"Point","coordinates":[-78.140523,39.216384]}},{"properties":{"city":"NORTH LIMA","zip":"44452","f&b":31647.7583013699,"geo_score":0.805,"storeno":310,"street":"9010 MARKET ST","id":"a6g1lz9wp31k","geo_precision":"range","state":"OH"},"type":"Feature","geometry":{"type":"Point","coordinates":[-80.662759,40.987735]}},{"properties":{"city":"AKRON","zip":"44319","f&b":34522.9304383562,"geo_score":0.813,"storeno":311,"street":"20 W WATERLOO RD","id":"a6g1lz4a71bp","geo_precision":"range","state":"OH"},"type":"Feature","geometry":{"type":"Point","coordinates":[-81.527557,41.028749]}},{"properties":{"city":"MT JOY","zip":"17552","f&b":43826.9075616438,"geo_score":0.638,"storeno":312,"street":"1555 E MAIN ST","id":"a6g1lz2hgu0f","geo_precision":"street","state":"PA"},"type":"Feature","geometry":{"type":"Point","coordinates":[-76.455137,40.111424]}},{"properties":{"city":"NORTH HUNTINGDON","zip":"15642","f&b":34286.9729041096,"geo_score":0.47,"storeno":313,"street":"13700 RT 30","id":"a6g1lyvsdysr","geo_precision":"street","state":"PA"},"type":"Feature","geometry":{"type":"Point","coordinates":[-79.684296,40.319938]}},{"properties":{"city":"NEW ALEXANDRIA","zip":"15670","f&b":56800.2818082192,"geo_score":0.561,"storeno":314,"street":"8299 ROUTE 22","id":"a6g1lz1dhv63","geo_precision":"street","state":"PA"},"type":"Feature","geometry":{"type":"Point","coordinates":[-79.599657,40.404296]}},{"properties":{"city":"ASHLAND","zip":"23005","f&b":29612.2635890411,"geo_score":0.805,"storeno":315,"street":"12341 WASHINGTON HWY","id":"a6g1lyy4hg00","geo_precision":"range","state":"VA"},"type":"Feature","geometry":{"type":"Point","coordinates":[-77.471247,37.744131]}},{"properties":{"city":"JOPPA","zip":"21085","f&b":33629.7469315068,"geo_score":0.824,"storeno":316,"street":"601 PULASKI HWY","id":"a6g1lyxan4mh","geo_precision":"range","state":"MD"},"type":"Feature","geometry":{"type":"Point","coordinates":[-76.355684,39.428996]}},{"properties":{"city":"CUYAHOGA FALLS","zip":"44221","f&b":30408.4518356164,"geo_score":0.902,"storeno":317,"street":"1210 MAIN ST","id":"a6g1lz473shk","geo_precision":"range","state":"OH"},"type":"Feature","geometry":{"type":"Point","coordinates":[-81.484675,41.119277]}},{"properties":{"city":"GREAT MILLS","zip":"20634","f&b":31820.7261917808,"geo_score":0.902,"storeno":318,"street":"20760 OLD GREAT MILLS RD","id":"a6g1lzae4esa","geo_precision":"range","state":"MD"},"type":"Feature","geometry":{"type":"Point","coordinates":[-76.497146,38.23703]}},{"properties":{"city":"TRUCKSVILLE","zip":"18708","f&b":43283.4415616438,"geo_score":0.864,"storeno":319,"street":"163 S MEMORIAL HWY","id":"a6g1lz1tt1qh","geo_precision":"range","state":"PA"},"type":"Feature","geometry":{"type":"Point","coordinates":[-75.927272,41.300944]}},{"properties":{"city":"CHRISTIANSBURG","zip":"24073","f&b":29253.346739726,"geo_score":0.819,"storeno":320,"street":"2000 N FRANKLIN ST","id":"a6g1lz42wi6p","geo_precision":"range","state":"VA"},"type":"Feature","geometry":{"type":"Point","coordinates":[-80.417552,37.157238]}},{"properties":{"city":"COLONIAL HEIGHTS","zip":"23834","f&b":34583.9194246575,"geo_score":0.811,"storeno":321,"street":"2711 CONDUIT RD","id":"a6g1lz2u57p8","geo_precision":"range","state":"VA"},"type":"Feature","geometry":{"type":"Point","coordinates":[-77.395837,37.258462]}},{"properties":{"city":"RICHMOND","zip":"23235","f&b":31719.7641369863,"geo_score":0.805,"storeno":322,"street":"2053 HUGUENOT RD","id":"a6g1lz458lml","geo_precision":"range","state":"VA"},"type":"Feature","geometry":{"type":"Point","coordinates":[-77.612947,37.521622]}},{"properties":{"city":"LOCUST GROVE","zip":"22508","f&b":38105.9078630137,"geo_score":0.692,"storeno":323,"street":"5504 GERMANNA HWY","id":"a6g1lywms4bz","geo_precision":"range","state":"VA"},"type":"Feature","geometry":{"type":"Point","coordinates":[-77.729207,38.326832]}},{"properties":{"city":"WADSWORTH","zip":"44281","f&b":32162.5469315069,"geo_score":0.814,"storeno":324,"street":"5100 RIDGE RD","id":"a6g1lywhxkz7","geo_precision":"range","state":"OH"},"type":"Feature","geometry":{"type":"Point","coordinates":[-81.735028,41.136142]}},{"properties":{"city":"SALEM","zip":"24153","f&b":33904.9217260274,"geo_score":0.824,"storeno":325,"street":"1435 APPERSON DR","id":"a6g1lz21jxvr","geo_precision":"range","state":"VA"},"type":"Feature","geometry":{"type":"Point","coordinates":[-80.037581,37.271621]}},{"properties":{"city":"GETTYSBURG","zip":"17325","f&b":45882.2395068493,"geo_score":0.727,"storeno":326,"street":"30 CAMP LETTERMAN DR","id":"a6g1lyx4cwxb","geo_precision":"range","state":"PA"},"type":"Feature","geometry":{"type":"Point","coordinates":[-76.724484,39.793821]}},{"properties":{"city":"MONROEVILLE","zip":"15146","f&b":47994.8550410959,"geo_score":0.848,"storeno":327,"street":"2100 MOSSIDE BLVD","id":"a6g1lz5de4tt","geo_precision":"range","state":"PA"},"type":"Feature","geometry":{"type":"Point","coordinates":[-79.772041,40.396034]}},{"properties":{"city":"CANFIELD","zip":"44406","f&b":33344.5671232877,"geo_score":0.817,"storeno":328,"street":"4585 BOARDMAN CANFIELD RD","id":"a6g1lz44kmjs","geo_precision":"range","state":"OH"},"type":"Feature","geometry":{"type":"Point","coordinates":[-80.736201,41.024718]}},{"properties":{"city":"ROCKY MOUNT","zip":"24151","f&b":24805.5544109589,"geo_score":0.805,"storeno":329,"street":"265 OLD FRANKLIN TPKE","id":"a6g1lz6iniur","geo_precision":"range","state":"VA"},"type":"Feature","geometry":{"type":"Point","coordinates":[-79.872094,37.009871]}},{"properties":{"city":"WHITEHALL","zip":"18052","f&b":29477.0264657534,"geo_score":0.826,"storeno":330,"street":"5001 MACARTHUR RD","id":"a6g1lz3oa0cn","geo_precision":"range","state":"PA"},"type":"Feature","geometry":{"type":"Point","coordinates":[-75.523519,40.687834]}},{"properties":{"city":"POWHATAN","zip":"23139","f&b":37353.2321917808,"geo_score":0.829,"storeno":331,"street":"2600 ANDERSON HWY","id":"a6g1lz29a056","geo_precision":"range","state":"VA"},"type":"Feature","geometry":{"type":"Point","coordinates":[-77.823045,37.522663]}},{"properties":{"city":"HARRISONBURG","zip":"22801","f&b":35885.8584383562,"geo_score":0.813,"storeno":332,"street":"798 E MARKET ST","id":"a6g1lz7fld3k","geo_precision":"range","state":"VA"},"type":"Feature","geometry":{"type":"Point","coordinates":[-78.853471,38.44641]}},{"properties":{"city":"SALEM","zip":"24153","f&b":30974.7944109589,"geo_score":0.824,"storeno":333,"street":"1340 W MAIN ST","id":"a6g1lz6p36la","geo_precision":"range","state":"VA"},"type":"Feature","geometry":{"type":"Point","coordinates":[-80.078976,37.289728]}},{"properties":{"city":"EDINBORO","zip":"16412","f&b":31977.8088767123,"geo_score":0.611,"storeno":334,"street":"5930 ROUTE 6N","id":"a6g1lz8toxon","geo_precision":"range","state":"PA"},"type":"Feature","geometry":{"type":"Point","coordinates":[-80.171204,41.879787]}},{"properties":{"city":"BUTLER","zip":"16001","f&b":45121.2909863014,"geo_score":0.811,"storeno":335,"street":"499 EVANS CITY RD","id":"a6g1lz896txv","geo_precision":"range","state":"PA"},"type":"Feature","geometry":{"type":"Point","coordinates":[-79.96771,40.862225]}},{"properties":{"city":"WILLIAMSPORT","zip":"17701","f&b":57057.3810684932,"geo_score":0.837,"storeno":336,"street":"105 MAYNARD ST","id":"a6g1lyx5hpi9","geo_precision":"range","state":"PA"},"type":"Feature","geometry":{"type":"Point","coordinates":[-77.019487,41.233962]}},{"properties":{"city":"MEADVILLE","zip":"16335","f&b":28274.2431232877,"geo_score":0.722,"storeno":337,"street":"16590 CONNEAUT LAKE RD","id":"a6g1lz0u8ago","geo_precision":"range","state":"PA"},"type":"Feature","geometry":{"type":"Point","coordinates":[-80.203674,41.622592]}},{"properties":{"city":"RICHMOND","zip":"23236","f&b":30763.3455068493,"geo_score":0.902,"storeno":338,"street":"20 S PROVIDENCE RD","id":"a6g1lzaeruvc","geo_precision":"range","state":"VA"},"type":"Feature","geometry":{"type":"Point","coordinates":[-77.547016,37.496666]}},{"properties":{"city":"STATE COLLEGE","zip":"16801","f&b":45628.3287945206,"geo_score":0.813,"storeno":339,"street":"765 BENNER PIKE","id":"a6g1lz10vhlc","geo_precision":"range","state":"PA"},"type":"Feature","geometry":{"type":"Point","coordinates":[-77.801501,40.835532]}},{"properties":{"city":"SOUTH BOSTON","zip":"24592","f&b":29831.1510958904,"geo_score":0.692,"storeno":340,"street":"1007 PHILPOTT RD","id":"a6g1lz1y25ze","geo_precision":"range","state":"VA"},"type":"Feature","geometry":{"type":"Point","coordinates":[-78.900482,36.68737]}},{"properties":{"city":"RICHMOND","zip":"23236","f&b":27114.9848219178,"geo_score":0.585,"storeno":341,"street":"9401 AMBERDALE DR","id":"a6g1lz9obpjh","geo_precision":"zip","state":"VA"},"type":"Feature","geometry":{"type":"Point","coordinates":[-77.585993,37.474505]}},{"properties":{"city":"CANTON","zip":"44708","f&b":19606.9136986301,"geo_score":0.82,"storeno":342,"street":"5057 TUSCARAWAS ST W","id":"a6g1lyw8pb2u","geo_precision":"range","state":"OH"},"type":"Feature","geometry":{"type":"Point","coordinates":[-81.444992,40.792811]}},{"properties":{"city":"DUNMORE","zip":"18512","f&b":33694.0592876712,"geo_score":0.613,"storeno":343,"street":"1101 ONEILL HWY","id":"a6g1lz6pz4wu","geo_precision":"street","state":"PA"},"type":"Feature","geometry":{"type":"Point","coordinates":[-75.617937,41.439098]}},{"properties":{"city":"PLAINS TOWNSHIP","zip":"18702","f&b":42770.7347123288,"geo_score":0.739,"storeno":344,"street":"1233 HIGHWAY 315 BLVD","id":"a6g1lz7kqd9f","geo_precision":"range","state":"PA"},"type":"Feature","geometry":{"type":"Point","coordinates":[-75.815561,41.264631]}},{"properties":{"city":"MORGANTOWN","zip":"19543","f&b":33249.5048219178,"geo_score":0.61,"storeno":345,"street":"3830 MAIN ST","id":"a6g1lyxlw4u3","geo_precision":"street","state":"PA"},"type":"Feature","geometry":{"type":"Point","coordinates":[-75.898248,40.153155]}},{"properties":{"city":"FREDERICKSBURG","zip":"22401","f&b":24688.5138356164,"geo_score":0.624,"storeno":346,"street":"2001 CARL D SILVER PKWY","id":"a6g1lyzcsloi","geo_precision":"street","state":"VA"},"type":"Feature","geometry":{"type":"Point","coordinates":[-77.509306,38.305282]}},{"properties":{"city":"NORTH RIDGEVILLE","zip":"44039","f&b":33093.0791780822,"geo_score":0.902,"storeno":347,"street":"32390 LORAIN RD","id":"a6g1lz8z2p6l","geo_precision":"range","state":"OH"},"type":"Feature","geometry":{"type":"Point","coordinates":[-81.97631,41.385389]}},{"properties":{"city":"YORK","zip":"17408","f&b":34148.1987671233,"geo_score":0.488,"storeno":348,"street":"4025 W MARKET ST","id":"a6g1lyvdqwhb","geo_precision":"city","state":"PA"},"type":"Feature","geometry":{"type":"Point","coordinates":[-109.202845,32.893678]}},{"properties":{"city":"MORGANTOWN","zip":"26505","f&b":39924.0805753425,"geo_score":0.707,"storeno":349,"street":"1901 EARL L CORE RD","id":"a6g1lz32dlvs","geo_precision":"range","state":"WV"},"type":"Feature","geometry":{"type":"Point","coordinates":[-79.921674,39.610605]}},{"properties":{"city":"RICHMOND","zip":"23294","f&b":47681.8148493151,"geo_score":0.902,"storeno":350,"street":"7035 W BROAD ST","id":"a6g1lz5hixr5","geo_precision":"range","state":"VA"},"type":"Feature","geometry":{"type":"Point","coordinates":[-77.518974,37.609511]}},{"properties":{"city":"HUMMELSTOWN","zip":"17036","f&b":42608.8534794521,"geo_score":0.805,"storeno":351,"street":"658 E MAIN ST","id":"a6g1lyvwwms8","geo_precision":"range","state":"PA"},"type":"Feature","geometry":{"type":"Point","coordinates":[-76.689554,40.26837]}},{"properties":{"city":"BEDFORD","zip":"15522","f&b":48705.6480821918,"geo_score":0.68,"storeno":352,"street":"4354 BUSINESS 220","id":"a6g1lz0ioevq","geo_precision":"range","state":"PA"},"type":"Feature","geometry":{"type":"Point","coordinates":[-78.645706,39.830977]}},{"properties":{"city":"PITTSBURGH","zip":"15205","f&b":59139.3458082192,"geo_score":0.844,"storeno":353,"street":"5410 CAMPBELLS RUN RD","id":"a6g1lz7p2kc9","geo_precision":"range","state":"PA"},"type":"Feature","geometry":{"type":"Point","coordinates":[-80.158338,40.447211]}},{"properties":{"city":"ALTOONA","zip":"16602","f&b":75258.0321643836,"geo_score":0.827,"storeno":354,"street":"1915 PLEASANT VALLEY BLVD","id":"a6g1lz98bfjj","geo_precision":"range","state":"PA"},"type":"Feature","geometry":{"type":"Point","coordinates":[-78.391759,40.499888]}},{"properties":{"city":"WALKERTOWN","zip":"27051","f&b":23989.7209041096,"geo_score":0.902,"storeno":355,"street":"5198 REIDSVILLE RD","id":"a6g1lyxy25lq","geo_precision":"range","state":"NC"},"type":"Feature","geometry":{"type":"Point","coordinates":[-80.137189,36.165009]}},{"properties":{"city":"GREENSBORO","zip":"27407","f&b":29242.08,"geo_score":0.805,"storeno":356,"street":"4319 W WENDOVER AVE","id":"a6g1lz6f5uxc","geo_precision":"range","state":"NC"},"type":"Feature","geometry":{"type":"Point","coordinates":[-79.890495,36.056884]}},{"properties":{"city":"NEW PHILADELPHIA","zip":"44663","f&b":21472.2660273973,"geo_score":0.824,"storeno":357,"street":"1281 W HIGH AVE","id":"a6g1lz55g3fk","geo_precision":"range","state":"OH"},"type":"Feature","geometry":{"type":"Point","coordinates":[-81.473488,40.493374]}},{"properties":{"city":"FAIRLAWN","zip":"24141","f&b":28714.9677260274,"geo_score":0.683,"storeno":358,"street":"7335 LEE HWY","id":"a6g1lz46j0rh","geo_precision":"range","state":"VA"},"type":"Feature","geometry":{"type":"Point","coordinates":[-80.583252,37.144771]}},{"properties":{"city":"SCRANTON","zip":"18508","f&b":35087.8369589041,"geo_score":0.78,"storeno":359,"street":"610 SCRANTON CARBONDALE HWY","id":"a6g1lz4duqob","geo_precision":"range","state":"PA"},"type":"Feature","geometry":{"type":"Point","coordinates":[-75.651534,41.463977]}},{"properties":{"city":"MONROEVILLE","zip":"15146","f&b":53394.4415890411,"geo_score":0.848,"storeno":360,"street":"3954 WILLIAM PENN HWY","id":"a6g1lza0g1wo","geo_precision":"range","state":"PA"},"type":"Feature","geometry":{"type":"Point","coordinates":[-79.775142,40.438035]}},{"properties":{"city":"RALEIGH","zip":"27616","f&b":32040.8090684932,"geo_score":0.78,"storeno":361,"street":"4801 THORNTON RD","id":"a6g1lz8g90bw","geo_precision":"range","state":"NC"},"type":"Feature","geometry":{"type":"Point","coordinates":[-78.55827,35.898767]}},{"properties":{"city":"WHEELING","zip":"26003","f&b":36463.2504657534,"geo_score":0.815,"storeno":362,"street":"887 NATIONAL RD","id":"a6g1lz293ea2","geo_precision":"range","state":"WV"},"type":"Feature","geometry":{"type":"Point","coordinates":[-80.693724,40.077177]}},{"properties":{"city":"CLARKS SUMMIT","zip":"18411","f&b":38645.1780821918,"geo_score":0.805,"storeno":363,"street":"1109 NORTHERN BLVD","id":"a6g1lyz0id9a","geo_precision":"range","state":"PA"},"type":"Feature","geometry":{"type":"Point","coordinates":[-75.694493,41.486235]}},{"properties":{"city":"FISHERVILLE","zip":"22939","f&b":37874.0398630137,"geo_score":0.664,"storeno":364,"street":"726 TINKLING SPRING RD","id":"a6g1lzauktco","geo_precision":"street","state":"VA"},"type":"Feature","geometry":{"type":"Point","coordinates":[-78.972797,38.096448]}},{"properties":{"city":"FUQUAY-VARINA","zip":"27526","f&b":22492.9375616438,"geo_score":0.813,"storeno":365,"street":"1655 N MAIN ST","id":"a6g1lywaum6e","geo_precision":"range","state":"NC"},"type":"Feature","geometry":{"type":"Point","coordinates":[-78.760314,35.596356]}},{"properties":{"city":"GREENSBORO","zip":"27407","f&b":29680.0289589041,"geo_score":0.805,"storeno":366,"street":"5421 HORNADAY RD","id":"a6g1lz1ylzrp","geo_precision":"range","state":"NC"},"type":"Feature","geometry":{"type":"Point","coordinates":[-79.904634,36.059443]}},{"properties":{"city":"ERIE","zip":"16510","f&b":27497.9983561644,"geo_score":0.819,"storeno":367,"street":"4816 BUFFALO RD","id":"a6g1lz2ioxbh","geo_precision":"range","state":"PA"},"type":"Feature","geometry":{"type":"Point","coordinates":[-79.993814,42.150795]}},{"properties":{"city":"AKRON","zip":"44312","f&b":30593.7059726027,"geo_score":0.805,"storeno":368,"street":"1651 E TURKEYFOOT LAKE RD","id":"a6g1lz1it51s","geo_precision":"range","state":"OH"},"type":"Feature","geometry":{"type":"Point","coordinates":[-81.464364,40.973744]}},{"properties":{"city":"HOMER CITY","zip":"15748","f&b":58628.0316712329,"geo_score":0.581,"storeno":369,"street":"2260 ROUTE 119 HWY S","id":"a6g1lyynr281","geo_precision":"street","state":"PA"},"type":"Feature","geometry":{"type":"Point","coordinates":[-79.160856,40.534154]}},{"properties":{"city":"LEBANON","zip":"17042","f&b":47233.7442739726,"geo_score":0.841,"storeno":370,"street":"195 ROCHERTY RD","id":"a6g1lyuxy563","geo_precision":"range","state":"PA"},"type":"Feature","geometry":{"type":"Point","coordinates":[-76.423484,40.304649]}},{"properties":{"city":"RALEIGH","zip":"27610","f&b":23078.7861643836,"geo_score":0.717,"storeno":371,"street":"5200 NEW BERN AVE","id":"a6g1lz6tfnwb","geo_precision":"street","state":"NC"},"type":"Feature","geometry":{"type":"Point","coordinates":[-78.548737,35.793829]}},{"properties":{"city":"DANVILLE","zip":"17821","f&b":33813.7504657534,"geo_score":0.816,"storeno":372,"street":"116 WOODBINE LN","id":"a6g1lz860lgm","geo_precision":"range","state":"PA"},"type":"Feature","geometry":{"type":"Point","coordinates":[-76.577935,40.964452]}},{"properties":{"city":"YORK","zip":"17403","f&b":42061.8897808219,"geo_score":0.813,"storeno":373,"street":"2068 S QUEEN ST","id":"a6g1lz5u4ugz","geo_precision":"range","state":"PA"},"type":"Feature","geometry":{"type":"Point","coordinates":[-76.693534,39.937829]}},{"properties":{"city":"HARRISBURG","zip":"17113","f&b":63678.3024931507,"geo_score":0.631,"storeno":374,"street":"3695 PAXTON ST","id":"a6g1lz6ug9yi","geo_precision":"street","state":"PA"},"type":"Feature","geometry":{"type":"Point","coordinates":[-76.832962,40.241754]}},{"properties":{"city":"ALLIANCE","zip":"44601","f&b":29802.0959178082,"geo_score":0.837,"storeno":375,"street":"236 W STATE ST","id":"a6g1lzaklj23","geo_precision":"range","state":"OH"},"type":"Feature","geometry":{"type":"Point","coordinates":[-81.108489,40.901719]}},{"properties":{"city":"PITTSBURGH","zip":"15236","f&b":43197.6591506849,"geo_score":0.62,"storeno":376,"street":"1000 CLAIRTON BLVD.","id":"a6g1lyz5h6zb","geo_precision":"street","state":"PA"},"type":"Feature","geometry":{"type":"Point","coordinates":[-79.98422,40.363923]}},{"properties":{"city":"BELLE VERNON","zip":"15012","f&b":44438.2455616438,"geo_score":0.49,"storeno":377,"street":"4692 SR 51 S","id":"a6g1lyyygn67","geo_precision":"street","state":"PA"},"type":"Feature","geometry":{"type":"Point","coordinates":[-79.80624,40.10405]}},{"properties":{"city":"LEWISBURG","zip":"17837","f&b":41366.0788493151,"geo_score":0.499,"storeno":378,"street":"260 INTERNATIONAL DR","id":"a6g1lz5stkh7","geo_precision":"zip","state":"PA"},"type":"Feature","geometry":{"type":"Point","coordinates":[-76.901356,40.952029]}},{"properties":{"city":"MOON TOWNSHIP","zip":"15108","f&b":61024.9223835617,"geo_score":0.624,"storeno":379,"street":"9002 UNIVERSITY BLVD","id":"a6g1lz866nwt","geo_precision":"street","state":"PA"},"type":"Feature","geometry":{"type":"Point","coordinates":[-79.826004,40.344052]}},{"properties":{"city":"MEBANE","zip":"27302","f&b":38264.3801917808,"geo_score":0.821,"storeno":380,"street":"1237 MEBANE OAKS RD","id":"a6g1lyx8dwqh","geo_precision":"range","state":"NC"},"type":"Feature","geometry":{"type":"Point","coordinates":[-79.270702,36.069556]}},{"properties":{"city":"NEW CASTLE","zip":"16105","f&b":37084.149890411,"geo_score":0.827,"storeno":381,"street":"3450 WILMINGTON RD","id":"a6g1lz2jfrip","geo_precision":"range","state":"PA"},"type":"Feature","geometry":{"type":"Point","coordinates":[-80.356771,41.048072]}},{"properties":{"city":"HERMITAGE","zip":"16148","f&b":31111.9685205479,"geo_score":0.902,"storeno":382,"street":"1650 N HERMITAGE RD","id":"a6g1lyvt2951","geo_precision":"range","state":"PA"},"type":"Feature","geometry":{"type":"Point","coordinates":[-80.451999,41.256456]}},{"properties":{"city":"YOUNGSVILLE","zip":"27596","f&b":24652.1819178082,"geo_score":0.725,"storeno":383,"street":"564 US 1 HWY","id":"a6g1lyxsk4up","geo_precision":"range","state":"NC"},"type":"Feature","geometry":{"type":"Point","coordinates":[-78.50869,36.026007]}},{"properties":{"city":"BETHLEHEM","zip":"18017","f&b":40524.8476164384,"geo_score":0.695,"storeno":384,"street":"3201 SCHOENERSVILLE RD","id":"a6g1lyxtsoz2","geo_precision":"range","state":"PA"},"type":"Feature","geometry":{"type":"Point","coordinates":[-75.416789,40.656235]}},{"properties":{"city":"WINSTON-SALEM","zip":"27103","f&b":20521.928,"geo_score":0.508,"storeno":385,"street":"2505 SOMERSET CENTER DR","id":"a6g1lyzk3mi9","geo_precision":"street","state":"NC"},"type":"Feature","geometry":{"type":"Point","coordinates":[-80.34432,36.05354]}},{"properties":{"city":"CHESTER","zip":"23836","f&b":30854.106739726,"geo_score":0.902,"storeno":386,"street":"231 E HUNDRED RD","id":"a6g1lz44prur","geo_precision":"range","state":"VA"},"type":"Feature","geometry":{"type":"Point","coordinates":[-77.358257,37.348842]}},{"properties":{"city":"CAMBRIDGE","zip":"43725","f&b":24907.8077260274,"geo_score":0.707,"storeno":387,"street":"2101 SOUTHGATE PKWY","id":"a6g1lywb74x4","geo_precision":"street","state":"OH"},"type":"Feature","geometry":{"type":"Point","coordinates":[-81.576799,40.006959]}},{"properties":{"city":"LANCASTER","zip":"17603","f&b":42233.5936438356,"geo_score":0.805,"storeno":388,"street":"3101 COLUMBIA AVE","id":"a6g1lyvf7ze7","geo_precision":"range","state":"PA"},"type":"Feature","geometry":{"type":"Point","coordinates":[-76.390211,40.041159]}},{"properties":{"city":"CANTON","zip":"44708","f&b":21664.4889041096,"geo_score":0.82,"storeno":389,"street":"2939 WHIPPLE AVE NW","id":"a6g1lyza2wci","geo_precision":"range","state":"OH"},"type":"Feature","geometry":{"type":"Point","coordinates":[-81.424327,40.831731]}},{"properties":{"city":"KENT","zip":"44240","f&b":38522.19,"geo_score":0.816,"storeno":390,"street":"1762 E MAIN ST","id":"a6g1lz5cql47","geo_precision":"range","state":"OH"},"type":"Feature","geometry":{"type":"Point","coordinates":[-81.329815,41.154713]}},{"properties":{"city":"GREENVILLE","zip":"27858","f&b":29015.2546849315,"geo_score":0.709,"storeno":391,"street":"2100 COUNTY HOME RD","id":"a6g1lz6q5c91","geo_precision":"street","state":"NC"},"type":"Feature","geometry":{"type":"Point","coordinates":[-77.35551,35.563114]}},{"properties":{"city":"CHAMBERSBURG","zip":"17201","f&b":38952.224739726,"geo_score":0.62,"storeno":392,"street":"875 NORLAND AVE","id":"a6g1lz3012kh","geo_precision":"street","state":"PA"},"type":"Feature","geometry":{"type":"Point","coordinates":[-77.639254,39.943681]}},{"properties":{"city":"TWINSBURG","zip":"44087","f&b":23466.1730684931,"geo_score":0.709,"storeno":393,"street":"2495 E AURORA RD","id":"a6g1lz8o9k7p","geo_precision":"street","state":"OH"},"type":"Feature","geometry":{"type":"Point","coordinates":[-81.451276,41.31135]}},{"properties":{"city":"MENTOR","zip":"44060","f&b":31001.9221917808,"geo_score":0.844,"storeno":394,"street":"7777 REYNOLDS RD","id":"a6g1lywjkmgm","geo_precision":"range","state":"OH"},"type":"Feature","geometry":{"type":"Point","coordinates":[-81.377748,41.659201]}},{"properties":{"city":"FARMVILLE","zip":"23901","f&b":31757.9670684932,"geo_score":0.816,"storeno":395,"street":"2016 S MAIN ST","id":"a6g1lz1vo8ce","geo_precision":"range","state":"VA"},"type":"Feature","geometry":{"type":"Point","coordinates":[-78.401319,37.274038]}},{"properties":{"city":"WILSON","zip":"27893","f&b":25856.6347123288,"geo_score":0.683,"storeno":396,"street":"2835 FOREST HILLS RD SW","id":"a6g1lz28ogg9","geo_precision":"range","state":"NC"},"type":"Feature","geometry":{"type":"Point","coordinates":[-77.952167,35.709205]}},{"properties":{"city":"GREENVILLE","zip":"27858","f&b":33184.2049863014,"geo_score":0.902,"storeno":397,"street":"1000 CHARLES BLVD","id":"a6g1lz4nnbwj","geo_precision":"range","state":"NC"},"type":"Feature","geometry":{"type":"Point","coordinates":[-77.372239,35.605655]}},{"properties":{"city":"DURHAM","zip":"27703","f&b":34545.9249589041,"geo_score":0.695,"storeno":398,"street":"3021 S MIAMI BLVD","id":"a6g1lyvm0cyt","geo_precision":"range","state":"NC"},"type":"Feature","geometry":{"type":"Point","coordinates":[-78.846508,35.924484]}},{"properties":{"city":"MORRISVILLE","zip":"27560","f&b":43514.007369863,"geo_score":0.619,"storeno":399,"street":"1600 AVIATION PKWY","id":"a6g1lz6vnkbb","geo_precision":"street","state":"NC"},"type":"Feature","geometry":{"type":"Point","coordinates":[-78.80899,35.840219]}},{"properties":{"city":"ST. MARY'S","zip":"15857","f&b":41126.8947945205,"geo_score":0.805,"storeno":400,"street":"117 S MICHAEL ST","id":"a6g1lz48u8ls","geo_precision":"range","state":"PA"},"type":"Feature","geometry":{"type":"Point","coordinates":[-78.560304,41.427918]}},{"properties":{"city":"WAYNESBORO","zip":"17268","f&b":34161.8618082192,"geo_score":0.504,"storeno":401,"street":"13030 WASHINGTON TOWNSHIP BLVD","id":"a6g1lz4umtn4","geo_precision":"street","state":"PA"},"type":"Feature","geometry":{"type":"Point","coordinates":[-77.627675,39.770143]}},{"properties":{"city":"SARVER","zip":"16055","f&b":35501.6205753425,"geo_score":0.84,"storeno":402,"street":"717 S PIKE RD","id":"a6g1lz0ksoq2","geo_precision":"range","state":"PA"},"type":"Feature","geometry":{"type":"Point","coordinates":[-79.720112,40.699342]}},{"properties":{"city":"LYNCHBURG","zip":"24502","f&b":34406.6901643836,"geo_score":0.826,"storeno":403,"street":"3927 WARDS RD","id":"a6g1lz2sl91f","geo_precision":"range","state":"VA"},"type":"Feature","geometry":{"type":"Point","coordinates":[-79.184806,37.350631]}},{"properties":{"city":"PERRY","zip":"44081","f&b":37421.0965205479,"geo_score":0.854,"storeno":404,"street":"2800 N RIDGE RD","id":"a6g1lyvopq7e","geo_precision":"range","state":"OH"},"type":"Feature","geometry":{"type":"Point","coordinates":[-81.17656,41.768629]}},{"properties":{"city":"STATESVILLE","zip":"28625","f&b":25213.2938630137,"geo_score":0.709,"storeno":405,"street":"1244 WILKESBORO HWY","id":"a6g1lz4pkdx0","geo_precision":"street","state":"NC"},"type":"Feature","geometry":{"type":"Point","coordinates":[-80.906908,35.802985]}},{"properties":{"city":"ZANESVILLE","zip":"43701","f&b":15505.8877534247,"geo_score":0.805,"storeno":406,"street":"225 N MAYSVILLE AVE","id":"a6g1lz3mmz1w","geo_precision":"range","state":"OH"},"type":"Feature","geometry":{"type":"Point","coordinates":[-82.017615,39.908226]}},{"properties":{"city":"WYTHEVILLE","zip":"24382","f&b":29571.5680821918,"geo_score":0.737,"storeno":407,"street":"1340 N 4TH ST","id":"a6g1lz1mr14u","geo_precision":"range","state":"VA"},"type":"Feature","geometry":{"type":"Point","coordinates":[-81.096671,36.959287]}},{"properties":{"city":"WAYNESBORO","zip":"22980","f&b":27609.3376712328,"geo_score":0.815,"storeno":408,"street":"2156 W MAIN ST","id":"a6g1lyxh1u91","geo_precision":"range","state":"VA"},"type":"Feature","geometry":{"type":"Point","coordinates":[-78.914949,38.076912]}},{"properties":{"city":"WINTERVILLE","zip":"28590","f&b":23571.7744931507,"geo_score":0.707,"storeno":409,"street":"650 WHITLEY DR","id":"a6g1lz9r8lbt","geo_precision":"street","state":"NC"},"type":"Feature","geometry":{"type":"Point","coordinates":[-77.557268,35.330183]}},{"properties":{"city":"SCHUYLKILL HAVEN","zip":"17972","f&b":32747.0641917808,"geo_score":0.818,"storeno":410,"street":"270 ROUTE 61 S","id":"a6g1lyz0ts6x","geo_precision":"range","state":"PA"},"type":"Feature","geometry":{"type":"Point","coordinates":[-76.173981,40.637495]}},{"properties":{"city":"WINSTON-SALEM","zip":"27127","f&b":21622.1285479452,"geo_score":0.769,"storeno":411,"street":"12290 N NC HIGHWAY 150","id":"a6g1lz0s4jk5","geo_precision":"range","state":"NC"},"type":"Feature","geometry":{"type":"Point","coordinates":[-80.268131,35.99476]}},{"properties":{"city":"HARRISBURG","zip":"17112","f&b":42807.0056438356,"geo_score":0.814,"storeno":412,"street":"6290 ALLENTOWN BLVD","id":"a6g1lz0ec3h1","geo_precision":"range","state":"PA"},"type":"Feature","geometry":{"type":"Point","coordinates":[-76.782149,40.324443]}},{"properties":{"city":"DILLSBURG","zip":"17019","f&b":46889.8402191781,"geo_score":0.695,"storeno":413,"street":"493 N US Route 15","id":"a6g1lyvz7o8m","geo_precision":"range","state":"PA"},"type":"Feature","geometry":{"type":"Point","coordinates":[-77.036532,40.118584]}},{"properties":{"city":"HIGH POINT","zip":"27265","f&b":24621.8838082192,"geo_score":0.639,"storeno":414,"street":"2980 NC 68 SOUTH","id":"a6g1lzaj21yg","geo_precision":"range","state":"NC"},"type":"Feature","geometry":{"type":"Point","coordinates":[-79.961595,36.0599]}},{"properties":{"city":"GREENVILLE","zip":"27858","f&b":21943.6214794521,"geo_score":0.709,"storeno":415,"street":"1201 PORTERTOWN RD","id":"a6g1lyxc63i9","geo_precision":"street","state":"NC"},"type":"Feature","geometry":{"type":"Point","coordinates":[-77.313763,35.58066]}},{"properties":{"city":"ZEBULON","zip":"27597","f&b":30813.7008219178,"geo_score":0.816,"storeno":416,"street":"1406 N ARENDELL AVE","id":"a6g1lyxqxers","geo_precision":"range","state":"NC"},"type":"Feature","geometry":{"type":"Point","coordinates":[-78.324743,35.838708]}},{"properties":{"city":"BURLINGTON","zip":"27215","f&b":29279.4626849315,"geo_score":0.815,"storeno":417,"street":"2628 ALAMANCE RD","id":"a6g1lyxytekc","geo_precision":"range","state":"NC"},"type":"Feature","geometry":{"type":"Point","coordinates":[-79.467786,36.067726]}},{"properties":{"city":"TRINITY","zip":"27370","f&b":29823.4844657534,"geo_score":0.902,"storeno":418,"street":"5905 FINCH FARM RD","id":"a6g1lywmyy6k","geo_precision":"range","state":"NC"},"type":"Feature","geometry":{"type":"Point","coordinates":[-80.03638,35.86782]}},{"properties":{"city":"BARBOURSVILLE","zip":"25504","f&b":29339.0035342466,"geo_score":0.812,"storeno":419,"street":"4 MALL RD","id":"a6g1lz4z3df2","geo_precision":"range","state":"WV"},"type":"Feature","geometry":{"type":"Point","coordinates":[-82.26223,38.420469]}},{"properties":{"city":"ALTOONA","zip":"16602","f&b":33271.0182191781,"geo_score":0.632,"storeno":420,"street":"1015 OLD 6TH AVE RD","id":"a6g1lyxuqsnf","geo_precision":"range","state":"PA"},"type":"Feature","geometry":{"type":"Point","coordinates":[-78.394518,40.514248]}},{"properties":{"city":"LANCASTER","zip":"17603","f&b":36587.3455068493,"geo_score":0.532,"storeno":421,"street":"1180 MANHEIM PIKE","id":"a6g1lz9u7onf","geo_precision":"street","state":"PA"},"type":"Feature","geometry":{"type":"Point","coordinates":[-76.316077,40.057395]}},{"properties":{"city":"STRONGSVILLE","zip":"44149","f&b":35614.7148767123,"geo_score":0.813,"storeno":422,"street":"21034 ROYALTON RD","id":"a6g1lz9ry30p","geo_precision":"range","state":"OH"},"type":"Feature","geometry":{"type":"Point","coordinates":[-81.858074,41.312428]}},{"properties":{"city":"YORK","zip":"17402","f&b":26274.1992876712,"geo_score":0.848,"storeno":423,"street":"3998 E MARKET ST","id":"a6g1lz1v25y6","geo_precision":"range","state":"PA"},"type":"Feature","geometry":{"type":"Point","coordinates":[-76.636688,39.992162]}},{"properties":{"city":"MILTON","zip":"25541","f&b":24960.5848493151,"geo_score":0.622,"storeno":424,"street":"1304 JOHNS CREEK RD","id":"a6g1lyxhtk3w","geo_precision":"street","state":"WV"},"type":"Feature","geometry":{"type":"Point","coordinates":[-82.12254,38.440805]}},{"properties":{"city":"MARTINSBURG","zip":"25404","f&b":36235.1260273973,"geo_score":0.368,"storeno":425,"street":"5715 HAMMONDS MILL RD","id":"a6g1lz26kwfk","geo_precision":"street","state":"WV"},"type":"Feature","geometry":{"type":"Point","coordinates":[-122.426701,37.464414]}},{"properties":{"city":"CARLISLE","zip":"17015","f&b":36567.2167671233,"geo_score":0.621,"storeno":426,"street":"1796 W TRINDLE ROAD","id":"a6g1lyzil386","geo_precision":"street","state":"PA"},"type":"Feature","geometry":{"type":"Point","coordinates":[-77.09758,40.195124]}},{"properties":{"city":"HUNTINGTON","zip":"25704","f&b":34086.4572328767,"geo_score":0.791,"storeno":427,"street":"432 18TH ST W","id":"a6g1lz0wufrj","geo_precision":"range","state":"WV"},"type":"Feature","geometry":{"type":"Point","coordinates":[-82.486271,38.410928]}},{"properties":{"city":"EDEN","zip":"27288","f&b":22597.3556986301,"geo_score":0.805,"storeno":428,"street":"102 N VAN BUREN RD","id":"a6g1lz4fbyxm","geo_precision":"range","state":"NC"},"type":"Feature","geometry":{"type":"Point","coordinates":[-79.743047,36.50118]}},{"properties":{"city":"TRIADELPHIA","zip":"26059","f&b":40238.8184109589,"geo_score":0.72,"storeno":429,"street":"6 CABELA DR","id":"a6g1lz7s26fx","geo_precision":"range","state":"WV"},"type":"Feature","geometry":{"type":"Point","coordinates":[-80.563742,39.825936]}},{"properties":{"city":"EBENSBURG","zip":"15931","f&b":34039.1263013698,"geo_score":0.816,"storeno":430,"street":"4375 ADMIRAL PEARY HIGHWAY","id":"a6g1lyxsr5cc","geo_precision":"range","state":"PA"},"type":"Feature","geometry":{"type":"Point","coordinates":[-78.756131,40.468604]}},{"properties":{"city":"NW","zip":"OH","f&b":44720.0,"geo_score":0.415,"storeno":431,"street":"1415 PITTSBURG AVENUE","id":"a6g1lyyeqnti","geo_precision":"city","state":"NORTH CANTON"},"type":"Feature","geometry":{"type":"Point","coordinates":[-85.558572,34.132319]}},{"properties":{"city":"JAMESTOWN","zip":"27282","f&b":21985.3621917808,"geo_score":0.508,"storeno":432,"street":"1001 GARDNER HILL DR","id":"a6g1lz271w4n","geo_precision":"street","state":"NC"},"type":"Feature","geometry":{"type":"Point","coordinates":[-79.9229,36.028758]}},{"properties":{"city":"HURRICANE","zip":"25526","f&b":31076.7953424658,"geo_score":0.417,"storeno":433,"street":"104 St. Rt. 19","id":"a6g1lz7om4u0","geo_precision":"street","state":"WV"},"type":"Feature","geometry":{"type":"Point","coordinates":[-81.987716,38.445985]}},{"properties":{"city":"BERWICK","zip":"18603","f&b":28179.566109589,"geo_score":0.834,"storeno":434,"street":"2100 WEST FRONT STREET","id":"a6g1lyveavr7","geo_precision":"range","state":"PA"},"type":"Feature","geometry":{"type":"Point","coordinates":[-76.270709,41.04736]}},{"properties":{"city":"CHARDON","zip":"44024","f&b":20045.3415342466,"geo_score":0.847,"storeno":435,"street":"435 WATER STREET","id":"a6g1lz6qbch1","geo_precision":"range","state":"OH"},"type":"Feature","geometry":{"type":"Point","coordinates":[-81.209854,41.580899]}},{"properties":{"city":"MT JACKSON","zip":"22842","f&b":38301.2297260274,"geo_score":0.807,"storeno":701,"street":"227 CONICVILLE BLVD","id":"a6g1lz9s17ci","geo_precision":"range","state":"VA"},"type":"Feature","geometry":{"type":"Point","coordinates":[-78.68706,38.829419]}}],"is_temporal":false,"author":{"url":"","metadata":"","contact_name":"","contact_address":"","source":"","contact_phone":""},"source":"","pagination":{"sort":null,"start":0,"total":368,"limit":1000000},"state":"complete","tags":"","published":"2014-08-13T11:57:56-04:00","id":129442}