{"type":"FeatureCollection","data_type":"Dataset","url_type":null,"permissions":[{"permissions":{"download":true,"view":true},"group_id":"everyone"}],"classification":null,"title":"Fraudulent Credit Card Charges","count":8,"stream_id":129561,"contributor":{"url":"http://geocommons.com/users/29093","name":"girljournalist"},"data_attributes":null,"calculation_params":null,"icon_link":null,"link":"http://geocommons.com/overlays/129561.json","extent":[-73.9894,40.6062,-73.9444,40.7629],"geometry_types":["point"],"unique_name":null,"name":"Fraudulent Credit Card Charges","feature_count":8,"description":"This is the data I collected from my two debit cards that were used by a thief (thieves) in New York City.","next_feature":null,"is_raster":false,"short_classification":"Y","stats":{"amount charged":{"max":60.0,"mean":43.65125,"variance":204.1392125,"stdev":14.2877294382278,"min":25.0,"median":48.0}},"features":[{"properties":{"name":"United States Deli &amp; Grocery","city":"NY","column_10":null,"amount charged":25.0,"column_11":null,"column_12":null,"column_7":null,"geo_score":0.307,"column_13":null,"column_8":null,"column_14":null,"column_9":null,"zip code":"11101","id":"a64lbjeyptfy","geo_precision":"street","address":"814 10th Avenue","state":"NY"},"type":"Feature","geometry":{"type":"Point","coordinates":[-73.94435,40.756875]}},{"properties":{"name":"United States Deli &amp; Grocery","city":"NY","column_10":null,"amount charged":28.31,"column_11":null,"column_12":null,"column_7":null,"geo_score":0.307,"column_13":null,"column_8":null,"column_14":null,"column_9":null,"zip code":"11101","id":"a64lbjadl76e","geo_precision":"street","address":"814 10th Avenue","state":"NY"},"type":"Feature","geometry":{"type":"Point","coordinates":[-73.94435,40.756875]}},{"properties":{"name":"886 G &amp; G Corp","city":"NY","column_10":null,"amount charged":48.0,"column_11":null,"column_12":null,"column_7":null,"geo_score":0.307,"column_13":null,"column_8":null,"column_14":null,"column_9":null,"zip code":"11101","id":"a64lbjij7wd7","geo_precision":"street","address":"886 10th Ave","state":"NY"},"type":"Feature","geometry":{"type":"Point","coordinates":[-73.94435,40.756875]}},{"properties":{"name":"CVS","city":"NY","column_10":null,"amount charged":53.78,"column_11":null,"column_12":null,"column_7":null,"geo_score":0.805,"column_13":null,"column_8":null,"column_14":null,"column_9":null,"zip code":"10022","id":"a64lbjc2syz8","geo_precision":"range","address":"400 West 58th Street","state":"NY"},"type":"Feature","geometry":{"type":"Point","coordinates":[-73.962432,40.758981]}},{"properties":{"name":"CVS","city":"NY","column_10":null,"amount charged":58.79,"column_11":null,"column_12":null,"column_7":null,"geo_score":0.805,"column_13":null,"column_8":null,"column_14":null,"column_9":null,"zip code":"10022","id":"a64lbjka5h20","geo_precision":"range","address":"400 West 58th Street","state":"NY"},"type":"Feature","geometry":{"type":"Point","coordinates":[-73.962432,40.758981]}},{"properties":{"name":"Giebrel Deli &amp; Grocery NY","city":"NY","column_10":null,"amount charged":60.0,"column_11":null,"column_12":null,"column_7":null,"geo_score":0.93,"column_13":null,"column_8":null,"column_14":null,"column_9":null,"zip code":"10019","id":"a64lbjiw9ikx","geo_precision":"range","address":"719 9TH Avenue","state":"NY"},"type":"Feature","geometry":{"type":"Point","coordinates":[-73.989401,40.762859]}},{"properties":{"name":"Mirage Diner Restaurant","city":"Brooklyn","column_10":null,"amount charged":28.83,"column_11":null,"column_12":null,"column_7":null,"geo_score":0.924,"column_13":null,"column_8":null,"column_14":null,"column_9":null,"zip code":"11223","id":"a64lbjj79fnq","geo_precision":"range","address":"717 Kings Highway","state":"NY"},"type":"Feature","geometry":{"type":"Point","coordinates":[-73.965517,40.60618]}},{"properties":{"name":"Kings Convenience","city":"Brooklyn","column_10":null,"amount charged":46.5,"column_11":null,"column_12":null,"column_7":null,"geo_score":1.0,"column_13":null,"column_8":null,"column_14":null,"column_9":null,"zip code":"11229","id":"a64lbjckebqo","geo_precision":"range","address":"1932 Kings Highway","state":"NY"},"type":"Feature","geometry":{"type":"Point","coordinates":[-73.95441,40.610392]}}],"is_temporal":false,"author":{"url":"","metadata":"","contact_name":"","contact_address":"","source":"","contact_phone":""},"source":"","pagination":{"sort":null,"start":0,"total":8,"limit":1000000},"state":"complete","tags":"","published":"2011-06-25T16:00:00Z","id":129561}