{"type":"FeatureCollection","data_type":"Dataset","url_type":null,"permissions":[{"permissions":{"download":true,"view":true},"group_id":"everyone"}],"classification":null,"title":"1103mar Store ROI Mar2011 Preview","count":368,"stream_id":130783,"contributor":{"url":"http://geocommons.com/users/19917","name":"diethrick@gmail.com"},"data_attributes":null,"calculation_params":null,"icon_link":null,"link":"http://geocommons.com/overlays/130783.json","extent":[-122.427,32.8937,-75.4168,42.1508],"geometry_types":["point"],"unique_name":null,"name":"1103mar Store ROI Mar2011 Preview","feature_count":368,"description":"","next_feature":null,"is_raster":false,"short_classification":"Y","stats":{"f&b":{"max":75258,"mean":35022.0027173913,"variance":72771972.3678401,"stdev":8530.64900038913,"min":15506,"median":34086},"storeno":{"max":701,"mean":245.619565217391,"variance":14413.5551474944,"stdev":120.056466495955,"min":3,"median":253}},"features":[{"properties":{"city":"HOLLIDAYSBURG","zip":"16648","f&b":33815,"geo_score":0.85,"storeno":3,"street":"1100 BLAIR ST","id":"a6ep3f2xbloh","geo_precision":"range","state":"PA"},"type":"Feature","geometry":{"type":"Point","coordinates":[-78.383974,40.429773]}},{"properties":{"city":"ALTOONA","zip":"16602","f&b":39454,"geo_score":0.73,"storeno":7,"street":"5706 6TH AVE","id":"a6ep3fgifygq","geo_precision":"range","state":"PA"},"type":"Feature","geometry":{"type":"Point","coordinates":[-78.424511,40.472906]}},{"properties":{"city":"HUNTINGDON","zip":"16652","f&b":24714,"geo_score":0.818,"storeno":10,"street":"1330 MOORE ST","id":"a6ep3f5j0o3a","geo_precision":"range","state":"PA"},"type":"Feature","geometry":{"type":"Point","coordinates":[-78.015977,40.494232]}},{"properties":{"city":"ALTOONA","zip":"16601","f&b":23628,"geo_score":0.733,"storeno":11,"street":"1230 14TH AVE","id":"a6ep3f82o41h","geo_precision":"range","state":"PA"},"type":"Feature","geometry":{"type":"Point","coordinates":[-78.403098,40.517529]}},{"properties":{"city":"ALTOONA","zip":"16601","f&b":32313,"geo_score":0.817,"storeno":14,"street":"3315 BEALE AVE","id":"a6ep3f31n8tx","geo_precision":"range","state":"PA"},"type":"Feature","geometry":{"type":"Point","coordinates":[-78.417261,40.494702]}},{"properties":{"city":"TYRONE","zip":"16686","f&b":42592,"geo_score":0.805,"storeno":15,"street":"1400 LOGAN AVE","id":"a6ep3f8mbnjn","geo_precision":"range","state":"PA"},"type":"Feature","geometry":{"type":"Point","coordinates":[-78.237628,40.675844]}},{"properties":{"city":"INDIANA","zip":"15701","f&b":29352,"geo_score":0.823,"storeno":19,"street":"768 WAYNE AVE","id":"a6ep3fbn3fnq","geo_precision":"range","state":"PA"},"type":"Feature","geometry":{"type":"Point","coordinates":[-79.152638,40.618373]}},{"properties":{"city":"JOHNSTOWN","zip":"15902","f&b":46837,"geo_score":0.827,"storeno":21,"street":"490 CENTRAL AVE","id":"a6ep3f8gtssd","geo_precision":"range","state":"PA"},"type":"Feature","geometry":{"type":"Point","coordinates":[-78.911702,40.299571]}},{"properties":{"city":"JOHNSTOWN","zip":"15901","f&b":37618,"geo_score":0.848,"storeno":22,"street":"208 HAYNES ST","id":"a6ep3faypzce","geo_precision":"range","state":"PA"},"type":"Feature","geometry":{"type":"Point","coordinates":[-78.918922,40.321009]}},{"properties":{"city":"EVERETT","zip":"15537","f&b":28380,"geo_score":0.815,"storeno":23,"street":"11 W MAIN ST","id":"a6ep3f2848ky","geo_precision":"range","state":"PA"},"type":"Feature","geometry":{"type":"Point","coordinates":[-78.373259,40.011222]}},{"properties":{"city":"WINDBER","zip":"15963","f&b":27041,"geo_score":0.815,"storeno":27,"street":"1500 GRAHAM AVE","id":"a6ep3f0x1qtb","geo_precision":"range","state":"PA"},"type":"Feature","geometry":{"type":"Point","coordinates":[-78.830913,40.235316]}},{"properties":{"city":"BEDFORD","zip":"15522","f&b":36213,"geo_score":0.827,"storeno":28,"street":"9402 LINCOLN HWY","id":"a6ep3fecgpc3","geo_precision":"range","state":"PA"},"type":"Feature","geometry":{"type":"Point","coordinates":[-78.467972,40.015741]}},{"properties":{"city":"BLAIRSVILLE","zip":"15717","f&b":38697,"geo_score":0.805,"storeno":29,"street":"5 E MARKET ST","id":"a6ep3fctgd50","geo_precision":"range","state":"PA"},"type":"Feature","geometry":{"type":"Point","coordinates":[-79.264526,40.430832]}},{"properties":{"city":"INDIANA","zip":"15701","f&b":54148,"geo_score":0.823,"storeno":31,"street":"380 PHILADELPHIA ST","id":"a6ep3f3h9f8l","geo_precision":"range","state":"PA"},"type":"Feature","geometry":{"type":"Point","coordinates":[-79.145141,40.622846]}},{"properties":{"city":"MCCONNELLSBURG","zip":"17233","f&b":33149,"geo_score":0.812,"storeno":32,"street":"720 LINCOLN WAY E","id":"a6ep3fddjyjt","geo_precision":"range","state":"PA"},"type":"Feature","geometry":{"type":"Point","coordinates":[-77.99057,39.929657]}},{"properties":{"city":"ALTOONA","zip":"16601","f&b":35415,"geo_score":0.628,"storeno":33,"street":"718 BELLWOOD RD","id":"a6ep3f1nttv3","geo_precision":"street","state":"PA"},"type":"Feature","geometry":{"type":"Point","coordinates":[-78.391807,40.520887]}},{"properties":{"city":"ALTOONA","zip":"16602","f&b":39202,"geo_score":0.73,"storeno":34,"street":"1701 7TH AVE","id":"a6ep3fg88dha","geo_precision":"range","state":"PA"},"type":"Feature","geometry":{"type":"Point","coordinates":[-78.401677,40.508476]}},{"properties":{"city":"DUNCANSVILLE","zip":"16635","f&b":44105,"geo_score":0.708,"storeno":35,"street":"1371 PLANK RD","id":"a6ep3fghyt7g","geo_precision":"street","state":"PA"},"type":"Feature","geometry":{"type":"Point","coordinates":[-78.313954,40.110156]}},{"properties":{"city":"ALTOONA","zip":"16601","f&b":38882,"geo_score":0.744,"storeno":38,"street":"405 EAST 25TH AVE","id":"a6ep3f2g3c8i","geo_precision":"range","state":"PA"},"type":"Feature","geometry":{"type":"Point","coordinates":[-78.402213,40.53446]}},{"properties":{"city":"MOUNT UNION","zip":"17066","f&b":26136,"geo_score":0.811,"storeno":40,"street":"201 N JEFFERSON ST","id":"a6ep3f489yim","geo_precision":"range","state":"PA"},"type":"Feature","geometry":{"type":"Point","coordinates":[-77.882915,40.386987]}},{"properties":{"city":"CUMBERLAND","zip":"21502","f&b":25550,"geo_score":0.87,"storeno":41,"street":"361 FREDERICK ST","id":"a6ep3fb1h5fs","geo_precision":"range","state":"MD"},"type":"Feature","geometry":{"type":"Point","coordinates":[-78.759113,39.657387]}},{"properties":{"city":"HANCOCK","zip":"21750","f&b":30271,"geo_score":0.805,"storeno":43,"street":"192 W MAIN ST","id":"a6ep3f1s4otd","geo_precision":"range","state":"MD"},"type":"Feature","geometry":{"type":"Point","coordinates":[-78.191495,39.698232]}},{"properties":{"city":"EBENSBURG","zip":"15931","f&b":25024,"geo_score":0.816,"storeno":45,"street":"948 W HIGH ST","id":"a6ep3fb7ijsu","geo_precision":"range","state":"PA"},"type":"Feature","geometry":{"type":"Point","coordinates":[-78.734907,40.482093]}},{"properties":{"city":"CRESAPTOWN","zip":"21502","f&b":33166,"geo_score":0.811,"storeno":46,"street":"14606 MCMULLEN HWY SW","id":"a6ep3f9zihl4","geo_precision":"range","state":"MD"},"type":"Feature","geometry":{"type":"Point","coordinates":[-78.830282,39.59493]}},{"properties":{"city":"NANTY GLO","zip":"15943","f&b":30816,"geo_score":0.902,"storeno":48,"street":"115 PACE ST","id":"a6ep3f9f2d6r","geo_precision":"range","state":"PA"},"type":"Feature","geometry":{"type":"Point","coordinates":[-78.838861,40.450769]}},{"properties":{"city":"PORTAGE","zip":"15946","f&b":27973,"geo_score":0.826,"storeno":49,"street":"411 MAIN ST","id":"a6ep3fb4t270","geo_precision":"range","state":"PA"},"type":"Feature","geometry":{"type":"Point","coordinates":[-78.672238,40.389673]}},{"properties":{"city":"CUMBERLAND","zip":"21502","f&b":36316,"geo_score":0.87,"storeno":51,"street":"210 GREENE ST","id":"a6ep3fg6t73s","geo_precision":"range","state":"MD"},"type":"Feature","geometry":{"type":"Point","coordinates":[-78.769523,39.650182]}},{"properties":{"city":"PATTON","zip":"16668","f&b":23950,"geo_score":0.827,"storeno":52,"street":"304 MAGEE AVE","id":"a6ep3f99840t","geo_precision":"range","state":"PA"},"type":"Feature","geometry":{"type":"Point","coordinates":[-78.645949,40.633869]}},{"properties":{"city":"NORTHERN CAMBRIA","zip":"15714","f&b":34528,"geo_score":0.824,"storeno":55,"street":"4025 CRAWFORD AVE","id":"a6ep3f2h8ik0","geo_precision":"range","state":"PA"},"type":"Feature","geometry":{"type":"Point","coordinates":[-78.782267,40.660402]}},{"properties":{"city":"SOMERSET","zip":"15501","f&b":33139,"geo_score":0.817,"storeno":57,"street":"457 E MAIN ST","id":"a6ep3fbligi9","geo_precision":"range","state":"PA"},"type":"Feature","geometry":{"type":"Point","coordinates":[-79.070529,40.007201]}},{"properties":{"city":"CLARION","zip":"16214","f&b":31452,"geo_score":0.821,"storeno":58,"street":"1281 E MAIN ST","id":"a6ep3f74ix87","geo_precision":"range","state":"PA"},"type":"Feature","geometry":{"type":"Point","coordinates":[-79.368348,41.208723]}},{"properties":{"city":"LATROBE","zip":"15650","f&b":51187,"geo_score":0.822,"storeno":59,"street":"2853 LIGONIER ST","id":"a6ep3fau6gyt","geo_precision":"range","state":"PA"},"type":"Feature","geometry":{"type":"Point","coordinates":[-79.3717,40.300833]}},{"properties":{"city":"SOMERSET","zip":"15501","f&b":39533,"geo_score":0.817,"storeno":60,"street":"118 S ROSINA AVE","id":"a6ep3fgz226m","geo_precision":"range","state":"PA"},"type":"Feature","geometry":{"type":"Point","coordinates":[-79.082919,40.008298]}},{"properties":{"city":"CLYMER","zip":"15728","f&b":23721,"geo_score":0.805,"storeno":61,"street":"825 FRANKLIN ST","id":"a6ep3fbx7y3v","geo_precision":"range","state":"PA"},"type":"Feature","geometry":{"type":"Point","coordinates":[-79.014535,40.665673]}},{"properties":{"city":"FROSTBURG","zip":"21532","f&b":46839,"geo_score":0.709,"storeno":62,"street":"10601 NEW GEORGES CREEK RD SW","id":"a6ep3fgvz1u4","geo_precision":"range","state":"MD"},"type":"Feature","geometry":{"type":"Point","coordinates":[-78.915672,39.619704]}},{"properties":{"city":"DUBOIS","zip":"15801","f&b":37676,"geo_score":0.814,"storeno":63,"street":"701 E DUBOIS AVE","id":"a6ep3f3t19pp","geo_precision":"range","state":"PA"},"type":"Feature","geometry":{"type":"Point","coordinates":[-78.743817,41.124877]}},{"properties":{"city":"PHILIPSBURG","zip":"16866","f&b":47126,"geo_score":0.805,"storeno":64,"street":"808 N FRONT ST","id":"a6ep3fa30m8n","geo_precision":"range","state":"PA"},"type":"Feature","geometry":{"type":"Point","coordinates":[-78.22808,40.902268]}},{"properties":{"city":"JOHNSTOWN","zip":"15906","f&b":43570,"geo_score":0.815,"storeno":65,"street":"1000 BROAD ST","id":"a6ep3f2khtwz","geo_precision":"range","state":"PA"},"type":"Feature","geometry":{"type":"Point","coordinates":[-78.93431,40.342665]}},{"properties":{"city":"BROOKVILLE","zip":"15825","f&b":49752,"geo_score":0.707,"storeno":66,"street":"300 W MAIN ST","id":"a6ep3ff0xe41","geo_precision":"street","state":"PA"},"type":"Feature","geometry":{"type":"Point","coordinates":[-79.097807,41.163328]}},{"properties":{"city":"WILLIAMSPORT","zip":"21795","f&b":28182,"geo_score":0.829,"storeno":68,"street":"100 E POTOMAC ST","id":"a6ep3f297ka8","geo_precision":"range","state":"MD"},"type":"Feature","geometry":{"type":"Point","coordinates":[-77.818734,39.600497]}},{"properties":{"city":"CHAMBERSBURG","zip":"17201","f&b":43321,"geo_score":0.764,"storeno":69,"street":"1 MONTICELLO CT","id":"a6ep3f7uk6rd","geo_precision":"range","state":"PA"},"type":"Feature","geometry":{"type":"Point","coordinates":[-77.671983,39.937802]}},{"properties":{"city":"SHIPPENSBURG","zip":"17257","f&b":46046,"geo_score":0.813,"storeno":70,"street":"359 E KING ST","id":"a6ep3fgq34r5","geo_precision":"range","state":"PA"},"type":"Feature","geometry":{"type":"Point","coordinates":[-77.514887,40.0533]}},{"properties":{"city":"YOUNGWOOD","zip":"15697","f&b":40211,"geo_score":0.707,"storeno":72,"street":"301 N 3RD ST","id":"a6ep3fd7l7f4","geo_precision":"range","state":"PA"},"type":"Feature","geometry":{"type":"Point","coordinates":[-79.575972,40.242619]}},{"properties":{"city":"CLEARFIELD","zip":"16830","f&b":45542,"geo_score":0.815,"storeno":73,"street":"101 NICHOLS ST","id":"a6ep3f8cez14","geo_precision":"range","state":"PA"},"type":"Feature","geometry":{"type":"Point","coordinates":[-78.440469,41.02728]}},{"properties":{"city":"HAGERSTOWN","zip":"21740","f&b":24014,"geo_score":0.815,"storeno":74,"street":"700 POTOMAC AVE","id":"a6ep3fgqneu3","geo_precision":"range","state":"MD"},"type":"Feature","geometry":{"type":"Point","coordinates":[-77.71217,39.65071]}},{"properties":{"city":"SLIPPERY ROCK","zip":"16057","f&b":41923,"geo_score":0.829,"storeno":75,"street":"304 S MAIN ST","id":"a6ep3ffppwqa","geo_precision":"range","state":"PA"},"type":"Feature","geometry":{"type":"Point","coordinates":[-80.054352,41.062223]}},{"properties":{"city":"CHAMBERSBURG","zip":"17201","f&b":34615,"geo_score":0.62,"storeno":76,"street":"1315 LINCOLN WAY E","id":"a6ep3f6hd8tc","geo_precision":"street","state":"PA"},"type":"Feature","geometry":{"type":"Point","coordinates":[-77.632379,39.928233]}},{"properties":{"city":"PUNXSUTAWNEY","zip":"15767","f&b":42062,"geo_score":0.813,"storeno":79,"street":"100 ELK RUN AVE","id":"a6ep3f442xyi","geo_precision":"range","state":"PA"},"type":"Feature","geometry":{"type":"Point","coordinates":[-78.963847,40.949677]}},{"properties":{"city":"HAGERSTOWN","zip":"21740","f&b":38853,"geo_score":0.815,"storeno":82,"street":"301 E WASHINGTON ST","id":"a6ep3fgd79fq","geo_precision":"range","state":"MD"},"type":"Feature","geometry":{"type":"Point","coordinates":[-77.714739,39.63942]}},{"properties":{"city":"FRANKLIN","zip":"16323","f&b":35276,"geo_score":0.824,"storeno":84,"street":"1107 LIBERTY ST","id":"a6ep3f7xhv84","geo_precision":"range","state":"PA"},"type":"Feature","geometry":{"type":"Point","coordinates":[-79.826491,41.395132]}},{"properties":{"city":"JOHNSTOWN","zip":"15905","f&b":23739,"geo_score":0.827,"storeno":86,"street":"1791 GOUCHER ST","id":"a6ep3f8vy5w9","geo_precision":"range","state":"PA"},"type":"Feature","geometry":{"type":"Point","coordinates":[-78.951373,40.3261]}},{"properties":{"city":"SCOTTDALE","zip":"15683","f&b":27003,"geo_score":0.823,"storeno":87,"street":"5 S BROADWAY ST","id":"a6ep3f1it4e9","geo_precision":"range","state":"PA"},"type":"Feature","geometry":{"type":"Point","coordinates":[-79.587151,40.100238]}},{"properties":{"city":"MEYERSDALE","zip":"15552","f&b":26774,"geo_score":0.815,"storeno":89,"street":"24 CENTER ST","id":"a6ep3fe76obp","geo_precision":"range","state":"PA"},"type":"Feature","geometry":{"type":"Point","coordinates":[-79.026097,39.812568]}},{"properties":{"city":"MONONGAHELA","zip":"15063","f&b":41913,"geo_score":0.812,"storeno":92,"street":"111 E MAIN ST","id":"a6ep3famux1g","geo_precision":"range","state":"PA"},"type":"Feature","geometry":{"type":"Point","coordinates":[-79.921819,40.199708]}},{"properties":{"city":"RIDGWAY","zip":"15853","f&b":42976,"geo_score":0.805,"storeno":96,"street":"138 N BROAD ST","id":"a6ep3f4eht9o","geo_precision":"range","state":"PA"},"type":"Feature","geometry":{"type":"Point","coordinates":[-78.730989,41.424316]}},{"properties":{"city":"NEW KENSINGTON","zip":"15068","f&b":26666,"geo_score":0.695,"storeno":99,"street":"700 7TH ST","id":"a6ep3f61492i","geo_precision":"range","state":"PA"},"type":"Feature","geometry":{"type":"Point","coordinates":[-79.76311,40.562729]}},{"properties":{"city":"ALTOONA","zip":"16602","f&b":23801,"geo_score":0.827,"storeno":100,"street":"1661 E PLEASANT VALLEY BLVD","id":"a6ep3ffl2bcf","geo_precision":"range","state":"PA"},"type":"Feature","geometry":{"type":"Point","coordinates":[-78.355098,40.540093]}},{"properties":{"city":"FORD CITY","zip":"16226","f&b":32118,"geo_score":0.824,"storeno":101,"street":"503 MAIN ST","id":"a6ep3f53l592","geo_precision":"range","state":"PA"},"type":"Feature","geometry":{"type":"Point","coordinates":[-79.527296,40.765721]}},{"properties":{"city":"SIDMAN","zip":"15955","f&b":22729,"geo_score":0.622,"storeno":113,"street":"101 FOREST HILLS DR BOX 188","id":"a6ep3feo8q8f","geo_precision":"street","state":"PA"},"type":"Feature","geometry":{"type":"Point","coordinates":[-78.747228,40.328627]}},{"properties":{"city":"KITTANNING","zip":"16201","f&b":41113,"geo_score":0.824,"storeno":114,"street":"100 WALNUT ST","id":"a6ep3fh4fg84","geo_precision":"range","state":"PA"},"type":"Feature","geometry":{"type":"Point","coordinates":[-79.516933,40.809492]}},{"properties":{"city":"PITTSBURGH","zip":"15237","f&b":34290,"geo_score":0.815,"storeno":115,"street":"8607 PERRY HWY","id":"a6ep3f8zwkz3","geo_precision":"range","state":"PA"},"type":"Feature","geometry":{"type":"Point","coordinates":[-80.039399,40.561131]}},{"properties":{"city":"GREENCASTLE","zip":"17225","f&b":29762,"geo_score":0.814,"storeno":116,"street":"215 W BALTIMORE ST","id":"a6ep3fgpifpn","geo_precision":"range","state":"PA"},"type":"Feature","geometry":{"type":"Point","coordinates":[-77.730308,39.791033]}},{"properties":{"city":"HARRISVILLE","zip":"16038","f&b":31041,"geo_score":0.823,"storeno":121,"street":"103 N MAIN ST","id":"a6ep3fbhunoe","geo_precision":"range","state":"PA"},"type":"Feature","geometry":{"type":"Point","coordinates":[-80.009287,41.13684]}},{"properties":{"city":"STATE COLLEGE","zip":"16803","f&b":33214,"geo_score":0.902,"storeno":122,"street":"1781 N ATHERTON ST","id":"a6ep3fb7ig83","geo_precision":"range","state":"PA"},"type":"Feature","geometry":{"type":"Point","coordinates":[-77.901864,40.808816]}},{"properties":{"city":"GIBSONIA","zip":"15044","f&b":41861,"geo_score":0.494,"storeno":123,"street":"5300 ROUTE 8","id":"a6ep3fhbylfk","geo_precision":"street","state":"PA"},"type":"Feature","geometry":{"type":"Point","coordinates":[-79.934372,40.654735]}},{"properties":{"city":"CONNELLSVILLE","zip":"15425","f&b":28433,"geo_score":0.82,"storeno":124,"street":"1002 W CRAWFORD AVE","id":"a6ep3f66uuww","geo_precision":"range","state":"PA"},"type":"Feature","geometry":{"type":"Point","coordinates":[-79.600013,40.016263]}},{"properties":{"city":"BERKELEY SPRINGS","zip":"25411","f&b":25979,"geo_score":0.823,"storeno":126,"street":"245 S WASHINGTON ST","id":"a6ep3fceuccv","geo_precision":"range","state":"WV"},"type":"Feature","geometry":{"type":"Point","coordinates":[-78.229023,39.625045]}},{"properties":{"city":"CARROLLTOWN","zip":"15722","f&b":25575,"geo_score":0.652,"storeno":127,"street":"128 MAIN ST BOX 305","id":"a6ep3faohpll","geo_precision":"range","state":"PA"},"type":"Feature","geometry":{"type":"Point","coordinates":[-78.708979,40.603152]}},{"properties":{"city":"ROCHESTER","zip":"15074","f&b":36129,"geo_score":0.815,"storeno":128,"street":"494 ADAMS ST","id":"a6ep3f8lfiwc","geo_precision":"range","state":"PA"},"type":"Feature","geometry":{"type":"Point","coordinates":[-80.278122,40.704592]}},{"properties":{"city":"CUMBERLAND","zip":"21502","f&b":33623,"geo_score":0.87,"storeno":129,"street":"429 VIRGINIA AVE","id":"a6ep3fb2kf02","geo_precision":"range","state":"MD"},"type":"Feature","geometry":{"type":"Point","coordinates":[-78.764034,39.634069]}},{"properties":{"city":"CREIGHTON","zip":"15030","f&b":28300,"geo_score":0.834,"storeno":130,"street":"899 FREEPORT RD","id":"a6ep3fga4n01","geo_precision":"range","state":"PA"},"type":"Feature","geometry":{"type":"Point","coordinates":[-79.77836,40.577104]}},{"properties":{"city":"TANEYTOWN","zip":"21787","f&b":25637,"geo_score":0.805,"storeno":132,"street":"226 E BALTIMORE ST","id":"a6ep3fgkutg5","geo_precision":"range","state":"MD"},"type":"Feature","geometry":{"type":"Point","coordinates":[-77.172015,39.65624]}},{"properties":{"city":"MARS","zip":"16046","f&b":42185,"geo_score":0.902,"storeno":133,"street":"1338 FREEDOM RD","id":"a6ep3fdiycwz","geo_precision":"range","state":"PA"},"type":"Feature","geometry":{"type":"Point","coordinates":[-80.104576,40.684787]}},{"properties":{"city":"MERCER","zip":"16137","f&b":27769,"geo_score":0.821,"storeno":136,"street":"105 N ERIE ST","id":"a6ep3fevxaaw","geo_precision":"range","state":"PA"},"type":"Feature","geometry":{"type":"Point","coordinates":[-80.239936,41.227355]}},{"properties":{"city":"KEARNEYSVILLE","zip":"25430","f&b":27733,"geo_score":0.625,"storeno":137,"street":"3728 CHARLES TOWN RD","id":"a6ep3f6ddv86","geo_precision":"street","state":"WV"},"type":"Feature","geometry":{"type":"Point","coordinates":[-77.926491,39.423103]}},{"properties":{"city":"GREENVILLE","zip":"16125","f&b":33044,"geo_score":0.815,"storeno":139,"street":"294 MAIN ST","id":"a6ep3fdcg7rk","geo_precision":"range","state":"PA"},"type":"Feature","geometry":{"type":"Point","coordinates":[-80.383165,41.40699]}},{"properties":{"city":"LITTLESTOWN","zip":"17340","f&b":32316,"geo_score":0.823,"storeno":141,"street":"35 E KING ST","id":"a6ep3fh1jzfu","geo_precision":"range","state":"PA"},"type":"Feature","geometry":{"type":"Point","coordinates":[-77.086995,39.745321]}},{"properties":{"city":"INWOOD","zip":"25428","f&b":37276,"geo_score":0.707,"storeno":143,"street":"7899 WINCHESTER AVE","id":"a6ep3f8l00sa","geo_precision":"street","state":"WV"},"type":"Feature","geometry":{"type":"Point","coordinates":[-77.987719,39.425647]}},{"properties":{"city":"MOOREFIELD","zip":"26836","f&b":26765,"geo_score":0.815,"storeno":144,"street":"701 N MAIN ST","id":"a6ep3fdpwqx0","geo_precision":"range","state":"WV"},"type":"Feature","geometry":{"type":"Point","coordinates":[-78.967322,39.07186]}},{"properties":{"city":"HAGERSTOWN","zip":"21742","f&b":48830,"geo_score":0.902,"storeno":145,"street":"18717 LONGMEADOW RD","id":"a6ep3f2exd3a","geo_precision":"range","state":"MD"},"type":"Feature","geometry":{"type":"Point","coordinates":[-77.72037,39.686105]}},{"properties":{"city":"BROCKWAY","zip":"15824","f&b":31277,"geo_score":0.805,"storeno":146,"street":"1408 MAIN ST","id":"a6ep3f690z0p","geo_precision":"range","state":"PA"},"type":"Feature","geometry":{"type":"Point","coordinates":[-78.7869,41.246891]}},{"properties":{"city":"OAKLAND","zip":"21550","f&b":33844,"geo_score":0.707,"storeno":147,"street":"5 N 3RD ST","id":"a6ep3f3g2skf","geo_precision":"range","state":"MD"},"type":"Feature","geometry":{"type":"Point","coordinates":[-79.405646,39.410418]}},{"properties":{"city":"DUBOIS","zip":"15801","f&b":35737,"geo_score":0.497,"storeno":148,"street":"2120 BLINKER PKWY","id":"a6ep3fa0lwpz","geo_precision":"zip","state":"PA"},"type":"Feature","geometry":{"type":"Point","coordinates":[-78.786975,41.078951]}},{"properties":{"city":"DUBOIS","zip":"15801","f&b":33465,"geo_score":0.814,"storeno":149,"street":"124 N BRADY ST","id":"a6ep3fcn0nrt","geo_precision":"range","state":"PA"},"type":"Feature","geometry":{"type":"Point","coordinates":[-78.760855,41.11921]}},{"properties":{"city":"STATE COLLEGE","zip":"16801","f&b":30238,"geo_score":0.813,"storeno":150,"street":"2000 E COLLEGE AVE","id":"a6ep3f89qsz6","geo_precision":"range","state":"PA"},"type":"Feature","geometry":{"type":"Point","coordinates":[-77.818589,40.818155]}},{"properties":{"city":"EMPORIUM","zip":"15834","f&b":28704,"geo_score":0.729,"storeno":151,"street":"1 W 4TH ST","id":"a6ep3fdudrfj","geo_precision":"range","state":"PA"},"type":"Feature","geometry":{"type":"Point","coordinates":[-78.237746,41.511531]}},{"properties":{"city":"BEAVER FALLS","zip":"15010","f&b":34589,"geo_score":0.732,"storeno":152,"street":"3611 4TH AVE","id":"a6ep3faakq2f","geo_precision":"range","state":"PA"},"type":"Feature","geometry":{"type":"Point","coordinates":[-80.324323,40.777263]}},{"properties":{"city":"MEADVILLE","zip":"16335","f&b":26725,"geo_score":0.844,"storeno":153,"street":"18425 SMOCK HWY","id":"a6ep3fb22fvi","geo_precision":"range","state":"PA"},"type":"Feature","geometry":{"type":"Point","coordinates":[-80.168683,41.62053]}},{"properties":{"city":"GREENSBURG","zip":"15601","f&b":46327,"geo_score":0.805,"storeno":154,"street":"211 HARVEY AVE","id":"a6ep3f6chgif","geo_precision":"range","state":"PA"},"type":"Feature","geometry":{"type":"Point","coordinates":[-79.539341,40.306981]}},{"properties":{"city":"MARTINSBURG","zip":"25401","f&b":30346,"geo_score":0.823,"storeno":155,"street":"1617 W KING ST","id":"a6ep3f98ocnz","geo_precision":"range","state":"WV"},"type":"Feature","geometry":{"type":"Point","coordinates":[-77.98665,39.463065]}},{"properties":{"city":"LEWISTOWN","zip":"17044","f&b":34580,"geo_score":0.786,"storeno":158,"street":"113 JUNIATA STREET","id":"a6ep3f5plboz","geo_precision":"range","state":"PA"},"type":"Feature","geometry":{"type":"Point","coordinates":[-77.580829,40.595557]}},{"properties":{"city":"CONNEAUT LAKE","zip":"16316","f&b":35476,"geo_score":0.659,"storeno":159,"street":"315 WATER ST BOX 5096","id":"a6ep3f69u3gj","geo_precision":"range","state":"PA"},"type":"Feature","geometry":{"type":"Point","coordinates":[-80.304504,41.603291]}},{"properties":{"city":"SHEPHERDSTOWN","zip":"25443","f&b":24139,"geo_score":0.497,"storeno":160,"street":"8332 MARTINSBURG PIKE","id":"a6ep3fd6g8tq","geo_precision":"street","state":"WV"},"type":"Feature","geometry":{"type":"Point","coordinates":[-77.834263,39.43576]}},{"properties":{"city":"FREDERICK","zip":"21701","f&b":36914,"geo_score":0.625,"storeno":161,"street":"5601 BUCKEYSTOWN PIKE","id":"a6ep3fhbunkz","geo_precision":"street","state":"MD"},"type":"Feature","geometry":{"type":"Point","coordinates":[-77.431545,39.335993]}},{"properties":{"city":"JOHNSTOWN","zip":"15904","f&b":34506,"geo_score":0.816,"storeno":162,"street":"1500 SCALP AVE","id":"a6ep3f702w94","geo_precision":"range","state":"PA"},"type":"Feature","geometry":{"type":"Point","coordinates":[-78.857899,40.271083]}},{"properties":{"city":"HAGERSTOWN","zip":"21740","f&b":30687,"geo_score":0.815,"storeno":163,"street":"17550 VIRGINIA AVE","id":"a6ep3f82d8ol","geo_precision":"range","state":"MD"},"type":"Feature","geometry":{"type":"Point","coordinates":[-77.762335,39.619281]}},{"properties":{"city":"WESTMINSTER","zip":"21157","f&b":24465,"geo_score":0.831,"storeno":164,"street":"304 E MAIN ST","id":"a6ep3f7if6m7","geo_precision":"range","state":"MD"},"type":"Feature","geometry":{"type":"Point","coordinates":[-76.987078,39.566447]}},{"properties":{"city":"COUDERSPORT","zip":"16915","f&b":36719,"geo_score":0.699,"storeno":165,"street":"208 S MAIN ST","id":"a6ep3f3d6dnv","geo_precision":"range","state":"PA"},"type":"Feature","geometry":{"type":"Point","coordinates":[-78.021344,41.770475]}},{"properties":{"city":"PORT ALLEGANY","zip":"16743","f&b":37967,"geo_score":0.821,"storeno":166,"street":"101 N MAIN ST","id":"a6ep3f4460fr","geo_precision":"range","state":"PA"},"type":"Feature","geometry":{"type":"Point","coordinates":[-78.281345,41.812428]}},{"properties":{"city":"CORRIGANVILLE","zip":"21524","f&b":27304,"geo_score":0.767,"storeno":167,"street":"100 E MAIN ST BOX 298","id":"a6ep3f5rwlxp","geo_precision":"range","state":"MD"},"type":"Feature","geometry":{"type":"Point","coordinates":[-78.926001,39.656188]}},{"properties":{"city":"KEYSER","zip":"26726","f&b":30872,"geo_score":0.344,"storeno":168,"street":"1280 NEW CREEK HIGHWAY","id":"a6ep3faw3za7","geo_precision":"street","state":"WV"},"type":"Feature","geometry":{"type":"Point","coordinates":[-78.975472,39.458576]}},{"properties":{"city":"EAST FREEDOM","zip":"16637","f&b":32855,"geo_score":0.707,"storeno":169,"street":"8711 WOODBURY PIKE","id":"a6ep3fdgi0w9","geo_precision":"street","state":"PA"},"type":"Feature","geometry":{"type":"Point","coordinates":[-78.366556,40.264851]}},{"properties":{"city":"INDIANA","zip":"15701","f&b":42956,"geo_score":0.823,"storeno":170,"street":"525 BEN FRANKLIN RD S","id":"a6ep3fbr07uw","geo_precision":"range","state":"PA"},"type":"Feature","geometry":{"type":"Point","coordinates":[-79.189509,40.611398]}},{"properties":{"city":"PHILIPPI","zip":"26416","f&b":26215,"geo_score":0.643,"storeno":171,"street":"125 N MAIN ST","id":"a6ep3fg2uydk","geo_precision":"street","state":"WV"},"type":"Feature","geometry":{"type":"Point","coordinates":[-80.04084,39.152964]}},{"properties":{"city":"LIGONIER","zip":"15658","f&b":28221,"geo_score":0.621,"storeno":173,"street":"3832 STATE ROUTE 711","id":"a6ep3f3lezb3","geo_precision":"street","state":"PA"},"type":"Feature","geometry":{"type":"Point","coordinates":[-79.231568,40.246508]}},{"properties":{"city":"BELINGTON","zip":"26250","f&b":22561,"geo_score":0.827,"storeno":174,"street":"103 E CRIM AVE","id":"a6ep3f6x53w6","geo_precision":"range","state":"WV"},"type":"Feature","geometry":{"type":"Point","coordinates":[-79.934249,39.015826]}},{"properties":{"city":"PARSONS","zip":"26287","f&b":17215,"geo_score":0.604,"storeno":175,"street":"200 1ST ST","id":"a6ep3ffxqplq","geo_precision":"street","state":"WV"},"type":"Feature","geometry":{"type":"Point","coordinates":[-79.675586,39.098161]}},{"properties":{"city":"KNOXVILLE","zip":"21758","f&b":40087,"geo_score":0.692,"storeno":176,"street":"3842 BURKITTSVILLE RD","id":"a6ep3f8rrj40","geo_precision":"range","state":"MD"},"type":"Feature","geometry":{"type":"Point","coordinates":[-77.638447,39.336099]}},{"properties":{"city":"MANCHESTER","zip":"21102","f&b":33001,"geo_score":0.834,"storeno":177,"street":"3281 MAIN ST","id":"a6ep3f1ojbfu","geo_precision":"range","state":"MD"},"type":"Feature","geometry":{"type":"Point","coordinates":[-76.886292,39.664069]}},{"properties":{"city":"CHAMBERSBURG","zip":"17201","f&b":31898,"geo_score":0.813,"storeno":178,"street":"5234 PHILADELPHIA AVE","id":"a6ep3ffl14cf","geo_precision":"range","state":"PA"},"type":"Feature","geometry":{"type":"Point","coordinates":[-77.607326,39.992476]}},{"properties":{"city":"SOMERSET","zip":"15501","f&b":26371,"geo_score":0.817,"storeno":179,"street":"1212 N CENTER AVE","id":"a6ep3f59vgfm","geo_precision":"range","state":"PA"},"type":"Feature","geometry":{"type":"Point","coordinates":[-79.077169,40.022826]}},{"properties":{"city":"ROMNEY","zip":"26757","f&b":26416,"geo_score":0.775,"storeno":180,"street":"136 E MAIN ST","id":"a6ep3fawnb6v","geo_precision":"range","state":"WV"},"type":"Feature","geometry":{"type":"Point","coordinates":[-78.757914,39.342438]}},{"properties":{"city":"BELLEFONTE","zip":"16823","f&b":34752,"geo_score":0.824,"storeno":181,"street":"820 S EAGLE VALLEY RD","id":"a6ep3f41v16a","geo_precision":"range","state":"PA"},"type":"Feature","geometry":{"type":"Point","coordinates":[-77.815262,40.934366]}},{"properties":{"city":"BRIDGEPORT","zip":"26330","f&b":36612,"geo_score":0.815,"storeno":182,"street":"1220 JOHNSON AVE","id":"a6ep3f1zm3u9","geo_precision":"range","state":"WV"},"type":"Feature","geometry":{"type":"Point","coordinates":[-80.277506,39.300061]}},{"properties":{"city":"CONNELLSVILLE","zip":"15425","f&b":42058,"geo_score":0.82,"storeno":183,"street":"2601 MEMORIAL BLVD","id":"a6ep3fegxhyd","geo_precision":"range","state":"PA"},"type":"Feature","geometry":{"type":"Point","coordinates":[-79.56168,40.055089]}},{"properties":{"city":"HAGERSTOWN","zip":"21740","f&b":45979,"geo_score":0.498,"storeno":184,"street":"12404 LAGER AVE","id":"a6ep3fd1v6ch","geo_precision":"zip","state":"MD"},"type":"Feature","geometry":{"type":"Point","coordinates":[-77.738605,39.660651]}},{"properties":{"city":"CHAMBERSBURG","zip":"17201","f&b":30126,"geo_score":0.813,"storeno":185,"street":"900 WAYNE AVE","id":"a6ep3ffnodz1","geo_precision":"range","state":"PA"},"type":"Feature","geometry":{"type":"Point","coordinates":[-77.653595,39.914517]}},{"properties":{"city":"WINCHESTER","zip":"22601","f&b":34345,"geo_score":0.556,"storeno":186,"street":"1503 N FREDERICK PIKE","id":"a6ep3fbjthkv","geo_precision":"street","state":"VA"},"type":"Feature","geometry":{"type":"Point","coordinates":[-78.143549,39.185122]}},{"properties":{"city":"ALTOONA","zip":"16602","f&b":30179,"geo_score":0.827,"storeno":187,"street":"400 E PLANK RD","id":"a6ep3fakteo0","geo_precision":"range","state":"PA"},"type":"Feature","geometry":{"type":"Point","coordinates":[-78.40261,40.48016]}},{"properties":{"city":"TRANSFER","zip":"16154","f&b":22179,"geo_score":0.88,"storeno":188,"street":"270 EDGEWOOD DRIVE EXT","id":"a6ep3f62knse","geo_precision":"range","state":"PA"},"type":"Feature","geometry":{"type":"Point","coordinates":[-80.414308,41.330123]}},{"properties":{"city":"SPRINGDALE","zip":"15144","f&b":30212,"geo_score":0.834,"storeno":189,"street":"627 PITTSBURGH ST","id":"a6ep3fczmnaz","geo_precision":"range","state":"PA"},"type":"Feature","geometry":{"type":"Point","coordinates":[-79.783144,40.541067]}},{"properties":{"city":"PITTSBURGH","zip":"15239","f&b":35937,"geo_score":0.82,"storeno":190,"street":"2003 GOLDEN MILE HWY","id":"a6ep3fbfbd60","geo_precision":"range","state":"PA"},"type":"Feature","geometry":{"type":"Point","coordinates":[-79.707604,40.458988]}},{"properties":{"city":"CARLISLE","zip":"17013","f&b":29835,"geo_score":0.72,"storeno":191,"street":"1098 HARRISBURG PIKE","id":"a6ep3fh68sff","geo_precision":"street","state":"PA"},"type":"Feature","geometry":{"type":"Point","coordinates":[-77.162173,40.221434]}},{"properties":{"city":"BOYCE","zip":"22620","f&b":36165,"geo_score":0.637,"storeno":192,"street":"12582 LORD FAIRFAX HWY","id":"a6ep3f1bmp21","geo_precision":"street","state":"VA"},"type":"Feature","geometry":{"type":"Point","coordinates":[-78.085092,39.081233]}},{"properties":{"city":"MIFFLINTOWN","zip":"17059","f&b":44845,"geo_score":0.443,"storeno":193,"street":"24578 ROUTE 35 N","id":"a6ep3f97c4s1","geo_precision":"street","state":"PA"},"type":"Feature","geometry":{"type":"Point","coordinates":[-77.388207,40.573595]}},{"properties":{"city":"FALLS CREEK","zip":"15840","f&b":47791,"geo_score":0.488,"storeno":194,"street":"1867 RICH HWY","id":"a6ep3fetyj1f","geo_precision":"zip","state":"PA"},"type":"Feature","geometry":{"type":"Point","coordinates":[-78.852809,41.144507]}},{"properties":{"city":"MECHANICSBURG","zip":"17050","f&b":37221,"geo_score":0.902,"storeno":195,"street":"6558 CARLISLE PIKE","id":"a6ep3f3qyecu","geo_precision":"range","state":"PA"},"type":"Feature","geometry":{"type":"Point","coordinates":[-77.029481,40.246112]}},{"properties":{"city":"CRESSON","zip":"16630","f&b":39231,"geo_score":0.805,"storeno":196,"street":"7551 ADMIRAL PEARY HWY","id":"a6ep3fa1c74u","geo_precision":"range","state":"PA"},"type":"Feature","geometry":{"type":"Point","coordinates":[-78.593673,40.459514]}},{"properties":{"city":"STEPHENS CITY","zip":"22655","f&b":30277,"geo_score":0.691,"storeno":197,"street":"747 FAIRFAX ST","id":"a6ep3feyx4hk","geo_precision":"range","state":"VA"},"type":"Feature","geometry":{"type":"Point","coordinates":[-78.216564,39.082178]}},{"properties":{"city":"WOODSTOCK","zip":"22664","f&b":30852,"geo_score":0.816,"storeno":198,"street":"111 W RESERVOIR RD","id":"a6ep3fb2xt80","geo_precision":"range","state":"VA"},"type":"Feature","geometry":{"type":"Point","coordinates":[-78.518411,38.867188]}},{"properties":{"city":"HANOVER","zip":"17331","f&b":28150,"geo_score":0.827,"storeno":199,"street":"1191 CARLISLE ST","id":"a6ep3f111xpu","geo_precision":"range","state":"PA"},"type":"Feature","geometry":{"type":"Point","coordinates":[-76.997282,39.822888]}},{"properties":{"city":"THURMONT","zip":"21788","f&b":35590,"geo_score":0.817,"storeno":200,"street":"428 N CHURCH ST","id":"a6ep3fc94eqk","geo_precision":"range","state":"MD"},"type":"Feature","geometry":{"type":"Point","coordinates":[-77.41068,39.632533]}},{"properties":{"city":"MECHANICSBURG","zip":"17055","f&b":38919,"geo_score":0.812,"storeno":201,"street":"1415 S MARKET ST","id":"a6ep3ff65g6b","geo_precision":"range","state":"PA"},"type":"Feature","geometry":{"type":"Point","coordinates":[-76.992214,40.192955]}},{"properties":{"city":"HERMITAGE","zip":"16148","f&b":39941,"geo_score":0.902,"storeno":202,"street":"2381 S HERMITAGE RD","id":"a6ep3ff5iogx","geo_precision":"range","state":"PA"},"type":"Feature","geometry":{"type":"Point","coordinates":[-80.456485,41.201556]}},{"properties":{"city":"WINCHESTER","zip":"22601","f&b":28766,"geo_score":0.834,"storeno":203,"street":"2311 VALLEY AVE","id":"a6ep3fanr8v9","geo_precision":"range","state":"VA"},"type":"Feature","geometry":{"type":"Point","coordinates":[-78.185251,39.160593]}},{"properties":{"city":"MURRYSVILLE","zip":"15668","f&b":48224,"geo_score":0.823,"storeno":204,"street":"4701 WILLIAM PENN HWY","id":"a6ep3f5w0lai","geo_precision":"range","state":"PA"},"type":"Feature","geometry":{"type":"Point","coordinates":[-79.666923,40.424313]}},{"properties":{"city":"HAYMARKET","zip":"20169","f&b":49340,"geo_score":0.902,"storeno":205,"street":"15315 WASHINGTON ST","id":"a6ep3f9zzo5r","geo_precision":"range","state":"VA"},"type":"Feature","geometry":{"type":"Point","coordinates":[-77.642527,38.815314]}},{"properties":{"city":"WESTON","zip":"26452","f&b":35568,"geo_score":0.502,"storeno":206,"street":"39 BERLIN RD","id":"a6ep3fetkcum","geo_precision":"zip","state":"WV"},"type":"Feature","geometry":{"type":"Point","coordinates":[-80.509259,39.047871]}},{"properties":{"city":"WINCHESTER","zip":"22602","f&b":36901,"geo_score":0.645,"storeno":207,"street":"1683 BERRYVILLE PIKE","id":"a6ep3fh34igo","geo_precision":"street","state":"VA"},"type":"Feature","geometry":{"type":"Point","coordinates":[-78.137796,39.184735]}},{"properties":{"city":"WINCHESTER","zip":"22601","f&b":38308,"geo_score":0.737,"storeno":208,"street":"601 MILLWOOD AVE","id":"a6ep3fekiil3","geo_precision":"street","state":"VA"},"type":"Feature","geometry":{"type":"Point","coordinates":[-78.161814,39.165819]}},{"properties":{"city":"BOONSBORO","zip":"21713","f&b":47091,"geo_score":0.823,"storeno":209,"street":"20723 NATIONAL PIKE","id":"a6ep3f3n3c7e","geo_precision":"range","state":"MD"},"type":"Feature","geometry":{"type":"Point","coordinates":[-77.650469,39.574024]}},{"properties":{"city":"WALKERSVILLE","zip":"21793","f&b":42768,"geo_score":0.82,"storeno":210,"street":"8408 WOODSBORO PIKE","id":"a6ep3f56e0fm","geo_precision":"range","state":"MD"},"type":"Feature","geometry":{"type":"Point","coordinates":[-77.364115,39.465161]}},{"properties":{"city":"PALMYRA","zip":"17078","f&b":33194,"geo_score":0.816,"storeno":211,"street":"811 E MAIN ST","id":"a6ep3f976kvt","geo_precision":"range","state":"PA"},"type":"Feature","geometry":{"type":"Point","coordinates":[-76.585588,40.312478]}},{"properties":{"city":"PETERSBURG","zip":"26847","f&b":27722,"geo_score":0.622,"storeno":212,"street":"299 BRYAN ST","id":"a6ep3fauqbrw","geo_precision":"street","state":"WV"},"type":"Feature","geometry":{"type":"Point","coordinates":[-79.128577,38.99578]}},{"properties":{"city":"BLOOMSBURG","zip":"17815","f&b":32978,"geo_score":0.64,"storeno":213,"street":"2511 NEW BERWICK HWY","id":"a6ep3fh3ft34","geo_precision":"street","state":"PA"},"type":"Feature","geometry":{"type":"Point","coordinates":[-76.385217,41.019208]}},{"properties":{"city":"BUCKHANNON","zip":"26201","f&b":35347,"geo_score":0.507,"storeno":214,"street":"4 CLARKSBURG RD","id":"a6ep3f36q1gl","geo_precision":"zip","state":"WV"},"type":"Feature","geometry":{"type":"Point","coordinates":[-80.223971,38.963433]}},{"properties":{"city":"HUNTINGDON","zip":"16652","f&b":39476,"geo_score":0.414,"storeno":215,"street":"9681 WILLIAM PENN HWY","id":"a6ep3f2tyini","geo_precision":"street","state":"PA"},"type":"Feature","geometry":{"type":"Point","coordinates":[-78.022516,40.503258]}},{"properties":{"city":"ELYSBURG","zip":"17824","f&b":35830,"geo_score":0.82,"storeno":216,"street":"38 S MARKET ST","id":"a6ep3f9kn1hv","geo_precision":"range","state":"PA"},"type":"Feature","geometry":{"type":"Point","coordinates":[-76.549208,40.861605]}},{"properties":{"city":"BUTLER","zip":"16001","f&b":34044,"geo_score":0.902,"storeno":217,"street":"100 FREEPORT RD","id":"a6ep3faec6mr","geo_precision":"range","state":"PA"},"type":"Feature","geometry":{"type":"Point","coordinates":[-79.881242,40.844615]}},{"properties":{"city":"HARRISONBURG","zip":"22801","f&b":33812,"geo_score":0.813,"storeno":218,"street":"533 UNIVERSITY BLVD","id":"a6ep3fh9z0f8","geo_precision":"range","state":"VA"},"type":"Feature","geometry":{"type":"Point","coordinates":[-78.8563,38.428929]}},{"properties":{"city":"HARRISBURG","zip":"17112","f&b":35201,"geo_score":0.814,"storeno":219,"street":"2300 COLONIAL RD","id":"a6ep3f55ex36","geo_precision":"range","state":"PA"},"type":"Feature","geometry":{"type":"Point","coordinates":[-76.825866,40.337723]}},{"properties":{"city":"MARTINSBURG","zip":"25404","f&b":35754,"geo_score":0.553,"storeno":220,"street":"1465 EDWIN MILLER BLVD","id":"a6ep3f56f78e","geo_precision":"street","state":"WV"},"type":"Feature","geometry":{"type":"Point","coordinates":[-122.297117,37.525435]}},{"properties":{"city":"BEALETON","zip":"22712","f&b":58223,"geo_score":0.805,"storeno":221,"street":"10101 JAMES MADISON HWY","id":"a6ep3f21l140","geo_precision":"range","state":"VA"},"type":"Feature","geometry":{"type":"Point","coordinates":[-77.800485,38.618832]}},{"properties":{"city":"HARRISONBURG","zip":"22801","f&b":33418,"geo_score":0.813,"storeno":222,"street":"1825 S MAIN ST","id":"a6ep3f8w1r7k","geo_precision":"range","state":"VA"},"type":"Feature","geometry":{"type":"Point","coordinates":[-78.888847,38.425236]}},{"properties":{"city":"BADEN","zip":"15005","f&b":39534,"geo_score":0.772,"storeno":223,"street":"100 OHIO RIVER BLVD","id":"a6ep3f92qgur","geo_precision":"range","state":"PA"},"type":"Feature","geometry":{"type":"Point","coordinates":[-80.22955,40.628539]}},{"properties":{"city":"YORK","zip":"17402","f&b":31603,"geo_score":0.848,"storeno":224,"street":"405 MEMORY LN","id":"a6ep3f76j8yh","geo_precision":"range","state":"PA"},"type":"Feature","geometry":{"type":"Point","coordinates":[-76.681912,39.979247]}},{"properties":{"city":"BREEZEWOOD","zip":"15533","f&b":40269,"geo_score":0.512,"storeno":225,"street":"16467 LINCOLN HWY BOX 282","id":"a6ep3fcbnp29","geo_precision":"street","state":"PA"},"type":"Feature","geometry":{"type":"Point","coordinates":[-78.238208,39.999441]}},{"properties":{"city":"READING","zip":"19605","f&b":25800,"geo_score":0.816,"storeno":226,"street":"501 E BELLEVUE AVE","id":"a6ep3fgmp8mz","geo_precision":"range","state":"PA"},"type":"Feature","geometry":{"type":"Point","coordinates":[-75.92639,40.38691]}},{"properties":{"city":"JOHNSTOWN","zip":"15904","f&b":38733,"geo_score":0.816,"storeno":227,"street":"405 GALLERIA DR","id":"a6ep3fg3u979","geo_precision":"range","state":"PA"},"type":"Feature","geometry":{"type":"Point","coordinates":[-78.838353,40.29234]}},{"properties":{"city":"HALIFAX","zip":"17032","f&b":31687,"geo_score":0.823,"storeno":228,"street":"3625 PETERS MOUNTAIN RD","id":"a6ep3femvgm9","geo_precision":"range","state":"PA"},"type":"Feature","geometry":{"type":"Point","coordinates":[-76.929502,40.449122]}},{"properties":{"city":"IRWIN","zip":"15642","f&b":60560,"geo_score":0.573,"storeno":229,"street":"7821 ROUTE 30","id":"a6ep3f8476dm","geo_precision":"range","state":"PA"},"type":"Feature","geometry":{"type":"Point","coordinates":[-79.671087,40.31679]}},{"properties":{"city":"CARMICHAELS","zip":"15320","f&b":50984,"geo_score":0.593,"storeno":230,"street":"973 S 88 RD","id":"a6ep3ffso521","geo_precision":"range","state":"PA"},"type":"Feature","geometry":{"type":"Point","coordinates":[-79.954421,39.861337]}},{"properties":{"city":"NEW HOLLAND","zip":"17557","f&b":29194,"geo_score":0.805,"storeno":231,"street":"698 W MAIN ST","id":"a6ep3fh9rbqu","geo_precision":"range","state":"PA"},"type":"Feature","geometry":{"type":"Point","coordinates":[-76.112854,40.094316]}},{"properties":{"city":"MT HOLLY SPRINGS","zip":"17065","f&b":39352,"geo_score":0.812,"storeno":232,"street":"420 N BALTIMORE AVE","id":"a6ep3f2ol7nv","geo_precision":"range","state":"PA"},"type":"Feature","geometry":{"type":"Point","coordinates":[-77.190277,40.12126]}},{"properties":{"city":"MANCHESTER","zip":"17345","f&b":21941,"geo_score":0.807,"storeno":233,"street":"4309 N GEORGE STREET EXT","id":"a6ep3fbg095l","geo_precision":"range","state":"PA"},"type":"Feature","geometry":{"type":"Point","coordinates":[-76.723591,40.047655]}},{"properties":{"city":"WEIRTON","zip":"26062","f&b":26863,"geo_score":0.854,"storeno":234,"street":"341 PENCO RD","id":"a6ep3f7tqvvj","geo_precision":"range","state":"WV"},"type":"Feature","geometry":{"type":"Point","coordinates":[-80.547158,40.408693]}},{"properties":{"city":"SELINSGROVE","zip":"17870","f&b":42041,"geo_score":0.599,"storeno":235,"street":"766 N SUSQUEHANNA TRL","id":"a6ep3f0zwvp3","geo_precision":"street","state":"PA"},"type":"Feature","geometry":{"type":"Point","coordinates":[-76.826218,40.842903]}},{"properties":{"city":"MARIETTA","zip":"17547","f&b":39694,"geo_score":0.819,"storeno":236,"street":"1158 RIVER RD","id":"a6ep3fh2msh4","geo_precision":"range","state":"PA"},"type":"Feature","geometry":{"type":"Point","coordinates":[-76.542205,40.062672]}},{"properties":{"city":"LITITZ","zip":"17543","f&b":32508,"geo_score":0.805,"storeno":237,"street":"701 FURNACE HILLS PIKE","id":"a6ep3f7svgur","geo_precision":"range","state":"PA"},"type":"Feature","geometry":{"type":"Point","coordinates":[-76.308801,40.175765]}},{"properties":{"city":"RUCKERSVILLE","zip":"22968","f&b":40380,"geo_score":0.829,"storeno":238,"street":"7020 SEMINOLE TRL","id":"a6ep3fgjrlah","geo_precision":"range","state":"VA"},"type":"Feature","geometry":{"type":"Point","coordinates":[-78.385663,38.208437]}},{"properties":{"city":"NEW STANTON","zip":"15672","f&b":46868,"geo_score":0.833,"storeno":239,"street":"205 N CENTER AVE","id":"a6ep3fh0ullj","geo_precision":"range","state":"PA"},"type":"Feature","geometry":{"type":"Point","coordinates":[-79.609334,40.218645]}},{"properties":{"city":"CHARLES TOWN","zip":"25414","f&b":41461,"geo_score":0.676,"storeno":240,"street":"51 FLOWING SPRINGS RD","id":"a6ep3fettjak","geo_precision":"street","state":"WV"},"type":"Feature","geometry":{"type":"Point","coordinates":[-77.841886,39.303642]}},{"properties":{"city":"MARTINSBURG","zip":"25405","f&b":39318,"geo_score":0.603,"storeno":241,"street":"14686 APPLE HARVEST DR","id":"a6ep3f59grig","geo_precision":"street","state":"WV"},"type":"Feature","geometry":{"type":"Point","coordinates":[-122.257623,37.455065]}},{"properties":{"city":"FREDERICK","zip":"21702","f&b":45143,"geo_score":0.902,"storeno":242,"street":"1600 ROSEMONT AVE","id":"a6ep3f6xz2z2","geo_precision":"range","state":"MD"},"type":"Feature","geometry":{"type":"Point","coordinates":[-77.430753,39.426826]}},{"properties":{"city":"WARRENTON","zip":"20186","f&b":25521,"geo_score":0.902,"storeno":243,"street":"600 BLACKWELL RD","id":"a6ep3fcaz24r","geo_precision":"range","state":"VA"},"type":"Feature","geometry":{"type":"Point","coordinates":[-77.79086,38.727927]}},{"properties":{"city":"WOODBRIDGE","zip":"22193","f&b":30374,"geo_score":0.902,"storeno":244,"street":"4021 PRINCE WILLIAM PKWY","id":"a6ep3f1r42si","geo_precision":"range","state":"VA"},"type":"Feature","geometry":{"type":"Point","coordinates":[-77.335701,38.671487]}},{"properties":{"city":"ERIE","zip":"16506","f&b":33795,"geo_score":0.831,"storeno":245,"street":"4662 W RIDGE RD","id":"a6ep3fddnkvs","geo_precision":"range","state":"PA"},"type":"Feature","geometry":{"type":"Point","coordinates":[-80.181103,42.072472]}},{"properties":{"city":"NEW CASTLE","zip":"16101","f&b":35449,"geo_score":0.509,"storeno":246,"street":"3208 US 422","id":"a6ep3ff6rxo3","geo_precision":"street","state":"PA"},"type":"Feature","geometry":{"type":"Point","coordinates":[-80.234048,40.971163]}},{"properties":{"city":"FLEETWOOD","zip":"19522","f&b":48503,"geo_score":0.834,"storeno":247,"street":"14350 KUTZTOWN RD","id":"a6ep3f29wwug","geo_precision":"range","state":"PA"},"type":"Feature","geometry":{"type":"Point","coordinates":[-75.838719,40.485636]}},{"properties":{"city":"GIRARD","zip":"44420","f&b":29119,"geo_score":0.805,"storeno":248,"street":"2721 SALT SPRINGS RD","id":"a6ep3f3ndbfh","geo_precision":"range","state":"OH"},"type":"Feature","geometry":{"type":"Point","coordinates":[-80.725149,41.145395]}},{"properties":{"city":"FREDERICK","zip":"21701","f&b":46247,"geo_score":0.82,"storeno":249,"street":"1300 E PATRICK ST","id":"a6ep3fay7xye","geo_precision":"range","state":"MD"},"type":"Feature","geometry":{"type":"Point","coordinates":[-77.388202,39.407493]}},{"properties":{"city":"BUTLER","zip":"16001","f&b":34216,"geo_score":0.811,"storeno":250,"street":"356 NEW CASTLE RD","id":"a6ep3f1u2qqj","geo_precision":"range","state":"PA"},"type":"Feature","geometry":{"type":"Point","coordinates":[-79.949863,40.877497]}},{"properties":{"city":"EAST LIVERPOOL","zip":"43920","f&b":32341,"geo_score":0.632,"storeno":251,"street":"15744 SAINT CLAIR AVE","id":"a6ep3f931hkt","geo_precision":"street","state":"OH"},"type":"Feature","geometry":{"type":"Point","coordinates":[-80.574125,40.653493]}},{"properties":{"city":"CLEARFIELD","zip":"16830","f&b":41877,"geo_score":0.815,"storeno":252,"street":"14259 CLEARFIELD SHAWVILLE HWY","id":"a6ep3faduea2","geo_precision":"range","state":"PA"},"type":"Feature","geometry":{"type":"Point","coordinates":[-78.404105,41.033637]}},{"properties":{"city":"PITTSBURGH","zip":"15236","f&b":38193,"geo_score":0.815,"storeno":253,"street":"251 CURRY HOLLOW RD","id":"a6ep3fchbdp3","geo_precision":"range","state":"PA"},"type":"Feature","geometry":{"type":"Point","coordinates":[-79.971098,40.336602]}},{"properties":{"city":"MORGANTOWN","zip":"26505","f&b":51934,"geo_score":0.829,"storeno":254,"street":"900 CHESTNUT RIDGE RD","id":"a6ep3f982gvm","geo_precision":"range","state":"WV"},"type":"Feature","geometry":{"type":"Point","coordinates":[-79.954535,39.658013]}},{"properties":{"city":"YORK","zip":"17408","f&b":30780,"geo_score":0.488,"storeno":255,"street":"1484 CARLISLE RD","id":"a6ep3fdjidbf","geo_precision":"city","state":"PA"},"type":"Feature","geometry":{"type":"Point","coordinates":[-109.202845,32.893678]}},{"properties":{"city":"SHOEMAKERSVILLE","zip":"19555","f&b":34021,"geo_score":0.811,"storeno":256,"street":"554 SHOEMAKER AVE","id":"a6ep3f7gbg0y","geo_precision":"range","state":"PA"},"type":"Feature","geometry":{"type":"Point","coordinates":[-75.963156,40.500843]}},{"properties":{"city":"LANCASTER","zip":"17601","f&b":48368,"geo_score":0.827,"storeno":257,"street":"1699 OREGON PIKE","id":"a6ep3f7ho8ce","geo_precision":"range","state":"PA"},"type":"Feature","geometry":{"type":"Point","coordinates":[-76.303086,40.068374]}},{"properties":{"city":"POTTSVILLE","zip":"17901","f&b":36752,"geo_score":0.863,"storeno":258,"street":"900 GORDON NAGLE TRL","id":"a6ep3faxej2u","geo_precision":"range","state":"PA"},"type":"Feature","geometry":{"type":"Point","coordinates":[-76.235154,40.67292]}},{"properties":{"city":"KING GEORGE","zip":"22485","f&b":36375,"geo_score":0.814,"storeno":259,"street":"17188 OWENS DR","id":"a6ep3f9xvizt","geo_precision":"range","state":"VA"},"type":"Feature","geometry":{"type":"Point","coordinates":[-77.048436,38.353285]}},{"properties":{"city":"CRANBERRY","zip":"16319","f&b":31914,"geo_score":0.445,"storeno":260,"street":"7119 US 322 BOX 228","id":"a6ep3f7oosvf","geo_precision":"street","state":"PA"},"type":"Feature","geometry":{"type":"Point","coordinates":[-79.569208,41.283443]}},{"properties":{"city":"FOREST","zip":"24551","f&b":34774,"geo_score":0.814,"storeno":261,"street":"12259 E LYNCHBURG SALEM TPKE","id":"a6ep3f457f8g","geo_precision":"range","state":"VA"},"type":"Feature","geometry":{"type":"Point","coordinates":[-79.307088,37.305847]}},{"properties":{"city":"HAGERSTOWN","zip":"21740","f&b":49670,"geo_score":0.815,"storeno":262,"street":"1396 S POTOMAC ST","id":"a6ep3f7zf3k4","geo_precision":"range","state":"MD"},"type":"Feature","geometry":{"type":"Point","coordinates":[-77.730864,39.612747]}},{"properties":{"city":"CARLISLE","zip":"17013","f&b":53324,"geo_score":0.817,"storeno":263,"street":"1900 RITNER HWY","id":"a6ep3fezpzwt","geo_precision":"range","state":"PA"},"type":"Feature","geometry":{"type":"Point","coordinates":[-77.243231,40.190359]}},{"properties":{"city":"FREDERICKSBURG","zip":"22405","f&b":29523,"geo_score":0.841,"storeno":264,"street":"10 WASHINGTON SQUARE PLZ","id":"a6ep3fcw6xo9","geo_precision":"range","state":"VA"},"type":"Feature","geometry":{"type":"Point","coordinates":[-77.437092,38.286044]}},{"properties":{"city":"LYNCHBURG","zip":"24501","f&b":36459,"geo_score":0.618,"storeno":265,"street":"14480 WARDS RD","id":"a6ep3f7otu9e","geo_precision":"street","state":"VA"},"type":"Feature","geometry":{"type":"Point","coordinates":[-79.188902,37.318757]}},{"properties":{"city":"STREETSBORO","zip":"44241","f&b":28227,"geo_score":0.902,"storeno":266,"street":"9745 STATE ROUTE 14","id":"a6ep3f4sn0hp","geo_precision":"range","state":"OH"},"type":"Feature","geometry":{"type":"Point","coordinates":[-81.365077,41.251156]}},{"properties":{"city":"LEESBURG","zip":"20176","f&b":35464,"geo_score":0.902,"storeno":267,"street":"915 EDWARDS FERRY RD NE","id":"a6ep3f77zbfx","geo_precision":"range","state":"VA"},"type":"Feature","geometry":{"type":"Point","coordinates":[-77.53978,39.113578]}},{"properties":{"city":"RED LION","zip":"17356","f&b":28580,"geo_score":0.831,"storeno":268,"street":"3200 CAPE HORN RD","id":"a6ep3f9dirza","geo_precision":"range","state":"PA"},"type":"Feature","geometry":{"type":"Point","coordinates":[-76.645241,39.942194]}},{"properties":{"city":"EPHRATA","zip":"17522","f&b":40967,"geo_score":0.821,"storeno":269,"street":"4179 OREGON PIKE","id":"a6ep3f5b8ran","geo_precision":"range","state":"PA"},"type":"Feature","geometry":{"type":"Point","coordinates":[-76.218032,40.13018]}},{"properties":{"city":"MANASSAS PARK","zip":"20111","f&b":31210,"geo_score":0.902,"storeno":270,"street":"8504 CENTREVILLE RD","id":"a6ep3f7yoxuf","geo_precision":"range","state":"VA"},"type":"Feature","geometry":{"type":"Point","coordinates":[-77.452584,38.771961]}},{"properties":{"city":"LYNCHBURG","zip":"24501","f&b":40930,"geo_score":0.812,"storeno":271,"street":"2630 LAKESIDE DR","id":"a6ep3fe7cy05","geo_precision":"range","state":"VA"},"type":"Feature","geometry":{"type":"Point","coordinates":[-79.228762,37.395994]}},{"properties":{"city":"MADISON HEIGHTS","zip":"24572","f&b":34649,"geo_score":0.826,"storeno":272,"street":"4089 S AMHERST HWY","id":"a6ep3f4zrgws","geo_precision":"range","state":"VA"},"type":"Feature","geometry":{"type":"Point","coordinates":[-79.119002,37.465994]}},{"properties":{"city":"BIRDSBORO","zip":"19508","f&b":26116,"geo_score":0.816,"storeno":273,"street":"6600 PERKIOMEN AVE","id":"a6ep3f8r5t11","geo_precision":"range","state":"PA"},"type":"Feature","geometry":{"type":"Point","coordinates":[-75.819397,40.288318]}},{"properties":{"city":"ASHTABULA","zip":"44004","f&b":24578,"geo_score":0.816,"storeno":274,"street":"2411 N RIDGE RD E","id":"a6ep3f9adewt","geo_precision":"range","state":"OH"},"type":"Feature","geometry":{"type":"Point","coordinates":[-80.763771,41.875957]}},{"properties":{"city":"MORGANTOWN","zip":"26501","f&b":57236,"geo_score":0.592,"storeno":275,"street":"1 CHAPLIN RD","id":"a6ep3ffe7w8t","geo_precision":"street","state":"WV"},"type":"Feature","geometry":{"type":"Point","coordinates":[-80.001137,39.65929]}},{"properties":{"city":"MIFFLINBURG","zip":"17844","f&b":24070,"geo_score":0.813,"storeno":276,"street":"240 E CHESTNUT ST","id":"a6ep3f1p3f70","geo_precision":"range","state":"PA"},"type":"Feature","geometry":{"type":"Point","coordinates":[-77.032194,40.923103]}},{"properties":{"city":"WEXFORD","zip":"15090","f&b":34233,"geo_score":0.715,"storeno":277,"street":"12000 PERRY HWY","id":"a6ep3f5xqfba","geo_precision":"street","state":"PA"},"type":"Feature","geometry":{"type":"Point","coordinates":[-80.060763,40.634786]}},{"properties":{"city":"UNIONTOWN","zip":"15401","f&b":49491,"geo_score":0.729,"storeno":278,"street":"10 NEW SALEM RD","id":"a6ep3f2442os","geo_precision":"range","state":"PA"},"type":"Feature","geometry":{"type":"Point","coordinates":[-79.836167,39.92448]}},{"properties":{"city":"CANONSBURG","zip":"15317","f&b":47461,"geo_score":0.805,"storeno":279,"street":"2401 WASHINGTON RD","id":"a6ep3fgjr7f4","geo_precision":"range","state":"PA"},"type":"Feature","geometry":{"type":"Point","coordinates":[-80.170498,40.252494]}},{"properties":{"city":"MILL HALL","zip":"17751","f&b":46114,"geo_score":0.805,"storeno":280,"street":"288 HOGAN BLVD","id":"a6ep3fgwa0j9","geo_precision":"range","state":"PA"},"type":"Feature","geometry":{"type":"Point","coordinates":[-77.478652,41.115353]}},{"properties":{"city":"AUSTINTOWN","zip":"44515","f&b":29759,"geo_score":0.805,"storeno":281,"street":"5499 MAHONING AVE","id":"a6ep3feqnsd8","geo_precision":"range","state":"OH"},"type":"Feature","geometry":{"type":"Point","coordinates":[-80.763852,41.099615]}},{"properties":{"city":"WARREN","zip":"44484","f&b":25062,"geo_score":0.812,"storeno":282,"street":"1162 NILES CORTLAND RD SE","id":"a6ep3femd948","geo_precision":"range","state":"OH"},"type":"Feature","geometry":{"type":"Point","coordinates":[-80.740476,41.225661]}},{"properties":{"city":"WILLIAMSPORT","zip":"17701","f&b":40928,"geo_score":0.837,"storeno":283,"street":"330 WESTMINSTER DR","id":"a6ep3f10fo3j","geo_precision":"range","state":"PA"},"type":"Feature","geometry":{"type":"Point","coordinates":[-76.959219,41.247816]}},{"properties":{"city":"WAYNESBURG","zip":"15370","f&b":37820,"geo_score":0.875,"storeno":284,"street":"111 E ROY FURMAN HWY","id":"a6ep3fcc3jmf","geo_precision":"range","state":"PA"},"type":"Feature","geometry":{"type":"Point","coordinates":[-80.160015,39.897341]}},{"properties":{"city":"ORANGE","zip":"22960","f&b":31576,"geo_score":0.797,"storeno":285,"street":"332 MADISON RD","id":"a6ep3fg1c1qg","geo_precision":"range","state":"VA"},"type":"Feature","geometry":{"type":"Point","coordinates":[-78.114493,38.252531]}},{"properties":{"city":"ASHLAND","zip":"23005","f&b":36204,"geo_score":0.805,"storeno":286,"street":"10036 SLIDING HILL RD","id":"a6ep3fb6cpy0","geo_precision":"range","state":"VA"},"type":"Feature","geometry":{"type":"Point","coordinates":[-77.440427,37.691]}},{"properties":{"city":"STATE COLLEGE","zip":"16803","f&b":49193,"geo_score":0.735,"storeno":287,"street":"101 VALLEY VISTA DR","id":"a6ep3f5d0jpr","geo_precision":"range","state":"PA"},"type":"Feature","geometry":{"type":"Point","coordinates":[-77.922423,40.81197]}},{"properties":{"city":"DUNCANNON","zip":"17020","f&b":37901,"geo_score":0.816,"storeno":288,"street":"1550 STATE RD","id":"a6ep3fb4th7w","geo_precision":"range","state":"PA"},"type":"Feature","geometry":{"type":"Point","coordinates":[-76.986835,40.355348]}},{"properties":{"city":"SINKING SPRING","zip":"19608","f&b":29154,"geo_score":0.783,"storeno":289,"street":"4661 PENN AVE","id":"a6ep3fbo85ef","geo_precision":"range","state":"PA"},"type":"Feature","geometry":{"type":"Point","coordinates":[-76.037286,40.326578]}},{"properties":{"city":"TAPPAHANNOCK","zip":"22560","f&b":26608,"geo_score":0.619,"storeno":290,"street":"1804 TAPPAHANNOCK BLVD","id":"a6ep3f2rjiy9","geo_precision":"street","state":"VA"},"type":"Feature","geometry":{"type":"Point","coordinates":[-76.867184,37.902733]}},{"properties":{"city":"HAZLE TOWNSHIP","zip":"18202","f&b":30566,"geo_score":0.713,"storeno":291,"street":"101 AIRPORT RD","id":"a6ep3f3i06q5","geo_precision":"range","state":"PA"},"type":"Feature","geometry":{"type":"Point","coordinates":[-76.010275,40.988916]}},{"properties":{"city":"CALIFORNIA","zip":"20619","f&b":29826,"geo_score":0.78,"storeno":292,"street":"22711 THREE NOTCH RD","id":"a6ep3f85khsc","geo_precision":"range","state":"MD"},"type":"Feature","geometry":{"type":"Point","coordinates":[-76.493655,38.291423]}},{"properties":{"city":"LEESPORT","zip":"19533","f&b":35546,"geo_score":0.643,"storeno":293,"street":"5515 POTTSVILLE PIKE","id":"a6ep3fdbkep0","geo_precision":"street","state":"PA"},"type":"Feature","geometry":{"type":"Point","coordinates":[-75.95459,40.444013]}},{"properties":{"city":"WARREN","zip":"44484","f&b":28547,"geo_score":0.902,"storeno":294,"street":"3379 ELM RD NE","id":"a6ep3fgi1zsl","geo_precision":"range","state":"OH"},"type":"Feature","geometry":{"type":"Point","coordinates":[-80.782946,41.265451]}},{"properties":{"city":"ROANOKE","zip":"24019","f&b":29097,"geo_score":0.819,"storeno":295,"street":"2703 PETERS CREEK RD NW","id":"a6ep3fgmy88q","geo_precision":"range","state":"VA"},"type":"Feature","geometry":{"type":"Point","coordinates":[-80.004793,37.315638]}},{"properties":{"city":"STOW","zip":"44224","f&b":30694,"geo_score":0.76,"storeno":296,"street":"950 E STEELS CORNERS RD","id":"a6ep3f23vavp","geo_precision":"range","state":"OH"},"type":"Feature","geometry":{"type":"Point","coordinates":[-81.474751,41.181268]}},{"properties":{"city":"WILKES BARRE","zip":"18702","f&b":42757,"geo_score":0.861,"storeno":297,"street":"464 WILKES BARRE TOWNSHIP BLVD","id":"a6ep3fg5gm43","geo_precision":"range","state":"PA"},"type":"Feature","geometry":{"type":"Point","coordinates":[-75.866529,41.233658]}},{"properties":{"city":"GROVE CITY","zip":"16127","f&b":34900,"geo_score":0.8,"storeno":298,"street":"1526 W MAIN STREET EXT","id":"a6ep3f1tyjm8","geo_precision":"range","state":"PA"},"type":"Feature","geometry":{"type":"Point","coordinates":[-80.110587,41.16833]}},{"properties":{"city":"GROVE CITY","zip":"16127","f&b":38012,"geo_score":0.902,"storeno":299,"street":"1931 BUTLER PIKE","id":"a6ep3f1fe0zc","geo_precision":"range","state":"PA"},"type":"Feature","geometry":{"type":"Point","coordinates":[-80.156948,41.149369]}},{"properties":{"city":"ROANOKE","zip":"24012","f&b":46635,"geo_score":0.819,"storeno":300,"street":"1212 WILLIAMSON RD NE","id":"a6ep3ffq0nl4","geo_precision":"range","state":"VA"},"type":"Feature","geometry":{"type":"Point","coordinates":[-79.933442,37.282499]}},{"properties":{"city":"RAVENNA","zip":"44266","f&b":33329,"geo_score":0.823,"storeno":301,"street":"6941 STATE ROUTE 44","id":"a6ep3fe7ufhg","geo_precision":"range","state":"OH"},"type":"Feature","geometry":{"type":"Point","coordinates":[-81.246371,41.180012]}},{"properties":{"city":"STAUNTON","zip":"24402","f&b":36166,"geo_score":0.902,"storeno":302,"street":"1250 RICHMOND AVE","id":"a6ep3faia16i","geo_precision":"range","state":"VA"},"type":"Feature","geometry":{"type":"Point","coordinates":[-79.043089,38.134286]}},{"properties":{"city":"MADISON","zip":"22727","f&b":34105,"geo_score":0.608,"storeno":303,"street":"2902 S SEMINOLE TRL","id":"a6ep3f6gshoh","geo_precision":"street","state":"VA"},"type":"Feature","geometry":{"type":"Point","coordinates":[-78.21434,38.406042]}},{"properties":{"city":"CHANTILLY","zip":"20151","f&b":34097,"geo_score":0.902,"storeno":304,"street":"25224 POLAND RD","id":"a6ep3f4jiumr","geo_precision":"range","state":"VA"},"type":"Feature","geometry":{"type":"Point","coordinates":[-77.496797,38.919094]}},{"properties":{"city":"YORK","zip":"17403","f&b":21787,"geo_score":0.813,"storeno":305,"street":"2721 S QUEEN ST","id":"a6ep3f48nyfv","geo_precision":"range","state":"PA"},"type":"Feature","geometry":{"type":"Point","coordinates":[-76.680244,39.907662]}},{"properties":{"city":"DANVILLE","zip":"24541","f&b":28520,"geo_score":0.827,"storeno":306,"street":"3425 RIVERSIDE DR","id":"a6ep3fe912yp","geo_precision":"range","state":"VA"},"type":"Feature","geometry":{"type":"Point","coordinates":[-79.427757,36.583371]}},{"properties":{"city":"KING GEORGE","zip":"22485","f&b":41070,"geo_score":0.814,"storeno":307,"street":"11449 KINGS HWY","id":"a6ep3f6hmlqv","geo_precision":"range","state":"VA"},"type":"Feature","geometry":{"type":"Point","coordinates":[-77.149058,38.23876]}},{"properties":{"city":"RIDGEWAY","zip":"24148","f&b":26556,"geo_score":0.805,"storeno":308,"street":"6758 GREENSBORO RD","id":"a6ep3fchknz1","geo_precision":"range","state":"VA"},"type":"Feature","geometry":{"type":"Point","coordinates":[-79.862225,36.600086]}},{"properties":{"city":"WINCHESTER","zip":"22602","f&b":35209,"geo_score":0.902,"storeno":309,"street":"1574 MARTINSBURG PIKE","id":"a6ep3f2zn5c9","geo_precision":"range","state":"VA"},"type":"Feature","geometry":{"type":"Point","coordinates":[-78.140523,39.216384]}},{"properties":{"city":"NORTH LIMA","zip":"44452","f&b":31648,"geo_score":0.805,"storeno":310,"street":"9010 MARKET ST","id":"a6ep3fh9emud","geo_precision":"range","state":"OH"},"type":"Feature","geometry":{"type":"Point","coordinates":[-80.662759,40.987735]}},{"properties":{"city":"AKRON","zip":"44319","f&b":34523,"geo_score":0.813,"storeno":311,"street":"20 W WATERLOO RD","id":"a6ep3f9s64g7","geo_precision":"range","state":"OH"},"type":"Feature","geometry":{"type":"Point","coordinates":[-81.527557,41.028749]}},{"properties":{"city":"MT JOY","zip":"17552","f&b":43827,"geo_score":0.638,"storeno":312,"street":"1555 E MAIN ST","id":"a6ep3fa79fto","geo_precision":"street","state":"PA"},"type":"Feature","geometry":{"type":"Point","coordinates":[-76.455137,40.111424]}},{"properties":{"city":"NORTH HUNTINGDON","zip":"15642","f&b":34287,"geo_score":0.47,"storeno":313,"street":"13700 RT 30","id":"a6ep3fg30eld","geo_precision":"street","state":"PA"},"type":"Feature","geometry":{"type":"Point","coordinates":[-79.684296,40.319938]}},{"properties":{"city":"NEW ALEXANDRIA","zip":"15670","f&b":56800,"geo_score":0.561,"storeno":314,"street":"8299 ROUTE 22","id":"a6ep3f8bk0vv","geo_precision":"street","state":"PA"},"type":"Feature","geometry":{"type":"Point","coordinates":[-79.599657,40.404296]}},{"properties":{"city":"ASHLAND","zip":"23005","f&b":29612,"geo_score":0.805,"storeno":315,"street":"12341 WASHINGTON HWY","id":"a6ep3f95myxd","geo_precision":"range","state":"VA"},"type":"Feature","geometry":{"type":"Point","coordinates":[-77.471247,37.744131]}},{"properties":{"city":"JOPPA","zip":"21085","f&b":33630,"geo_score":0.824,"storeno":316,"street":"601 PULASKI HWY","id":"a6ep3faocspn","geo_precision":"range","state":"MD"},"type":"Feature","geometry":{"type":"Point","coordinates":[-76.355684,39.428996]}},{"properties":{"city":"CUYAHOGA FALLS","zip":"44221","f&b":30408,"geo_score":0.902,"storeno":317,"street":"1210 MAIN ST","id":"a6ep3f3rnw6x","geo_precision":"range","state":"OH"},"type":"Feature","geometry":{"type":"Point","coordinates":[-81.484675,41.119277]}},{"properties":{"city":"GREAT MILLS","zip":"20634","f&b":31821,"geo_score":0.902,"storeno":318,"street":"20760 OLD GREAT MILLS RD","id":"a6ep3f2ux84r","geo_precision":"range","state":"MD"},"type":"Feature","geometry":{"type":"Point","coordinates":[-76.497146,38.23703]}},{"properties":{"city":"TRUCKSVILLE","zip":"18708","f&b":43283,"geo_score":0.864,"storeno":319,"street":"163 S MEMORIAL HWY","id":"a6ep3ffmthgo","geo_precision":"range","state":"PA"},"type":"Feature","geometry":{"type":"Point","coordinates":[-75.927272,41.300944]}},{"properties":{"city":"CHRISTIANSBURG","zip":"24073","f&b":29253,"geo_score":0.819,"storeno":320,"street":"2000 N FRANKLIN ST","id":"a6ep3f7t2yle","geo_precision":"range","state":"VA"},"type":"Feature","geometry":{"type":"Point","coordinates":[-80.417552,37.157238]}},{"properties":{"city":"COLONIAL HEIGHTS","zip":"23834","f&b":34584,"geo_score":0.811,"storeno":321,"street":"2711 CONDUIT RD","id":"a6ep3f5fesnb","geo_precision":"range","state":"VA"},"type":"Feature","geometry":{"type":"Point","coordinates":[-77.395837,37.258462]}},{"properties":{"city":"RICHMOND","zip":"23235","f&b":31720,"geo_score":0.805,"storeno":322,"street":"2053 HUGUENOT RD","id":"a6ep3faiqcbl","geo_precision":"range","state":"VA"},"type":"Feature","geometry":{"type":"Point","coordinates":[-77.612947,37.521622]}},{"properties":{"city":"LOCUST GROVE","zip":"22508","f&b":38106,"geo_score":0.692,"storeno":323,"street":"5504 GERMANNA HWY","id":"a6ep3fax9yvm","geo_precision":"range","state":"VA"},"type":"Feature","geometry":{"type":"Point","coordinates":[-77.729207,38.326832]}},{"properties":{"city":"WADSWORTH","zip":"44281","f&b":32163,"geo_score":0.814,"storeno":324,"street":"5100 RIDGE RD","id":"a6ep3fbimd0s","geo_precision":"range","state":"OH"},"type":"Feature","geometry":{"type":"Point","coordinates":[-81.735028,41.136142]}},{"properties":{"city":"SALEM","zip":"24153","f&b":33905,"geo_score":0.824,"storeno":325,"street":"1435 APPERSON DR","id":"a6ep3fcjnidn","geo_precision":"range","state":"VA"},"type":"Feature","geometry":{"type":"Point","coordinates":[-80.037581,37.271621]}},{"properties":{"city":"GETTYSBURG","zip":"17325","f&b":45882,"geo_score":0.727,"storeno":326,"street":"30 CAMP LETTERMAN DR","id":"a6ep3f35z571","geo_precision":"range","state":"PA"},"type":"Feature","geometry":{"type":"Point","coordinates":[-76.724484,39.793821]}},{"properties":{"city":"MONROEVILLE","zip":"15146","f&b":47995,"geo_score":0.848,"storeno":327,"street":"2100 MOSSIDE BLVD","id":"a6ep3f1lhtlp","geo_precision":"range","state":"PA"},"type":"Feature","geometry":{"type":"Point","coordinates":[-79.772041,40.396034]}},{"properties":{"city":"CANFIELD","zip":"44406","f&b":33345,"geo_score":0.817,"storeno":328,"street":"4585 BOARDMAN CANFIELD RD","id":"a6ep3f8tp7sk","geo_precision":"range","state":"OH"},"type":"Feature","geometry":{"type":"Point","coordinates":[-80.736201,41.024718]}},{"properties":{"city":"ROCKY MOUNT","zip":"24151","f&b":24806,"geo_score":0.805,"storeno":329,"street":"265 OLD FRANKLIN TPKE","id":"a6ep3fggcc9j","geo_precision":"range","state":"VA"},"type":"Feature","geometry":{"type":"Point","coordinates":[-79.872094,37.009871]}},{"properties":{"city":"WHITEHALL","zip":"18052","f&b":29477,"geo_score":0.826,"storeno":330,"street":"5001 MACARTHUR RD","id":"a6ep3f5arip6","geo_precision":"range","state":"PA"},"type":"Feature","geometry":{"type":"Point","coordinates":[-75.523519,40.687834]}},{"properties":{"city":"POWHATAN","zip":"23139","f&b":37353,"geo_score":0.829,"storeno":331,"street":"2600 ANDERSON HWY","id":"a6ep3fdo2eqc","geo_precision":"range","state":"VA"},"type":"Feature","geometry":{"type":"Point","coordinates":[-77.823045,37.522663]}},{"properties":{"city":"HARRISONBURG","zip":"22801","f&b":35886,"geo_score":0.813,"storeno":332,"street":"798 E MARKET ST","id":"a6ep3f8d2znl","geo_precision":"range","state":"VA"},"type":"Feature","geometry":{"type":"Point","coordinates":[-78.853471,38.44641]}},{"properties":{"city":"SALEM","zip":"24153","f&b":30975,"geo_score":0.824,"storeno":333,"street":"1340 W MAIN ST","id":"a6ep3f758zdn","geo_precision":"range","state":"VA"},"type":"Feature","geometry":{"type":"Point","coordinates":[-80.078976,37.289728]}},{"properties":{"city":"EDINBORO","zip":"16412","f&b":31978,"geo_score":0.611,"storeno":334,"street":"5930 ROUTE 6N","id":"a6ep3f1kuzsc","geo_precision":"range","state":"PA"},"type":"Feature","geometry":{"type":"Point","coordinates":[-80.171204,41.879787]}},{"properties":{"city":"BUTLER","zip":"16001","f&b":45121,"geo_score":0.811,"storeno":335,"street":"499 EVANS CITY RD","id":"a6ep3f27wuny","geo_precision":"range","state":"PA"},"type":"Feature","geometry":{"type":"Point","coordinates":[-79.96771,40.862225]}},{"properties":{"city":"WILLIAMSPORT","zip":"17701","f&b":57057,"geo_score":0.837,"storeno":336,"street":"105 MAYNARD ST","id":"a6ep3f3qckxz","geo_precision":"range","state":"PA"},"type":"Feature","geometry":{"type":"Point","coordinates":[-77.019487,41.233962]}},{"properties":{"city":"MEADVILLE","zip":"16335","f&b":28274,"geo_score":0.722,"storeno":337,"street":"16590 CONNEAUT LAKE RD","id":"a6ep3fcdnzrg","geo_precision":"range","state":"PA"},"type":"Feature","geometry":{"type":"Point","coordinates":[-80.203674,41.622592]}},{"properties":{"city":"RICHMOND","zip":"23236","f&b":30763,"geo_score":0.902,"storeno":338,"street":"20 S PROVIDENCE RD","id":"a6ep3fdgk570","geo_precision":"range","state":"VA"},"type":"Feature","geometry":{"type":"Point","coordinates":[-77.547016,37.496666]}},{"properties":{"city":"STATE COLLEGE","zip":"16801","f&b":45628,"geo_score":0.813,"storeno":339,"street":"765 BENNER PIKE","id":"a6ep3f12ll73","geo_precision":"range","state":"PA"},"type":"Feature","geometry":{"type":"Point","coordinates":[-77.801501,40.835532]}},{"properties":{"city":"SOUTH BOSTON","zip":"24592","f&b":29831,"geo_score":0.692,"storeno":340,"street":"1007 PHILPOTT RD","id":"a6ep3fb8qqgt","geo_precision":"range","state":"VA"},"type":"Feature","geometry":{"type":"Point","coordinates":[-78.900482,36.68737]}},{"properties":{"city":"RICHMOND","zip":"23236","f&b":27115,"geo_score":0.585,"storeno":341,"street":"9401 AMBERDALE DR","id":"a6ep3f1vu5ud","geo_precision":"zip","state":"VA"},"type":"Feature","geometry":{"type":"Point","coordinates":[-77.585993,37.474505]}},{"properties":{"city":"CANTON","zip":"44708","f&b":19607,"geo_score":0.82,"storeno":342,"street":"5057 TUSCARAWAS ST W","id":"a6ep3f3ae2fq","geo_precision":"range","state":"OH"},"type":"Feature","geometry":{"type":"Point","coordinates":[-81.444992,40.792811]}},{"properties":{"city":"DUNMORE","zip":"18512","f&b":33694,"geo_score":0.613,"storeno":343,"street":"1101 ONEILL HWY","id":"a6ep3fb27vmr","geo_precision":"street","state":"PA"},"type":"Feature","geometry":{"type":"Point","coordinates":[-75.617937,41.439098]}},{"properties":{"city":"PLAINS TOWNSHIP","zip":"18702","f&b":42771,"geo_score":0.739,"storeno":344,"street":"1233 HIGHWAY 315 BLVD","id":"a6ep3f1m37k6","geo_precision":"range","state":"PA"},"type":"Feature","geometry":{"type":"Point","coordinates":[-75.815561,41.264631]}},{"properties":{"city":"MORGANTOWN","zip":"19543","f&b":33250,"geo_score":0.61,"storeno":345,"street":"3830 MAIN ST","id":"a6ep3fb47d93","geo_precision":"street","state":"PA"},"type":"Feature","geometry":{"type":"Point","coordinates":[-75.898248,40.153155]}},{"properties":{"city":"FREDERICKSBURG","zip":"22401","f&b":24689,"geo_score":0.624,"storeno":346,"street":"2001 CARL D SILVER PKWY","id":"a6ep3fe40fe3","geo_precision":"street","state":"VA"},"type":"Feature","geometry":{"type":"Point","coordinates":[-77.509306,38.305282]}},{"properties":{"city":"NORTH RIDGEVILLE","zip":"44039","f&b":33093,"geo_score":0.902,"storeno":347,"street":"32390 LORAIN RD","id":"a6ep3f3d0isb","geo_precision":"range","state":"OH"},"type":"Feature","geometry":{"type":"Point","coordinates":[-81.97631,41.385389]}},{"properties":{"city":"YORK","zip":"17408","f&b":34148,"geo_score":0.488,"storeno":348,"street":"4025 W MARKET ST","id":"a6ep3f7bezn5","geo_precision":"city","state":"PA"},"type":"Feature","geometry":{"type":"Point","coordinates":[-109.202845,32.893678]}},{"properties":{"city":"MORGANTOWN","zip":"26505","f&b":39924,"geo_score":0.707,"storeno":349,"street":"1901 EARL L CORE RD","id":"a6ep3fbfdkg0","geo_precision":"range","state":"WV"},"type":"Feature","geometry":{"type":"Point","coordinates":[-79.921674,39.610605]}},{"properties":{"city":"RICHMOND","zip":"23294","f&b":47682,"geo_score":0.902,"storeno":350,"street":"7035 W BROAD ST","id":"a6ep3f2yi1bo","geo_precision":"range","state":"VA"},"type":"Feature","geometry":{"type":"Point","coordinates":[-77.518974,37.609511]}},{"properties":{"city":"HUMMELSTOWN","zip":"17036","f&b":42609,"geo_score":0.805,"storeno":351,"street":"658 E MAIN ST","id":"a6ep3fem81vm","geo_precision":"range","state":"PA"},"type":"Feature","geometry":{"type":"Point","coordinates":[-76.689554,40.26837]}},{"properties":{"city":"BEDFORD","zip":"15522","f&b":48706,"geo_score":0.68,"storeno":352,"street":"4354 BUSINESS 220","id":"a6ep3fbzo6vq","geo_precision":"range","state":"PA"},"type":"Feature","geometry":{"type":"Point","coordinates":[-78.645706,39.830977]}},{"properties":{"city":"PITTSBURGH","zip":"15205","f&b":59139,"geo_score":0.844,"storeno":353,"street":"5410 CAMPBELLS RUN RD","id":"a6ep3fdi7r7j","geo_precision":"range","state":"PA"},"type":"Feature","geometry":{"type":"Point","coordinates":[-80.158338,40.447211]}},{"properties":{"city":"ALTOONA","zip":"16602","f&b":75258,"geo_score":0.827,"storeno":354,"street":"1915 PLEASANT VALLEY BLVD","id":"a6ep3f6mpysr","geo_precision":"range","state":"PA"},"type":"Feature","geometry":{"type":"Point","coordinates":[-78.391759,40.499888]}},{"properties":{"city":"WALKERTOWN","zip":"27051","f&b":23990,"geo_score":0.902,"storeno":355,"street":"5198 REIDSVILLE RD","id":"a6ep3ffvcsn3","geo_precision":"range","state":"NC"},"type":"Feature","geometry":{"type":"Point","coordinates":[-80.137189,36.165009]}},{"properties":{"city":"GREENSBORO","zip":"27407","f&b":29242,"geo_score":0.805,"storeno":356,"street":"4319 W WENDOVER AVE","id":"a6ep3f336r0i","geo_precision":"range","state":"NC"},"type":"Feature","geometry":{"type":"Point","coordinates":[-79.890495,36.056884]}},{"properties":{"city":"NEW PHILADELPHIA","zip":"44663","f&b":21472,"geo_score":0.824,"storeno":357,"street":"1281 W HIGH AVE","id":"a6ep3fankg9o","geo_precision":"range","state":"OH"},"type":"Feature","geometry":{"type":"Point","coordinates":[-81.473488,40.493374]}},{"properties":{"city":"FAIRLAWN","zip":"24141","f&b":28715,"geo_score":0.683,"storeno":358,"street":"7335 LEE HWY","id":"a6ep3f6hliij","geo_precision":"range","state":"VA"},"type":"Feature","geometry":{"type":"Point","coordinates":[-80.583252,37.144771]}},{"properties":{"city":"SCRANTON","zip":"18508","f&b":35088,"geo_score":0.78,"storeno":359,"street":"610 SCRANTON CARBONDALE HWY","id":"a6ep3fa8k0o8","geo_precision":"range","state":"PA"},"type":"Feature","geometry":{"type":"Point","coordinates":[-75.651534,41.463977]}},{"properties":{"city":"MONROEVILLE","zip":"15146","f&b":53394,"geo_score":0.848,"storeno":360,"street":"3954 WILLIAM PENN HWY","id":"a6ep3f3hxgov","geo_precision":"range","state":"PA"},"type":"Feature","geometry":{"type":"Point","coordinates":[-79.775142,40.438035]}},{"properties":{"city":"RALEIGH","zip":"27616","f&b":32041,"geo_score":0.78,"storeno":361,"street":"4801 THORNTON RD","id":"a6ep3f2xhrm3","geo_precision":"range","state":"NC"},"type":"Feature","geometry":{"type":"Point","coordinates":[-78.55827,35.898767]}},{"properties":{"city":"WHEELING","zip":"26003","f&b":36463,"geo_score":0.815,"storeno":362,"street":"887 NATIONAL RD","id":"a6ep3f8ep0x1","geo_precision":"range","state":"WV"},"type":"Feature","geometry":{"type":"Point","coordinates":[-80.693724,40.077177]}},{"properties":{"city":"CLARKS SUMMIT","zip":"18411","f&b":38645,"geo_score":0.805,"storeno":363,"street":"1109 NORTHERN BLVD","id":"a6ep3ffs547c","geo_precision":"range","state":"PA"},"type":"Feature","geometry":{"type":"Point","coordinates":[-75.694493,41.486235]}},{"properties":{"city":"FISHERVILLE","zip":"22939","f&b":37874,"geo_score":0.664,"storeno":364,"street":"726 TINKLING SPRING RD","id":"a6ep3fe02rap","geo_precision":"street","state":"VA"},"type":"Feature","geometry":{"type":"Point","coordinates":[-78.972797,38.096448]}},{"properties":{"city":"FUQUAY-VARINA","zip":"27526","f&b":22493,"geo_score":0.813,"storeno":365,"street":"1655 N MAIN ST","id":"a6ep3f5acmpf","geo_precision":"range","state":"NC"},"type":"Feature","geometry":{"type":"Point","coordinates":[-78.760314,35.596356]}},{"properties":{"city":"GREENSBORO","zip":"27407","f&b":29680,"geo_score":0.805,"storeno":366,"street":"5421 HORNADAY RD","id":"a6ep3f1an6ef","geo_precision":"range","state":"NC"},"type":"Feature","geometry":{"type":"Point","coordinates":[-79.904634,36.059443]}},{"properties":{"city":"ERIE","zip":"16510","f&b":27498,"geo_score":0.819,"storeno":367,"street":"4816 BUFFALO RD","id":"a6ep3fgdita9","geo_precision":"range","state":"PA"},"type":"Feature","geometry":{"type":"Point","coordinates":[-79.993814,42.150795]}},{"properties":{"city":"AKRON","zip":"44312","f&b":30594,"geo_score":0.805,"storeno":368,"street":"1651 E TURKEYFOOT LAKE RD","id":"a6ep3fd569hv","geo_precision":"range","state":"OH"},"type":"Feature","geometry":{"type":"Point","coordinates":[-81.464364,40.973744]}},{"properties":{"city":"HOMER CITY","zip":"15748","f&b":58628,"geo_score":0.581,"storeno":369,"street":"2260 ROUTE 119 HWY S","id":"a6ep3fdnbvuh","geo_precision":"street","state":"PA"},"type":"Feature","geometry":{"type":"Point","coordinates":[-79.160856,40.534154]}},{"properties":{"city":"LEBANON","zip":"17042","f&b":47234,"geo_score":0.841,"storeno":370,"street":"195 ROCHERTY RD","id":"a6ep3fgw8ew8","geo_precision":"range","state":"PA"},"type":"Feature","geometry":{"type":"Point","coordinates":[-76.423484,40.304649]}},{"properties":{"city":"RALEIGH","zip":"27610","f&b":23079,"geo_score":0.717,"storeno":371,"street":"5200 NEW BERN AVE","id":"a6ep3fc60qrt","geo_precision":"street","state":"NC"},"type":"Feature","geometry":{"type":"Point","coordinates":[-78.548737,35.793829]}},{"properties":{"city":"DANVILLE","zip":"17821","f&b":33814,"geo_score":0.816,"storeno":372,"street":"116 WOODBINE LN","id":"a6ep3fa87kec","geo_precision":"range","state":"PA"},"type":"Feature","geometry":{"type":"Point","coordinates":[-76.577935,40.964452]}},{"properties":{"city":"YORK","zip":"17403","f&b":42062,"geo_score":0.813,"storeno":373,"street":"2068 S QUEEN ST","id":"a6ep3fgq2snf","geo_precision":"range","state":"PA"},"type":"Feature","geometry":{"type":"Point","coordinates":[-76.693534,39.937829]}},{"properties":{"city":"HARRISBURG","zip":"17113","f&b":63678,"geo_score":0.631,"storeno":374,"street":"3695 PAXTON ST","id":"a6ep3f78xfgk","geo_precision":"street","state":"PA"},"type":"Feature","geometry":{"type":"Point","coordinates":[-76.832962,40.241754]}},{"properties":{"city":"ALLIANCE","zip":"44601","f&b":29802,"geo_score":0.837,"storeno":375,"street":"236 W STATE ST","id":"a6ep3farnqwn","geo_precision":"range","state":"OH"},"type":"Feature","geometry":{"type":"Point","coordinates":[-81.108489,40.901719]}},{"properties":{"city":"PITTSBURGH","zip":"15236","f&b":43198,"geo_score":0.62,"storeno":376,"street":"1000 CLAIRTON BLVD.","id":"a6ep3f3njxea","geo_precision":"street","state":"PA"},"type":"Feature","geometry":{"type":"Point","coordinates":[-79.98422,40.363923]}},{"properties":{"city":"BELLE VERNON","zip":"15012","f&b":44438,"geo_score":0.49,"storeno":377,"street":"4692 SR 51 S","id":"a6ep3fcgtzvh","geo_precision":"street","state":"PA"},"type":"Feature","geometry":{"type":"Point","coordinates":[-79.80624,40.10405]}},{"properties":{"city":"LEWISBURG","zip":"17837","f&b":41366,"geo_score":0.499,"storeno":378,"street":"260 INTERNATIONAL DR","id":"a6ep3f3r5bmj","geo_precision":"zip","state":"PA"},"type":"Feature","geometry":{"type":"Point","coordinates":[-76.901356,40.952029]}},{"properties":{"city":"MOON TOWNSHIP","zip":"15108","f&b":61025,"geo_score":0.624,"storeno":379,"street":"9002 UNIVERSITY BLVD","id":"a6ep3f5rzaso","geo_precision":"street","state":"PA"},"type":"Feature","geometry":{"type":"Point","coordinates":[-79.826004,40.344052]}},{"properties":{"city":"MEBANE","zip":"27302","f&b":38264,"geo_score":0.821,"storeno":380,"street":"1237 MEBANE OAKS RD","id":"a6ep3f4bcd5u","geo_precision":"range","state":"NC"},"type":"Feature","geometry":{"type":"Point","coordinates":[-79.270702,36.069556]}},{"properties":{"city":"NEW CASTLE","zip":"16105","f&b":37084,"geo_score":0.827,"storeno":381,"street":"3450 WILMINGTON RD","id":"a6ep3f1tpde5","geo_precision":"range","state":"PA"},"type":"Feature","geometry":{"type":"Point","coordinates":[-80.356771,41.048072]}},{"properties":{"city":"HERMITAGE","zip":"16148","f&b":31112,"geo_score":0.902,"storeno":382,"street":"1650 N HERMITAGE RD","id":"a6ep3f71ed5d","geo_precision":"range","state":"PA"},"type":"Feature","geometry":{"type":"Point","coordinates":[-80.451999,41.256456]}},{"properties":{"city":"YOUNGSVILLE","zip":"27596","f&b":24652,"geo_score":0.725,"storeno":383,"street":"564 US 1 HWY","id":"a6ep3fgm3b11","geo_precision":"range","state":"NC"},"type":"Feature","geometry":{"type":"Point","coordinates":[-78.50869,36.026007]}},{"properties":{"city":"BETHLEHEM","zip":"18017","f&b":40525,"geo_score":0.695,"storeno":384,"street":"3201 SCHOENERSVILLE RD","id":"a6ep3fgsypb4","geo_precision":"range","state":"PA"},"type":"Feature","geometry":{"type":"Point","coordinates":[-75.416789,40.656235]}},{"properties":{"city":"WINSTON-SALEM","zip":"27103","f&b":20522,"geo_score":0.508,"storeno":385,"street":"2505 SOMERSET CENTER DR","id":"a6ep3fcgrv1z","geo_precision":"street","state":"NC"},"type":"Feature","geometry":{"type":"Point","coordinates":[-80.34432,36.05354]}},{"properties":{"city":"CHESTER","zip":"23836","f&b":30854,"geo_score":0.902,"storeno":386,"street":"231 E HUNDRED RD","id":"a6ep3f5z1ycl","geo_precision":"range","state":"VA"},"type":"Feature","geometry":{"type":"Point","coordinates":[-77.358257,37.348842]}},{"properties":{"city":"CAMBRIDGE","zip":"43725","f&b":24908,"geo_score":0.707,"storeno":387,"street":"2101 SOUTHGATE PKWY","id":"a6ep3f1wm7py","geo_precision":"street","state":"OH"},"type":"Feature","geometry":{"type":"Point","coordinates":[-81.576799,40.006959]}},{"properties":{"city":"LANCASTER","zip":"17603","f&b":42234,"geo_score":0.805,"storeno":388,"street":"3101 COLUMBIA AVE","id":"a6ep3ffq57nl","geo_precision":"range","state":"PA"},"type":"Feature","geometry":{"type":"Point","coordinates":[-76.390211,40.041159]}},{"properties":{"city":"CANTON","zip":"44708","f&b":21664,"geo_score":0.82,"storeno":389,"street":"2939 WHIPPLE AVE NW","id":"a6ep3f49do2g","geo_precision":"range","state":"OH"},"type":"Feature","geometry":{"type":"Point","coordinates":[-81.424327,40.831731]}},{"properties":{"city":"KENT","zip":"44240","f&b":38522,"geo_score":0.816,"storeno":390,"street":"1762 E MAIN ST","id":"a6ep3f299iv8","geo_precision":"range","state":"OH"},"type":"Feature","geometry":{"type":"Point","coordinates":[-81.329815,41.154713]}},{"properties":{"city":"GREENVILLE","zip":"27858","f&b":29015,"geo_score":0.709,"storeno":391,"street":"2100 COUNTY HOME RD","id":"a6ep3fa4chm8","geo_precision":"street","state":"NC"},"type":"Feature","geometry":{"type":"Point","coordinates":[-77.35551,35.563114]}},{"properties":{"city":"CHAMBERSBURG","zip":"17201","f&b":38952,"geo_score":0.62,"storeno":392,"street":"875 NORLAND AVE","id":"a6ep3f435d9u","geo_precision":"street","state":"PA"},"type":"Feature","geometry":{"type":"Point","coordinates":[-77.639254,39.943681]}},{"properties":{"city":"TWINSBURG","zip":"44087","f&b":23466,"geo_score":0.709,"storeno":393,"street":"2495 E AURORA RD","id":"a6ep3fdocmka","geo_precision":"street","state":"OH"},"type":"Feature","geometry":{"type":"Point","coordinates":[-81.451276,41.31135]}},{"properties":{"city":"MENTOR","zip":"44060","f&b":31002,"geo_score":0.844,"storeno":394,"street":"7777 REYNOLDS RD","id":"a6ep3f9ouny2","geo_precision":"range","state":"OH"},"type":"Feature","geometry":{"type":"Point","coordinates":[-81.377748,41.659201]}},{"properties":{"city":"FARMVILLE","zip":"23901","f&b":31758,"geo_score":0.816,"storeno":395,"street":"2016 S MAIN ST","id":"a6ep3fczs7cr","geo_precision":"range","state":"VA"},"type":"Feature","geometry":{"type":"Point","coordinates":[-78.401319,37.274038]}},{"properties":{"city":"WILSON","zip":"27893","f&b":25857,"geo_score":0.683,"storeno":396,"street":"2835 FOREST HILLS RD SW","id":"a6ep3fb9bdr9","geo_precision":"range","state":"NC"},"type":"Feature","geometry":{"type":"Point","coordinates":[-77.952167,35.709205]}},{"properties":{"city":"GREENVILLE","zip":"27858","f&b":33184,"geo_score":0.902,"storeno":397,"street":"1000 CHARLES BLVD","id":"a6ep3f8ix6i8","geo_precision":"range","state":"NC"},"type":"Feature","geometry":{"type":"Point","coordinates":[-77.372239,35.605655]}},{"properties":{"city":"DURHAM","zip":"27703","f&b":34546,"geo_score":0.695,"storeno":398,"street":"3021 S MIAMI BLVD","id":"a6ep3fcregcq","geo_precision":"range","state":"NC"},"type":"Feature","geometry":{"type":"Point","coordinates":[-78.846508,35.924484]}},{"properties":{"city":"MORRISVILLE","zip":"27560","f&b":43514,"geo_score":0.619,"storeno":399,"street":"1600 AVIATION PKWY","id":"a6ep3fh5ktwa","geo_precision":"street","state":"NC"},"type":"Feature","geometry":{"type":"Point","coordinates":[-78.80899,35.840219]}},{"properties":{"city":"ST. MARY'S","zip":"15857","f&b":41127,"geo_score":0.805,"storeno":400,"street":"117 S MICHAEL ST","id":"a6ep3fh3qw5q","geo_precision":"range","state":"PA"},"type":"Feature","geometry":{"type":"Point","coordinates":[-78.560304,41.427918]}},{"properties":{"city":"WAYNESBORO","zip":"17268","f&b":34162,"geo_score":0.504,"storeno":401,"street":"13030 WASHINGTON TOWNSHIP BLVD","id":"a6ep3fgnmpmz","geo_precision":"street","state":"PA"},"type":"Feature","geometry":{"type":"Point","coordinates":[-77.627675,39.770143]}},{"properties":{"city":"SARVER","zip":"16055","f&b":35502,"geo_score":0.84,"storeno":402,"street":"717 S PIKE RD","id":"a6ep3f1rd1eq","geo_precision":"range","state":"PA"},"type":"Feature","geometry":{"type":"Point","coordinates":[-79.720112,40.699342]}},{"properties":{"city":"LYNCHBURG","zip":"24502","f&b":34407,"geo_score":0.826,"storeno":403,"street":"3927 WARDS RD","id":"a6ep3fabq4n4","geo_precision":"range","state":"VA"},"type":"Feature","geometry":{"type":"Point","coordinates":[-79.184806,37.350631]}},{"properties":{"city":"PERRY","zip":"44081","f&b":37421,"geo_score":0.854,"storeno":404,"street":"2800 N RIDGE RD","id":"a6ep3f8h2l3k","geo_precision":"range","state":"OH"},"type":"Feature","geometry":{"type":"Point","coordinates":[-81.17656,41.768629]}},{"properties":{"city":"STATESVILLE","zip":"28625","f&b":25213,"geo_score":0.709,"storeno":405,"street":"1244 WILKESBORO HWY","id":"a6ep3ffjamn1","geo_precision":"street","state":"NC"},"type":"Feature","geometry":{"type":"Point","coordinates":[-80.906908,35.802985]}},{"properties":{"city":"ZANESVILLE","zip":"43701","f&b":15506,"geo_score":0.805,"storeno":406,"street":"225 N MAYSVILLE AVE","id":"a6ep3f7cas5o","geo_precision":"range","state":"OH"},"type":"Feature","geometry":{"type":"Point","coordinates":[-82.017615,39.908226]}},{"properties":{"city":"WYTHEVILLE","zip":"24382","f&b":29572,"geo_score":0.737,"storeno":407,"street":"1340 N 4TH ST","id":"a6ep3f7eefw0","geo_precision":"range","state":"VA"},"type":"Feature","geometry":{"type":"Point","coordinates":[-81.096671,36.959287]}},{"properties":{"city":"WAYNESBORO","zip":"22980","f&b":27609,"geo_score":0.815,"storeno":408,"street":"2156 W MAIN ST","id":"a6ep3fem1hnh","geo_precision":"range","state":"VA"},"type":"Feature","geometry":{"type":"Point","coordinates":[-78.914949,38.076912]}},{"properties":{"city":"WINTERVILLE","zip":"28590","f&b":23572,"geo_score":0.707,"storeno":409,"street":"650 WHITLEY DR","id":"a6ep3f1si9db","geo_precision":"street","state":"NC"},"type":"Feature","geometry":{"type":"Point","coordinates":[-77.557268,35.330183]}},{"properties":{"city":"SCHUYLKILL HAVEN","zip":"17972","f&b":32747,"geo_score":0.818,"storeno":410,"street":"270 ROUTE 61 S","id":"a6ep3f1rcozz","geo_precision":"range","state":"PA"},"type":"Feature","geometry":{"type":"Point","coordinates":[-76.173981,40.637495]}},{"properties":{"city":"WINSTON-SALEM","zip":"27127","f&b":21622,"geo_score":0.769,"storeno":411,"street":"12290 N NC HIGHWAY 150","id":"a6ep3f70praa","geo_precision":"range","state":"NC"},"type":"Feature","geometry":{"type":"Point","coordinates":[-80.268131,35.99476]}},{"properties":{"city":"HARRISBURG","zip":"17112","f&b":42807,"geo_score":0.814,"storeno":412,"street":"6290 ALLENTOWN BLVD","id":"a6ep3f7bhj80","geo_precision":"range","state":"PA"},"type":"Feature","geometry":{"type":"Point","coordinates":[-76.782149,40.324443]}},{"properties":{"city":"DILLSBURG","zip":"17019","f&b":46890,"geo_score":0.695,"storeno":413,"street":"493 N US Route 15","id":"a6ep3fa0n0wi","geo_precision":"range","state":"PA"},"type":"Feature","geometry":{"type":"Point","coordinates":[-77.036532,40.118584]}},{"properties":{"city":"HIGH POINT","zip":"27265","f&b":24622,"geo_score":0.639,"storeno":414,"street":"2980 NC 68 SOUTH","id":"a6ep3f69plab","geo_precision":"range","state":"NC"},"type":"Feature","geometry":{"type":"Point","coordinates":[-79.961595,36.0599]}},{"properties":{"city":"GREENVILLE","zip":"27858","f&b":21944,"geo_score":0.709,"storeno":415,"street":"1201 PORTERTOWN RD","id":"a6ep3f510c2s","geo_precision":"street","state":"NC"},"type":"Feature","geometry":{"type":"Point","coordinates":[-77.313763,35.58066]}},{"properties":{"city":"ZEBULON","zip":"27597","f&b":30814,"geo_score":0.816,"storeno":416,"street":"1406 N ARENDELL AVE","id":"a6ep3fenjh1p","geo_precision":"range","state":"NC"},"type":"Feature","geometry":{"type":"Point","coordinates":[-78.324743,35.838708]}},{"properties":{"city":"BURLINGTON","zip":"27215","f&b":29279,"geo_score":0.815,"storeno":417,"street":"2628 ALAMANCE RD","id":"a6ep3fdlz1hd","geo_precision":"range","state":"NC"},"type":"Feature","geometry":{"type":"Point","coordinates":[-79.467786,36.067726]}},{"properties":{"city":"TRINITY","zip":"27370","f&b":29823,"geo_score":0.902,"storeno":418,"street":"5905 FINCH FARM RD","id":"a6ep3facn6c8","geo_precision":"range","state":"NC"},"type":"Feature","geometry":{"type":"Point","coordinates":[-80.03638,35.86782]}},{"properties":{"city":"BARBOURSVILLE","zip":"25504","f&b":29339,"geo_score":0.812,"storeno":419,"street":"4 MALL RD","id":"a6ep3f5v00bc","geo_precision":"range","state":"WV"},"type":"Feature","geometry":{"type":"Point","coordinates":[-82.26223,38.420469]}},{"properties":{"city":"ALTOONA","zip":"16602","f&b":33271,"geo_score":0.632,"storeno":420,"street":"1015 OLD 6TH AVE RD","id":"a6ep3f9nmoqa","geo_precision":"range","state":"PA"},"type":"Feature","geometry":{"type":"Point","coordinates":[-78.394518,40.514248]}},{"properties":{"city":"LANCASTER","zip":"17603","f&b":36587,"geo_score":0.532,"storeno":421,"street":"1180 MANHEIM PIKE","id":"a6ep3fdt793t","geo_precision":"street","state":"PA"},"type":"Feature","geometry":{"type":"Point","coordinates":[-76.316077,40.057395]}},{"properties":{"city":"STRONGSVILLE","zip":"44149","f&b":35615,"geo_score":0.813,"storeno":422,"street":"21034 ROYALTON RD","id":"a6ep3fb74wd3","geo_precision":"range","state":"OH"},"type":"Feature","geometry":{"type":"Point","coordinates":[-81.858074,41.312428]}},{"properties":{"city":"YORK","zip":"17402","f&b":26274,"geo_score":0.848,"storeno":423,"street":"3998 E MARKET ST","id":"a6ep3f1rmiqa","geo_precision":"range","state":"PA"},"type":"Feature","geometry":{"type":"Point","coordinates":[-76.636688,39.992162]}},{"properties":{"city":"MILTON","zip":"25541","f&b":24961,"geo_score":0.622,"storeno":424,"street":"1304 JOHNS CREEK RD","id":"a6ep3fe91lnp","geo_precision":"street","state":"WV"},"type":"Feature","geometry":{"type":"Point","coordinates":[-82.12254,38.440805]}},{"properties":{"city":"MARTINSBURG","zip":"25404","f&b":36235,"geo_score":0.368,"storeno":425,"street":"5715 HAMMONDS MILL RD","id":"a6ep3f9rvzxi","geo_precision":"street","state":"WV"},"type":"Feature","geometry":{"type":"Point","coordinates":[-122.426701,37.464414]}},{"properties":{"city":"CARLISLE","zip":"17015","f&b":36567,"geo_score":0.621,"storeno":426,"street":"1796 W TRINDLE ROAD","id":"a6ep3f7mkkff","geo_precision":"street","state":"PA"},"type":"Feature","geometry":{"type":"Point","coordinates":[-77.09758,40.195124]}},{"properties":{"city":"HUNTINGTON","zip":"25704","f&b":34086,"geo_score":0.791,"storeno":427,"street":"432 18TH ST W","id":"a6ep3fal0in5","geo_precision":"range","state":"WV"},"type":"Feature","geometry":{"type":"Point","coordinates":[-82.486271,38.410928]}},{"properties":{"city":"EDEN","zip":"27288","f&b":22597,"geo_score":0.805,"storeno":428,"street":"102 N VAN BUREN RD","id":"a6ep3f6h5m11","geo_precision":"range","state":"NC"},"type":"Feature","geometry":{"type":"Point","coordinates":[-79.743047,36.50118]}},{"properties":{"city":"TRIADELPHIA","zip":"26059","f&b":40239,"geo_score":0.72,"storeno":429,"street":"6 CABELA DR","id":"a6ep3f87defl","geo_precision":"range","state":"WV"},"type":"Feature","geometry":{"type":"Point","coordinates":[-80.563742,39.825936]}},{"properties":{"city":"EBENSBURG","zip":"15931","f&b":34039,"geo_score":0.816,"storeno":430,"street":"4375 ADMIRAL PEARY HIGHWAY","id":"a6ep3faetufp","geo_precision":"range","state":"PA"},"type":"Feature","geometry":{"type":"Point","coordinates":[-78.756131,40.468604]}},{"properties":{"city":"NORTH CANTON","zip":"44720","f&b":29117,"geo_score":0.38,"storeno":431,"street":"1415 PITTSBURG AVENUE, NW","id":"a6ep3f7y3w7a","geo_precision":"street","state":"OH"},"type":"Feature","geometry":{"type":"Point","coordinates":[-81.417462,40.883142]}},{"properties":{"city":"JAMESTOWN","zip":"27282","f&b":21985,"geo_score":0.508,"storeno":432,"street":"1001 GARDNER HILL DR","id":"a6ep3f9sk0fv","geo_precision":"street","state":"NC"},"type":"Feature","geometry":{"type":"Point","coordinates":[-79.9229,36.028758]}},{"properties":{"city":"HURRICANE","zip":"25526","f&b":31077,"geo_score":0.417,"storeno":433,"street":"104 St. Rt. 19","id":"a6ep3f59a545","geo_precision":"street","state":"WV"},"type":"Feature","geometry":{"type":"Point","coordinates":[-81.987716,38.445985]}},{"properties":{"city":"BERWICK","zip":"18603","f&b":28180,"geo_score":0.834,"storeno":434,"street":"2100 WEST FRONT STREET","id":"a6ep3f1izype","geo_precision":"range","state":"PA"},"type":"Feature","geometry":{"type":"Point","coordinates":[-76.270709,41.04736]}},{"properties":{"city":"CHARDON","zip":"44024","f&b":20045,"geo_score":0.847,"storeno":435,"street":"435 WATER STREET","id":"a6ep3f6g2fwf","geo_precision":"range","state":"OH"},"type":"Feature","geometry":{"type":"Point","coordinates":[-81.209854,41.580899]}},{"properties":{"city":"MT JACKSON","zip":"22842","f&b":38301,"geo_score":0.807,"storeno":701,"street":"227 CONICVILLE BLVD","id":"a6ep3f4ga7az","geo_precision":"range","state":"VA"},"type":"Feature","geometry":{"type":"Point","coordinates":[-78.68706,38.829419]}}],"is_temporal":false,"author":{"url":null,"metadata":null,"contact_name":null,"contact_address":null,"source":null,"contact_phone":null},"source":null,"pagination":{"sort":null,"start":0,"total":368,"limit":1000000},"state":"complete","tags":"","published":"2014-08-12T22:07:46-04:00","id":130783}