{"type":"FeatureCollection","data_type":"Dataset","url_type":null,"permissions":[{"permissions":{"download":true,"view":true},"group_id":"everyone"}],"classification":null,"title":"Branch ClassC","count":27,"stream_id":131129,"contributor":{"url":"http://geocommons.com/users/21850","name":"kellerj3"},"data_attributes":null,"calculation_params":null,"icon_link":null,"link":"http://geocommons.com/overlays/131129.json","extent":[-122.804,27.9475,-73.6018,47.6062],"geometry_types":["point"],"unique_name":null,"name":"Branch ClassC","feature_count":27,"description":"","next_feature":null,"is_raster":false,"short_classification":"Y","stats":{},"features":[{"properties":{"city":"GRAND RAPIDS","zip":"49512","class":"C","geo_score":0.857,"id":"a6i0kvjgf4yh","geo_precision":"city","state":"MI"},"type":"Feature","geometry":{"type":"Point","coordinates":[-85.668086,42.96336]}},{"properties":{"city":"SEATTLE","zip":"98168","class":"C","geo_score":0.857,"id":"a6i0kvomcci0","geo_precision":"city","state":"WA"},"type":"Feature","geometry":{"type":"Point","coordinates":[-122.332071,47.60621]}},{"properties":{"city":"LAS VEGAS","zip":"89120","class":"C","geo_score":0.857,"id":"a6i0kvrblpax","geo_precision":"city","state":"NV"},"type":"Feature","geometry":{"type":"Point","coordinates":[-115.137223,36.174971]}},{"properties":{"city":"CHARLOTTE","zip":"28269","class":"C","geo_score":0.857,"id":"a6i0kvfsathz","geo_precision":"city","state":"NC"},"type":"Feature","geometry":{"type":"Point","coordinates":[-80.843127,35.227087]}},{"properties":{"city":"BOISE","zip":"83704","class":"C","geo_score":0.857,"id":"a6i0kvspikdz","geo_precision":"city","state":"ID"},"type":"Feature","geometry":{"type":"Point","coordinates":[-116.203451,43.6135]}},{"properties":{"city":"DECATUR","zip":"62526","class":"C","geo_score":0.857,"id":"a6i0kvuo5eej","geo_precision":"city","state":"IL"},"type":"Feature","geometry":{"type":"Point","coordinates":[-88.946486,39.839477]}},{"properties":{"city":"LYNN HAVEN","zip":"32444","class":"C","geo_score":0.762,"id":"a6i0kvh5c62o","geo_precision":"city","state":"FL"},"type":"Feature","geometry":{"type":"Point","coordinates":[-86.024938,30.908517]}},{"properties":{"city":"ROANOKE","zip":"24012","class":"C","geo_score":0.857,"id":"a6i0kvkkvw2v","geo_precision":"city","state":"VA"},"type":"Feature","geometry":{"type":"Point","coordinates":[-79.941427,37.27097]}},{"properties":{"city":"LAKE MARY","zip":"32746","class":"C","geo_score":0.857,"id":"a6i0kvi1iz23","geo_precision":"city","state":"FL"},"type":"Feature","geometry":{"type":"Point","coordinates":[-81.350772,28.7577]}},{"properties":{"city":"BILLINGS","zip":"59101","class":"C","geo_score":0.857,"id":"a6i0kvkb8b16","geo_precision":"city","state":"MT"},"type":"Feature","geometry":{"type":"Point","coordinates":[-108.50069,45.783286]}},{"properties":{"city":"LOUISVILLE","zip":"40299","class":"C","geo_score":0.857,"id":"a6i0kvuj9ip1","geo_precision":"city","state":"KY"},"type":"Feature","geometry":{"type":"Point","coordinates":[-85.759407,38.254238]}},{"properties":{"city":"SCHAUMBURG","zip":"60173","class":"C","geo_score":0.857,"id":"a6i0kvkboh3n","geo_precision":"city","state":"IL"},"type":"Feature","geometry":{"type":"Point","coordinates":[-88.083959,42.030261]}},{"properties":{"city":"MARIETTA","zip":"30062","class":"C","geo_score":0.857,"id":"a6i0kvq8yp2k","geo_precision":"city","state":"GA"},"type":"Feature","geometry":{"type":"Point","coordinates":[-84.549933,33.952602]}},{"properties":{"city":"NASHVILLE","zip":"37214","class":"C","geo_score":0.857,"id":"a6i0kvnleops","geo_precision":"city","state":"TN"},"type":"Feature","geometry":{"type":"Point","coordinates":[-86.784443,36.16589]}},{"properties":{"city":"URBANDALE","zip":"50322","class":"C","geo_score":0.857,"id":"a6i0kvg7d6hj","geo_precision":"city","state":"IA"},"type":"Feature","geometry":{"type":"Point","coordinates":[-93.753628,41.630449]}},{"properties":{"city":"ALBUQUERQUE","zip":"87113","class":"C","geo_score":0.857,"id":"a6i0kvj7lwi7","geo_precision":"city","state":"NM"},"type":"Feature","geometry":{"type":"Point","coordinates":[-106.651137,35.084491]}},{"properties":{"city":"SYRACUSE","zip":"13205","class":"C","geo_score":0.857,"id":"a6i0kvvygm9o","geo_precision":"city","state":"NY"},"type":"Feature","geometry":{"type":"Point","coordinates":[-76.147424,43.048122]}},{"properties":{"city":"SCOTT DEPOT","zip":"25560","class":"C","geo_score":0.857,"id":"a6i0kvioanic","geo_precision":"city","state":"WV"},"type":"Feature","geometry":{"type":"Point","coordinates":[-81.896554,38.450355]}},{"properties":{"city":"TAMPA","zip":"33614","class":"C","geo_score":0.857,"id":"a6i0kvpovhpq","geo_precision":"city","state":"FL"},"type":"Feature","geometry":{"type":"Point","coordinates":[-82.458428,27.947522]}},{"properties":{"city":"BEAVERTON","zip":"97008","class":"C","geo_score":0.857,"id":"a6i0kvveirx0","geo_precision":"city","state":"OR"},"type":"Feature","geometry":{"type":"Point","coordinates":[-122.80371,45.487062]}},{"properties":{"city":"SCHNECKSVILLE","zip":"18078","class":"C","geo_score":0.769,"id":"a6i0kvnscv22","geo_precision":"city","state":"PA"},"type":"Feature","geometry":{"type":"Point","coordinates":[-76.174115,40.241481]}},{"properties":{"city":"PLAINVIEW","zip":"11803","class":"C","geo_score":0.857,"id":"a6i0kvsfh275","geo_precision":"city","state":"NY"},"type":"Feature","geometry":{"type":"Point","coordinates":[-73.601772,40.754757]}},{"properties":{"city":"BROOKFIELD","zip":"53045","class":"C","geo_score":0.857,"id":"a6i0kvhdfny7","geo_precision":"city","state":"WI"},"type":"Feature","geometry":{"type":"Point","coordinates":[-88.105906,43.062707]}},{"properties":{"city":"E WINDSOR","zip":"08520","class":"C","geo_score":0.839,"id":"a6i0kvjwodhe","geo_precision":"city","state":"NJ"},"type":"Feature","geometry":{"type":"Point","coordinates":[-74.578709,40.242313]}},{"properties":{"city":"JACKSONVILLE","zip":"32216","class":"C","geo_score":0.857,"id":"a6i0kvjz5hl6","geo_precision":"city","state":"FL"},"type":"Feature","geometry":{"type":"Point","coordinates":[-81.655651,30.332184]}},{"properties":{"city":"NEW BRIGHTON","zip":"55112","class":"C","geo_score":0.74,"id":"a6i0kvvqftb7","geo_precision":"city","state":"MN"},"type":"Feature","geometry":{"type":"Point","coordinates":[-93.410506,44.790519]}},{"properties":{"city":"RENO","zip":"89431","class":"C","geo_score":0.857,"id":"a6i0kviahmjk","geo_precision":"city","state":"NV"},"type":"Feature","geometry":{"type":"Point","coordinates":[-119.813803,39.529633]}}],"is_temporal":false,"author":{"url":"","metadata":"","contact_name":"","contact_address":"","source":"","contact_phone":""},"source":"","pagination":{"sort":null,"start":0,"total":27,"limit":1000000},"state":"complete","tags":"","published":"2014-08-12T22:33:08-04:00","id":131129}