{"type":"FeatureCollection","data_type":"Dataset","url_type":null,"permissions":[{"permissions":{"download":true,"view":true},"group_id":"everyone"}],"classification":null,"title":"Rent Bank Centres WGS84","count":9,"stream_id":132133,"contributor":{"url":"http://geocommons.com/users/29292","name":"wolfewylie"},"data_attributes":null,"calculation_params":null,"icon_link":null,"link":"http://geocommons.com/overlays/132133.json","extent":[-79.589,43.6037,-79.268,43.7509],"geometry_types":["point"],"unique_name":null,"name":"Rent Bank Centres WGS84","feature_count":9,"description":"Locations of Toronto's rent bank centres.","next_feature":null,"is_raster":false,"short_classification":"Y","stats":{"X":{"max":-79.2679594355,"mean":-79.4163043241811,"variance":0.0112606208290762,"stdev":0.106116072435217,"min":-79.58897102285,"median":-79.36818932511},"Y":{"max":43.75094607548,"mean":43.6899123624156,"variance":0.00212463384063916,"stdev":0.0460937505594756,"min":43.60369227383,"median":43.68326575285}},"features":[{"properties":{"Address1":"1530 Albion Road, Suite 205","X":-79.58897102285,"Y":43.7410635871,"Phone":"416-741-1553","PostCode":"M9B 1V4","Shortname":"Albion North","id":"0","Agency":"Albion Neighbourhood Services","Toronto":"Toronto"},"type":"Feature","geometry":{"type":"Point","coordinates":[-79.5889710228474,43.7410635871018]}},{"properties":{"Address1":"185 Fifth Street East","X":-79.50403437631,"Y":43.60369227383,"Phone":"416-252-6471","PostCode":"M8V 2Z5","Shortname":"Albion South","id":"1","Agency":"Albion Neighbourhood Services","Toronto":"Toronto"},"type":"Feature","geometry":{"type":"Point","coordinates":[-79.5040343763072,43.6036922738319]}},{"properties":{"Address1":"North Sheridan Mall, 1700 Wilson Avenue, Suite 114","X":-79.51306041442,"Y":43.72000579074,"Phone":"416-244-0480","PostCode":"M3L 1B2","Shortname":"COSTI","id":"2","Agency":"COSTI North York Housing Help","Toronto":"Toronto"},"type":"Feature","geometry":{"type":"Point","coordinates":[-79.5130604144245,43.7200057907444]}},{"properties":{"Address1":"269 Gerrard Street East","X":-79.36818932511,"Y":43.66212134872,"Phone":"416-924-2543","PostCode":"M5A 2G3","Shortname":"NIP","id":"3","Agency":"Neighbourhood Information Post","Toronto":"Toronto"},"type":"Feature","geometry":{"type":"Point","coordinates":[-79.3681893251106,43.6621213487212]}},{"properties":{"Address1":"2500 Lawrence Avenue East, Unit 204","X":-79.2679594355,"Y":43.75094607548,"Phone":"416-285-8070","PostCode":"M1P 2R7","Shortname":"Scarborough","id":"4","Agency":"Scarborough Housing Help Centre","Toronto":"Toronto"},"type":"Feature","geometry":{"type":"Point","coordinates":[-79.2679594355008,43.7509460754797]}},{"properties":{"Address1":"1651 Keele Street","X":-79.47207776482,"Y":43.68326575285,"Phone":"416-653-5400","PostCode":"M6M 3W2","Shortname":"Unison","id":"5","Agency":"Unison Health &amp; Community Services","Toronto":"Toronto"},"type":"Feature","geometry":{"type":"Point","coordinates":[-79.4720777648205,43.6832657528499]}},{"properties":{"Address1":"10 Gateway Blvd","X":-79.33430215295,"Y":43.71003045874,"Phone":"416-424-2900","PostCode":"M3C 3A1","Shortname":"Flemingdon","id":"6","Agency":"Flemingdon Neighbourhood Services","Toronto":"Toronto"},"type":"Feature","geometry":{"type":"Point","coordinates":[-79.3343021529478,43.7100304587409]}},{"properties":{"Address1":"71 Gough Ave","X":-79.34622008506,"Y":43.67961827424,"Phone":"416-698-9306","PostCode":"M4K 3N9","Shortname":"EYET","id":"7","Agency":"East York Housing Help","Toronto":"Toronto"},"type":"Feature","geometry":{"type":"Point","coordinates":[-79.3462200850589,43.6796182742433]}},{"properties":{"Address1":"850 Queen Street East","X":-79.35192434061,"Y":43.65846770004,"Phone":"416-645-6000","PostCode":"M4M 1G5","Shortname":"WoodGreen","id":"8","Agency":"WoodGreen Community Services","Toronto":"Toronto"},"type":"Feature","geometry":{"type":"Point","coordinates":[-79.3519243406086,43.6584677000385]}}],"is_temporal":false,"author":{"url":"","metadata":"","contact_name":"","contact_address":"","source":"","contact_phone":""},"source":"","pagination":{"sort":null,"start":0,"total":9,"limit":1000000},"state":"complete","tags":"bank,rent,toronto","published":"2014-08-12T23:49:01-04:00","id":132133}