{"type":"FeatureCollection","data_type":"Dataset","url_type":null,"permissions":[{"permissions":{"download":true,"view":true},"group_id":"everyone"}],"classification":null,"title":"11 0713 PAM SalesData","count":65,"stream_id":134766,"contributor":{"url":"http://geocommons.com/users/28248","name":"tommynauw"},"data_attributes":null,"calculation_params":null,"icon_link":null,"link":"http://geocommons.com/overlays/134766.json","extent":[-158.048,19.7303,-68.1914,62.2573],"geometry_types":["point"],"unique_name":null,"name":"11 0713 PAM SalesData","feature_count":65,"description":"","next_feature":null,"is_raster":false,"short_classification":"Y","stats":{},"features":[{"properties":{"city":"Kailua","zip":"96734","geo_score":0.796,"id":"a68qij6cnejk","geo_precision":"city","state":"HI"},"type":"Feature","geometry":{"type":"Point","coordinates":[-157.948056,21.384722]}},{"properties":{"city":"Honolulu","zip":"96822","geo_score":0.857,"id":"a68qij4n0ay8","geo_precision":"city","state":"HI"},"type":"Feature","geometry":{"type":"Point","coordinates":[-157.858333,21.306944]}},{"properties":{"city":"Newport Coast","zip":"92657","geo_score":0.738,"id":"a68qiizpb2bd","geo_precision":"city","state":"CA"},"type":"Feature","geometry":{"type":"Point","coordinates":[-115.967051,34.839964]}},{"properties":{"city":"Poland","zip":"04274","geo_score":0.857,"id":"a68qij642h7t","geo_precision":"city","state":"ME"},"type":"Feature","geometry":{"type":"Point","coordinates":[-70.393668,44.060628]}},{"properties":{"city":"Hauula","zip":"96717","geo_score":0.786,"id":"a68qij633ek5","geo_precision":"city","state":"HI"},"type":"Feature","geometry":{"type":"Point","coordinates":[-156.2275,20.908333]}},{"properties":{"city":"Aberdeen","zip":"07747","geo_score":0.0,"id":"a68qiizzkc6r","geo_precision":"unmatched","state":"NJ"},"type":"Feature","geometry":null},{"properties":{"city":"Eatonville","zip":"98328","geo_score":0.857,"id":"a68qij2dix86","geo_precision":"city","state":"WA"},"type":"Feature","geometry":{"type":"Point","coordinates":[-122.30141,46.904844]}},{"properties":{"city":"Flower Mound","zip":"75028","geo_score":0.727,"id":"a68qiix65c4h","geo_precision":"city","state":"TX"},"type":"Feature","geometry":{"type":"Point","coordinates":[-95.986901,29.150808]}},{"properties":{"city":"Homeland","zip":"92548","geo_score":0.841,"id":"a68qij6goswc","geo_precision":"city","state":"CA"},"type":"Feature","geometry":{"type":"Point","coordinates":[-116.972526,32.741719]}},{"properties":{"city":"Honolulu","zip":"96825","geo_score":0.857,"id":"a68qiisdw5an","geo_precision":"city","state":"HI"},"type":"Feature","geometry":{"type":"Point","coordinates":[-157.858333,21.306944]}},{"properties":{"city":"Fremont","zip":"94539","geo_score":0.857,"id":"a68qiiv9njwp","geo_precision":"city","state":"CA"},"type":"Feature","geometry":{"type":"Point","coordinates":[-121.988572,37.54827]}},{"properties":{"city":"Fort Worth","zip":"76244","geo_score":0.746,"id":"a68qiiz3q3oa","geo_precision":"city","state":"TX"},"type":"Feature","geometry":{"type":"Point","coordinates":[-95.262161,31.108239]}},{"properties":{"city":"Elmendorf","zip":"78112","geo_score":0.778,"id":"a68qij2wv6hq","geo_precision":"city","state":"TX"},"type":"Feature","geometry":{"type":"Point","coordinates":[-96.637769,33.422889]}},{"properties":{"city":"Kaneohe","zip":"96744","geo_score":0.857,"id":"a68qij4blark","geo_precision":"city","state":"HI"},"type":"Feature","geometry":{"type":"Point","coordinates":[-157.93955,21.66875]}},{"properties":{"city":"Wahiawa","zip":"96786","geo_score":0.857,"id":"a68qiiusl9ep","geo_precision":"city","state":"HI"},"type":"Feature","geometry":{"type":"Point","coordinates":[-158.047735,21.5324]}},{"properties":{"city":"Goleta","zip":"93117","geo_score":0.738,"id":"a68qiixupdqo","geo_precision":"city","state":"CA"},"type":"Feature","geometry":{"type":"Point","coordinates":[-122.029407,38.025476]}},{"properties":{"city":"Huntington Beach","zip":"92647","geo_score":0.857,"id":"a68qiizlhcg8","geo_precision":"city","state":"CA"},"type":"Feature","geometry":{"type":"Point","coordinates":[-117.999227,33.660297]}},{"properties":{"city":"Honolulu","zip":"96818","geo_score":0.857,"id":"a68qij4rtfv0","geo_precision":"city","state":"HI"},"type":"Feature","geometry":{"type":"Point","coordinates":[-157.858333,21.306944]}},{"properties":{"city":"Honolulu","zip":"96825","geo_score":0.857,"id":"a68qiixsvzyy","geo_precision":"city","state":"HI"},"type":"Feature","geometry":{"type":"Point","coordinates":[-157.858333,21.306944]}},{"properties":{"city":"San Diego","zip":"92131","geo_score":0.857,"id":"a68qij5kowxe","geo_precision":"city","state":"CA"},"type":"Feature","geometry":{"type":"Point","coordinates":[-117.157255,32.715329]}},{"properties":{"city":"Wawona","zip":"95389","geo_score":0.857,"id":"a68qiiv7s53k","geo_precision":"city","state":"CA"},"type":"Feature","geometry":{"type":"Point","coordinates":[-119.656268,37.53688]}},{"properties":{"city":"New Hyde Park","zip":"11040","geo_score":0.818,"id":"a68qij869few","geo_precision":"city","state":"NY"},"type":"Feature","geometry":{"type":"Point","coordinates":[-74.957934,42.660909]}},{"properties":{"city":"New York","zip":"10065","geo_score":0.857,"id":"a68qiiygdlap","geo_precision":"city","state":"NY"},"type":"Feature","geometry":{"type":"Point","coordinates":[-74.005973,40.714269]}},{"properties":{"city":"Chicago","zip":"60601","geo_score":0.857,"id":"a68qiixig461","geo_precision":"city","state":"IL"},"type":"Feature","geometry":{"type":"Point","coordinates":[-87.650052,41.850033]}},{"properties":{"city":"Aspen","zip":"81612","geo_score":0.857,"id":"a68qiis2833d","geo_precision":"city","state":"CO"},"type":"Feature","geometry":{"type":"Point","coordinates":[-106.776744,39.169324]}},{"properties":{"city":"Aiea","zip":"96701","geo_score":0.857,"id":"a68qiizl6gq5","geo_precision":"city","state":"HI"},"type":"Feature","geometry":{"type":"Point","coordinates":[-157.927829,21.39065]}},{"properties":{"city":"Alpharetta","zip":"30004","geo_score":0.757,"id":"a68qij1y82ef","geo_precision":"city","state":"GA"},"type":"Feature","geometry":{"type":"Point","coordinates":[-83.92379,31.462401]}},{"properties":{"city":"Honolulu","zip":"96821","geo_score":0.857,"id":"a68qiiw99wom","geo_precision":"city","state":"HI"},"type":"Feature","geometry":{"type":"Point","coordinates":[-157.858333,21.306944]}},{"properties":{"city":"hONOLULU","zip":"96814","geo_score":0.857,"id":"a68qiiy207bm","geo_precision":"city","state":"HI"},"type":"Feature","geometry":{"type":"Point","coordinates":[-157.858333,21.306944]}},{"properties":{"city":"Waipahu","zip":"96797","geo_score":0.857,"id":"a68qij4s2o4j","geo_precision":"city","state":"HI"},"type":"Feature","geometry":{"type":"Point","coordinates":[-158.015151,21.399548]}},{"properties":{"city":"Palmer","zip":"99645","geo_score":0.857,"id":"a68qij454ux1","geo_precision":"city","state":"AK"},"type":"Feature","geometry":{"type":"Point","coordinates":[-149.633916,62.257284]}},{"properties":{"city":"Los Angeles","zip":"90039","geo_score":0.857,"id":"a68qiiwer37a","geo_precision":"city","state":"CA"},"type":"Feature","geometry":{"type":"Point","coordinates":[-118.243685,34.052234]}},{"properties":{"city":"Honolulu","zip":"96816","geo_score":0.857,"id":"a68qiisdup3x","geo_precision":"city","state":"HI"},"type":"Feature","geometry":{"type":"Point","coordinates":[-157.858333,21.306944]}},{"properties":{"city":"Centreville","zip":"20120","geo_score":0.812,"id":"a68qij0qthl8","geo_precision":"city","state":"VA"},"type":"Feature","geometry":{"type":"Point","coordinates":[-77.414988,38.843724]}},{"properties":{"city":"Chesapeake","zip":"23322","geo_score":0.857,"id":"a68qiisfnqnc","geo_precision":"city","state":"VA"},"type":"Feature","geometry":{"type":"Point","coordinates":[-76.218759,36.749991]}},{"properties":{"city":"Sorrento","zip":"04677","geo_score":0.857,"id":"a68qiivegtdk","geo_precision":"city","state":"ME"},"type":"Feature","geometry":{"type":"Point","coordinates":[-68.19137,44.491175]}},{"properties":{"city":"Kekaha","zip":"96752","geo_score":0.821,"id":"a68qiiv51cy8","geo_precision":"city","state":"HI"},"type":"Feature","geometry":{"type":"Point","coordinates":[-155.046389,19.730278]}},{"properties":{"city":"Shawnee","zip":"66218","geo_score":0.857,"id":"a68qij06o4h8","geo_precision":"city","state":"KS"},"type":"Feature","geometry":{"type":"Point","coordinates":[-94.720238,39.041672]}},{"properties":{"city":"Honolulu","zip":"96825","geo_score":0.857,"id":"a68qiiyo20k0","geo_precision":"city","state":"HI"},"type":"Feature","geometry":{"type":"Point","coordinates":[-157.858333,21.306944]}},{"properties":{"city":"Honolulu","zip":"96814","geo_score":0.857,"id":"a68qiizovk3b","geo_precision":"city","state":"HI"},"type":"Feature","geometry":{"type":"Point","coordinates":[-157.858333,21.306944]}},{"properties":{"city":"Houston","zip":"77084","geo_score":0.816,"id":"a68qiirxnfdq","geo_precision":"city","state":"TX"},"type":"Feature","geometry":{"type":"Point","coordinates":[-96.919704,29.845783]}},{"properties":{"city":"ramona","zip":"92065","geo_score":0.857,"id":"a68qiiu2735w","geo_precision":"city","state":"CA"},"type":"Feature","geometry":{"type":"Point","coordinates":[-116.976549,33.031572]}},{"properties":{"city":"Honolulu","zip":"96816","geo_score":0.857,"id":"a68qij05lcm5","geo_precision":"city","state":"HI"},"type":"Feature","geometry":{"type":"Point","coordinates":[-157.858333,21.306944]}},{"properties":{"city":"Brea","zip":"92821","geo_score":0.786,"id":"a68qiis6rwju","geo_precision":"city","state":"CA"},"type":"Feature","geometry":{"type":"Point","coordinates":[-121.970838,41.644041]}},{"properties":{"city":"Kailua","zip":"96734","geo_score":0.796,"id":"a68qiiye048v","geo_precision":"city","state":"HI"},"type":"Feature","geometry":{"type":"Point","coordinates":[-157.948056,21.384722]}},{"properties":{"city":"Honolulu","zip":"96813","geo_score":0.857,"id":"a68qij61dinv","geo_precision":"city","state":"HI"},"type":"Feature","geometry":{"type":"Point","coordinates":[-157.858333,21.306944]}},{"properties":{"city":"North Woodmere","zip":"11581","geo_score":0.857,"id":"a68qij3jh55z","geo_precision":"city","state":"NY"},"type":"Feature","geometry":{"type":"Point","coordinates":[-73.724021,40.650104]}},{"properties":{"city":"Palatine","zip":"60067","geo_score":0.786,"id":"a68qiiwi4zj9","geo_precision":"city","state":"IL"},"type":"Feature","geometry":{"type":"Point","coordinates":[-88.803953,37.763938]}},{"properties":{"city":"Makawao","zip":"96768","geo_score":0.857,"id":"a68qiis2f7ms","geo_precision":"city","state":"HI"},"type":"Feature","geometry":{"type":"Point","coordinates":[-156.320242,20.832664]}},{"properties":{"city":"Honolulu","zip":"96825","geo_score":0.857,"id":"a68qij0kzl72","geo_precision":"city","state":"HI"},"type":"Feature","geometry":{"type":"Point","coordinates":[-157.858333,21.306944]}},{"properties":{"city":"Honolulu","zip":"96822","geo_score":0.857,"id":"a68qij0oefmf","geo_precision":"city","state":"HI"},"type":"Feature","geometry":{"type":"Point","coordinates":[-157.858333,21.306944]}},{"properties":{"city":"Dublin","zip":"43017","geo_score":0.857,"id":"a68qij5s6udd","geo_precision":"city","state":"OH"},"type":"Feature","geometry":{"type":"Point","coordinates":[-83.011389,39.969036]}},{"properties":{"city":"Honolulu","zip":"96819","geo_score":0.857,"id":"a68qiixcrdnp","geo_precision":"city","state":"HI"},"type":"Feature","geometry":{"type":"Point","coordinates":[-157.858333,21.306944]}},{"properties":{"city":"Enumclaw","zip":"98022","geo_score":0.857,"id":"a68qiive0dbm","geo_precision":"city","state":"WA"},"type":"Feature","geometry":{"type":"Point","coordinates":[-121.903936,47.234107]}},{"properties":{"city":"Reno","zip":"89506","geo_score":0.857,"id":"a68qij8cn19q","geo_precision":"city","state":"NV"},"type":"Feature","geometry":{"type":"Point","coordinates":[-119.813803,39.529633]}},{"properties":{"city":"Pearcy","zip":"71964","geo_score":0.762,"id":"a68qiiymw2fr","geo_precision":"city","state":"AR"},"type":"Feature","geometry":{"type":"Point","coordinates":[-92.933507,34.46259]}},{"properties":{"city":"Honolulu","zip":"96815","geo_score":0.857,"id":"a68qiizq9eph","geo_precision":"city","state":"HI"},"type":"Feature","geometry":{"type":"Point","coordinates":[-157.858333,21.306944]}},{"properties":{"city":"Bakersfield","zip":"93309","geo_score":0.857,"id":"a68qiis2xwej","geo_precision":"city","state":"CA"},"type":"Feature","geometry":{"type":"Point","coordinates":[-119.018713,35.373292]}},{"properties":{"city":"Ukiah","zip":"95482","geo_score":0.857,"id":"a68qij6pvvwv","geo_precision":"city","state":"CA"},"type":"Feature","geometry":{"type":"Point","coordinates":[-123.321202,39.403699]}},{"properties":{"city":"The Colony","zip":"75056","geo_score":0.778,"id":"a68qiit6v61v","geo_precision":"city","state":"TX"},"type":"Feature","geometry":{"type":"Point","coordinates":[-97.181657,28.705548]}},{"properties":{"city":"Louisville","zip":"40245","geo_score":0.857,"id":"a68qiixdkbc2","geo_precision":"city","state":"KY"},"type":"Feature","geometry":{"type":"Point","coordinates":[-85.759407,38.254238]}},{"properties":{"city":"Kaneohe","zip":"96744","geo_score":0.857,"id":"a68qij0dw0ic","geo_precision":"city","state":"HI"},"type":"Feature","geometry":{"type":"Point","coordinates":[-157.93955,21.66875]}},{"properties":{"city":"Mililani","zip":"96789","geo_score":0.0,"id":"a68qiitljjg8","geo_precision":"unmatched","state":"HI"},"type":"Feature","geometry":null},{"properties":{"city":"Mililani","zip":"96789","geo_score":0.0,"id":"a68qij5bhlty","geo_precision":"unmatched","state":"HI"},"type":"Feature","geometry":null},{"properties":{"city":"Ewa Beach","zip":"96706","geo_score":0.768,"id":"a68qij299jfu","geo_precision":"city","state":"HI"},"type":"Feature","geometry":{"type":"Point","coordinates":[-158.040278,21.3425]}}],"is_temporal":false,"author":{"url":"","metadata":"","contact_name":"","contact_address":"","source":"","contact_phone":""},"source":"","pagination":{"sort":null,"start":0,"total":65,"limit":1000000},"state":"complete","tags":"","published":"2014-08-13T03:21:56-04:00","id":134766}