{"type":"FeatureCollection","data_type":"Dataset","url_type":null,"permissions":[{"permissions":{"download":true,"view":true},"group_id":"everyone"}],"classification":null,"title":"Michelle Stickley Caseload for Map","count":238,"stream_id":135565,"contributor":{"url":"http://geocommons.com/users/30001","name":"acdmaps"},"data_attributes":null,"calculation_params":null,"icon_link":null,"link":"http://geocommons.com/overlays/135565.json","extent":[-83.9002,42.526,-82.4288,43.811],"geometry_types":["point"],"unique_name":null,"name":"Michelle Stickley Caseload for Map","feature_count":238,"description":"","next_feature":null,"is_raster":false,"short_classification":"Y","stats":{},"features":[{"properties":{"cityname":"Lapeer","name":"Stickley,Michelle(90)","statecode":"MI","zipcode":"48446","geo_score":0.86,"caseload":"Monitor","addressline":"2451 Tomahawk","id":"a64u6fakmua4","geo_precision":"range"},"type":"Feature","geometry":{"type":"Point","coordinates":[-83.437655,43.097708]}},{"properties":{"cityname":"Utica","name":"000034Diane Pullman","statecode":"MI","zipcode":"48317","geo_score":0.927,"caseload":"Provider","addressline":"45724 Joseph","id":"a64u6f9zyon4","geo_precision":"range"},"type":"Feature","geometry":{"type":"Point","coordinates":[-83.082948,42.629697]}},{"properties":{"cityname":"Flint","name":"000198Debra Wood","statecode":"MI","zipcode":"48504","geo_score":0.902,"caseload":"Provider","addressline":"3802 Kellar","id":"a64u6f1xoze2","geo_precision":"range"},"type":"Feature","geometry":{"type":"Point","coordinates":[-83.729686,43.049035]}},{"properties":{"cityname":"Flint","name":"000324Twila Roesner","statecode":"MI","zipcode":"48506","geo_score":1.0,"caseload":"Provider","addressline":"3477 Blue Lake Dr.","id":"a64u6fcl94d2","geo_precision":"range"},"type":"Feature","geometry":{"type":"Point","coordinates":[-83.621205,43.060683]}},{"properties":{"cityname":"Mt Morris","name":"010095Pamela S Thomas","statecode":"MI","zipcode":"48458","geo_score":0.973,"caseload":"Provider","addressline":"1115 Collins Ave","id":"a64u6fargkf9","geo_precision":"range"},"type":"Feature","geometry":{"type":"Point","coordinates":[-83.697505,43.111845]}},{"properties":{"cityname":"Port Huron Township","name":"010105Sharon &amp; Michael Pool","statecode":"MI","zipcode":"48060","geo_score":0.914,"caseload":"Provider","addressline":"2502 Yeager Street","id":"a64u6f3lxkgx","geo_precision":"range"},"type":"Feature","geometry":{"type":"Point","coordinates":[-82.458295,42.986598]}},{"properties":{"cityname":"Lake Orion","name":"010349Vicky Grocki","statecode":"MI","zipcode":"48360","geo_score":0.957,"caseload":"Provider","addressline":"2114 Huntington Dr","id":"a64u6fegv1ql","geo_precision":"range"},"type":"Feature","geometry":{"type":"Point","coordinates":[-83.239544,42.749534]}},{"properties":{"cityname":"Rochester Hls","name":"010427Evie Roguske","statecode":"MI","zipcode":"48309","geo_score":0.976,"caseload":"Provider","addressline":"257 Rose Brier Dr","id":"a64u6f8w1uua","geo_precision":"range"},"type":"Feature","geometry":{"type":"Point","coordinates":[-83.21172,42.684952]}},{"properties":{"cityname":"Imlay City","name":"010522Kathleen Guerrero","statecode":"MI","zipcode":"48444","geo_score":0.537,"caseload":"Provider","addressline":"790 Maple Vista","id":"a64u6f0xftau","geo_precision":"street"},"type":"Feature","geometry":{"type":"Point","coordinates":[-82.834171,43.408719]}},{"properties":{"cityname":"Flint","name":"020115Lisa Williams","statecode":"MI","zipcode":"48504","geo_score":0.932,"caseload":"Provider","addressline":"1256 Forest Hill","id":"a64u6f0ij4rm","geo_precision":"range"},"type":"Feature","geometry":{"type":"Point","coordinates":[-83.725279,43.025368]}},{"properties":{"cityname":"Flushing","name":"020477Lynn Stoutenburg","statecode":"MI","zipcode":"48433","geo_score":0.902,"caseload":"Provider","addressline":"9139 W Frances Rd","id":"a64u6f0b1inq","geo_precision":"range"},"type":"Feature","geometry":{"type":"Point","coordinates":[-83.856523,43.133237]}},{"properties":{"cityname":"Flint","name":"020535Jane Zitterkoph","statecode":"MI","zipcode":"48504","geo_score":1.0,"caseload":"Provider","addressline":"2518 Norbert St","id":"a64u6f87sweq","geo_precision":"range"},"type":"Feature","geometry":{"type":"Point","coordinates":[-83.726635,43.018219]}},{"properties":{"cityname":"Orion Twp","name":"030145Kelly Pendergrass","statecode":"MI","zipcode":"48360","geo_score":0.933,"caseload":"Provider","addressline":"2377 Chestnut Circle","id":"a64u6fg2khoa","geo_precision":"range"},"type":"Feature","geometry":{"type":"Point","coordinates":[-83.240229,42.749138]}},{"properties":{"cityname":"Davison","name":"030350Deanna OBrien","statecode":"MI","zipcode":"48423","geo_score":0.919,"caseload":"Provider","addressline":"210 N Davison St","id":"a64u6fbj2poj","geo_precision":"range"},"type":"Feature","geometry":{"type":"Point","coordinates":[-83.514996,43.03104]}},{"properties":{"cityname":"Fort Gratiot","name":"030467Joanne Vanbuskirk","statecode":"MI","zipcode":"48059","geo_score":0.858,"caseload":"Provider","addressline":"4915 Lakeshore","id":"a64u6f2z845k","geo_precision":"range"},"type":"Feature","geometry":{"type":"Point","coordinates":[-82.45297,43.051642]}},{"properties":{"cityname":"Flushing","name":"030545Kristy Schilling","statecode":"MI","zipcode":"48433","geo_score":0.902,"caseload":"Provider","addressline":"1201 Pleasantview Dr.","id":"a64u6fesps79","geo_precision":"range"},"type":"Feature","geometry":{"type":"Point","coordinates":[-83.828304,43.070119]}},{"properties":{"cityname":"Clio","name":"030595Christine Nobach","statecode":"MI","zipcode":"48420","geo_score":0.909,"caseload":"Provider","addressline":"12115 Belann Ct","id":"a64u6ffthhpo","geo_precision":"range"},"type":"Feature","geometry":{"type":"Point","coordinates":[-83.719043,43.180468]}},{"properties":{"cityname":"Flint","name":"040146Elaine Mcclain","statecode":"MI","zipcode":"48503","geo_score":0.917,"caseload":"Provider","addressline":"312 Welch Blvd","id":"a64u6fbka5rg","geo_precision":"range"},"type":"Feature","geometry":{"type":"Point","coordinates":[-83.706141,43.030923]}},{"properties":{"cityname":"Davison","name":"040176Laura Downing","statecode":"MI","zipcode":"48423","geo_score":0.919,"caseload":"Provider","addressline":"12060 E Potter Rd","id":"a64u6f3r28iw","geo_precision":"range"},"type":"Feature","geometry":{"type":"Point","coordinates":[-83.477812,43.04969]}},{"properties":{"cityname":"Lake Orion","name":"040264Dawn Bajis","statecode":"MI","zipcode":"48362","geo_score":0.947,"caseload":"Provider","addressline":"873 Pine Tree Road West","id":"a64u6fdx9irm","geo_precision":"range"},"type":"Feature","geometry":{"type":"Point","coordinates":[-83.262309,42.781927]}},{"properties":{"cityname":"Lake Orion","name":"040385Tamara Mancier","statecode":"MI","zipcode":"48362","geo_score":1.0,"caseload":"Provider","addressline":"425 Parkview Blvd","id":"a64u6f1269gp","geo_precision":"range"},"type":"Feature","geometry":{"type":"Point","coordinates":[-83.232787,42.770401]}},{"properties":{"cityname":"Lake Orion","name":"050261Ada Stone","statecode":"MI","zipcode":"48362","geo_score":1.0,"caseload":"Provider","addressline":"865 Wildbrook Lane","id":"a64u6f0zk1r1","geo_precision":"range"},"type":"Feature","geometry":{"type":"Point","coordinates":[-83.241294,42.795443]}},{"properties":{"cityname":"North Branch","name":"050297Diana Orr","statecode":"MI","zipcode":"48461","geo_score":0.902,"caseload":"Provider","addressline":"1526 N Branch Rd","id":"a64u6f9lvt45","geo_precision":"range"},"type":"Feature","geometry":{"type":"Point","coordinates":[-83.284228,43.227351]}},{"properties":{"cityname":"Flint Twp","name":"050315Michelle Berry","statecode":"MI","zipcode":"48532","geo_score":0.429,"caseload":"Provider","addressline":"4058 W. Court St.","id":"a64u6failmm3","geo_precision":"street"},"type":"Feature","geometry":{"type":"Point","coordinates":[-83.740436,43.006892]}},{"properties":{"cityname":"Shelby Twp","name":"050365Tiffany Parker","statecode":"MI","zipcode":"48315","geo_score":0.779,"caseload":"Provider","addressline":"14128 Lakeside Blvd N","id":"a64u6faf2lb8","geo_precision":"street"},"type":"Feature","geometry":{"type":"Point","coordinates":[-82.988222,42.630929]}},{"properties":{"cityname":"Grand Blanc","name":"050387Rachel Densmore","statecode":"MI","zipcode":"48439","geo_score":0.745,"caseload":"Provider","addressline":"4098 Maplewood Meadow","id":"a64u6f06gizu","geo_precision":"street"},"type":"Feature","geometry":{"type":"Point","coordinates":[-83.601577,42.969736]}},{"properties":{"cityname":"Otter Lake","name":"050436Sheila Smith","statecode":"MI","zipcode":"48464","geo_score":1.0,"caseload":"Provider","addressline":"4103 Otter Lake Rd","id":"a64u6f9vhmuq","geo_precision":"range"},"type":"Feature","geometry":{"type":"Point","coordinates":[-83.393947,43.217501]}},{"properties":{"cityname":"Flint","name":"050472Leah Jones","statecode":"MI","zipcode":"48505","geo_score":0.902,"caseload":"Provider","addressline":"1430 Lillian Dr","id":"a64u6f6ramsl","geo_precision":"range"},"type":"Feature","geometry":{"type":"Point","coordinates":[-83.721159,43.069202]}},{"properties":{"cityname":"Flint","name":"060021Angie Holmes","statecode":"MI","zipcode":"48505","geo_score":0.902,"caseload":"Provider","addressline":"5501 Baldwin Blvd","id":"a64u6ffydzif","geo_precision":"range"},"type":"Feature","geometry":{"type":"Point","coordinates":[-83.7161,43.06332]}},{"properties":{"cityname":"Lapeer","name":"060025Elaine Ludeman","statecode":"MI","zipcode":"48446","geo_score":0.919,"caseload":"Provider","addressline":"1562 N Saginaw St.","id":"a64u6f7fb4hk","geo_precision":"range"},"type":"Feature","geometry":{"type":"Point","coordinates":[-83.309811,43.068002]}},{"properties":{"cityname":"Fort Gratiot","name":"060066Suzanne Shovan","statecode":"MI","zipcode":"48059","geo_score":0.786,"caseload":"Provider","addressline":"3597 Krafft","id":"a64u6f87w17f","geo_precision":"range"},"type":"Feature","geometry":{"type":"Point","coordinates":[-82.478308,43.024451]}},{"properties":{"cityname":"Rochester Hills","name":"060155Jaime Dillon","statecode":"MI","zipcode":"48307","geo_score":0.965,"caseload":"Provider","addressline":"849 Grace Ave.","id":"a64u6faz3rop","geo_precision":"range"},"type":"Feature","geometry":{"type":"Point","coordinates":[-83.14687,42.624449]}},{"properties":{"cityname":"Brown City","name":"060167Marcy Wisniewski","statecode":"MI","zipcode":"48416","geo_score":0.935,"caseload":"Provider","addressline":"7105 Wilcox Rd.","id":"a64u6ffp26ln","geo_precision":"range"},"type":"Feature","geometry":{"type":"Point","coordinates":[-83.074551,43.196233]}},{"properties":{"cityname":"Burton","name":"060214Jennifer Craven","statecode":"MI","zipcode":"48509","geo_score":1.0,"caseload":"Provider","addressline":"1061 Pawnee Dr","id":"a64u6f25m9jt","geo_precision":"range"},"type":"Feature","geometry":{"type":"Point","coordinates":[-83.618646,43.020067]}},{"properties":{"cityname":"Davison","name":"070179Diane Delorge","statecode":"MI","zipcode":"48423","geo_score":0.865,"caseload":"Provider","addressline":"3493 North Washburn","id":"a64u6ffucbg0","geo_precision":"range"},"type":"Feature","geometry":{"type":"Point","coordinates":[-83.459064,43.06408]}},{"properties":{"cityname":"Burton","name":"070193April Alvarez","statecode":"MI","zipcode":"48509","geo_score":0.902,"caseload":"Provider","addressline":"6136 Hugh","id":"a64u6fg3hh0u","geo_precision":"range"},"type":"Feature","geometry":{"type":"Point","coordinates":[-83.590901,43.030045]}},{"properties":{"cityname":"Flint","name":"070203Debra Schroeder","statecode":"MI","zipcode":"48506","geo_score":0.571,"caseload":"Provider","addressline":"G3253 N. Center Rd.","id":"a64u6fejj184","geo_precision":"street"},"type":"Feature","geometry":{"type":"Point","coordinates":[-83.634991,43.02316]}},{"properties":{"cityname":"Burton","name":"070204Laura Hayes","statecode":"MI","zipcode":"48529","geo_score":0.604,"caseload":"Provider","addressline":"1122 E. Mandeville","id":"a64u6f5e7bd1","geo_precision":"street"},"type":"Feature","geometry":{"type":"Point","coordinates":[-83.692788,42.976057]}},{"properties":{"cityname":"North Branch","name":"070208Carrie Schlaud","statecode":"MI","zipcode":"48461","geo_score":0.876,"caseload":"Provider","addressline":"3522 Burnside Rd.","id":"a64u6f9h6ehq","geo_precision":"range"},"type":"Feature","geometry":{"type":"Point","coordinates":[-83.214202,43.20709]}},{"properties":{"cityname":"Flint","name":"080027Cheryl Sanders","statecode":"MI","zipcode":"48504","geo_score":1.0,"caseload":"Provider","addressline":"5107 Killian Ct.","id":"a64u6feip28w","geo_precision":"range"},"type":"Feature","geometry":{"type":"Point","coordinates":[-83.751206,43.078252]}},{"properties":{"cityname":"Flint","name":"080029Colleen Keith","statecode":"MI","zipcode":"48506","geo_score":0.61,"caseload":"Provider","addressline":"3308 N. Averill","id":"a64u6f05ij5x","geo_precision":"street"},"type":"Feature","geometry":{"type":"Point","coordinates":[-83.645192,43.027815]}},{"properties":{"cityname":"Flint","name":"080142Chandra Lanxton","statecode":"MI","zipcode":"48503","geo_score":0.852,"caseload":"Provider","addressline":"1221 Braney Ave.","id":"a64u6f5lldkd","geo_precision":"range"},"type":"Feature","geometry":{"type":"Point","coordinates":[-83.731229,43.001438]}},{"properties":{"cityname":"North Branch","name":"080163Kathy Curtis","statecode":"MI","zipcode":"48461","geo_score":0.902,"caseload":"Provider","addressline":"4255 Oak Grove Rd.","id":"a64u6f9jye4u","geo_precision":"range"},"type":"Feature","geometry":{"type":"Point","coordinates":[-83.183497,43.171728]}},{"properties":{"cityname":"Lake Orion","name":"080167Brenda McNamara","statecode":"MI","zipcode":"48360","geo_score":0.957,"caseload":"Provider","addressline":"2981 Yosemite Drive","id":"a64u6f1617nu","geo_precision":"range"},"type":"Feature","geometry":{"type":"Point","coordinates":[-83.309989,42.764328]}},{"properties":{"cityname":"Attica","name":"080184Melissa Hind","statecode":"MI","zipcode":"48412","geo_score":0.902,"caseload":"Provider","addressline":"3773 Payne Rd.","id":"a64u6fctmcx0","geo_precision":"range"},"type":"Feature","geometry":{"type":"Point","coordinates":[-83.194787,43.024465]}},{"properties":{"cityname":"Flushing","name":"090048Tammy Tomek","statecode":"MI","zipcode":"48433","geo_score":0.707,"caseload":"Provider","addressline":"3122 McKinley Rd.","id":"a64u6faqt1ut","geo_precision":"street"},"type":"Feature","geometry":{"type":"Point","coordinates":[-83.852888,43.074681]}},{"properties":{"cityname":"Marine City","name":"090063Selina Trafford","statecode":"MI","zipcode":"48039","geo_score":0.787,"caseload":"Provider","addressline":"218 Bell Ave.","id":"a64u6f9ungd1","geo_precision":"range"},"type":"Feature","geometry":{"type":"Point","coordinates":[-82.49946,42.71385]}},{"properties":{"cityname":"Imlay City","name":"090113Suzette Morgan","statecode":"MI","zipcode":"48444","geo_score":0.958,"caseload":"Provider","addressline":"5497 Hunters Creek","id":"a64u6fe1ihay","geo_precision":"range"},"type":"Feature","geometry":{"type":"Point","coordinates":[-83.127165,42.990007]}},{"properties":{"cityname":"St. Clair","name":"090129Michelle Cichocki","statecode":"MI","zipcode":"48079","geo_score":0.827,"caseload":"Provider","addressline":"950 Vine","id":"a64u6f6xipov","geo_precision":"range"},"type":"Feature","geometry":{"type":"Point","coordinates":[-82.493512,42.828303]}},{"properties":{"cityname":"Clarkston","name":"090197Kristi Chamberlain","statecode":"MI","zipcode":"48348","geo_score":0.927,"caseload":"Provider","addressline":"8969 North Eston","id":"a64u6ff2fdfi","geo_precision":"range"},"type":"Feature","geometry":{"type":"Point","coordinates":[-83.34174,42.770512]}},{"properties":{"cityname":"Flint","name":"090311Regina  Porter","statecode":"MI","zipcode":"48503","geo_score":0.486,"caseload":"Provider","addressline":"601 W. Hamilton","id":"a64u6faabuy4","geo_precision":"street"},"type":"Feature","geometry":{"type":"Point","coordinates":[-83.707737,43.036135]}},{"properties":{"cityname":"Grand Blanc","name":"090348Laura  Henderson","statecode":"MI","zipcode":"48439","geo_score":0.792,"caseload":"Provider","addressline":"6103 Sancturary Point Dr.","id":"a64u6fa72f0h","geo_precision":"range"},"type":"Feature","geometry":{"type":"Point","coordinates":[-83.577163,42.943325]}},{"properties":{"cityname":"Macomb Twp","name":"090357Melissa  Heck","statecode":"MI","zipcode":"48042","geo_score":0.522,"caseload":"Provider","addressline":"18777 English Ivy","id":"a64u6f45moyr","geo_precision":"street"},"type":"Feature","geometry":{"type":"Point","coordinates":[-83.097116,42.599447]}},{"properties":{"cityname":"St. Clair","name":"090462Diana  Craig","statecode":"MI","zipcode":"48079","geo_score":0.84,"caseload":"Provider","addressline":"417 Adams","id":"a64u6fafxldw","geo_precision":"range"},"type":"Feature","geometry":{"type":"Point","coordinates":[-82.488625,42.824761]}},{"properties":{"cityname":"Rochester","name":"090568Laura  Castillo","statecode":"MI","zipcode":"48307","geo_score":1.0,"caseload":"Provider","addressline":"376 Terry Ave","id":"a64u6f3rntlq","geo_precision":"range"},"type":"Feature","geometry":{"type":"Point","coordinates":[-83.129649,42.688756]}},{"properties":{"cityname":"Flint","name":"090569Florinda  Darrough","statecode":"MI","zipcode":"48504","geo_score":0.571,"caseload":"Provider","addressline":"3372 W. Lyndon","id":"a64u6f8c288o","geo_precision":"street"},"type":"Feature","geometry":{"type":"Point","coordinates":[-83.773772,43.042396]}},{"properties":{"cityname":"Lake Orion","name":"090578Nicola  Horn","statecode":"MI","zipcode":"48362","geo_score":1.0,"caseload":"Provider","addressline":"626 Sherry Drive","id":"a64u6f7mrhya","geo_precision":"range"},"type":"Feature","geometry":{"type":"Point","coordinates":[-83.248786,42.772292]}},{"properties":{"cityname":"Flint","name":"090581Coretta  Davis","statecode":"MI","zipcode":"48505","geo_score":0.902,"caseload":"Provider","addressline":"4914 Edwards Ave.","id":"a64u6ffaemu4","geo_precision":"range"},"type":"Feature","geometry":{"type":"Point","coordinates":[-83.714767,43.058777]}},{"properties":{"cityname":"Davison","name":"090606Julie  Borst-Mabbitt","statecode":"MI","zipcode":"48423","geo_score":0.491,"caseload":"Provider","addressline":"7039 E. Atherton Rd.","id":"a64u6f3ph1js","geo_precision":"street"},"type":"Feature","geometry":{"type":"Point","coordinates":[-83.574911,42.990365]}},{"properties":{"cityname":"Flint","name":"090613Jannie  Hicks","statecode":"MI","zipcode":"48505","geo_score":0.459,"caseload":"Provider","addressline":"117 E. Flint Park Blvd.","id":"a64u6f0p2nn6","geo_precision":"street"},"type":"Feature","geometry":{"type":"Point","coordinates":[-83.702035,43.055983]}},{"properties":{"cityname":"Flint","name":"100050Jennifer  Silvas","statecode":"MI","zipcode":"48506","geo_score":0.607,"caseload":"Provider","addressline":"5400 E. Carpenter Rd","id":"a64u6ffym9qb","geo_precision":"street"},"type":"Feature","geometry":{"type":"Point","coordinates":[-83.667981,43.076024]}},{"properties":{"cityname":"Port Huron","name":"100073Robin Lindsey","statecode":"MI","zipcode":"48060","geo_score":0.913,"caseload":"Provider","addressline":"2316 Ashland Court","id":"a64u6f2wj8sj","geo_precision":"range"},"type":"Feature","geometry":{"type":"Point","coordinates":[-82.450299,42.946157]}},{"properties":{"cityname":"Clio","name":"100106Christina  Blocker","statecode":"MI","zipcode":"48420","geo_score":0.909,"caseload":"Provider","addressline":"7237 West Vienna Rd.","id":"a64u6fd4mwid","geo_precision":"range"},"type":"Feature","geometry":{"type":"Point","coordinates":[-83.824937,43.177017]}},{"properties":{"cityname":"Grand Blanc","name":"100130Amber  Johnson","statecode":"MI","zipcode":"48439","geo_score":1.0,"caseload":"Provider","addressline":"1215 Arrow Wood Ln","id":"a64u6f593198","geo_precision":"range"},"type":"Feature","geometry":{"type":"Point","coordinates":[-83.687357,42.938712]}},{"properties":{"cityname":"Flint","name":"100140Teresa Wingard","statecode":"MI","zipcode":"48504","geo_score":0.932,"caseload":"Provider","addressline":"3602 Forest Hill","id":"a64u6f1s102z","geo_precision":"range"},"type":"Feature","geometry":{"type":"Point","coordinates":[-83.721426,43.047687]}},{"properties":{"cityname":"Flint","name":"100178Camilla  Smith","statecode":"MI","zipcode":"48504","geo_score":1.0,"caseload":"Provider","addressline":"2309 N Chevrolet Ave","id":"a64u6f9klrh9","geo_precision":"range"},"type":"Feature","geometry":{"type":"Point","coordinates":[-83.716031,43.036944]}},{"properties":{"cityname":"Millington","name":"100218Paula  Lansford","statecode":"MI","zipcode":"48746","geo_score":1.0,"caseload":"Provider","addressline":"4535 Barnes Rd","id":"a64u6fec9gx3","geo_precision":"range"},"type":"Feature","geometry":{"type":"Point","coordinates":[-83.521706,43.266693]}},{"properties":{"cityname":"Flint","name":"100307Kathy  Baker","statecode":"MI","zipcode":"48504","geo_score":1.0,"caseload":"Provider","addressline":"205 Suncrest Dr.","id":"a64u6fdkty0l","geo_precision":"range"},"type":"Feature","geometry":{"type":"Point","coordinates":[-83.741016,43.029577]}},{"properties":{"cityname":"Rochester Hills","name":"100340Melissa  Babiak","statecode":"MI","zipcode":"48306","geo_score":0.607,"caseload":"Provider","addressline":"1326 E. Horseshoe Bend","id":"a64u6f8r5bbx","geo_precision":"street"},"type":"Feature","geometry":{"type":"Point","coordinates":[-83.159623,42.699701]}},{"properties":{"cityname":"Fort  Gratiot","name":"100353Stephanie  Sisk","statecode":"MI","zipcode":"48059","geo_score":0.911,"caseload":"Provider","addressline":"3672 Old Farm Lane","id":"a64u6fd37vlj","geo_precision":"range"},"type":"Feature","geometry":{"type":"Point","coordinates":[-82.505569,43.017796]}},{"properties":{"cityname":"Flint","name":"100383Deirdra Walker","statecode":"MI","zipcode":"48505","geo_score":0.902,"caseload":"Provider","addressline":"5215 Bermuda Lane","id":"a64u6f8f7x62","geo_precision":"range"},"type":"Feature","geometry":{"type":"Point","coordinates":[-83.716161,43.083188]}},{"properties":{"cityname":"Lake Orion","name":"100394Ashley Bonam","statecode":"MI","zipcode":"48362","geo_score":1.0,"caseload":"Provider","addressline":"1490 Miller Rd","id":"a64u6f6dmz6z","geo_precision":"range"},"type":"Feature","geometry":{"type":"Point","coordinates":[-83.218312,42.786152]}},{"properties":{"cityname":"Flint","name":"100408Toni Jordan","statecode":"MI","zipcode":"48505","geo_score":0.902,"caseload":"Provider","addressline":"6605 Hillcroft Dr.","id":"a64u6f5nxrjg","geo_precision":"range"},"type":"Feature","geometry":{"type":"Point","coordinates":[-83.667629,43.070902]}},{"properties":{"cityname":"Flint","name":"100425Laurel Robertson","statecode":"MI","zipcode":"48504","geo_score":1.0,"caseload":"Provider","addressline":"3249 Skander Dr.","id":"a64u6f3qzro2","geo_precision":"range"},"type":"Feature","geometry":{"type":"Point","coordinates":[-83.739884,43.079517]}},{"properties":{"cityname":"Flint","name":"100443Tamar Smith","statecode":"MI","zipcode":"48507","geo_score":0.902,"caseload":"Provider","addressline":"1930 Woodslea  Apt 9","id":"a64u6fdr0wlh","geo_precision":"range"},"type":"Feature","geometry":{"type":"Point","coordinates":[-83.657747,42.999654]}},{"properties":{"cityname":"Flint","name":"100454Joey  Edwards II","statecode":"MI","zipcode":"48503","geo_score":0.917,"caseload":"Provider","addressline":"1103 Oak St.","id":"a64u6ezuf617","geo_precision":"range"},"type":"Feature","geometry":{"type":"Point","coordinates":[-83.690829,43.008062]}},{"properties":{"cityname":"Macomb","name":"100484Janette Chiles","statecode":"MI","zipcode":"48044","geo_score":0.878,"caseload":"Provider","addressline":"46426 LaGrande","id":"a64u6f8jnidc","geo_precision":"range"},"type":"Feature","geometry":{"type":"Point","coordinates":[-82.902779,42.639519]}},{"properties":{"cityname":"Flint","name":"100485Taliah  Wilborn","statecode":"MI","zipcode":"48503","geo_score":0.852,"caseload":"Provider","addressline":"115 E Tobias","id":"a64u6ffghkiv","geo_precision":"range"},"type":"Feature","geometry":{"type":"Point","coordinates":[-83.677654,42.998883]}},{"properties":{"cityname":"Flint","name":"110004Renee  Robinson","statecode":"MI","zipcode":"48507","geo_score":0.675,"caseload":"Provider","addressline":"5424 Tall Oak Dr.","id":"a64u6f9x2fv8","geo_precision":"street"},"type":"Feature","geometry":{"type":"Point","coordinates":[-83.650729,42.997336]}},{"properties":{"cityname":"Fort Grati","name":"110045Eryn Rushton","statecode":"MI","zipcode":"48059","geo_score":0.848,"caseload":"Provider","addressline":"3547 Dykeman Rd.","id":"a64u6faa0yuc","geo_precision":"range"},"type":"Feature","geometry":{"type":"Point","coordinates":[-82.476537,43.020044]}},{"properties":{"cityname":"Flint","name":"110051Carlin  Bailey","statecode":"MI","zipcode":"48507","geo_score":1.0,"caseload":"Provider","addressline":"2722 Hillcrest Ave.","id":"a64u6f5fdmrc","geo_precision":"range"},"type":"Feature","geometry":{"type":"Point","coordinates":[-83.662024,42.997726]}},{"properties":{"cityname":"Flint","name":"110057Tiffany  Greene","statecode":"MI","zipcode":"48532","geo_score":1.0,"caseload":"Provider","addressline":"3287 Clovertree Ln","id":"a64u6fczec6w","geo_precision":"range"},"type":"Feature","geometry":{"type":"Point","coordinates":[-83.744958,43.006863]}},{"properties":{"cityname":"Flint","name":"110058Elisa  Caruthers","statecode":"MI","zipcode":"48504","geo_score":1.0,"caseload":"Provider","addressline":"4017 Trumbull Ave","id":"a64u6fbgwrdx","geo_precision":"range"},"type":"Feature","geometry":{"type":"Point","coordinates":[-83.724389,43.050629]}},{"properties":{"cityname":"Flint","name":"110059Roger  Clark","statecode":"MI","zipcode":"48505","geo_score":0.902,"caseload":"Provider","addressline":"810 Carton St.","id":"a64u6f2837ty","geo_precision":"range"},"type":"Feature","geometry":{"type":"Point","coordinates":[-83.690356,43.04844]}},{"properties":{"cityname":"Grand Blanc","name":"110061Bonnie Szary","statecode":"MI","zipcode":"48439","geo_score":1.0,"caseload":"Provider","addressline":"1391 W Grand Blanc Rd.","id":"a64u6f66ookt","geo_precision":"range"},"type":"Feature","geometry":{"type":"Point","coordinates":[-83.701429,42.915039]}},{"properties":{"cityname":"Flint","name":"110064Vicki  Kincaid","statecode":"MI","zipcode":"48504","geo_score":1.0,"caseload":"Provider","addressline":"3120 Dupont St.","id":"a64u6fdw341z","geo_precision":"range"},"type":"Feature","geometry":{"type":"Point","coordinates":[-83.713384,43.044021]}},{"properties":{"cityname":"Flint","name":"110066Lisa  Langston","statecode":"MI","zipcode":"48505","geo_score":0.902,"caseload":"Provider","addressline":"6819 Orange Lane","id":"a64u6f2own1o","geo_precision":"range"},"type":"Feature","geometry":{"type":"Point","coordinates":[-83.721522,43.073127]}},{"properties":{"cityname":"Flint","name":"110075Joyce  Miller","statecode":"MI","zipcode":"48505","geo_score":0.468,"caseload":"Provider","addressline":"740 E. Stewart Ave.","id":"a64u6fdk2dvc","geo_precision":"street"},"type":"Feature","geometry":{"type":"Point","coordinates":[-83.704728,43.054133]}},{"properties":{"cityname":"Flint","name":"110076Nedra Mitchell","statecode":"MI","zipcode":"48505","geo_score":0.902,"caseload":"Provider","addressline":"2731 Ridgeview Ct","id":"a64u6f1994qu","geo_precision":"range"},"type":"Feature","geometry":{"type":"Point","coordinates":[-83.657704,43.075682]}},{"properties":{"cityname":"Mt. Morris","name":"110082Priscilla  Jones","statecode":"MI","zipcode":"48458","geo_score":0.928,"caseload":"Provider","addressline":"6149 David Berger St.","id":"a64u6f8ystyg","geo_precision":"range"},"type":"Feature","geometry":{"type":"Point","coordinates":[-83.709608,43.094055]}},{"properties":{"cityname":"Flint","name":"110089William  Cook","statecode":"MI","zipcode":"48505","geo_score":0.464,"caseload":"Provider","addressline":"2201 W. Carpenter Rd.  Apt 306A","id":"a64u6fetwtd0","geo_precision":"street"},"type":"Feature","geometry":{"type":"Point","coordinates":[-83.711429,43.075562]}},{"properties":{"cityname":"Casco","name":"110103Susann  Collier","statecode":"MI","zipcode":"48064","geo_score":1.0,"caseload":"Provider","addressline":"5394 Hessen Rd.","id":"a64u6f3of4s8","geo_precision":"range"},"type":"Feature","geometry":{"type":"Point","coordinates":[-82.651259,42.741415]}},{"properties":{"cityname":"Flint","name":"110112Jeffery McDonald","statecode":"MI","zipcode":"48504","geo_score":0.976,"caseload":"Provider","addressline":"5443 W Coldwater Rd.","id":"a64u6f9zq6jw","geo_precision":"range"},"type":"Feature","geometry":{"type":"Point","coordinates":[-83.787527,43.089656]}},{"properties":{"cityname":"Davison","name":"110155Christine  Rushlow","statecode":"MI","zipcode":"48423","geo_score":0.835,"caseload":"Provider","addressline":"4492 Atlas","id":"a64u6f313fv4","geo_precision":"range"},"type":"Feature","geometry":{"type":"Point","coordinates":[-83.525932,42.963225]}},{"properties":{"cityname":"Flint","name":"110252Shaquitta Tagaddin","statecode":"MI","zipcode":"48505","geo_score":0.902,"caseload":"Provider","addressline":"5803 Edgar Holt Dr","id":"a64u6facd7r0","geo_precision":"range"},"type":"Feature","geometry":{"type":"Point","coordinates":[-83.685941,43.066656]}},{"properties":{"cityname":"Grand Blanc","name":"110253Lonetta Bowers","statecode":"MI","zipcode":"48439","geo_score":0.576,"caseload":"Provider","addressline":"4102 Cedar Bend Drive","id":"a64u6faih9c8","geo_precision":"range"},"type":"Feature","geometry":{"type":"Point","coordinates":[-82.63059,43.810983]}},{"properties":{"cityname":"Mt. Morris","name":"110254Rebecca Allen","statecode":"MI","zipcode":"48458","geo_score":0.908,"caseload":"Provider","addressline":"6171 Penwood Dr","id":"a64u6fcgvxdf","geo_precision":"range"},"type":"Feature","geometry":{"type":"Point","coordinates":[-83.711783,43.094711]}},{"properties":{"cityname":"Mt. Morris","name":"110255Larenda Knapp","statecode":"MI","zipcode":"48458","geo_score":0.908,"caseload":"Provider","addressline":"6142 Cypress","id":"a64u6f6oc02l","geo_precision":"range"},"type":"Feature","geometry":{"type":"Point","coordinates":[-83.703279,43.094108]}},{"properties":{"cityname":"Mt. Morris","name":"110256Rochelle Malone","statecode":"MI","zipcode":"48458","geo_score":0.973,"caseload":"Provider","addressline":"6422 Garden Dr","id":"a64u6f40kupv","geo_precision":"range"},"type":"Feature","geometry":{"type":"Point","coordinates":[-83.705571,43.101489]}},{"properties":{"cityname":"Davison","name":"110257Gina Phillips","statecode":"MI","zipcode":"48423","geo_score":0.919,"caseload":"Provider","addressline":"3246 N State Rd","id":"a64u6f5vm2nc","geo_precision":"range"},"type":"Feature","geometry":{"type":"Point","coordinates":[-83.518014,43.056535]}},{"properties":{"cityname":"Burton","name":"110258Kelly Graham","statecode":"MI","zipcode":"48509","geo_score":1.0,"caseload":"Provider","addressline":"1217 Carlson Dr","id":"a64u6fc3mkhb","geo_precision":"range"},"type":"Feature","geometry":{"type":"Point","coordinates":[-83.582532,43.01343]}},{"properties":{"cityname":"Washington","name":"110259Carol Armstrong","statecode":"MI","zipcode":"48094","geo_score":0.922,"caseload":"Provider","addressline":"58450 Cathey","id":"a64u6f0tzliz","geo_precision":"range"},"type":"Feature","geometry":{"type":"Point","coordinates":[-83.032241,42.724381]}},{"properties":{"cityname":"Washington","name":"110260Katheryn Vetrano","statecode":"MI","zipcode":"48094","geo_score":0.605,"caseload":"Provider","addressline":"14402 Fruitwood Drive","id":"a64u6ffae6rz","geo_precision":"zip"},"type":"Feature","geometry":{"type":"Point","coordinates":[-82.960206,42.730865]}},{"properties":{"cityname":"Almont","name":"110261Rachel Owen","statecode":"MI","zipcode":"48003","geo_score":1.0,"caseload":"Provider","addressline":"6481 Tubspring Rd","id":"a64u6ffqad42","geo_precision":"range"},"type":"Feature","geometry":{"type":"Point","coordinates":[-83.086101,42.933234]}},{"properties":{"cityname":"Imlay City","name":"110262Helen Tick","statecode":"MI","zipcode":"48444","geo_score":0.806,"caseload":"Provider","addressline":"434 N Doran Rd","id":"a64u6f1qg25v","geo_precision":"street"},"type":"Feature","geometry":{"type":"Point","coordinates":[-83.038539,43.037921]}},{"properties":{"cityname":"Lapeer","name":"110263Bonnie Brown","statecode":"MI","zipcode":"48446","geo_score":0.919,"caseload":"Provider","addressline":"1281 Pine st","id":"a64u6faxpk33","geo_precision":"range"},"type":"Feature","geometry":{"type":"Point","coordinates":[-83.312314,43.061287]}},{"properties":{"cityname":"Shelby Twp.","name":"110332Silvana  Trudelle","statecode":"MI","zipcode":"48316","geo_score":0.902,"caseload":"Provider","addressline":"56520 Kirkridge Trail","id":"a64u6f27aaa1","geo_precision":"range"},"type":"Feature","geometry":{"type":"Point","coordinates":[-83.044806,42.708618]}},{"properties":{"cityname":"Shelby Twp.","name":"110333Susan  Simun","statecode":"MI","zipcode":"48316","geo_score":0.849,"caseload":"Provider","addressline":"54134 Dequindre","id":"a64u6f9yeihf","geo_precision":"range"},"type":"Feature","geometry":{"type":"Point","coordinates":[-83.094514,42.690365]}},{"properties":{"cityname":"Utica","name":"110334Deanna  Prough","statecode":"MI","zipcode":"48317","geo_score":0.916,"caseload":"Provider","addressline":"45290 Platt","id":"a64u6fahvnr3","geo_precision":"range"},"type":"Feature","geometry":{"type":"Point","coordinates":[-83.029616,42.628207]}},{"properties":{"cityname":"Shelby Twp.","name":"110335Pashka  Bolda","statecode":"MI","zipcode":"48316","geo_score":0.844,"caseload":"Provider","addressline":"54237 Surfside","id":"a64u6f2nc99t","geo_precision":"range"},"type":"Feature","geometry":{"type":"Point","coordinates":[-83.071108,42.692929]}},{"properties":{"cityname":"Rochester Hills","name":"110370Lisa  Lamerato-Laviolette","statecode":"MI","zipcode":"48306","geo_score":1.0,"caseload":"Provider","addressline":"1150 Cripple Creek Lane","id":"a64u6f9co3q8","geo_precision":"range"},"type":"Feature","geometry":{"type":"Point","coordinates":[-83.157945,42.703735]}},{"properties":{"cityname":"Rochester Hills","name":"110371Kelly  Hillstead","statecode":"MI","zipcode":"48307","geo_score":0.965,"caseload":"Provider","addressline":"2581 Eastern Ave.","id":"a64u6f7xb4ap","geo_precision":"range"},"type":"Feature","geometry":{"type":"Point","coordinates":[-83.09727,42.64292]}},{"properties":{"cityname":"Rochester Hills","name":"110372Teresa  Schroeder","statecode":"MI","zipcode":"48309","geo_score":0.892,"caseload":"Provider","addressline":"1634 Crooks","id":"a64u6fb3jpuy","geo_precision":"range"},"type":"Feature","geometry":{"type":"Point","coordinates":[-83.176905,42.660843]}},{"properties":{"cityname":"Rochester Hills","name":"110373Seema  Ibrahim","statecode":"MI","zipcode":"48306","geo_score":0.805,"caseload":"Provider","addressline":"2575 Walton Boulevard","id":"a64u6f8cyayr","geo_precision":"range"},"type":"Feature","geometry":{"type":"Point","coordinates":[-83.183562,42.68086]}},{"properties":{"cityname":"Macomb","name":"110374Patricia  Ulbrich","statecode":"MI","zipcode":"48044","geo_score":1.0,"caseload":"Provider","addressline":"46159 Keystone Dr.","id":"a64u6f3e19r9","geo_precision":"range"},"type":"Feature","geometry":{"type":"Point","coordinates":[-82.968977,42.635862]}},{"properties":{"cityname":"Macomb Township","name":"110375Theresa  Tom","statecode":"MI","zipcode":"48044","geo_score":0.627,"caseload":"Provider","addressline":"49296 Bulldog Drive","id":"a64u6f33kd8i","geo_precision":"zip"},"type":"Feature","geometry":{"type":"Point","coordinates":[-82.898513,42.644211]}},{"properties":{"cityname":"Macomb Township","name":"110376Susan  DeMare","statecode":"MI","zipcode":"48044","geo_score":0.912,"caseload":"Provider","addressline":"15852 Dillion Court","id":"a64u6faukvup","geo_precision":"range"},"type":"Feature","geometry":{"type":"Point","coordinates":[-82.967765,42.638513]}},{"properties":{"cityname":"Macomp Twp.","name":"110377Margaret  Newood","statecode":"MI","zipcode":"48044","geo_score":0.903,"caseload":"Provider","addressline":"47330 Stephanie","id":"a64u6few926o","geo_precision":"range"},"type":"Feature","geometry":{"type":"Point","coordinates":[-82.950901,42.64484]}},{"properties":{"cityname":"Macomb Twp","name":"110378Karen Hines","statecode":"MI","zipcode":"48044","geo_score":0.65,"caseload":"Provider","addressline":"48795 Michaywe Dr","id":"a64u6f48kmf5","geo_precision":"zip"},"type":"Feature","geometry":{"type":"Point","coordinates":[-82.898513,42.644211]}},{"properties":{"cityname":"Armada","name":"110379Ann  Baker","statecode":"MI","zipcode":"48005","geo_score":1.0,"caseload":"Provider","addressline":"75057 Omo Road","id":"a64u6f3hezkr","geo_precision":"range"},"type":"Feature","geometry":{"type":"Point","coordinates":[-82.864627,42.851292]}},{"properties":{"cityname":"Port Huron","name":"110380Marie Eagle","statecode":"MI","zipcode":"48060","geo_score":0.816,"caseload":"Provider","addressline":"515 16th Street","id":"a64u6ff7x3jh","geo_precision":"range"},"type":"Feature","geometry":{"type":"Point","coordinates":[-82.443309,42.978512]}},{"properties":{"cityname":"Port Huron","name":"110382Gay  Simpson","statecode":"MI","zipcode":"48060","geo_score":0.913,"caseload":"Provider","addressline":"1424 Richardson St.","id":"a64u6f2d8d6v","geo_precision":"range"},"type":"Feature","geometry":{"type":"Point","coordinates":[-82.434226,42.987422]}},{"properties":{"cityname":"Port Huron","name":"110383Melissa Khabbaz","statecode":"MI","zipcode":"48060","geo_score":0.665,"caseload":"Provider","addressline":"1119 Mansfield #2","id":"a64u6f67hy7p","geo_precision":"street"},"type":"Feature","geometry":{"type":"Point","coordinates":[-82.429251,42.99688]}},{"properties":{"cityname":"Ft Gratiot","name":"110384Kayla Harris","statecode":"MI","zipcode":"48059","geo_score":0.498,"caseload":"Provider","addressline":"3240 N. River Rd","id":"a64u6f79vzum","geo_precision":"street"},"type":"Feature","geometry":{"type":"Point","coordinates":[-82.455599,43.019467]}},{"properties":{"cityname":"Burchville","name":"110386Karon  Johnson","statecode":"MI","zipcode":"48059","geo_score":0.902,"caseload":"Provider","addressline":"6020 Delaware Dr.","id":"a64u6f8y2izt","geo_precision":"range"},"type":"Feature","geometry":{"type":"Point","coordinates":[-82.489761,43.083598]}},{"properties":{"cityname":"Kimball","name":"110387Susan  Barzyk","statecode":"MI","zipcode":"48074","geo_score":0.902,"caseload":"Provider","addressline":"1840 Sturdevant Rd.","id":"a64u6fbysh3d","geo_precision":"range"},"type":"Feature","geometry":{"type":"Point","coordinates":[-82.587441,42.949835]}},{"properties":{"cityname":"Kimball","name":"110388Rita Lozano","statecode":"MI","zipcode":"48074","geo_score":0.61,"caseload":"Provider","addressline":"4901 Camelot","id":"a64u6f1jj5mx","geo_precision":"street"},"type":"Feature","geometry":{"type":"Point","coordinates":[-83.105303,42.554102]}},{"properties":{"cityname":"Capac","name":"110389Dana McDonald","statecode":"MI","zipcode":"48014","geo_score":1.0,"caseload":"Provider","addressline":"15275 Imlay City Rd","id":"a64u6f54l8nc","geo_precision":"range"},"type":"Feature","geometry":{"type":"Point","coordinates":[-82.940359,43.02697]}},{"properties":{"cityname":"Port Huron","name":"110391Linda  Hill","statecode":"MI","zipcode":"48060","geo_score":0.913,"caseload":"Provider","addressline":"2334 Ashland Ct.","id":"a64u6ff4lrbv","geo_precision":"range"},"type":"Feature","geometry":{"type":"Point","coordinates":[-82.450529,42.945951]}},{"properties":{"cityname":"Raw Twp","name":"110394Betty Jo Schell","statecode":"MI","zipcode":"48096","geo_score":0.561,"caseload":"Provider","addressline":"24745 26 Mile Rd","id":"a64u6f7tclis","geo_precision":"street"},"type":"Feature","geometry":{"type":"Point","coordinates":[-82.526597,42.621977]}},{"properties":{"cityname":"Macomb","name":"110430Nancy  Ruszczyck","statecode":"MI","zipcode":"48044","geo_score":0.935,"caseload":"Provider","addressline":"16092 patriot","id":"a64u6f21pef7","geo_precision":"range"},"type":"Feature","geometry":{"type":"Point","coordinates":[-82.962175,42.653118]}},{"properties":{"cityname":"Macomb Township","name":"110431Virginia  Griffith","statecode":"MI","zipcode":"48044","geo_score":0.891,"caseload":"Provider","addressline":"48444 Lafayette","id":"a64u6f305p61","geo_precision":"range"},"type":"Feature","geometry":{"type":"Point","coordinates":[-82.961394,42.652818]}},{"properties":{"cityname":"Macomb Township","name":"110432Carline Issak","statecode":"MI","zipcode":"48044","geo_score":0.627,"caseload":"Provider","addressline":"50708 Lancelot Dr","id":"a64u6ff4cj26","geo_precision":"zip"},"type":"Feature","geometry":{"type":"Point","coordinates":[-82.898513,42.644211]}},{"properties":{"cityname":"Flint","name":"110433Jessica  Yisa","statecode":"MI","zipcode":"48505","geo_score":0.468,"caseload":"Provider","addressline":"113 W. Jamieson st.","id":"a64u6ff9oua2","geo_precision":"street"},"type":"Feature","geometry":{"type":"Point","coordinates":[-83.704608,43.044822]}},{"properties":{"cityname":"Flint","name":"110434Lorraine  Norwood","statecode":"MI","zipcode":"48503","geo_score":0.6,"caseload":"Provider","addressline":"1413 Macklin Rd.","id":"a64u6f6nv7iu","geo_precision":"zip"},"type":"Feature","geometry":{"type":"Point","coordinates":[-83.594953,43.008638]}},{"properties":{"cityname":"Macomb Twp.","name":"110435Madeline  Candela","statecode":"MI","zipcode":"48044","geo_score":0.804,"caseload":"Provider","addressline":"48767 Brittany Parc","id":"a64u6fbu9a3w","geo_precision":"range"},"type":"Feature","geometry":{"type":"Point","coordinates":[-82.912747,42.656492]}},{"properties":{"cityname":"Macomb Twp.","name":"110436Grace  Enea","statecode":"MI","zipcode":"48044","geo_score":0.61,"caseload":"Provider","addressline":"50303 Cheltenham Drive","id":"a64u6f6i9zpr","geo_precision":"street"},"type":"Feature","geometry":{"type":"Point","coordinates":[-83.18871,42.599244]}},{"properties":{"cityname":"Macomb","name":"110437Julie  Russo","statecode":"MI","zipcode":"48044","geo_score":0.566,"caseload":"Provider","addressline":"21390 Gentry Drive","id":"a64u6f7l9e3o","geo_precision":"street"},"type":"Feature","geometry":{"type":"Point","coordinates":[-82.889668,42.643265]}},{"properties":{"cityname":"Macomb Twp.","name":"110438Joyce Freitas","statecode":"MI","zipcode":"48044","geo_score":0.909,"caseload":"Provider","addressline":"47331 Kathleen","id":"a64u6f64nej6","geo_precision":"range"},"type":"Feature","geometry":{"type":"Point","coordinates":[-82.969268,42.644378]}},{"properties":{"cityname":"Flint","name":"110439Cassandra  Coulter","statecode":"MI","zipcode":"48532","geo_score":1.0,"caseload":"Provider","addressline":"5283 Oak Tree Dr.","id":"a64u6fbw59o4","geo_precision":"range"},"type":"Feature","geometry":{"type":"Point","coordinates":[-83.783527,43.015236]}},{"properties":{"cityname":"Macomb","name":"110461Wendy Gekiere","statecode":"MI","zipcode":"48042","geo_score":0.463,"caseload":"Provider","addressline":"24070 26 Mile","id":"a64u6f74qu6w","geo_precision":"street"},"type":"Feature","geometry":{"type":"Point","coordinates":[-82.927171,42.526025]}},{"properties":{"cityname":"Lenox Twp","name":"110462Donna Ventura","statecode":"MI","zipcode":"48050","geo_score":0.789,"caseload":"Provider","addressline":"66855 Place Road","id":"a64u6f76menq","geo_precision":"range"},"type":"Feature","geometry":{"type":"Point","coordinates":[-82.834549,42.791942]}},{"properties":{"cityname":"Flint","name":"110463Deitrich White","statecode":"MI","zipcode":"48503","geo_score":0.917,"caseload":"Provider","addressline":"1857 Hosler St","id":"a64u6fcpsdtz","geo_precision":"range"},"type":"Feature","geometry":{"type":"Point","coordinates":[-83.645351,43.008537]}},{"properties":{"cityname":"Macomb","name":"110465Natalie McDougnall","statecode":"MI","zipcode":"48044","geo_score":0.941,"caseload":"Provider","addressline":"46738 Arapahoe","id":"a64u6fdwekm7","geo_precision":"range"},"type":"Feature","geometry":{"type":"Point","coordinates":[-82.96805,42.639858]}},{"properties":{"cityname":"Oxford","name":"110466Pamela Dudewicz","statecode":"MI","zipcode":"48371","geo_score":1.0,"caseload":"Provider","addressline":"1812 Stanford Court","id":"a64u6favjvep","geo_precision":"range"},"type":"Feature","geometry":{"type":"Point","coordinates":[-83.292977,42.804689]}},{"properties":{"cityname":"Millington","name":"110467Tammy Simon","statecode":"MI","zipcode":"48746","geo_score":1.0,"caseload":"Provider","addressline":"8488 Birchrun Rd","id":"a64u6f13c759","geo_precision":"range"},"type":"Feature","geometry":{"type":"Point","coordinates":[-83.640095,43.251608]}},{"properties":{"cityname":"Flint","name":"110468Marcy Collins","statecode":"MI","zipcode":"48532","geo_score":1.0,"caseload":"Provider","addressline":"1260 S Graham Rd","id":"a64u6f1ps51s","geo_precision":"range"},"type":"Feature","geometry":{"type":"Point","coordinates":[-83.755935,43.011287]}},{"properties":{"cityname":"Flint","name":"110469Isabel Dimitroff","statecode":"MI","zipcode":"48507","geo_score":1.0,"caseload":"Provider","addressline":"1513 Blueberry Lane","id":"a64u6f3jwifv","geo_precision":"range"},"type":"Feature","geometry":{"type":"Point","coordinates":[-83.699271,42.985538]}},{"properties":{"cityname":"Flint","name":"110470Terry  Austin","statecode":"MI","zipcode":"48506","geo_score":1.0,"caseload":"Provider","addressline":"1527 Arizona Ave","id":"a64u6fbr1amz","geo_precision":"range"},"type":"Feature","geometry":{"type":"Point","coordinates":[-83.672529,43.04605]}},{"properties":{"cityname":"Flint","name":"110471Timika Cummings","statecode":"MI","zipcode":"48503","geo_score":0.917,"caseload":"Provider","addressline":"405 S Meade St","id":"a64u6fc3e0na","geo_precision":"range"},"type":"Feature","geometry":{"type":"Point","coordinates":[-83.656094,43.023455]}},{"properties":{"cityname":"Flint","name":"110472Isaiah Tippit","statecode":"MI","zipcode":"48503","geo_score":0.811,"caseload":"Provider","addressline":"424 Crapo St Apt 3","id":"a64u6fa6nyst","geo_precision":"range"},"type":"Feature","geometry":{"type":"Point","coordinates":[-83.680357,43.021633]}},{"properties":{"cityname":"Flint","name":"110548Terri  Lewis","statecode":"MI","zipcode":"48504","geo_score":0.941,"caseload":"Provider","addressline":"9110 Suncrest","id":"a64u6f1iwncf","geo_precision":"range"},"type":"Feature","geometry":{"type":"Point","coordinates":[-83.740923,43.030554]}},{"properties":{"cityname":"Flint","name":"110549Gwendolyn  Biggs","statecode":"MI","zipcode":"48504","geo_score":1.0,"caseload":"Provider","addressline":"4123 Comstock Ave","id":"a64u6f3dffjv","geo_precision":"range"},"type":"Feature","geometry":{"type":"Point","coordinates":[-83.726394,43.05184]}},{"properties":{"cityname":"Flint","name":"110550Lavinia Johnson","statecode":"MI","zipcode":"48504","geo_score":1.0,"caseload":"Provider","addressline":"3017 Wisner St.","id":"a64u6f08up7r","geo_precision":"range"},"type":"Feature","geometry":{"type":"Point","coordinates":[-83.731529,43.043518]}},{"properties":{"cityname":"Flint","name":"110551Taiwan  Dudley","statecode":"MI","zipcode":"48504","geo_score":0.625,"caseload":"Provider","addressline":"909 W. Dewey St.","id":"a64u6fdf55pp","geo_precision":"street"},"type":"Feature","geometry":{"type":"Point","coordinates":[-83.71513,43.045438]}},{"properties":{"cityname":"Flint","name":"110553Annie  Sims","statecode":"MI","zipcode":"48504","geo_score":0.92,"caseload":"Provider","addressline":"4413 Trumbull","id":"a64u6fcmb9xy","geo_precision":"range"},"type":"Feature","geometry":{"type":"Point","coordinates":[-83.724554,43.05505]}},{"properties":{"cityname":"Burton","name":"110554B'Jeana Newton","statecode":"MI","zipcode":"48509","geo_score":0.683,"caseload":"Provider","addressline":"4206 Kings Lane","id":"a64u6f9efp5m","geo_precision":"range"},"type":"Feature","geometry":{"type":"Point","coordinates":[-83.688818,42.979221]}},{"properties":{"cityname":"Flint","name":"110555Beneice  King","statecode":"MI","zipcode":"48504","geo_score":1.0,"caseload":"Provider","addressline":"3115 Fleming RD.","id":"a64u6f1gn4fk","geo_precision":"range"},"type":"Feature","geometry":{"type":"Point","coordinates":[-83.723311,43.043837]}},{"properties":{"cityname":"Ruby","name":"110571Linda  Lytle","statecode":"MI","zipcode":"48049","geo_score":0.902,"caseload":"Provider","addressline":"3457 Abbottsford Rd.","id":"a64u6eznynj7","geo_precision":"range"},"type":"Feature","geometry":{"type":"Point","coordinates":[-82.570931,43.005146]}},{"properties":{"cityname":"Yale","name":"110573Rachelle Mullen","statecode":"MI","zipcode":"48097","geo_score":0.915,"caseload":"Provider","addressline":"6587 Perry Rd.","id":"a64u6f51oewf","geo_precision":"range"},"type":"Feature","geometry":{"type":"Point","coordinates":[-82.865045,43.087731]}},{"properties":{"cityname":"Flint","name":"110576Wendy  St. Charles","statecode":"MI","zipcode":"48507","geo_score":1.0,"caseload":"Provider","addressline":"1825 Penbrook Lane","id":"a64u6f78tv2x","geo_precision":"range"},"type":"Feature","geometry":{"type":"Point","coordinates":[-83.711222,42.986989]}},{"properties":{"cityname":"Flint","name":"110591Deborah  Barton","statecode":"MI","zipcode":"48507","geo_score":1.0,"caseload":"Provider","addressline":"6415 Maplebrook Lane","id":"a64u6f8h7ac4","geo_precision":"range"},"type":"Feature","geometry":{"type":"Point","coordinates":[-83.684439,42.95732]}},{"properties":{"cityname":"Macomb","name":"110607Susan  Miller","statecode":"MI","zipcode":"48042","geo_score":0.512,"caseload":"Provider","addressline":"23083 Golf Run  Lane","id":"a64u6f8zfpwr","geo_precision":"street"},"type":"Feature","geometry":{"type":"Point","coordinates":[-82.954426,42.694977]}},{"properties":{"cityname":"Flint","name":"110652Charlotte Brown","statecode":"MI","zipcode":"48532","geo_score":0.935,"caseload":"Provider","addressline":"7199 Granada Dr.","id":"a64u6fbraonl","geo_precision":"range"},"type":"Feature","geometry":{"type":"Point","coordinates":[-83.816788,43.01428]}},{"properties":{"cityname":"Port Huron","name":"110656Janet  Adkins","statecode":"MI","zipcode":"48060","geo_score":0.783,"caseload":"Provider","addressline":"3123 North Blvd.","id":"a64u6fea6asw","geo_precision":"range"},"type":"Feature","geometry":{"type":"Point","coordinates":[-82.46117,42.940777]}},{"properties":{"cityname":"Port Huron","name":"110657Nancy  Conner","statecode":"MI","zipcode":"48060","geo_score":0.718,"caseload":"Provider","addressline":"817 Saint Clair St.","id":"a64u6f6en8be","geo_precision":"street"},"type":"Feature","geometry":{"type":"Point","coordinates":[-82.4288,42.994935]}},{"properties":{"cityname":"Flint","name":"110660Dondric  Richardson","statecode":"MI","zipcode":"48503","geo_score":0.917,"caseload":"Provider","addressline":"1303 M L King Ave.","id":"a64u6fdaenwt","geo_precision":"range"},"type":"Feature","geometry":{"type":"Point","coordinates":[-83.700466,43.027434]}},{"properties":{"cityname":"Burton","name":"110674Maggie  Meeks","statecode":"MI","zipcode":"48519","geo_score":1.0,"caseload":"Provider","addressline":"2308 Forest Creek","id":"a64u6fajmoqh","geo_precision":"range"},"type":"Feature","geometry":{"type":"Point","coordinates":[-83.577554,43.003705]}},{"properties":{"cityname":"Flint","name":"110686Kinshasa Simmons","statecode":"MI","zipcode":"48505","geo_score":0.815,"caseload":"Provider","addressline":"1346 Tremont","id":"a64u6f8r4m8n","geo_precision":"range"},"type":"Feature","geometry":{"type":"Point","coordinates":[-83.706958,43.076402]}},{"properties":{"cityname":"Rochester Hills","name":"110692Nicole  Cornelius","statecode":"MI","zipcode":"48307","geo_score":0.965,"caseload":"Provider","addressline":"2626 Hessel Ave.","id":"a64u6f3aontt","geo_precision":"range"},"type":"Feature","geometry":{"type":"Point","coordinates":[-83.093539,42.641956]}},{"properties":{"cityname":"Fostoria","name":"110705Angela  Alexander","statecode":"MI","zipcode":"48435","geo_score":1.0,"caseload":"Provider","addressline":"8164 Willits Rd.","id":"a64u6f0mj82y","geo_precision":"range"},"type":"Feature","geometry":{"type":"Point","coordinates":[-83.352635,43.266446]}},{"properties":{"cityname":"Oxford","name":"760032Donna Bishop","statecode":"MI","zipcode":"48371","geo_score":0.488,"caseload":"Provider","addressline":"5890 Sunny Hills Dr.","id":"a64u6ffy8can","geo_precision":"street"},"type":"Feature","geometry":{"type":"Point","coordinates":[-83.275201,42.549428]}},{"properties":{"cityname":"Port Huron","name":"820036Erdean Crerar","statecode":"MI","zipcode":"48060","geo_score":0.913,"caseload":"Provider","addressline":"2636 Stone St.","id":"a64u6feawek4","geo_precision":"range"},"type":"Feature","geometry":{"type":"Point","coordinates":[-82.432393,43.003313]}},{"properties":{"cityname":"Flushing","name":"830018Patricia Fauster","statecode":"MI","zipcode":"48433","geo_score":0.849,"caseload":"Provider","addressline":"538 N Mckinley","id":"a64u6f9xrny9","geo_precision":"range"},"type":"Feature","geometry":{"type":"Point","coordinates":[-83.852801,43.071014]}},{"properties":{"cityname":"Port Huron","name":"840011Susan Boughner","statecode":"MI","zipcode":"48060","geo_score":0.846,"caseload":"Provider","addressline":"1514 Washington","id":"a64u6ff2gmub","geo_precision":"range"},"type":"Feature","geometry":{"type":"Point","coordinates":[-82.435808,42.988581]}},{"properties":{"cityname":"Grand Blanc","name":"850080Martha Haist","statecode":"MI","zipcode":"48439","geo_score":0.947,"caseload":"Provider","addressline":"6158 Woodsdale","id":"a64u6f7pqb40","geo_precision":"range"},"type":"Feature","geometry":{"type":"Point","coordinates":[-83.655093,42.939924]}},{"properties":{"cityname":"Macomb","name":"870055Norma Lunsford","statecode":"MI","zipcode":"48044","geo_score":0.947,"caseload":"Provider","addressline":"18026 Millstone","id":"a64u6f5s8ha0","geo_precision":"range"},"type":"Feature","geometry":{"type":"Point","coordinates":[-82.942633,42.635101]}},{"properties":{"cityname":"Metamora","name":"870127Virginia Ferrell","statecode":"MI","zipcode":"48455","geo_score":0.902,"caseload":"Provider","addressline":"91 W High St","id":"a64u6faalw6k","geo_precision":"range"},"type":"Feature","geometry":{"type":"Point","coordinates":[-83.291147,42.941525]}},{"properties":{"cityname":"Grand Blanc","name":"870137Sharon White","statecode":"MI","zipcode":"48439","geo_score":1.0,"caseload":"Provider","addressline":"6104 Woodsdale Dr","id":"a64u6f4qpjn6","geo_precision":"range"},"type":"Feature","geometry":{"type":"Point","coordinates":[-83.655071,42.940973]}},{"properties":{"cityname":"Fort Gratiot","name":"880031Sherry J Bartley","statecode":"MI","zipcode":"48059","geo_score":0.824,"caseload":"Provider","addressline":"3760 Pollina","id":"a64u6f3aar4b","geo_precision":"range"},"type":"Feature","geometry":{"type":"Point","coordinates":[-82.485053,43.018783]}},{"properties":{"cityname":"Mt Morris","name":"880143Leona  M. Lemmon","statecode":"MI","zipcode":"48458","geo_score":0.883,"caseload":"Provider","addressline":"1126 Pinehurst","id":"a64u6f9881wh","geo_precision":"range"},"type":"Feature","geometry":{"type":"Point","coordinates":[-83.698775,43.128317]}},{"properties":{"cityname":"Flint","name":"890067Sandra Brewer","statecode":"MI","zipcode":"48532","geo_score":1.0,"caseload":"Provider","addressline":"G5337 Corunna Rd","id":"a64u6fan3zyt","geo_precision":"zip"},"type":"Feature","geometry":{"type":"Point","coordinates":[-83.803045,43.011127]}},{"properties":{"cityname":"Flint","name":"890074Lori Herrick","statecode":"MI","zipcode":"48504","geo_score":1.0,"caseload":"Provider","addressline":"1374 Mitson Blvd","id":"a64u6f8o5vjx","geo_precision":"range"},"type":"Feature","geometry":{"type":"Point","coordinates":[-83.74319,43.024071]}},{"properties":{"cityname":"St Clair","name":"890190Pamela Becker","statecode":"MI","zipcode":"48079","geo_score":0.827,"caseload":"Provider","addressline":"965 North 6th Street","id":"a64u6fc79yq4","geo_precision":"range"},"type":"Feature","geometry":{"type":"Point","coordinates":[-82.489235,42.832823]}},{"properties":{"cityname":"Flushing","name":"900067Shari Kelly","statecode":"MI","zipcode":"48433","geo_score":0.878,"caseload":"Provider","addressline":"7057 W Coldwater Rd","id":"a64u6fdhle6l","geo_precision":"range"},"type":"Feature","geometry":{"type":"Point","coordinates":[-83.815552,43.089249]}},{"properties":{"cityname":"Columbiaville","name":"900076Susan Fuller","statecode":"MI","zipcode":"48421","geo_score":1.0,"caseload":"Provider","addressline":"4551 Stanley Rd","id":"a64u6f5ocl2e","geo_precision":"range"},"type":"Feature","geometry":{"type":"Point","coordinates":[-83.406168,43.113518]}},{"properties":{"cityname":"Shelby Twp","name":"910021Charlene Jacquemain","statecode":"MI","zipcode":"48316","geo_score":0.854,"caseload":"Provider","addressline":"7040 Chatsworth","id":"a64u6f5o0cyn","geo_precision":"range"},"type":"Feature","geometry":{"type":"Point","coordinates":[-83.042871,42.677106]}},{"properties":{"cityname":"Lapeer","name":"910147Susan Bybee","statecode":"MI","zipcode":"48446","geo_score":0.919,"caseload":"Provider","addressline":"3270 Bronson Lake Rd","id":"a64u6f5kts3s","geo_precision":"range"},"type":"Feature","geometry":{"type":"Point","coordinates":[-83.355099,43.093296]}},{"properties":{"cityname":"Flint","name":"920415Judy Runyon","statecode":"MI","zipcode":"48532","geo_score":1.0,"caseload":"Provider","addressline":"2451 Tandy Dr","id":"a64u6f2esscs","geo_precision":"range"},"type":"Feature","geometry":{"type":"Point","coordinates":[-83.756393,42.990148]}},{"properties":{"cityname":"Port Huron","name":"920560Sandra Jacques","statecode":"MI","zipcode":"48060","geo_score":0.526,"caseload":"Provider","addressline":"1191 Quain Lane","id":"a64u6f7c9vke","geo_precision":"street"},"type":"Feature","geometry":{"type":"Point","coordinates":[-82.829,42.984615]}},{"properties":{"cityname":"Davison","name":"920688Kathleen Kennedy","statecode":"MI","zipcode":"48423","geo_score":0.86,"caseload":"Provider","addressline":"310 Rosemore","id":"a64u6f36n7pa","geo_precision":"range"},"type":"Feature","geometry":{"type":"Point","coordinates":[-83.513339,43.027527]}},{"properties":{"cityname":"Utica","name":"920698Sharon Trick","statecode":"MI","zipcode":"48317","geo_score":1.0,"caseload":"Provider","addressline":"8522 Robinwood Cir","id":"a64u6f4a3pvd","geo_precision":"range"},"type":"Feature","geometry":{"type":"Point","coordinates":[-83.029156,42.667764]}},{"properties":{"cityname":"St Clair","name":"930081Karen MacRae","statecode":"MI","zipcode":"48079","geo_score":0.836,"caseload":"Provider","addressline":"5385 Gratiot Rd","id":"a64u6f98lzp9","geo_precision":"range"},"type":"Feature","geometry":{"type":"Point","coordinates":[-82.533239,42.894795]}},{"properties":{"cityname":"Grand Blanc","name":"930171Sheila Lundquist","statecode":"MI","zipcode":"48439","geo_score":1.0,"caseload":"Provider","addressline":"1456 Kennebec Road","id":"a64u6fc6vi57","geo_precision":"range"},"type":"Feature","geometry":{"type":"Point","coordinates":[-83.688558,42.933008]}},{"properties":{"cityname":"Flint","name":"930562Shannion Warpup","statecode":"MI","zipcode":"48507","geo_score":1.0,"caseload":"Provider","addressline":"5143 Vanslyke Rd","id":"a64u6f539naz","geo_precision":"range"},"type":"Feature","geometry":{"type":"Point","coordinates":[-83.712531,42.957028]}},{"properties":{"cityname":"Port Huron","name":"930565Nancy Schultz","statecode":"MI","zipcode":"48060","geo_score":0.913,"caseload":"Provider","addressline":"4015 Elaine Ave","id":"a64u6fg58hav","geo_precision":"range"},"type":"Feature","geometry":{"type":"Point","coordinates":[-82.486035,42.997953]}},{"properties":{"cityname":"Casco","name":"930573Elizabeth Ceto","statecode":"MI","zipcode":"48064","geo_score":1.0,"caseload":"Provider","addressline":"5440 Church Rd","id":"a64u6f1iy338","geo_precision":"range"},"type":"Feature","geometry":{"type":"Point","coordinates":[-82.691573,42.739145]}},{"properties":{"cityname":"Macomb Twp","name":"930610Denise Kaffenberger","statecode":"MI","zipcode":"48044","geo_score":0.967,"caseload":"Provider","addressline":"46684 Fox Run Drive","id":"a64u6f8y0iz9","geo_precision":"range"},"type":"Feature","geometry":{"type":"Point","coordinates":[-82.946867,42.640042]}},{"properties":{"cityname":"Grand Blanc","name":"930669Karen Allen","statecode":"MI","zipcode":"48439","geo_score":1.0,"caseload":"Provider","addressline":"7077 Perry Rd","id":"a64u6fdf6epp","geo_precision":"range"},"type":"Feature","geometry":{"type":"Point","coordinates":[-83.570995,42.933972]}},{"properties":{"cityname":"Flushing","name":"930706Laurie Breznau","statecode":"MI","zipcode":"48433","geo_score":0.902,"caseload":"Provider","addressline":"11150 W Carpenter Rd","id":"a64u6falslfr","geo_precision":"range"},"type":"Feature","geometry":{"type":"Point","coordinates":[-83.900179,43.074211]}},{"properties":{"cityname":"Flint","name":"930708Patrice Moore","statecode":"MI","zipcode":"48505","geo_score":0.793,"caseload":"Provider","addressline":"634 W Mott","id":"a64u6fd3mtsg","geo_precision":"range"},"type":"Feature","geometry":{"type":"Point","coordinates":[-83.713034,43.064144]}},{"properties":{"cityname":"Orion","name":"930845Alyssa Jo Johnson","statecode":"MI","zipcode":"48359","geo_score":0.957,"caseload":"Provider","addressline":"3840 Rohr Rd","id":"a64u6ezog0ol","geo_precision":"range"},"type":"Feature","geometry":{"type":"Point","coordinates":[-83.326117,42.72349]}},{"properties":{"cityname":"Lapeer","name":"940293Nancy Granger","statecode":"MI","zipcode":"48446","geo_score":0.656,"caseload":"Provider","addressline":"60 Old Carriage  Lane","id":"a64u6f7xvgq3","geo_precision":"street"},"type":"Feature","geometry":{"type":"Point","coordinates":[-83.331138,43.061284]}},{"properties":{"cityname":"Lake Orion","name":"940447Tina Marie Bambard","statecode":"MI","zipcode":"48362","geo_score":1.0,"caseload":"Provider","addressline":"899 Rivervalley Dr","id":"a64u6f2xtyff","geo_precision":"range"},"type":"Feature","geometry":{"type":"Point","coordinates":[-83.224132,42.774479]}},{"properties":{"cityname":"Dryden","name":"940718Sharon Kelso","statecode":"MI","zipcode":"48428","geo_score":1.0,"caseload":"Provider","addressline":"3967 Rochester Rd","id":"a64u6faetmhr","geo_precision":"range"},"type":"Feature","geometry":{"type":"Point","coordinates":[-83.145023,42.946443]}},{"properties":{"cityname":"Utica","name":"940885Beverly Johnson","statecode":"MI","zipcode":"48317","geo_score":1.0,"caseload":"Provider","addressline":"2032 Marmoor Dr","id":"a64u6f4phgiu","geo_precision":"range"},"type":"Feature","geometry":{"type":"Point","coordinates":[-83.090963,42.650133]}},{"properties":{"cityname":"Flushing","name":"940934Marcia Christopher","statecode":"MI","zipcode":"48433","geo_score":0.902,"caseload":"Provider","addressline":"1146 Birchwood Dr","id":"a64u6f0zi6qu","geo_precision":"range"},"type":"Feature","geometry":{"type":"Point","coordinates":[-83.828555,43.074222]}},{"properties":{"cityname":"St Clair","name":"940979Julie A Currier","statecode":"MI","zipcode":"48079","geo_score":0.836,"caseload":"Provider","addressline":"1390 Oakland","id":"a64u6f4qq5hv","geo_precision":"range"},"type":"Feature","geometry":{"type":"Point","coordinates":[-82.486528,42.815004]}},{"properties":{"cityname":"Marysville","name":"941085Linda Hendershot","statecode":"MI","zipcode":"48040","geo_score":1.0,"caseload":"Provider","addressline":"188 St Clair Blvd","id":"a64u6f0ux0ci","geo_precision":"range"},"type":"Feature","geometry":{"type":"Point","coordinates":[-82.494918,42.931451]}},{"properties":{"cityname":"Port Huron","name":"950277Renee Phillips-Ware","statecode":"MI","zipcode":"48060","geo_score":0.718,"caseload":"Provider","addressline":"1744 Mcpherson","id":"a64u6f5v9528","geo_precision":"street"},"type":"Feature","geometry":{"type":"Point","coordinates":[-82.49425,42.994949]}},{"properties":{"cityname":"Burton","name":"950612Nancy Forcier","statecode":"MI","zipcode":"48509","geo_score":1.0,"caseload":"Provider","addressline":"5249 Lapeer Rd","id":"a64u6f501v37","geo_precision":"range"},"type":"Feature","geometry":{"type":"Point","coordinates":[-83.609633,43.010659]}},{"properties":{"cityname":"Lapeer","name":"950859Kathy Harmon","statecode":"MI","zipcode":"48446","geo_score":0.865,"caseload":"Provider","addressline":"2179 River Bend Ct","id":"a64u6f60gy56","geo_precision":"range"},"type":"Feature","geometry":{"type":"Point","coordinates":[-83.347807,43.091895]}},{"properties":{"cityname":"Columbiaville","name":"960231Michelle Wisenbaugh","statecode":"MI","zipcode":"48421","geo_score":0.973,"caseload":"Provider","addressline":"12398 Mt Morris Rd","id":"a64u6f30lqhz","geo_precision":"range"},"type":"Feature","geometry":{"type":"Point","coordinates":[-83.468444,43.129608]}},{"properties":{"cityname":"Flint","name":"960535Lori Hill","statecode":"MI","zipcode":"48504","geo_score":0.849,"caseload":"Provider","addressline":"1616 Bell Creek","id":"a64u6faajxsh","geo_precision":"street"},"type":"Feature","geometry":{"type":"Point","coordinates":[-83.723594,43.070637]}},{"properties":{"cityname":"Flint","name":"960798Rhonda M Jackson","statecode":"MI","zipcode":"48505","geo_score":0.835,"caseload":"Provider","addressline":"212 W Gracelawn","id":"a64u6f58cg4k","geo_precision":"range"},"type":"Feature","geometry":{"type":"Point","coordinates":[-83.707316,43.065724]}},{"properties":{"cityname":"Lapeer","name":"960837Terry Collins","statecode":"MI","zipcode":"48446","geo_score":0.854,"caseload":"Provider","addressline":"1338 Baldwin","id":"a64u6f4rt8yc","geo_precision":"range"},"type":"Feature","geometry":{"type":"Point","coordinates":[-83.336102,43.020548]}},{"properties":{"cityname":"Grand Blanc","name":"960942Karen Rossman","statecode":"MI","zipcode":"48439","geo_score":1.0,"caseload":"Provider","addressline":"6314 Stonehearth Pass","id":"a64u6f0nb6sd","geo_precision":"range"},"type":"Feature","geometry":{"type":"Point","coordinates":[-83.580418,42.943961]}},{"properties":{"cityname":"Yale","name":"961027Cindy Verbeke","statecode":"MI","zipcode":"48097","geo_score":0.915,"caseload":"Provider","addressline":"11475 Lasalle St.","id":"a64u6f16akho","geo_precision":"range"},"type":"Feature","geometry":{"type":"Point","coordinates":[-82.798048,43.13903]}},{"properties":{"cityname":"Metamora","name":"961071Sheila Mc Caw-Case","statecode":"MI","zipcode":"48455","geo_score":0.902,"caseload":"Provider","addressline":"3079 Hadley Rd","id":"a64u6f0nxrik","geo_precision":"range"},"type":"Feature","geometry":{"type":"Point","coordinates":[-83.404077,42.966709]}},{"properties":{"cityname":"Shelby Twp","name":"961083Pamela B Wofford","statecode":"MI","zipcode":"48317","geo_score":0.849,"caseload":"Provider","addressline":"47231 Frederick","id":"a64u6fd3hsi7","geo_precision":"range"},"type":"Feature","geometry":{"type":"Point","coordinates":[-83.070177,42.640852]}},{"properties":{"cityname":"Utica","name":"961111Susan Ann Hokanson","statecode":"MI","zipcode":"48317","geo_score":0.927,"caseload":"Provider","addressline":"5730 Auburn","id":"a64u6f9joxf1","geo_precision":"range"},"type":"Feature","geometry":{"type":"Point","coordinates":[-83.053919,42.634007]}},{"properties":{"cityname":"Lapeer","name":"961157Teresa Wilson","statecode":"MI","zipcode":"48446","geo_score":0.821,"caseload":"Provider","addressline":"154 Pine","id":"a64u6ff7aidg","geo_precision":"range"},"type":"Feature","geometry":{"type":"Point","coordinates":[-83.307431,43.052464]}},{"properties":{"cityname":"Flushing","name":"961265Heidi Jakubos","statecode":"MI","zipcode":"48433","geo_score":0.793,"caseload":"Provider","addressline":"6725 River Rd","id":"a64u6f33n8wt","geo_precision":"range"},"type":"Feature","geometry":{"type":"Point","coordinates":[-83.809686,43.045823]}},{"properties":{"cityname":"Ortonville","name":"970108Susan Kay Hickey","statecode":"MI","zipcode":"48462","geo_score":0.915,"caseload":"Provider","addressline":"1005 Sands Rd","id":"a64u6f7a0k45","geo_precision":"range"},"type":"Feature","geometry":{"type":"Point","coordinates":[-83.444873,42.867367]}},{"properties":{"cityname":"Flint","name":"970653Selina Wright","statecode":"MI","zipcode":"48505","geo_score":0.902,"caseload":"Provider","addressline":"1126 E Yale Ave","id":"a64u6fbpbi5r","geo_precision":"range"},"type":"Feature","geometry":{"type":"Point","coordinates":[-83.689515,43.084486]}},{"properties":{"cityname":"Davison","name":"970722Michelle Tear","statecode":"MI","zipcode":"48423","geo_score":0.514,"caseload":"Provider","addressline":"1175 N. Gale Rd.","id":"a64u6ezvtyni","geo_precision":"street"},"type":"Feature","geometry":{"type":"Point","coordinates":[-83.537154,43.019884]}},{"properties":{"cityname":"Oxford","name":"970748Kelli M Motsinger","statecode":"MI","zipcode":"48371","geo_score":0.614,"caseload":"Provider","addressline":"1150 W. Drahner Rd.","id":"a64u6ffes8up","geo_precision":"street"},"type":"Feature","geometry":{"type":"Point","coordinates":[-83.254058,42.810424]}},{"properties":{"cityname":"Lapeer","name":"980219Kimberly Stuewer","statecode":"MI","zipcode":"48446","geo_score":0.919,"caseload":"Provider","addressline":"2664 Porcupine Trail","id":"a64u6fcdyjjp","geo_precision":"range"},"type":"Feature","geometry":{"type":"Point","coordinates":[-83.24622,43.108612]}},{"properties":{"cityname":"Davison","name":"980612Renee Verbeke","statecode":"MI","zipcode":"48423","geo_score":0.919,"caseload":"Provider","addressline":"705 E Flint St.","id":"a64u6fbo6p4i","geo_precision":"range"},"type":"Feature","geometry":{"type":"Point","coordinates":[-83.507407,43.034925]}},{"properties":{"cityname":"Davison","name":"980614Susan Ledbetter","statecode":"MI","zipcode":"48423","geo_score":0.74,"caseload":"Provider","addressline":"9511 Country Club Ln","id":"a64u6fci2r01","geo_precision":"street"},"type":"Feature","geometry":{"type":"Point","coordinates":[-83.520566,42.997215]}},{"properties":{"cityname":"Rochester Hills","name":"980654Rita L Smith","statecode":"MI","zipcode":"48306","geo_score":0.902,"caseload":"Provider","addressline":"3508 Summit Ridge Dr.","id":"a64u6f2uriwp","geo_precision":"street"},"type":"Feature","geometry":{"type":"Point","coordinates":[-83.202093,42.708743]}},{"properties":{"cityname":"Flint","name":"990268Tracy Lynn Smith","statecode":"MI","zipcode":"48532","geo_score":1.0,"caseload":"Provider","addressline":"2097 Monaco St","id":"a64u6f1t8zgc","geo_precision":"range"},"type":"Feature","geometry":{"type":"Point","coordinates":[-83.759703,42.999431]}},{"properties":{"cityname":"Lapeer","name":"990279Bonnie L Scott","statecode":"MI","zipcode":"48446","geo_score":0.919,"caseload":"Provider","addressline":"1268 Sharon Dr.","id":"a64u6f2sls6m","geo_precision":"range"},"type":"Feature","geometry":{"type":"Point","coordinates":[-83.327166,43.026525]}},{"properties":{"cityname":"Fort Gratiot","name":"990286Gayle Sovereen","statecode":"MI","zipcode":"48059","geo_score":0.911,"caseload":"Provider","addressline":"4096 Keewahdin Rd","id":"a64u6fbgz1q3","geo_precision":"range"},"type":"Feature","geometry":{"type":"Point","coordinates":[-82.498896,43.038439]}},{"properties":{"cityname":"Flint","name":"990476Holly Boven","statecode":"MI","zipcode":"48506","geo_score":1.0,"caseload":"Provider","addressline":"2429 Ohio Ave","id":"a64u6fe7vipy","geo_precision":"range"},"type":"Feature","geometry":{"type":"Point","coordinates":[-83.659275,43.030289]}},{"properties":{"cityname":"Burton","name":"990565Joyce Simpson","statecode":"MI","zipcode":"48509","geo_score":0.92,"caseload":"Provider","addressline":"1037 Glendale","id":"a64u6f3j0yis","geo_precision":"range"},"type":"Feature","geometry":{"type":"Point","coordinates":[-83.601509,43.017987]}},{"properties":{"cityname":"Millington","name":"990611Jodie Holtsberry","statecode":"MI","zipcode":"48746","geo_score":1.0,"caseload":"Provider","addressline":"14283 Taylor Rd","id":"a64u6ff6l3gp","geo_precision":"range"},"type":"Feature","geometry":{"type":"Point","coordinates":[-83.569995,43.215565]}},{"properties":{"cityname":"Flint","name":"990657Carmita Lewis","statecode":"MI","zipcode":"48532","geo_score":0.482,"caseload":"Provider","addressline":"4185 W. Court","id":"a64u6f5whoft","geo_precision":"street"},"type":"Feature","geometry":{"type":"Point","coordinates":[-83.740436,43.006892]}}],"is_temporal":false,"author":{"url":"","metadata":"","contact_name":"","contact_address":"","source":"","contact_phone":""},"source":"","pagination":{"sort":null,"start":0,"total":238,"limit":1000000},"state":"complete","tags":"","published":"2014-08-13T04:25:58-04:00","id":135565}