{"type":"FeatureCollection","data_type":"Dataset","url_type":null,"permissions":[{"permissions":{"download":true,"view":true},"group_id":"everyone"}],"classification":null,"title":"attendance","count":49,"stream_id":135611,"contributor":{"url":"http://geocommons.com/users/28890","name":"ekburns"},"data_attributes":null,"calculation_params":null,"icon_link":null,"link":"http://geocommons.com/overlays/135611.json","extent":[0.0,0.0,0.0,0.0],"geometry_types":[],"unique_name":null,"name":"attendance","feature_count":49,"description":"","next_feature":null,"is_raster":false,"short_classification":"Y","stats":{},"features":[{"properties":{"geo_score":0.0,"percentage":"58%","id":"a65xy2eoodwg","geo_precision":"unmatched","state":"Alabama"},"type":"Feature","geometry":null},{"properties":{"geo_score":0.0,"percentage":"58%","id":"a65xy2pxxhmo","geo_precision":"unmatched","state":"Louisiana"},"type":"Feature","geometry":null},{"properties":{"geo_score":0.0,"percentage":"58%","id":"a65xy2jv854t","geo_precision":"unmatched","state":"South Carolina"},"type":"Feature","geometry":null},{"properties":{"geo_score":0.0,"percentage":"57%","id":"a65xy2jccc8o","geo_precision":"unmatched","state":"Mississippi"},"type":"Feature","geometry":null},{"properties":{"geo_score":0.0,"percentage":"55%","id":"a65xy2dm23eg","geo_precision":"unmatched","state":"Arkansas"},"type":"Feature","geometry":null},{"properties":{"geo_score":0.0,"percentage":"55%","id":"a65xy2d5i198","geo_precision":"unmatched","state":"Utah"},"type":"Feature","geometry":null},{"properties":{"geo_score":0.0,"percentage":"53%","id":"a65xy2jigua5","geo_precision":"unmatched","state":"Nebraska"},"type":"Feature","geometry":null},{"properties":{"geo_score":0.0,"percentage":"53%","id":"a65xy2jfov2r","geo_precision":"unmatched","state":"North Carolina"},"type":"Feature","geometry":null},{"properties":{"geo_score":0.0,"percentage":"52%","id":"a65xy2j180ux","geo_precision":"unmatched","state":"Georgia (U.S. state)"},"type":"Feature","geometry":null},{"properties":{"geo_score":0.0,"percentage":"52%","id":"a65xy2fnjr0t","geo_precision":"unmatched","state":"Tennessee"},"type":"Feature","geometry":null},{"properties":{"geo_score":0.0,"percentage":"50%","id":"a65xy2iaeifn","geo_precision":"unmatched","state":"Oklahoma"},"type":"Feature","geometry":null},{"properties":{"geo_score":0.0,"percentage":"49%","id":"a65xy2mz1ly7","geo_precision":"unmatched","state":"Texas"},"type":"Feature","geometry":null},{"properties":{"geo_score":0.0,"percentage":"48%","id":"a65xy2riprgh","geo_precision":"unmatched","state":"Kentucky"},"type":"Feature","geometry":null},{"properties":{"geo_score":0.0,"percentage":"47%","id":"a65xy2gwypm5","geo_precision":"unmatched","state":"Kansas"},"type":"Feature","geometry":null},{"properties":{"geo_score":0.0,"percentage":"46%","id":"a65xy2lqt80f","geo_precision":"unmatched","state":"Indiana"},"type":"Feature","geometry":null},{"properties":{"geo_score":0.0,"percentage":"46%","id":"a65xy2j23lyb","geo_precision":"unmatched","state":"Iowa"},"type":"Feature","geometry":null},{"properties":{"geo_score":0.0,"percentage":"46%","id":"a65xy2e2gt1r","geo_precision":"unmatched","state":"Missouri"},"type":"Feature","geometry":null},{"properties":{"geo_score":0.0,"percentage":"46%","id":"a65xy2pstfsj","geo_precision":"unmatched","state":"West Virginia"},"type":"Feature","geometry":null},{"properties":{"geo_score":0.0,"percentage":"45%","id":"a65xy2h5n7fk","geo_precision":"unmatched","state":"South Dakota"},"type":"Feature","geometry":null},{"properties":{"geo_score":0.0,"percentage":"44%","id":"a65xy2nqr73u","geo_precision":"unmatched","state":"Minnesota"},"type":"Feature","geometry":null},{"properties":{"geo_score":0.0,"percentage":"44%","id":"a65xy2hedt9y","geo_precision":"unmatched","state":"Virginia"},"type":"Feature","geometry":null},{"properties":{"geo_score":0.0,"percentage":"43%","id":"a65xy2ms3pr5","geo_precision":"unmatched","state":"Delaware"},"type":"Feature","geometry":null},{"properties":{"geo_score":0.0,"percentage":"43%","id":"a65xy2k40okj","geo_precision":"unmatched","state":"Idaho"},"type":"Feature","geometry":null},{"properties":{"geo_score":0.0,"percentage":"43%","id":"a65xy2rs3w3z","geo_precision":"unmatched","state":"North Dakota"},"type":"Feature","geometry":null},{"properties":{"geo_score":0.0,"percentage":"43%","id":"a65xy2pxsodp","geo_precision":"unmatched","state":"Ohio"},"type":"Feature","geometry":null},{"properties":{"geo_score":0.0,"percentage":"43%","id":"a65xy2sf0lwy","geo_precision":"unmatched","state":"Pennsylvania"},"type":"Feature","geometry":null},{"properties":{"geo_score":0.0,"percentage":"43%","id":"a65xy2jsazvw","geo_precision":"unmatched","state":"Wisconsin"},"type":"Feature","geometry":null},{"properties":{"geo_score":0.0,"percentage":"42%","id":"a65xy2ddwytv","geo_precision":"unmatched","state":"Illinois"},"type":"Feature","geometry":null},{"properties":{"geo_score":0.0,"percentage":"42%","id":"a65xy2qbjybp","geo_precision":"unmatched","state":"Michigan"},"type":"Feature","geometry":null},{"properties":{"geo_score":0.0,"percentage":"41%","id":"a65xy2ja4mg8","geo_precision":"unmatched","state":"Maryland"},"type":"Feature","geometry":null},{"properties":{"geo_score":0.0,"percentage":"41%","id":"a65xy2l4j9mv","geo_precision":"unmatched","state":"New Mexico"},"type":"Feature","geometry":null},{"properties":{"geo_score":0.0,"percentage":"39%","id":"a65xy2fvng2s","geo_precision":"unmatched","state":"Florida"},"type":"Feature","geometry":null},{"properties":{"geo_score":0.0,"percentage":"37%","id":"a65xy2pljfay","geo_precision":"unmatched","state":"Connecticut"},"type":"Feature","geometry":null},{"properties":{"geo_score":0.0,"percentage":"36%","id":"a65xy2nwkqqn","geo_precision":"unmatched","state":"Wyoming"},"type":"Feature","geometry":null},{"properties":{"geo_score":0.0,"percentage":"35%","id":"a65xy2e246b8","geo_precision":"unmatched","state":"Arizona"},"type":"Feature","geometry":null},{"properties":{"geo_score":0.0,"percentage":"35%","id":"a65xy2nw4ra6","geo_precision":"unmatched","state":"Colorado"},"type":"Feature","geometry":null},{"properties":{"geo_score":0.0,"percentage":"34%","id":"a65xy2otawzy","geo_precision":"unmatched","state":"Montana"},"type":"Feature","geometry":null},{"properties":{"geo_score":0.0,"percentage":"34%","id":"a65xy2o19h7u","geo_precision":"unmatched","state":"New Jersey"},"type":"Feature","geometry":null},{"properties":{"geo_score":0.0,"percentage":"33%","id":"a65xy2qre8ng","geo_precision":"unmatched","state":"District of Columbia"},"type":"Feature","geometry":null},{"properties":{"geo_score":0.0,"percentage":"33%","id":"a65xy2howj1x","geo_precision":"unmatched","state":"New York"},"type":"Feature","geometry":null},{"properties":{"geo_score":0.0,"percentage":"32%","id":"a65xy2rjwpc4","geo_precision":"unmatched","state":"California"},"type":"Feature","geometry":null},{"properties":{"geo_score":0.0,"percentage":"32%","id":"a65xy2oz0o6j","geo_precision":"unmatched","state":"Oregon"},"type":"Feature","geometry":null},{"properties":{"geo_score":0.0,"percentage":"32%","id":"a65xy2sh7koj","geo_precision":"unmatched","state":"Washington"},"type":"Feature","geometry":null},{"properties":{"geo_score":0.0,"percentage":"31%","id":"a65xy2omzw7o","geo_precision":"unmatched","state":"Maine"},"type":"Feature","geometry":null},{"properties":{"geo_score":0.0,"percentage":"31%","id":"a65xy2eiq383","geo_precision":"unmatched","state":"Massachusetts"},"type":"Feature","geometry":null},{"properties":{"geo_score":0.0,"percentage":"28%","id":"a65xy2i25llu","geo_precision":"unmatched","state":"Rhode Island"},"type":"Feature","geometry":null},{"properties":{"geo_score":0.0,"percentage":"27%","id":"a65xy2ibn3c1","geo_precision":"unmatched","state":"Nevada"},"type":"Feature","geometry":null},{"properties":{"geo_score":0.0,"percentage":"24%","id":"a65xy2tiovyz","geo_precision":"unmatched","state":"New Hampshire"},"type":"Feature","geometry":null},{"properties":{"geo_score":0.0,"percentage":"24%","id":"a65xy2myorad","geo_precision":"unmatched","state":"Vermont"},"type":"Feature","geometry":null}],"is_temporal":false,"author":{"url":"","metadata":"","contact_name":"","contact_address":"","source":"","contact_phone":""},"source":"","pagination":{"sort":null,"start":0,"total":49,"limit":1000000},"state":"complete","tags":"","published":"2014-08-13T04:33:40-04:00","id":135611}