{"type":"FeatureCollection","data_type":"Dataset","url_type":null,"permissions":[{"permissions":{"download":true,"view":true},"group_id":"everyone"}],"classification":null,"title":"Seattle-WSDOT_traffic_twittter_Stream","count":56,"stream_id":13575,"contributor":{"url":"http://geocommons.com/users/7141","name":"jaganrvce"},"data_attributes":null,"calculation_params":null,"icon_link":null,"link":"http://geocommons.com/overlays/13575.json","extent":[-122.378,47.4082,-122.133,47.756],"geometry_types":["point"],"unique_name":null,"name":"Seattle-WSDOT_traffic_twittter_Stream","feature_count":56,"description":"","next_feature":null,"is_raster":false,"short_classification":"Y","stats":{"latitude":{"max":47.75597,"mean":47.5742985714286,"variance":0.0077054089949039,"stdev":0.0877804590720731,"min":47.40817,"median":47.594061},"accidentcount":{"max":30.0,"mean":3.44642857142857,"variance":29.1243506493506,"stdev":5.39669812471947,"min":1.0,"median":2.0},"longitude":{"max":-122.132812,"mean":-122.31000775,"variance":0.00152118434193639,"stdev":0.0390023632865547,"min":-122.377887,"median":-122.322429}},"features":[{"properties":{"latitude":47.40817,"accidentcount":1.0,"longitude":-122.291829,"id":"a63e92jx0swv","address":"I-5 and S 216th st  Seattle WA"},"type":"Feature","geometry":{"type":"Point","coordinates":[-122.291829,47.40817]}},{"properties":{"latitude":47.4316,"accidentcount":1.0,"longitude":-122.271809,"id":"a63e92ruf1ba","address":"I-5 and S 188th ST  Seattle WA"},"type":"Feature","geometry":{"type":"Point","coordinates":[-122.271809,47.4316]}},{"properties":{"latitude":47.450987,"accidentcount":1.0,"longitude":-122.331969,"id":"a63e92ig4u4c","address":"Sr-169 and 140th way se  Seattle WA"},"type":"Feature","geometry":{"type":"Point","coordinates":[-122.331969,47.450987]}},{"properties":{"latitude":47.45307,"accidentcount":1.0,"longitude":-122.351269,"id":"a63e92tyrein","address":"SR 167 and 15th ST SW  Seattle WA"},"type":"Feature","geometry":{"type":"Point","coordinates":[-122.351269,47.45307]}},{"properties":{"latitude":47.75054,"accidentcount":1.0,"longitude":-122.377887,"id":"a63e92tziarw","address":"Sr-167 and 15th st NW  Seattle WA"},"type":"Feature","geometry":{"type":"Point","coordinates":[-122.377887,47.75054]}},{"properties":{"latitude":47.66134,"accidentcount":1.0,"longitude":-122.322429,"id":"a63e92ffzou9","address":"I-5 and ne 45th st  Seattle WA"},"type":"Feature","geometry":{"type":"Point","coordinates":[-122.322429,47.66134]}},{"properties":{"latitude":47.63931,"accidentcount":1.0,"longitude":-122.347119,"id":"a63e92gj4u24","address":"I-5 and Boylston Ave  Seattle WA"},"type":"Feature","geometry":{"type":"Point","coordinates":[-122.347119,47.63931]}},{"properties":{"latitude":47.63867,"accidentcount":1.0,"longitude":-122.363634,"id":"a63e92fy6n4l","address":"I-5 and 44th ave W  Seattle WA"},"type":"Feature","geometry":{"type":"Point","coordinates":[-122.363634,47.63867]}},{"properties":{"latitude":47.668875,"accidentcount":1.0,"longitude":-122.306494,"id":"a63e92ihltga","address":"Sr-20 and lyman hamilton  Seattle WA"},"type":"Feature","geometry":{"type":"Point","coordinates":[-122.306494,47.668875]}},{"properties":{"latitude":47.613,"accidentcount":1.0,"longitude":-122.337849,"id":"a63e92m7m5p0","address":"I-5 and stewart st  Seattle WA"},"type":"Feature","geometry":{"type":"Point","coordinates":[-122.337849,47.613]}},{"properties":{"latitude":47.470395,"accidentcount":1.0,"longitude":-122.332134,"id":"a63e92l88bv1","address":"Sr-518 and 51st st  Seattle WA"},"type":"Feature","geometry":{"type":"Point","coordinates":[-122.332134,47.470395]}},{"properties":{"latitude":47.610645,"accidentcount":1.0,"longitude":-122.340094,"id":"a63e92f4wr1g","address":"Us-2 and homeacres rd  Seattle WA"},"type":"Feature","geometry":{"type":"Point","coordinates":[-122.340094,47.610645]}},{"properties":{"latitude":47.48352,"accidentcount":1.0,"longitude":-122.270349,"id":"a63e92m3hbt7","address":"I-5 at Interurban st  Seattle WA"},"type":"Feature","geometry":{"type":"Point","coordinates":[-122.270349,47.48352]}},{"properties":{"latitude":47.4885,"accidentcount":1.0,"longitude":-122.326659,"id":"a63e92ub5bgt","address":"Sr-509 and s 128th st  Seattle WA"},"type":"Feature","geometry":{"type":"Point","coordinates":[-122.326659,47.4885]}},{"properties":{"latitude":47.50783,"accidentcount":1.0,"longitude":-122.281429,"id":"a63e92mbj5xz","address":"I-5 and S boeing field  Seattle WA"},"type":"Feature","geometry":{"type":"Point","coordinates":[-122.281429,47.50783]}},{"properties":{"latitude":47.51239,"accidentcount":1.0,"longitude":-122.249394,"id":"a63e92soduuz","address":"Sr-167 and sr-516  Seattle WA"},"type":"Feature","geometry":{"type":"Point","coordinates":[-122.249394,47.51239]}},{"properties":{"latitude":47.6043,"accidentcount":1.0,"longitude":-122.327699,"id":"a63e92i6t4w3","address":"I-5 and james st  Seattle WA"},"type":"Feature","geometry":{"type":"Point","coordinates":[-122.327699,47.6043]}},{"properties":{"latitude":47.60358,"accidentcount":1.0,"longitude":-122.329454,"id":"a63e92n9ujr4","address":"Us 2 and homeacres rd  Seattle WA"},"type":"Feature","geometry":{"type":"Point","coordinates":[-122.329454,47.60358]}},{"properties":{"latitude":47.66498,"accidentcount":1.0,"longitude":-122.321789,"id":"a63e92j1ca2i","address":"I-5 and ne 50th st  Seattle WA"},"type":"Feature","geometry":{"type":"Point","coordinates":[-122.321789,47.66498]}},{"properties":{"latitude":47.53417,"accidentcount":1.0,"longitude":-122.332169,"id":"a63e92ncq8yl","address":"SR-99 and W Marginal way  Seattle WA"},"type":"Feature","geometry":{"type":"Point","coordinates":[-122.332169,47.53417]}},{"properties":{"latitude":47.593645,"accidentcount":1.0,"longitude":-122.320608,"id":"a63e92g27bbv","address":"I-5 and i-90  Seattle WA"},"type":"Feature","geometry":{"type":"Point","coordinates":[-122.320608,47.593645]}},{"properties":{"latitude":47.544402,"accidentcount":1.0,"longitude":-122.333826,"id":"a63e92nelb1l","address":"SR-99 and Michigan st  Seattle WA"},"type":"Feature","geometry":{"type":"Point","coordinates":[-122.333826,47.544402]}},{"properties":{"latitude":47.57258,"accidentcount":1.0,"longitude":-122.319869,"id":"a63e92s2qnxg","address":"I-5 and columbian way  Seattle WA"},"type":"Feature","geometry":{"type":"Point","coordinates":[-122.319869,47.57258]}},{"properties":{"latitude":47.552311,"accidentcount":1.0,"longitude":-122.132812,"id":"a63e92tumruo","address":"Sr 18 and tiger summit  Seattle WA"},"type":"Feature","geometry":{"type":"Point","coordinates":[-122.132812,47.552311]}},{"properties":{"latitude":47.46144,"accidentcount":2.0,"longitude":-122.265109,"id":"a63e92to5k1v","address":"I-405 and i-5  Seattle WA"},"type":"Feature","geometry":{"type":"Point","coordinates":[-122.265109,47.46144]}},{"properties":{"latitude":47.665725,"accidentcount":2.0,"longitude":-122.326949,"id":"a63e92ritckm","address":"Sr 520 and NE 51st st  Seattle WA"},"type":"Feature","geometry":{"type":"Point","coordinates":[-122.326949,47.665725]}},{"properties":{"latitude":47.58998,"accidentcount":2.0,"longitude":-122.307079,"id":"a63e92g4d2qm","address":"I-90 and rainier  Seattle WA"},"type":"Feature","geometry":{"type":"Point","coordinates":[-122.307079,47.58998]}},{"properties":{"latitude":47.54048,"accidentcount":2.0,"longitude":-122.334599,"id":"a63e92pagtm8","address":"Sr 509 and first ave  Seattle WA"},"type":"Feature","geometry":{"type":"Point","coordinates":[-122.334599,47.54048]}},{"properties":{"latitude":47.51885,"accidentcount":2.0,"longitude":-122.330395,"id":"a63e92mxap5b","address":"Sr-509 and S 120th st  Seattle WA"},"type":"Feature","geometry":{"type":"Point","coordinates":[-122.330395,47.51885]}},{"properties":{"latitude":47.73407,"accidentcount":2.0,"longitude":-122.324999,"id":"a63e92htego9","address":"I-5 and NE 145th ST  Seattle WA"},"type":"Feature","geometry":{"type":"Point","coordinates":[-122.324999,47.73407]}},{"properties":{"latitude":47.59584,"accidentcount":2.0,"longitude":-122.320489,"id":"a63e92fciy11","address":"I-5 and dearborn  Seattle WA"},"type":"Feature","geometry":{"type":"Point","coordinates":[-122.320489,47.59584]}},{"properties":{"latitude":47.46274,"accidentcount":2.0,"longitude":-122.265709,"id":"a63e92u709ud","address":"I-5 and SR-518  Seattle WA"},"type":"Feature","geometry":{"type":"Point","coordinates":[-122.265709,47.46274]}},{"properties":{"latitude":47.603215,"accidentcount":2.0,"longitude":-122.284579,"id":"a63e92so1ldd","address":"Sr 520 and lk washington blvd  Seattle WA"},"type":"Feature","geometry":{"type":"Point","coordinates":[-122.284579,47.603215]}},{"properties":{"latitude":47.69028,"accidentcount":2.0,"longitude":-122.328929,"id":"a63e92u0xcvk","address":"I-5 and NE 85th st  Seattle WA"},"type":"Feature","geometry":{"type":"Point","coordinates":[-122.328929,47.69028]}},{"properties":{"latitude":47.518185,"accidentcount":2.0,"longitude":-122.341594,"id":"a63e92sexyck","address":"I-5 and 128th ST SW  Seattle WA"},"type":"Feature","geometry":{"type":"Point","coordinates":[-122.341594,47.518185]}},{"properties":{"latitude":47.636747,"accidentcount":2.0,"longitude":-122.323309,"id":"a63e92mcb29x","address":"I-5 and Lakeview BLVD  Seattle WA"},"type":"Feature","geometry":{"type":"Point","coordinates":[-122.323309,47.636747]}},{"properties":{"latitude":47.51239,"accidentcount":2.0,"longitude":-122.249394,"id":"a63e92moqj6m","address":"SR-167 and S 180th St  Seattle WA"},"type":"Feature","geometry":{"type":"Point","coordinates":[-122.249394,47.51239]}},{"properties":{"latitude":47.46504,"accidentcount":3.0,"longitude":-122.266919,"id":"a63e92j5afou","address":"I-5 and southcenter  Seattle WA"},"type":"Feature","geometry":{"type":"Point","coordinates":[-122.266919,47.46504]}},{"properties":{"latitude":47.61628,"accidentcount":3.0,"longitude":-122.308834,"id":"a63e92rjh9ia","address":"SR-18 and Tiger Summit  Seattle WA"},"type":"Feature","geometry":{"type":"Point","coordinates":[-122.308834,47.61628]}},{"properties":{"latitude":47.70862,"accidentcount":3.0,"longitude":-122.330139,"id":"a63e92fwh0c4","address":"I-5 and NE northgate way  Seattle WA"},"type":"Feature","geometry":{"type":"Point","coordinates":[-122.330139,47.70862]}},{"properties":{"latitude":47.64436,"accidentcount":3.0,"longitude":-122.304499,"id":"a63e92teingb","address":"SR-520 and Montlake Blvd  Seattle WA"},"type":"Feature","geometry":{"type":"Point","coordinates":[-122.304499,47.64436]}},{"properties":{"latitude":47.54843,"accidentcount":3.0,"longitude":-122.312049,"id":"a63e92gimu60","address":"I-5 and Albro place  Seattle WA"},"type":"Feature","geometry":{"type":"Point","coordinates":[-122.312049,47.54843]}},{"properties":{"latitude":47.60171,"accidentcount":3.0,"longitude":-122.324509,"id":"a63e92ogmva5","address":"I-5 and Yesler way  Seattle WA"},"type":"Feature","geometry":{"type":"Point","coordinates":[-122.324509,47.60171]}},{"properties":{"latitude":47.59416,"accidentcount":4.0,"longitude":-122.319044,"id":"a63e92kln5co","address":"I-90 and 148th ave se  Seattle WA"},"type":"Feature","geometry":{"type":"Point","coordinates":[-122.319044,47.59416]}},{"properties":{"latitude":47.481186,"accidentcount":4.0,"longitude":-122.271828,"id":"a63e92p1lexm","address":"I-5 and Corson Ave  Seattle WA"},"type":"Feature","geometry":{"type":"Point","coordinates":[-122.271828,47.481186]}},{"properties":{"latitude":47.72311,"accidentcount":4.0,"longitude":-122.324459,"id":"a63e92g1vzwu","address":"I-5 and NE 130th ST  Seattle WA"},"type":"Feature","geometry":{"type":"Point","coordinates":[-122.324459,47.72311]}},{"properties":{"latitude":47.617367,"accidentcount":4.0,"longitude":-122.328755,"id":"a63e92id2eso","address":"I-5 and mercer st  Seattle WA"},"type":"Feature","geometry":{"type":"Point","coordinates":[-122.328755,47.617367]}},{"properties":{"latitude":47.75597,"accidentcount":4.0,"longitude":-122.329759,"id":"a63e92it4yws","address":"I-5 and NE 175th st  Seattle WA"},"type":"Feature","geometry":{"type":"Point","coordinates":[-122.329759,47.75597]}},{"properties":{"latitude":47.594061,"accidentcount":5.0,"longitude":-122.313261,"id":"a63e92g07vov","address":"I-90 and 76th ave se  Seattle WA"},"type":"Feature","geometry":{"type":"Point","coordinates":[-122.313261,47.594061]}},{"properties":{"latitude":47.603561,"accidentcount":5.0,"longitude":-122.329437,"id":"a63e92iiv71a","address":"SR 525 and Beverly Park RD  Seattle WA"},"type":"Feature","geometry":{"type":"Point","coordinates":[-122.329437,47.603561]}},{"properties":{"latitude":47.45859,"accidentcount":6.0,"longitude":-122.263904,"id":"a63e92uo8ojr","address":"I-5 and S 183rd st  Seattle WA"},"type":"Feature","geometry":{"type":"Point","coordinates":[-122.263904,47.45859]}},{"properties":{"latitude":47.46389,"accidentcount":6.0,"longitude":-122.245629,"id":"a63e92lhqg3k","address":"I-405 and w valley hwy  Seattle WA"},"type":"Feature","geometry":{"type":"Point","coordinates":[-122.245629,47.46389]}},{"properties":{"latitude":47.61737,"accidentcount":11.0,"longitude":-122.328552,"id":"a63e92pfs7uf","address":"I-5 and 41st ST  Seattle WA"},"type":"Feature","geometry":{"type":"Point","coordinates":[-122.328552,47.61737]}},{"properties":{"latitude":47.64304,"accidentcount":17.0,"longitude":-122.315649,"id":"a63e92ewepiq","address":"SR-520 and 148th AVE NE  Seattle WA"},"type":"Feature","geometry":{"type":"Point","coordinates":[-122.315649,47.64304]}},{"properties":{"latitude":47.572523,"accidentcount":25.0,"longitude":-122.360458,"id":"a63e92ozpz2i","address":"I-5 and Lake City Way  Seattle WA"},"type":"Feature","geometry":{"type":"Point","coordinates":[-122.360458,47.572523]}},{"properties":{"latitude":47.4627,"accidentcount":30.0,"longitude":-122.259044,"id":"a63e92hpz8yp","address":"I-405 and NE 124th ST  Seattle WA"},"type":"Feature","geometry":{"type":"Point","coordinates":[-122.259044,47.4627]}}],"is_temporal":false,"author":{"url":"","metadata":"","contact_name":"","contact_address":"","source":"","contact_phone":""},"source":"","pagination":{"sort":null,"start":0,"total":56,"limit":1000000},"state":"complete","tags":"traffic","published":"2014-08-10T16:44:07-04:00","id":13575}