{"type":"FeatureCollection","data_type":"Dataset","url_type":null,"permissions":[{"permissions":{"download":true,"view":true},"group_id":"everyone"}],"classification":null,"title":"Seattle-WSDOT_traffic_twittter_Stream","count":191,"stream_id":13574,"contributor":{"url":"http://geocommons.com/users/7141","name":"jaganrvce"},"data_attributes":null,"calculation_params":null,"icon_link":null,"link":"http://geocommons.com/overlays/13574.json","extent":[-122.378,47.4082,-122.133,47.756],"geometry_types":["point"],"unique_name":null,"name":"Seattle-WSDOT_traffic_twittter_Stream","feature_count":191,"description":"","next_feature":null,"is_raster":false,"short_classification":"Y","stats":{"latitude":{"max":47.75597,"mean":47.567367486911,"variance":0.00712679342739856,"stdev":0.0844203377593253,"min":47.40817,"median":47.572523},"longitude":{"max":-122.132812,"mean":-122.308073706806,"variance":0.00144763818323982,"stdev":0.0380478407171789,"min":-122.377887,"median":-122.319044}},"features":[{"properties":{"latitude":47.4627,"longitude":-122.259044,"id":"a63e92h924s5","address":"I-405 and I-90  Seattle WA"},"type":"Feature","geometry":{"type":"Point","coordinates":[-122.259044,47.4627]}},{"properties":{"latitude":47.4627,"longitude":-122.259044,"id":"a63e92t81dl0","address":"I-405 and I-90  Seattle WA"},"type":"Feature","geometry":{"type":"Point","coordinates":[-122.259044,47.4627]}},{"properties":{"latitude":47.4627,"longitude":-122.259044,"id":"a63e92r5zgts","address":"I-405 and I-90  Seattle WA"},"type":"Feature","geometry":{"type":"Point","coordinates":[-122.259044,47.4627]}},{"properties":{"latitude":47.4627,"longitude":-122.259044,"id":"a63e92m175cy","address":"I-405 and NE 124th ST  Seattle WA"},"type":"Feature","geometry":{"type":"Point","coordinates":[-122.259044,47.4627]}},{"properties":{"latitude":47.4627,"longitude":-122.259044,"id":"a63e92itf47k","address":"I-405 and NE 195th ST  Seattle WA"},"type":"Feature","geometry":{"type":"Point","coordinates":[-122.259044,47.4627]}},{"properties":{"latitude":47.4627,"longitude":-122.259044,"id":"a63e92ut5wo4","address":"I-405 and SR-167  Seattle WA"},"type":"Feature","geometry":{"type":"Point","coordinates":[-122.259044,47.4627]}},{"properties":{"latitude":47.4627,"longitude":-122.259044,"id":"a63e92sz5pe6","address":"I-405 and SR-169  Seattle WA"},"type":"Feature","geometry":{"type":"Point","coordinates":[-122.259044,47.4627]}},{"properties":{"latitude":47.46389,"longitude":-122.245629,"id":"a63e92tt9vdk","address":"I-405 and SR-181  Seattle WA"},"type":"Feature","geometry":{"type":"Point","coordinates":[-122.245629,47.46389]}},{"properties":{"latitude":47.46389,"longitude":-122.245629,"id":"a63e92tk6093","address":"I-405 and SR-181  Seattle WA"},"type":"Feature","geometry":{"type":"Point","coordinates":[-122.245629,47.46389]}},{"properties":{"latitude":47.46389,"longitude":-122.245629,"id":"a63e92le32jp","address":"I-405 and SR-181  Seattle WA"},"type":"Feature","geometry":{"type":"Point","coordinates":[-122.245629,47.46389]}},{"properties":{"latitude":47.46389,"longitude":-122.245629,"id":"a63e92pfqjcl","address":"I-405 and SR-181  Seattle WA"},"type":"Feature","geometry":{"type":"Point","coordinates":[-122.245629,47.46389]}},{"properties":{"latitude":47.4627,"longitude":-122.259044,"id":"a63e92j2r19h","address":"I-405 and coal crk pkwy  Seattle WA"},"type":"Feature","geometry":{"type":"Point","coordinates":[-122.259044,47.4627]}},{"properties":{"latitude":47.46144,"longitude":-122.265109,"id":"a63e92qj5fb5","address":"I-405 and i-5  Seattle WA"},"type":"Feature","geometry":{"type":"Point","coordinates":[-122.265109,47.46144]}},{"properties":{"latitude":47.46144,"longitude":-122.265109,"id":"a63e92isatzg","address":"I-405 and i-5  Seattle WA"},"type":"Feature","geometry":{"type":"Point","coordinates":[-122.265109,47.46144]}},{"properties":{"latitude":47.4627,"longitude":-122.259044,"id":"a63e92hxafbe","address":"I-405 and i-90  Seattle WA"},"type":"Feature","geometry":{"type":"Point","coordinates":[-122.259044,47.4627]}},{"properties":{"latitude":47.4627,"longitude":-122.259044,"id":"a63e92mzrsrk","address":"I-405 and i-90  Seattle WA"},"type":"Feature","geometry":{"type":"Point","coordinates":[-122.259044,47.4627]}},{"properties":{"latitude":47.4627,"longitude":-122.259044,"id":"a63e92t7uaa0","address":"I-405 and i-90  Seattle WA"},"type":"Feature","geometry":{"type":"Point","coordinates":[-122.259044,47.4627]}},{"properties":{"latitude":47.4627,"longitude":-122.259044,"id":"a63e92f6v8z6","address":"I-405 and i-90  Seattle WA"},"type":"Feature","geometry":{"type":"Point","coordinates":[-122.259044,47.4627]}},{"properties":{"latitude":47.4627,"longitude":-122.259044,"id":"a63e92lfjyad","address":"I-405 and i-90  Seattle WA"},"type":"Feature","geometry":{"type":"Point","coordinates":[-122.259044,47.4627]}},{"properties":{"latitude":47.4627,"longitude":-122.259044,"id":"a63e92ifi80i","address":"I-405 and i-90  Seattle WA"},"type":"Feature","geometry":{"type":"Point","coordinates":[-122.259044,47.4627]}},{"properties":{"latitude":47.4627,"longitude":-122.259044,"id":"a63e92iw5eo6","address":"I-405 and lind ave sw  Seattle WA"},"type":"Feature","geometry":{"type":"Point","coordinates":[-122.259044,47.4627]}},{"properties":{"latitude":47.4627,"longitude":-122.259044,"id":"a63e92nqxo89","address":"I-405 and ne 128th st  Seattle WA"},"type":"Feature","geometry":{"type":"Point","coordinates":[-122.259044,47.4627]}},{"properties":{"latitude":47.4627,"longitude":-122.259044,"id":"a63e92ti73ho","address":"I-405 and ne 160th st  Seattle WA"},"type":"Feature","geometry":{"type":"Point","coordinates":[-122.259044,47.4627]}},{"properties":{"latitude":47.4627,"longitude":-122.259044,"id":"a63e92hcz1op","address":"I-405 and ne 44th st  Seattle WA"},"type":"Feature","geometry":{"type":"Point","coordinates":[-122.259044,47.4627]}},{"properties":{"latitude":47.4627,"longitude":-122.259044,"id":"a63e92ju346p","address":"I-405 and ne 72nd pl  Seattle WA"},"type":"Feature","geometry":{"type":"Point","coordinates":[-122.259044,47.4627]}},{"properties":{"latitude":47.4627,"longitude":-122.259044,"id":"a63e92gdcpaw","address":"I-405 and ne 85th st  Seattle WA"},"type":"Feature","geometry":{"type":"Point","coordinates":[-122.259044,47.4627]}},{"properties":{"latitude":47.4627,"longitude":-122.259044,"id":"a63e92kfgxh2","address":"I-405 and ne park dr  Seattle WA"},"type":"Feature","geometry":{"type":"Point","coordinates":[-122.259044,47.4627]}},{"properties":{"latitude":47.4627,"longitude":-122.259044,"id":"a63e92iv9ie1","address":"I-405 and ne park dr  Seattle WA"},"type":"Feature","geometry":{"type":"Point","coordinates":[-122.259044,47.4627]}},{"properties":{"latitude":47.4627,"longitude":-122.259044,"id":"a63e92rayv8k","address":"I-405 and sr 520  Seattle WA"},"type":"Feature","geometry":{"type":"Point","coordinates":[-122.259044,47.4627]}},{"properties":{"latitude":47.4627,"longitude":-122.259044,"id":"a63e92mnw4ez","address":"I-405 and sr-167  Seattle WA"},"type":"Feature","geometry":{"type":"Point","coordinates":[-122.259044,47.4627]}},{"properties":{"latitude":47.4627,"longitude":-122.259044,"id":"a63e92oy4wj7","address":"I-405 and sr-167  Seattle WA"},"type":"Feature","geometry":{"type":"Point","coordinates":[-122.259044,47.4627]}},{"properties":{"latitude":47.4627,"longitude":-122.259044,"id":"a63e92hveq9f","address":"I-405 and sr-520  Seattle WA"},"type":"Feature","geometry":{"type":"Point","coordinates":[-122.259044,47.4627]}},{"properties":{"latitude":47.4627,"longitude":-122.259044,"id":"a63e92qvrynm","address":"I-405 and sr-522  Seattle WA"},"type":"Feature","geometry":{"type":"Point","coordinates":[-122.259044,47.4627]}},{"properties":{"latitude":47.4627,"longitude":-122.259044,"id":"a63e92r41vgs","address":"I-405 and sr-527  Seattle WA"},"type":"Feature","geometry":{"type":"Point","coordinates":[-122.259044,47.4627]}},{"properties":{"latitude":47.4627,"longitude":-122.259044,"id":"a63e92inxd0r","address":"I-405 and sunset blvd  Seattle WA"},"type":"Feature","geometry":{"type":"Point","coordinates":[-122.259044,47.4627]}},{"properties":{"latitude":47.46389,"longitude":-122.245629,"id":"a63e92ezfq1g","address":"I-405 and w valley hwy  Seattle WA"},"type":"Feature","geometry":{"type":"Point","coordinates":[-122.245629,47.46389]}},{"properties":{"latitude":47.46389,"longitude":-122.245629,"id":"a63e92u05j90","address":"I-405 and w valley hwy  Seattle WA"},"type":"Feature","geometry":{"type":"Point","coordinates":[-122.245629,47.46389]}},{"properties":{"latitude":47.518185,"longitude":-122.341594,"id":"a63e92nmtw2j","address":"I-5 and 128th ST SW  Seattle WA"},"type":"Feature","geometry":{"type":"Point","coordinates":[-122.341594,47.518185]}},{"properties":{"latitude":47.518185,"longitude":-122.341594,"id":"a63e92luo3l8","address":"I-5 and 128th ST SW  Seattle WA"},"type":"Feature","geometry":{"type":"Point","coordinates":[-122.341594,47.518185]}},{"properties":{"latitude":47.61737,"longitude":-122.328552,"id":"a63e92l17hie","address":"I-5 and 41st ST  Seattle WA"},"type":"Feature","geometry":{"type":"Point","coordinates":[-122.328552,47.61737]}},{"properties":{"latitude":47.45859,"longitude":-122.263904,"id":"a63e92gq4ncc","address":"I-5 and 41st ST SE  Seattle WA"},"type":"Feature","geometry":{"type":"Point","coordinates":[-122.263904,47.45859]}},{"properties":{"latitude":47.45859,"longitude":-122.263904,"id":"a63e92isprzw","address":"I-5 and 41st st se  Seattle WA"},"type":"Feature","geometry":{"type":"Point","coordinates":[-122.263904,47.45859]}},{"properties":{"latitude":47.63867,"longitude":-122.363634,"id":"a63e92kbn42x","address":"I-5 and 44th ave W  Seattle WA"},"type":"Feature","geometry":{"type":"Point","coordinates":[-122.363634,47.63867]}},{"properties":{"latitude":47.54843,"longitude":-122.312049,"id":"a63e92h3l142","address":"I-5 and Albro place  Seattle WA"},"type":"Feature","geometry":{"type":"Point","coordinates":[-122.312049,47.54843]}},{"properties":{"latitude":47.63931,"longitude":-122.347119,"id":"a63e92ls5mxt","address":"I-5 and Boylston Ave  Seattle WA"},"type":"Feature","geometry":{"type":"Point","coordinates":[-122.347119,47.63931]}},{"properties":{"latitude":47.481186,"longitude":-122.271828,"id":"a63e92p6ehvf","address":"I-5 and Corson Ave  Seattle WA"},"type":"Feature","geometry":{"type":"Point","coordinates":[-122.271828,47.481186]}},{"properties":{"latitude":47.45859,"longitude":-122.263904,"id":"a63e92slt7ik","address":"I-5 and Forest St  Seattle WA"},"type":"Feature","geometry":{"type":"Point","coordinates":[-122.263904,47.45859]}},{"properties":{"latitude":47.45859,"longitude":-122.263904,"id":"a63e92k4i18y","address":"I-5 and Forest st  Seattle WA"},"type":"Feature","geometry":{"type":"Point","coordinates":[-122.263904,47.45859]}},{"properties":{"latitude":47.572523,"longitude":-122.360458,"id":"a63e92j9swgf","address":"I-5 and Lake City Way  Seattle WA"},"type":"Feature","geometry":{"type":"Point","coordinates":[-122.360458,47.572523]}},{"properties":{"latitude":47.636747,"longitude":-122.323309,"id":"a63e92rd21gj","address":"I-5 and Lakeview BLVD  Seattle WA"},"type":"Feature","geometry":{"type":"Point","coordinates":[-122.323309,47.636747]}},{"properties":{"latitude":47.572523,"longitude":-122.360458,"id":"a63e92ifyxdv","address":"I-5 and Michigan ST  Seattle WA"},"type":"Feature","geometry":{"type":"Point","coordinates":[-122.360458,47.572523]}},{"properties":{"latitude":47.72311,"longitude":-122.324459,"id":"a63e92lhb42q","address":"I-5 and NE 130th ST  Seattle WA"},"type":"Feature","geometry":{"type":"Point","coordinates":[-122.324459,47.72311]}},{"properties":{"latitude":47.73407,"longitude":-122.324999,"id":"a63e92pexzq4","address":"I-5 and NE 145th ST  Seattle WA"},"type":"Feature","geometry":{"type":"Point","coordinates":[-122.324999,47.73407]}},{"properties":{"latitude":47.73407,"longitude":-122.324999,"id":"a63e92iypz7g","address":"I-5 and NE 145th st  Seattle WA"},"type":"Feature","geometry":{"type":"Point","coordinates":[-122.324999,47.73407]}},{"properties":{"latitude":47.75597,"longitude":-122.329759,"id":"a63e92fwv7vv","address":"I-5 and NE 175th st  Seattle WA"},"type":"Feature","geometry":{"type":"Point","coordinates":[-122.329759,47.75597]}},{"properties":{"latitude":47.75597,"longitude":-122.329759,"id":"a63e92lzsxcn","address":"I-5 and NE 175th st  Seattle WA"},"type":"Feature","geometry":{"type":"Point","coordinates":[-122.329759,47.75597]}},{"properties":{"latitude":47.75597,"longitude":-122.329759,"id":"a63e92m8vv3c","address":"I-5 and NE 175th st  Seattle WA"},"type":"Feature","geometry":{"type":"Point","coordinates":[-122.329759,47.75597]}},{"properties":{"latitude":47.572523,"longitude":-122.360458,"id":"a63e92otus8s","address":"I-5 and NE 195th st  Seattle WA"},"type":"Feature","geometry":{"type":"Point","coordinates":[-122.360458,47.572523]}},{"properties":{"latitude":47.572523,"longitude":-122.360458,"id":"a63e92nam4yr","address":"I-5 and NE 42nd st  Seattle WA"},"type":"Feature","geometry":{"type":"Point","coordinates":[-122.360458,47.572523]}},{"properties":{"latitude":47.69028,"longitude":-122.328929,"id":"a63e92qudi67","address":"I-5 and NE 85th st  Seattle WA"},"type":"Feature","geometry":{"type":"Point","coordinates":[-122.328929,47.69028]}},{"properties":{"latitude":47.70862,"longitude":-122.330139,"id":"a63e92ouxdrl","address":"I-5 and NE northgate way  Seattle WA"},"type":"Feature","geometry":{"type":"Point","coordinates":[-122.330139,47.70862]}},{"properties":{"latitude":47.45859,"longitude":-122.263904,"id":"a63e92g8sr9i","address":"I-5 and S 183rd st  Seattle WA"},"type":"Feature","geometry":{"type":"Point","coordinates":[-122.263904,47.45859]}},{"properties":{"latitude":47.4316,"longitude":-122.271809,"id":"a63e92fep8hf","address":"I-5 and S 188th ST  Seattle WA"},"type":"Feature","geometry":{"type":"Point","coordinates":[-122.271809,47.4316]}},{"properties":{"latitude":47.572523,"longitude":-122.360458,"id":"a63e92ex43io","address":"I-5 and S 200th st  Seattle WA"},"type":"Feature","geometry":{"type":"Point","coordinates":[-122.360458,47.572523]}},{"properties":{"latitude":47.40817,"longitude":-122.291829,"id":"a63e92tcgn93","address":"I-5 and S 216th st  Seattle WA"},"type":"Feature","geometry":{"type":"Point","coordinates":[-122.291829,47.40817]}},{"properties":{"latitude":47.572523,"longitude":-122.360458,"id":"a63e92n5at3w","address":"I-5 and S 266th st  Seattle WA"},"type":"Feature","geometry":{"type":"Point","coordinates":[-122.360458,47.572523]}},{"properties":{"latitude":47.572523,"longitude":-122.360458,"id":"a63e92sjfbqj","address":"I-5 and S Spokane ST  Seattle WA"},"type":"Feature","geometry":{"type":"Point","coordinates":[-122.360458,47.572523]}},{"properties":{"latitude":47.572523,"longitude":-122.360458,"id":"a63e92kacqly","address":"I-5 and S Spokane ST  Seattle WA"},"type":"Feature","geometry":{"type":"Point","coordinates":[-122.360458,47.572523]}},{"properties":{"latitude":47.572523,"longitude":-122.360458,"id":"a63e92tfdnv3","address":"I-5 and S Spokane St  Seattle WA"},"type":"Feature","geometry":{"type":"Point","coordinates":[-122.360458,47.572523]}},{"properties":{"latitude":47.572523,"longitude":-122.360458,"id":"a63e92untyu9","address":"I-5 and S Spokane St  Seattle WA"},"type":"Feature","geometry":{"type":"Point","coordinates":[-122.360458,47.572523]}},{"properties":{"latitude":47.50783,"longitude":-122.281429,"id":"a63e92q52qla","address":"I-5 and S boeing field  Seattle WA"},"type":"Feature","geometry":{"type":"Point","coordinates":[-122.281429,47.50783]}},{"properties":{"latitude":47.572523,"longitude":-122.360458,"id":"a63e92l471th","address":"I-5 and S spokane st  Seattle WA"},"type":"Feature","geometry":{"type":"Point","coordinates":[-122.360458,47.572523]}},{"properties":{"latitude":47.572523,"longitude":-122.360458,"id":"a63e92smgy96","address":"I-5 and S spokane st  Seattle WA"},"type":"Feature","geometry":{"type":"Point","coordinates":[-122.360458,47.572523]}},{"properties":{"latitude":47.572523,"longitude":-122.360458,"id":"a63e92l2vvo6","address":"I-5 and S spokane st  Seattle WA"},"type":"Feature","geometry":{"type":"Point","coordinates":[-122.360458,47.572523]}},{"properties":{"latitude":47.46274,"longitude":-122.265709,"id":"a63e92uzse02","address":"I-5 and SR-518  Seattle WA"},"type":"Feature","geometry":{"type":"Point","coordinates":[-122.265709,47.46274]}},{"properties":{"latitude":47.61737,"longitude":-122.328552,"id":"a63e92i33sbq","address":"I-5 and SR-520  Seattle WA"},"type":"Feature","geometry":{"type":"Point","coordinates":[-122.328552,47.61737]}},{"properties":{"latitude":47.61737,"longitude":-122.328552,"id":"a63e92s528lt","address":"I-5 and SR-526  Seattle WA"},"type":"Feature","geometry":{"type":"Point","coordinates":[-122.328552,47.61737]}},{"properties":{"latitude":47.60171,"longitude":-122.324509,"id":"a63e92huvjtj","address":"I-5 and Yesler way  Seattle WA"},"type":"Feature","geometry":{"type":"Point","coordinates":[-122.324509,47.60171]}},{"properties":{"latitude":47.61737,"longitude":-122.328552,"id":"a63e92j5j7pp","address":"I-5 and albor place  Seattle WA"},"type":"Feature","geometry":{"type":"Point","coordinates":[-122.328552,47.61737]}},{"properties":{"latitude":47.54843,"longitude":-122.312049,"id":"a63e92ozk45n","address":"I-5 and albro pl  Seattle WA"},"type":"Feature","geometry":{"type":"Point","coordinates":[-122.312049,47.54843]}},{"properties":{"latitude":47.57258,"longitude":-122.319869,"id":"a63e92mho0hf","address":"I-5 and columbian way  Seattle WA"},"type":"Feature","geometry":{"type":"Point","coordinates":[-122.319869,47.57258]}},{"properties":{"latitude":47.481186,"longitude":-122.271828,"id":"a63e92s1hhje","address":"I-5 and corson ave  Seattle WA"},"type":"Feature","geometry":{"type":"Point","coordinates":[-122.271828,47.481186]}},{"properties":{"latitude":47.59584,"longitude":-122.320489,"id":"a63e92v5lcur","address":"I-5 and dearborn  Seattle WA"},"type":"Feature","geometry":{"type":"Point","coordinates":[-122.320489,47.59584]}},{"properties":{"latitude":47.59584,"longitude":-122.320489,"id":"a63e92uv9fcy","address":"I-5 and dearborn  Seattle WA"},"type":"Feature","geometry":{"type":"Point","coordinates":[-122.320489,47.59584]}},{"properties":{"latitude":47.572523,"longitude":-122.360458,"id":"a63e92ilxdqy","address":"I-5 and everett mall way  Seattle WA"},"type":"Feature","geometry":{"type":"Point","coordinates":[-122.360458,47.572523]}},{"properties":{"latitude":47.481186,"longitude":-122.271828,"id":"a63e92jy71z0","address":"I-5 and holgate st  Seattle WA"},"type":"Feature","geometry":{"type":"Point","coordinates":[-122.271828,47.481186]}},{"properties":{"latitude":47.481186,"longitude":-122.271828,"id":"a63e92km00a4","address":"I-5 and holgate st  Seattle WA"},"type":"Feature","geometry":{"type":"Point","coordinates":[-122.271828,47.481186]}},{"properties":{"latitude":47.593645,"longitude":-122.320608,"id":"a63e92l6uczi","address":"I-5 and i-90  Seattle WA"},"type":"Feature","geometry":{"type":"Point","coordinates":[-122.320608,47.593645]}},{"properties":{"latitude":47.6043,"longitude":-122.327699,"id":"a63e92n2d6oc","address":"I-5 and james st  Seattle WA"},"type":"Feature","geometry":{"type":"Point","coordinates":[-122.327699,47.6043]}},{"properties":{"latitude":47.572523,"longitude":-122.360458,"id":"a63e92lmv0tw","address":"I-5 and lake city way  Seattle WA"},"type":"Feature","geometry":{"type":"Point","coordinates":[-122.360458,47.572523]}},{"properties":{"latitude":47.572523,"longitude":-122.360458,"id":"a63e92hwzy9h","address":"I-5 and lake city way  Seattle WA"},"type":"Feature","geometry":{"type":"Point","coordinates":[-122.360458,47.572523]}},{"properties":{"latitude":47.572523,"longitude":-122.360458,"id":"a63e92p8nv2h","address":"I-5 and lake city way  Seattle WA"},"type":"Feature","geometry":{"type":"Point","coordinates":[-122.360458,47.572523]}},{"properties":{"latitude":47.636747,"longitude":-122.323309,"id":"a63e92qogmbj","address":"I-5 and lakeview  Seattle WA"},"type":"Feature","geometry":{"type":"Point","coordinates":[-122.323309,47.636747]}},{"properties":{"latitude":47.45859,"longitude":-122.263904,"id":"a63e92iu6vw8","address":"I-5 and mercer  Seattle WA"},"type":"Feature","geometry":{"type":"Point","coordinates":[-122.263904,47.45859]}},{"properties":{"latitude":47.617367,"longitude":-122.328755,"id":"a63e92jvod4i","address":"I-5 and mercer st  Seattle WA"},"type":"Feature","geometry":{"type":"Point","coordinates":[-122.328755,47.617367]}},{"properties":{"latitude":47.617367,"longitude":-122.328755,"id":"a63e92j09tpi","address":"I-5 and mercer st  Seattle WA"},"type":"Feature","geometry":{"type":"Point","coordinates":[-122.328755,47.617367]}},{"properties":{"latitude":47.617367,"longitude":-122.328755,"id":"a63e92rts907","address":"I-5 and mercer st  Seattle WA"},"type":"Feature","geometry":{"type":"Point","coordinates":[-122.328755,47.617367]}},{"properties":{"latitude":47.617367,"longitude":-122.328755,"id":"a63e92jj5c89","address":"I-5 and mercer st  Seattle WA"},"type":"Feature","geometry":{"type":"Point","coordinates":[-122.328755,47.617367]}},{"properties":{"latitude":47.572523,"longitude":-122.360458,"id":"a63e92jkbn2h","address":"I-5 and michigan st  Seattle WA"},"type":"Feature","geometry":{"type":"Point","coordinates":[-122.360458,47.572523]}},{"properties":{"latitude":47.72311,"longitude":-122.324459,"id":"a63e92o41dvt","address":"I-5 and ne 130th st  Seattle WA"},"type":"Feature","geometry":{"type":"Point","coordinates":[-122.324459,47.72311]}},{"properties":{"latitude":47.72311,"longitude":-122.324459,"id":"a63e92gzdw8u","address":"I-5 and ne 130th st  Seattle WA"},"type":"Feature","geometry":{"type":"Point","coordinates":[-122.324459,47.72311]}},{"properties":{"latitude":47.72311,"longitude":-122.324459,"id":"a63e92uxlc6l","address":"I-5 and ne 130th st  Seattle WA"},"type":"Feature","geometry":{"type":"Point","coordinates":[-122.324459,47.72311]}},{"properties":{"latitude":47.75597,"longitude":-122.329759,"id":"a63e92f3dnli","address":"I-5 and ne 175th st  Seattle WA"},"type":"Feature","geometry":{"type":"Point","coordinates":[-122.329759,47.75597]}},{"properties":{"latitude":47.572523,"longitude":-122.360458,"id":"a63e92gm2vgn","address":"I-5 and ne 195th st  Seattle WA"},"type":"Feature","geometry":{"type":"Point","coordinates":[-122.360458,47.572523]}},{"properties":{"latitude":47.66134,"longitude":-122.322429,"id":"a63e92v89bvu","address":"I-5 and ne 45th st  Seattle WA"},"type":"Feature","geometry":{"type":"Point","coordinates":[-122.322429,47.66134]}},{"properties":{"latitude":47.66498,"longitude":-122.321789,"id":"a63e92plnwbj","address":"I-5 and ne 50th st  Seattle WA"},"type":"Feature","geometry":{"type":"Point","coordinates":[-122.321789,47.66498]}},{"properties":{"latitude":47.69028,"longitude":-122.328929,"id":"a63e92nht597","address":"I-5 and ne 85th st  Seattle WA"},"type":"Feature","geometry":{"type":"Point","coordinates":[-122.328929,47.69028]}},{"properties":{"latitude":47.61737,"longitude":-122.328552,"id":"a63e92ty0jeh","address":"I-5 and ne45th st  Seattle WA"},"type":"Feature","geometry":{"type":"Point","coordinates":[-122.328552,47.61737]}},{"properties":{"latitude":47.70862,"longitude":-122.330139,"id":"a63e92sxltbc","address":"I-5 and northgate  Seattle WA"},"type":"Feature","geometry":{"type":"Point","coordinates":[-122.330139,47.70862]}},{"properties":{"latitude":47.70862,"longitude":-122.330139,"id":"a63e92qvqcut","address":"I-5 and northgate  Seattle WA"},"type":"Feature","geometry":{"type":"Point","coordinates":[-122.330139,47.70862]}},{"properties":{"latitude":47.572523,"longitude":-122.360458,"id":"a63e92tb7teg","address":"I-5 and ship canal  Seattle WA"},"type":"Feature","geometry":{"type":"Point","coordinates":[-122.360458,47.572523]}},{"properties":{"latitude":47.572523,"longitude":-122.360458,"id":"a63e92i67ba6","address":"I-5 and ship canal  Seattle WA"},"type":"Feature","geometry":{"type":"Point","coordinates":[-122.360458,47.572523]}},{"properties":{"latitude":47.572523,"longitude":-122.360458,"id":"a63e92le3ybt","address":"I-5 and ship canal  Seattle WA"},"type":"Feature","geometry":{"type":"Point","coordinates":[-122.360458,47.572523]}},{"properties":{"latitude":47.572523,"longitude":-122.360458,"id":"a63e92k4rl1z","address":"I-5 and ship canal  Seattle WA"},"type":"Feature","geometry":{"type":"Point","coordinates":[-122.360458,47.572523]}},{"properties":{"latitude":47.572523,"longitude":-122.360458,"id":"a63e92kj9m4o","address":"I-5 and ship canal bridge  Seattle WA"},"type":"Feature","geometry":{"type":"Point","coordinates":[-122.360458,47.572523]}},{"properties":{"latitude":47.46504,"longitude":-122.266919,"id":"a63e92qtqpyh","address":"I-5 and southcenter  Seattle WA"},"type":"Feature","geometry":{"type":"Point","coordinates":[-122.266919,47.46504]}},{"properties":{"latitude":47.46504,"longitude":-122.266919,"id":"a63e92fx8a16","address":"I-5 and southcenter  Seattle WA"},"type":"Feature","geometry":{"type":"Point","coordinates":[-122.266919,47.46504]}},{"properties":{"latitude":47.46504,"longitude":-122.266919,"id":"a63e92hndh7r","address":"I-5 and southcenter  Seattle WA"},"type":"Feature","geometry":{"type":"Point","coordinates":[-122.266919,47.46504]}},{"properties":{"latitude":47.61737,"longitude":-122.328552,"id":"a63e92h623ri","address":"I-5 and sr 516  Seattle WA"},"type":"Feature","geometry":{"type":"Point","coordinates":[-122.328552,47.61737]}},{"properties":{"latitude":47.61737,"longitude":-122.328552,"id":"a63e92juuzjv","address":"I-5 and sr 516  Seattle WA"},"type":"Feature","geometry":{"type":"Point","coordinates":[-122.328552,47.61737]}},{"properties":{"latitude":47.61737,"longitude":-122.328552,"id":"a63e92rwoz18","address":"I-5 and sr 520  Seattle WA"},"type":"Feature","geometry":{"type":"Point","coordinates":[-122.328552,47.61737]}},{"properties":{"latitude":47.61737,"longitude":-122.328552,"id":"a63e92mi3jdv","address":"I-5 and sr-18  Seattle WA"},"type":"Feature","geometry":{"type":"Point","coordinates":[-122.328552,47.61737]}},{"properties":{"latitude":47.61737,"longitude":-122.328552,"id":"a63e92nq2clr","address":"I-5 and sr-18  Seattle WA"},"type":"Feature","geometry":{"type":"Point","coordinates":[-122.328552,47.61737]}},{"properties":{"latitude":47.46274,"longitude":-122.265709,"id":"a63e92mj7b80","address":"I-5 and sr-518  Seattle WA"},"type":"Feature","geometry":{"type":"Point","coordinates":[-122.265709,47.46274]}},{"properties":{"latitude":47.61737,"longitude":-122.328552,"id":"a63e92ma5ofq","address":"I-5 and sr-522  Seattle WA"},"type":"Feature","geometry":{"type":"Point","coordinates":[-122.328552,47.61737]}},{"properties":{"latitude":47.613,"longitude":-122.337849,"id":"a63e92rgs7ps","address":"I-5 and stewart st  Seattle WA"},"type":"Feature","geometry":{"type":"Point","coordinates":[-122.337849,47.613]}},{"properties":{"latitude":47.60171,"longitude":-122.324509,"id":"a63e92l80nxu","address":"I-5 and yesler way  Seattle WA"},"type":"Feature","geometry":{"type":"Point","coordinates":[-122.324509,47.60171]}},{"properties":{"latitude":47.60171,"longitude":-122.324509,"id":"a63e92srrhmx","address":"I-5 and yesler way  Seattle WA"},"type":"Feature","geometry":{"type":"Point","coordinates":[-122.324509,47.60171]}},{"properties":{"latitude":47.54843,"longitude":-122.312049,"id":"a63e92iwdlse","address":"I-5 at Albro  Seattle WA"},"type":"Feature","geometry":{"type":"Point","coordinates":[-122.312049,47.54843]}},{"properties":{"latitude":47.48352,"longitude":-122.270349,"id":"a63e92mwsn0i","address":"I-5 at Interurban st  Seattle WA"},"type":"Feature","geometry":{"type":"Point","coordinates":[-122.270349,47.48352]}},{"properties":{"latitude":47.59416,"longitude":-122.319044,"id":"a63e92kffa1h","address":"I-90 and 148th ave se  Seattle WA"},"type":"Feature","geometry":{"type":"Point","coordinates":[-122.319044,47.59416]}},{"properties":{"latitude":47.594061,"longitude":-122.313261,"id":"a63e92so799w","address":"I-90 and 76th ave se  Seattle WA"},"type":"Feature","geometry":{"type":"Point","coordinates":[-122.313261,47.594061]}},{"properties":{"latitude":47.594061,"longitude":-122.313261,"id":"a63e92fbfxlr","address":"I-90 and E mercer way  Seattle WA"},"type":"Feature","geometry":{"type":"Point","coordinates":[-122.313261,47.594061]}},{"properties":{"latitude":47.59416,"longitude":-122.319044,"id":"a63e92phcon6","address":"I-90 and Mt baker tunnel  Seattle WA"},"type":"Feature","geometry":{"type":"Point","coordinates":[-122.319044,47.59416]}},{"properties":{"latitude":47.594061,"longitude":-122.313261,"id":"a63e92toemwu","address":"I-90 and Sunset Way  Seattle WA"},"type":"Feature","geometry":{"type":"Point","coordinates":[-122.313261,47.594061]}},{"properties":{"latitude":47.594061,"longitude":-122.313261,"id":"a63e92tpv2f3","address":"I-90 and bellevue way SE  Seattle WA"},"type":"Feature","geometry":{"type":"Point","coordinates":[-122.313261,47.594061]}},{"properties":{"latitude":47.59416,"longitude":-122.319044,"id":"a63e92l25is3","address":"I-90 and mt baker tunnel  Seattle WA"},"type":"Feature","geometry":{"type":"Point","coordinates":[-122.319044,47.59416]}},{"properties":{"latitude":47.59416,"longitude":-122.319044,"id":"a63e92ngvqx1","address":"I-90 and mt baker tunnel  Seattle WA"},"type":"Feature","geometry":{"type":"Point","coordinates":[-122.319044,47.59416]}},{"properties":{"latitude":47.593027,"longitude":-122.327155,"id":"a63e92pyyuzx","address":"I-90 and rainer ave  Seattle WA"},"type":"Feature","geometry":{"type":"Point","coordinates":[-122.327155,47.593027]}},{"properties":{"latitude":47.58998,"longitude":-122.307079,"id":"a63e92mbm3ax","address":"I-90 and rainier  Seattle WA"},"type":"Feature","geometry":{"type":"Point","coordinates":[-122.307079,47.58998]}},{"properties":{"latitude":47.594061,"longitude":-122.313261,"id":"a63e92jlh0am","address":"I-90 and sunset way  Seattle WA"},"type":"Feature","geometry":{"type":"Point","coordinates":[-122.313261,47.594061]}},{"properties":{"latitude":47.45307,"longitude":-122.351269,"id":"a63e92sw2i6v","address":"SR 167 and 15th ST SW  Seattle WA"},"type":"Feature","geometry":{"type":"Point","coordinates":[-122.351269,47.45307]}},{"properties":{"latitude":47.603561,"longitude":-122.329437,"id":"a63e92qeulv3","address":"SR 525 and Beverly Park RD  Seattle WA"},"type":"Feature","geometry":{"type":"Point","coordinates":[-122.329437,47.603561]}},{"properties":{"latitude":47.51239,"longitude":-122.249394,"id":"a63e92qn5jrp","address":"SR-167 and S 180th St  Seattle WA"},"type":"Feature","geometry":{"type":"Point","coordinates":[-122.249394,47.51239]}},{"properties":{"latitude":47.61628,"longitude":-122.308834,"id":"a63e92gksgwy","address":"SR-18 and Tiger Summit  Seattle WA"},"type":"Feature","geometry":{"type":"Point","coordinates":[-122.308834,47.61628]}},{"properties":{"latitude":47.64304,"longitude":-122.315649,"id":"a63e92kygoxz","address":"SR-520 and 148th AVE NE  Seattle WA"},"type":"Feature","geometry":{"type":"Point","coordinates":[-122.315649,47.64304]}},{"properties":{"latitude":47.64304,"longitude":-122.315649,"id":"a63e92u8431h","address":"SR-520 and I-5  Seattle WA"},"type":"Feature","geometry":{"type":"Point","coordinates":[-122.315649,47.64304]}},{"properties":{"latitude":47.64436,"longitude":-122.304499,"id":"a63e92l48wmg","address":"SR-520 and Montlake Blvd  Seattle WA"},"type":"Feature","geometry":{"type":"Point","coordinates":[-122.304499,47.64436]}},{"properties":{"latitude":47.64304,"longitude":-122.315649,"id":"a63e92lbchi4","address":"SR-520 and west highrise  Seattle WA"},"type":"Feature","geometry":{"type":"Point","coordinates":[-122.315649,47.64304]}},{"properties":{"latitude":47.64304,"longitude":-122.315649,"id":"a63e92u3rnsl","address":"SR-520 and west highrise  Seattle WA"},"type":"Feature","geometry":{"type":"Point","coordinates":[-122.315649,47.64304]}},{"properties":{"latitude":47.64304,"longitude":-122.315649,"id":"a63e92m5mj8v","address":"SR-520 and west highrise  Seattle WA"},"type":"Feature","geometry":{"type":"Point","coordinates":[-122.315649,47.64304]}},{"properties":{"latitude":47.544402,"longitude":-122.333826,"id":"a63e92h2mtur","address":"SR-99 and Michigan st  Seattle WA"},"type":"Feature","geometry":{"type":"Point","coordinates":[-122.333826,47.544402]}},{"properties":{"latitude":47.53417,"longitude":-122.332169,"id":"a63e92qx5qb4","address":"SR-99 and W Marginal way  Seattle WA"},"type":"Feature","geometry":{"type":"Point","coordinates":[-122.332169,47.53417]}},{"properties":{"latitude":47.552311,"longitude":-122.132812,"id":"a63e92jvwolh","address":"Sr 18 and tiger summit  Seattle WA"},"type":"Feature","geometry":{"type":"Point","coordinates":[-122.132812,47.552311]}},{"properties":{"latitude":47.54048,"longitude":-122.334599,"id":"a63e92r47zsq","address":"Sr 509 and first ave  Seattle WA"},"type":"Feature","geometry":{"type":"Point","coordinates":[-122.334599,47.54048]}},{"properties":{"latitude":47.64304,"longitude":-122.315649,"id":"a63e92jrjhq5","address":"Sr 520 and 108th ave  Seattle WA"},"type":"Feature","geometry":{"type":"Point","coordinates":[-122.315649,47.64304]}},{"properties":{"latitude":47.64304,"longitude":-122.315649,"id":"a63e92u7ct8m","address":"Sr 520 and 92nd ave ne  Seattle WA"},"type":"Feature","geometry":{"type":"Point","coordinates":[-122.315649,47.64304]}},{"properties":{"latitude":47.665725,"longitude":-122.326949,"id":"a63e92s5rk65","address":"Sr 520 and NE 51st st  Seattle WA"},"type":"Feature","geometry":{"type":"Point","coordinates":[-122.326949,47.665725]}},{"properties":{"latitude":47.665725,"longitude":-122.326949,"id":"a63e92js2q7n","address":"Sr 520 and NE 51st st  Seattle WA"},"type":"Feature","geometry":{"type":"Point","coordinates":[-122.326949,47.665725]}},{"properties":{"latitude":47.603561,"longitude":-122.329437,"id":"a63e92kbdzto","address":"Sr 520 and east highrise  Seattle WA"},"type":"Feature","geometry":{"type":"Point","coordinates":[-122.329437,47.603561]}},{"properties":{"latitude":47.60358,"longitude":-122.329454,"id":"a63e92fbo42l","address":"Sr 520 and lk washing blvd  Seattle WA"},"type":"Feature","geometry":{"type":"Point","coordinates":[-122.329454,47.60358]}},{"properties":{"latitude":47.603215,"longitude":-122.284579,"id":"a63e92p2vknh","address":"Sr 520 and lk washington blvd  Seattle WA"},"type":"Feature","geometry":{"type":"Point","coordinates":[-122.284579,47.603215]}},{"properties":{"latitude":47.64304,"longitude":-122.315649,"id":"a63e92ox0o2n","address":"Sr 520 and midspan  Seattle WA"},"type":"Feature","geometry":{"type":"Point","coordinates":[-122.315649,47.64304]}},{"properties":{"latitude":47.64304,"longitude":-122.315649,"id":"a63e92iudl82","address":"Sr 520 and midspan  Seattle WA"},"type":"Feature","geometry":{"type":"Point","coordinates":[-122.315649,47.64304]}},{"properties":{"latitude":47.64436,"longitude":-122.304499,"id":"a63e92qe3ss9","address":"Sr 520 and montlake blvd  Seattle WA"},"type":"Feature","geometry":{"type":"Point","coordinates":[-122.304499,47.64436]}},{"properties":{"latitude":47.603561,"longitude":-122.329437,"id":"a63e92s88p46","address":"Sr 520 and west highrise  Seattle WA"},"type":"Feature","geometry":{"type":"Point","coordinates":[-122.329437,47.603561]}},{"properties":{"latitude":47.603561,"longitude":-122.329437,"id":"a63e92tajj6s","address":"Sr 520 and west highrise  Seattle WA"},"type":"Feature","geometry":{"type":"Point","coordinates":[-122.329437,47.603561]}},{"properties":{"latitude":47.75054,"longitude":-122.377887,"id":"a63e92laws7k","address":"Sr-167 and 15th st NW  Seattle WA"},"type":"Feature","geometry":{"type":"Point","coordinates":[-122.377887,47.75054]}},{"properties":{"latitude":47.51239,"longitude":-122.249394,"id":"a63e92qbvozg","address":"Sr-167 and s 180th ST  Seattle WA"},"type":"Feature","geometry":{"type":"Point","coordinates":[-122.249394,47.51239]}},{"properties":{"latitude":47.51239,"longitude":-122.249394,"id":"a63e92otntjq","address":"Sr-167 and sr-516  Seattle WA"},"type":"Feature","geometry":{"type":"Point","coordinates":[-122.249394,47.51239]}},{"properties":{"latitude":47.450987,"longitude":-122.331969,"id":"a63e92ezqxgv","address":"Sr-169 and 140th way se  Seattle WA"},"type":"Feature","geometry":{"type":"Point","coordinates":[-122.331969,47.450987]}},{"properties":{"latitude":47.61628,"longitude":-122.308834,"id":"a63e92m1mjrd","address":"Sr-18 and i-5  Seattle WA"},"type":"Feature","geometry":{"type":"Point","coordinates":[-122.308834,47.61628]}},{"properties":{"latitude":47.61628,"longitude":-122.308834,"id":"a63e92jb1y34","address":"Sr-18 and west valley hwy  Seattle WA"},"type":"Feature","geometry":{"type":"Point","coordinates":[-122.308834,47.61628]}},{"properties":{"latitude":47.668875,"longitude":-122.306494,"id":"a63e92t5e2lp","address":"Sr-20 and lyman hamilton  Seattle WA"},"type":"Feature","geometry":{"type":"Point","coordinates":[-122.306494,47.668875]}},{"properties":{"latitude":47.54048,"longitude":-122.334599,"id":"a63e92o65084","address":"Sr-509 and 1st ave  Seattle WA"},"type":"Feature","geometry":{"type":"Point","coordinates":[-122.334599,47.54048]}},{"properties":{"latitude":47.51885,"longitude":-122.330395,"id":"a63e92it7kg6","address":"Sr-509 and S 120th st  Seattle WA"},"type":"Feature","geometry":{"type":"Point","coordinates":[-122.330395,47.51885]}},{"properties":{"latitude":47.51885,"longitude":-122.330395,"id":"a63e92jmczl4","address":"Sr-509 and S holden st  Seattle WA"},"type":"Feature","geometry":{"type":"Point","coordinates":[-122.330395,47.51885]}},{"properties":{"latitude":47.4885,"longitude":-122.326659,"id":"a63e92hmq4pr","address":"Sr-509 and s 128th st  Seattle WA"},"type":"Feature","geometry":{"type":"Point","coordinates":[-122.326659,47.4885]}},{"properties":{"latitude":47.470395,"longitude":-122.332134,"id":"a63e92r2ds5k","address":"Sr-518 and 51st st  Seattle WA"},"type":"Feature","geometry":{"type":"Point","coordinates":[-122.332134,47.470395]}},{"properties":{"latitude":47.64304,"longitude":-122.315649,"id":"a63e92fl5kso","address":"Sr-520 and 84th ave ne  Seattle WA"},"type":"Feature","geometry":{"type":"Point","coordinates":[-122.315649,47.64304]}},{"properties":{"latitude":47.64304,"longitude":-122.315649,"id":"a63e92kfqzb5","address":"Sr-520 and i-5  Seattle WA"},"type":"Feature","geometry":{"type":"Point","coordinates":[-122.315649,47.64304]}},{"properties":{"latitude":47.64304,"longitude":-122.315649,"id":"a63e92r1qjf3","address":"Sr-520 and lk washington blvd  Seattle WA"},"type":"Feature","geometry":{"type":"Point","coordinates":[-122.315649,47.64304]}},{"properties":{"latitude":47.64304,"longitude":-122.315649,"id":"a63e92tianil","address":"Sr-520 and midspan  Seattle WA"},"type":"Feature","geometry":{"type":"Point","coordinates":[-122.315649,47.64304]}},{"properties":{"latitude":47.64304,"longitude":-122.315649,"id":"a63e92msc8dz","address":"Sr-520 and midspan  Seattle WA"},"type":"Feature","geometry":{"type":"Point","coordinates":[-122.315649,47.64304]}},{"properties":{"latitude":47.64304,"longitude":-122.315649,"id":"a63e92q21aiq","address":"Sr-520 and midspan west  Seattle WA"},"type":"Feature","geometry":{"type":"Point","coordinates":[-122.315649,47.64304]}},{"properties":{"latitude":47.64436,"longitude":-122.304499,"id":"a63e92fj15cl","address":"Sr-520 and montlake blvd  Seattle WA"},"type":"Feature","geometry":{"type":"Point","coordinates":[-122.304499,47.64436]}},{"properties":{"latitude":47.64304,"longitude":-122.315649,"id":"a63e92o3y7y3","address":"Sr-520 and west highrise  Seattle WA"},"type":"Feature","geometry":{"type":"Point","coordinates":[-122.315649,47.64304]}},{"properties":{"latitude":47.64304,"longitude":-122.315649,"id":"a63e92gznn0v","address":"Sr-520 and west highrise  Seattle WA"},"type":"Feature","geometry":{"type":"Point","coordinates":[-122.315649,47.64304]}},{"properties":{"latitude":47.603561,"longitude":-122.329437,"id":"a63e92il990z","address":"Sr-527 and I-405  Seattle WA"},"type":"Feature","geometry":{"type":"Point","coordinates":[-122.329437,47.603561]}},{"properties":{"latitude":47.60358,"longitude":-122.329454,"id":"a63e92v5qvob","address":"Us 2 and homeacres rd  Seattle WA"},"type":"Feature","geometry":{"type":"Point","coordinates":[-122.329454,47.60358]}},{"properties":{"latitude":47.610645,"longitude":-122.340094,"id":"a63e92n9h2nt","address":"Us-2 and homeacres rd  Seattle WA"},"type":"Feature","geometry":{"type":"Point","coordinates":[-122.340094,47.610645]}}],"is_temporal":false,"author":{"url":"","metadata":"","contact_name":"","contact_address":"","source":"","contact_phone":""},"source":"","pagination":{"sort":null,"start":0,"total":191,"limit":1000000},"state":"complete","tags":"traffic","published":"2014-08-10T16:44:06-04:00","id":13574}