{"type":"FeatureCollection","data_type":"Dataset","url_type":null,"permissions":[{"permissions":{"download":true,"view":true},"group_id":"everyone"}],"classification":null,"title":"OH ULSD","count":16,"stream_id":135926,"contributor":{"url":"http://geocommons.com/users/19917","name":"diethrick@gmail.com"},"data_attributes":null,"calculation_params":null,"icon_link":null,"link":"http://geocommons.com/overlays/135926.json","extent":[-122.775,27.3063,-70.6566,43.1885],"geometry_types":["point"],"unique_name":null,"name":"OH ULSD","feature_count":16,"description":"","next_feature":null,"is_raster":false,"short_classification":"Y","stats":{"store":{"max":452,"mean":398.25,"variance":1081.0,"stdev":32.8785644455472,"min":328,"median":394}},"features":[{"properties":{"city":"Canfield","zip":"44406-8130","geo_score":0.426,"store":328,"fax":"330-533-5091","phone":"330-533-6442","id":"a6g1lzb5q1xu","geo_precision":"city","address":"4585 Boardman Canfield Rd","state":"OH"},"type":"Feature","geometry":{"type":"Point","coordinates":[-82.213987,29.467471]}},{"properties":{"city":"New Philadelphia","zip":"44663-6943","geo_score":0.671,"store":357,"fax":"330-339-4810","phone":"330-339-3740","id":"a6g1lz87hajp","geo_precision":"street","address":"1281 W High Ave","state":"OH"},"type":"Feature","geometry":{"type":"Point","coordinates":[-81.693159,30.383618]}},{"properties":{"city":"Akron","zip":"44312-5368","geo_score":0.3,"store":368,"fax":"330-899-1107","phone":"330-899-1100","id":"a6g1lz1d3962","geo_precision":"street","address":"1651 E Turkeyfoot Lake Rd","state":"OH"},"type":"Feature","geometry":{"type":"Point","coordinates":[-85.13315,31.917046]}},{"properties":{"city":"Alliance","zip":"44601-4717","geo_score":0.556,"store":375,"fax":"330-829-9983","phone":"330-829-9970","id":"a6g1lyyt00z4","geo_precision":"range","address":"236 W State St","state":"OH"},"type":"Feature","geometry":{"type":"Point","coordinates":[-70.656584,43.188457]}},{"properties":{"city":"Cambridge","zip":"43725-3080","geo_score":0.617,"store":387,"fax":"740-432-8472","phone":"740-432-8410","id":"a6g1lz46731p","geo_precision":"street","address":"2101 Southgate Pkwy","state":"OH"},"type":"Feature","geometry":{"type":"Point","coordinates":[-82.514066,27.306272]}},{"properties":{"city":"Canton","zip":"44708-1533","geo_score":0.409,"store":389,"fax":"330-478-3009","phone":"330-478-3002","id":"a6g1lywk8unp","geo_precision":"city","address":"2939 Whipple Ave Nw","state":"OH"},"type":"Feature","geometry":{"type":"Point","coordinates":[-85.286044,31.189344]}},{"properties":{"city":"Kent","zip":"44240-2850","geo_score":0.47,"store":390,"fax":"330-673-3085","phone":"330-673-3060","id":"a6g1lywuzslh","geo_precision":"street","address":"1762 E Main St","state":"OH"},"type":"Feature","geometry":{"type":"Point","coordinates":[-94.184733,36.060545]}},{"properties":{"city":"Twinsburg","zip":"44087-2145","geo_score":0.601,"store":393,"fax":"330-405-3016","phone":"330-405-3001","id":"a6g1lyvhvky2","geo_precision":"street","address":"2495 E Aurora Rd","state":"OH"},"type":"Feature","geometry":{"type":"Point","coordinates":[-104.735708,39.576246]}},{"properties":{"city":"Mentor","zip":"44060-5320","geo_score":0.707,"store":394,"fax":"440-946-7654","phone":"440-946-7650","id":"a6g1lz44rgxh","geo_precision":"street","address":"7777 Reynolds Rd","state":"OH"},"type":"Feature","geometry":{"type":"Point","coordinates":[-122.775106,38.355166]}},{"properties":{"city":"Perry","zip":"44081-9557","geo_score":0.62,"store":404,"fax":"440-358-1864","phone":"440-358-1734","id":"a6g1lz3gk7yx","geo_precision":"street","address":"2800 N Ridge Rd","state":"OH"},"type":"Feature","geometry":{"type":"Point","coordinates":[-87.676836,41.997959]}},{"properties":{"city":"Zanesville","zip":"43701-6171","geo_score":0.617,"store":406,"fax":"740-452-7734","phone":"740-452-7701","id":"a6g1lz6k3wyp","geo_precision":"street","address":"225 N Maysville Ave","state":"OH"},"type":"Feature","geometry":{"type":"Point","coordinates":[-86.456096,34.807515]}},{"properties":{"city":"Strongsville","zip":"44149-3802","geo_score":0.442,"store":422,"fax":"440-572-1815","phone":"440-572-1805","id":"a6g1lz5zvrbn","geo_precision":"city","address":"21034 Royalton Rd","state":"OH"},"type":"Feature","geometry":{"type":"Point","coordinates":[-86.338328,39.926986]}},{"properties":{"city":"North Canton","zip":"44720","geo_score":0.603,"store":431,"fax":"330-498-8446","phone":"330-498-8440","id":"a6g1lyz37yba","geo_precision":"street","address":"1415 Pittsburg Avenue Nw","state":"OH"},"type":"Feature","geometry":{"type":"Point","coordinates":[-80.090778,40.511368]}},{"properties":{"city":"Chardon","zip":"44024","geo_score":0.902,"store":435,"fax":"440-279-0687","phone":"440-279-0683","id":"a6g1lyv2wp0c","geo_precision":"range","address":"435 Water Street","state":"OH"},"type":"Feature","geometry":{"type":"Point","coordinates":[-92.209717,34.754117]}},{"properties":{"city":"Sheffield Village","zip":"44054","geo_score":0.642,"store":441,"fax":"440-934-3597","phone":"440-934-3598","id":"a6g1lz2oec7o","geo_precision":"street","address":"5295 Detroit Rd","state":"OH"},"type":"Feature","geometry":{"type":"Point","coordinates":[-82.926266,42.400693]}},{"properties":{"city":"Kent","zip":"44240","geo_score":0.307,"store":452,"fax":"330-346-0097","phone":"330-346-0059","id":"a6g1lz32hjnn","geo_precision":"street","address":"600 North Mantua St","state":"OH"},"type":"Feature","geometry":{"type":"Point","coordinates":[-88.062434,34.627849]}}],"is_temporal":false,"author":{"url":"","metadata":"","contact_name":"","contact_address":"","source":"","contact_phone":""},"source":"","pagination":{"sort":null,"start":0,"total":16,"limit":1000000},"state":"complete","tags":"","published":"2014-08-13T05:19:53-04:00","id":135926}