{"type":"FeatureCollection","data_type":"Dataset","url_type":null,"permissions":[{"permissions":{"download":true,"view":true},"group_id":"everyone"}],"classification":null,"title":"2010 NCF","count":51,"stream_id":136070,"contributor":{"url":"http://geocommons.com/users/29925","name":"sfhurley"},"data_attributes":null,"calculation_params":null,"icon_link":null,"link":"http://geocommons.com/overlays/136070.json","extent":[-157.858,21.3069,-71.0598,47.6588],"geometry_types":["point"],"unique_name":null,"name":"2010 NCF","feature_count":51,"description":"","next_feature":null,"is_raster":false,"short_classification":"Y","stats":{"percent change":{"max":0.34,"mean":-0.0133739092941177,"variance":0.00750857534577307,"stdev":0.0866520360163169,"min":-0.183206107,"median":-0.011406844},"booths":{"max":567,"mean":238.43137254902,"variance":10166.2901960784,"stdev":100.828022871018,"min":79,"median":223}},"features":[{"properties":{"city":"ATLANTA","geo_score":0.857,"percent change":-0.12,"booths":223,"id":"a6c99aaob6bt","geo_precision":"city","state":"Georgia"},"type":"Feature","geometry":{"type":"Point","coordinates":[-84.387982,33.748995]}},{"properties":{"city":"ATLANTIC CITY","geo_score":0.79,"percent change":0.025974026,"booths":237,"id":"a6c99ajlmoc0","geo_precision":"city","state":"New Jersey"},"type":"Feature","geometry":{"type":"Point","coordinates":[-74.05617,40.404762]}},{"properties":{"city":"AUSTIN","geo_score":0.857,"percent change":0.0,"booths":223,"id":"a6c99ahgo2wu","geo_precision":"city","state":"Texas"},"type":"Feature","geometry":{"type":"Point","coordinates":[-97.743061,30.267153]}},{"properties":{"city":"BALTIMORE","geo_score":0.857,"percent change":-0.00617284,"booths":322,"id":"a6c99a74hasq","geo_precision":"city","state":"Maryland"},"type":"Feature","geometry":{"type":"Point","coordinates":[-76.612189,39.290385]}},{"properties":{"city":"BATON ROUGE","geo_score":0.857,"percent change":0.0,"booths":80,"id":"a6c99akz2aif","geo_precision":"city","state":"Louisiana"},"type":"Feature","geometry":{"type":"Point","coordinates":[-91.154551,30.450746]}},{"properties":{"city":"BIRMINGHAM","geo_score":0.857,"percent change":-0.025477707,"booths":153,"id":"a6c99abi08cg","geo_precision":"city","state":"Alabama"},"type":"Feature","geometry":{"type":"Point","coordinates":[-86.80249,33.520661]}},{"properties":{"city":"BOISE","geo_score":0.857,"percent change":-0.062068966,"booths":136,"id":"a6c99aateaas","geo_precision":"city","state":"Idaho"},"type":"Feature","geometry":{"type":"Point","coordinates":[-116.203451,43.6135]}},{"properties":{"city":"BOSTON","geo_score":0.857,"percent change":0.020253165,"booths":402,"id":"a6c99an09x11","geo_precision":"city","state":"Massachusetts"},"type":"Feature","geometry":{"type":"Point","coordinates":[-71.059773,42.358431]}},{"properties":{"city":"BUFFALO","geo_score":0.857,"percent change":-0.066371681,"booths":219,"id":"a6c99a8nm9kf","geo_precision":"city","state":"New York"},"type":"Feature","geometry":{"type":"Point","coordinates":[-78.878369,42.886447]}},{"properties":{"city":"CHARLOTTE","geo_score":0.857,"percent change":0.060913706,"booths":176,"id":"a6c99ad8g5f9","geo_precision":"city","state":"North Carolina"},"type":"Feature","geometry":{"type":"Point","coordinates":[-80.843127,35.227087]}},{"properties":{"city":"CHICAGO","geo_score":0.857,"percent change":0.028639618,"booths":431,"id":"a6c99agochuk","geo_precision":"city","state":"Illinois"},"type":"Feature","geometry":{"type":"Point","coordinates":[-87.650052,41.850033]}},{"properties":{"city":"CINCINNATI","geo_score":0.857,"percent change":-0.105454545,"booths":246,"id":"a6c99adl0e78","geo_precision":"city","state":"Ohio"},"type":"Feature","geometry":{"type":"Point","coordinates":[-84.456886,39.162004]}},{"properties":{"city":"CLEVELAND","geo_score":0.857,"percent change":0.02688172,"booths":193,"id":"a6c99akv2y1d","geo_precision":"city","state":"Ohio"},"type":"Feature","geometry":{"type":"Point","coordinates":[-81.695409,41.499495]}},{"properties":{"city":"DETROIT","geo_score":0.857,"percent change":-0.113821138,"booths":111,"id":"a6c99ajjbhd7","geo_precision":"city","state":"Michigan"},"type":"Feature","geometry":{"type":"Point","coordinates":[-83.045754,42.331427]}},{"properties":{"city":"FT. LAUDERDALE","geo_score":0.79,"percent change":0.051643192,"booths":224,"id":"a6c99ac7goup","geo_precision":"city","state":"Florida"},"type":"Feature","geometry":{"type":"Point","coordinates":[-80.208381,26.166474]}},{"properties":{"city":"HARTFORD","geo_score":0.714,"percent change":-0.066666667,"booths":322,"id":"a6c99ag0823k","geo_precision":"city","state":"Connectiuct"},"type":"Feature","geometry":{"type":"Point","coordinates":[-72.685093,41.763711]}},{"properties":{"city":"HONOLULU","geo_score":0.857,"percent change":0.007246377,"booths":119,"id":"a6c99a7f0opq","geo_precision":"city","state":"Hawaii"},"type":"Feature","geometry":{"type":"Point","coordinates":[-157.858333,21.306944]}},{"properties":{"city":"HOUSTON","geo_score":0.816,"percent change":0.34,"booths":252,"id":"a6c99adkbest","geo_precision":"city","state":"Texas"},"type":"Feature","geometry":{"type":"Point","coordinates":[-96.919704,29.845783]}},{"properties":{"city":"INDIANAPOLIS","geo_score":0.857,"percent change":0.0,"booths":224,"id":"a6c99akknhb8","geo_precision":"city","state":"Indiana"},"type":"Feature","geometry":{"type":"Point","coordinates":[-86.158042,39.768377]}},{"properties":{"city":"San Bernardino","geo_score":0.857,"percent change":0.079754601,"booths":166,"id":"a6c99alhessp","geo_precision":"city","state":"California"},"type":"Feature","geometry":{"type":"Point","coordinates":[-117.289765,34.108345]}},{"properties":{"city":"JACKSONVILLE","geo_score":0.857,"percent change":0.041666667,"booths":175,"id":"a6c99afckm8n","geo_precision":"city","state":"Florida"},"type":"Feature","geometry":{"type":"Point","coordinates":[-81.655651,30.332184]}},{"properties":{"city":"LONG ISLAND","geo_score":0.816,"percent change":0.0390625,"booths":399,"id":"a6c99ahks1e9","geo_precision":"city","state":"New York"},"type":"Feature","geometry":{"type":"Point","coordinates":[-73.948749,40.744824]}},{"properties":{"city":"LOS ANGELES","geo_score":0.857,"percent change":0.0433213,"booths":256,"id":"a6c99adhf8x9","geo_precision":"city","state":"California"},"type":"Feature","geometry":{"type":"Point","coordinates":[-118.243685,34.052234]}},{"properties":{"city":"LOUISVILLE","geo_score":0.857,"percent change":-0.183206107,"booths":120,"id":"a6c99ai5grzi","geo_precision":"city","state":"Kentucky"},"type":"Feature","geometry":{"type":"Point","coordinates":[-85.759407,38.254238]}},{"properties":{"city":"MEMPHIS","geo_score":0.857,"percent change":-0.148514851,"booths":79,"id":"a6c99ahrwg7j","geo_precision":"city","state":"Tennessee"},"type":"Feature","geometry":{"type":"Point","coordinates":[-90.04898,35.149534]}},{"properties":{"city":"MIAMI","geo_score":0.857,"percent change":-0.05,"booths":195,"id":"a6c99ampqxpu","geo_precision":"city","state":"Florida"},"type":"Feature","geometry":{"type":"Point","coordinates":[-80.193659,25.774266]}},{"properties":{"city":"MILWAUKEE","geo_score":0.857,"percent change":0.075555556,"booths":242,"id":"a6c99angi4ta","geo_precision":"city","state":"Wisconsin"},"type":"Feature","geometry":{"type":"Point","coordinates":[-87.906474,43.038903]}},{"properties":{"city":"Minneapolis","geo_score":0.857,"percent change":0.08,"booths":567,"id":"a6c99a9n0f5w","geo_precision":"city","state":"Minnesota"},"type":"Feature","geometry":{"type":"Point","coordinates":[-93.263836,44.979965]}},{"properties":{"city":"Gaithersburg","geo_score":0.857,"percent change":0.030612245,"booths":301,"id":"a6c99afi6c90","geo_precision":"city","state":"Maryland"},"type":"Feature","geometry":{"type":"Point","coordinates":[-77.201371,39.143441]}},{"properties":{"city":"NASHVILLE","geo_score":0.857,"percent change":-0.14556962,"booths":141,"id":"a6c99aejsrv0","geo_precision":"city","state":"Tennessee"},"type":"Feature","geometry":{"type":"Point","coordinates":[-86.784443,36.16589]}},{"properties":{"city":"Edison","geo_score":0.857,"percent change":-0.039719626,"booths":406,"id":"a6c99acb3jpm","geo_precision":"city","state":"New Jersey"},"type":"Feature","geometry":{"type":"Point","coordinates":[-74.412095,40.518715]}},{"properties":{"city":"NEW YORK","geo_score":0.857,"percent change":0.019337017,"booths":368,"id":"a6c99ami8d2y","geo_precision":"city","state":"New York"},"type":"Feature","geometry":{"type":"Point","coordinates":[-74.005973,40.714269]}},{"properties":{"city":"Anaheim","geo_score":0.857,"percent change":-0.029535865,"booths":215,"id":"a6c99amekb88","geo_precision":"city","state":"California"},"type":"Feature","geometry":{"type":"Point","coordinates":[-117.914504,33.835293]}},{"properties":{"city":"PHILADELPHIA","geo_score":0.857,"percent change":0.03712297,"booths":447,"id":"a6c99abmocwp","geo_precision":"city","state":"Pennsylvania"},"type":"Feature","geometry":{"type":"Point","coordinates":[-75.163789,39.952335]}},{"properties":{"city":"PHOENIX","geo_score":0.857,"percent change":0.108490566,"booths":235,"id":"a6c99agkkplr","geo_precision":"city","state":"Arizona"},"type":"Feature","geometry":{"type":"Point","coordinates":[-112.074037,33.448377]}},{"properties":{"city":"PITTSBURGH","geo_score":0.857,"percent change":-0.107238606,"booths":335,"id":"a6c99ahbhwce","geo_precision":"city","state":"Pennsylvania"},"type":"Feature","geometry":{"type":"Point","coordinates":[-79.995886,40.440625]}},{"properties":{"city":"PORTLAND","geo_score":0.857,"percent change":-0.066246057,"booths":296,"id":"a6c99akoqiwl","geo_precision":"city","state":"Oregon"},"type":"Feature","geometry":{"type":"Point","coordinates":[-122.676207,45.523452]}},{"properties":{"city":"Landover","geo_score":0.81,"percent change":0.0,"booths":185,"id":"a6c99aaomaju","geo_precision":"city","state":"Maryland"},"type":"Feature","geometry":{"type":"Point","coordinates":[-76.912474,38.925112]}},{"properties":{"city":"PROVIDENCE","geo_score":0.857,"percent change":-0.053097345,"booths":211,"id":"a6c99ajtn119","geo_precision":"city","state":"Rhode Island"},"type":"Feature","geometry":{"type":"Point","coordinates":[-71.412834,41.823989]}},{"properties":{"city":"ROCHESTER","geo_score":0.857,"percent change":-0.072874494,"booths":212,"id":"a6c99ai5hr1k","geo_precision":"city","state":"New York"},"type":"Feature","geometry":{"type":"Point","coordinates":[-77.615557,43.154785]}},{"properties":{"city":"SAINT LOUIS","geo_score":0.857,"percent change":-0.011406844,"booths":260,"id":"a6c99ahg7v3b","geo_precision":"city","state":"Missouri"},"type":"Feature","geometry":{"type":"Point","coordinates":[-90.197889,38.627273]}},{"properties":{"city":"SAN DIEGO","geo_score":0.857,"percent change":-0.039840637,"booths":230,"id":"a6c99adw7ofb","geo_precision":"city","state":"California"},"type":"Feature","geometry":{"type":"Point","coordinates":[-117.157255,32.715329]}},{"properties":{"city":"SAN FRANCISCO","geo_score":0.857,"percent change":-0.04950495,"booths":192,"id":"a6c99ak36fa0","geo_precision":"city","state":"California"},"type":"Feature","geometry":{"type":"Point","coordinates":[-122.419416,37.77493]}},{"properties":{"city":"SEATTLE","geo_score":0.857,"percent change":-0.05982906,"booths":330,"id":"a6c99agk0va7","geo_precision":"city","state":"Washington"},"type":"Feature","geometry":{"type":"Point","coordinates":[-122.332071,47.60621]}},{"properties":{"city":"SPOKANE","geo_score":0.857,"percent change":-0.053333333,"booths":142,"id":"a6c99aibxw7w","geo_precision":"city","state":"Washington"},"type":"Feature","geometry":{"type":"Point","coordinates":[-117.426047,47.65878]}},{"properties":{"city":"SPRINGFIELD","geo_score":0.857,"percent change":-0.065116279,"booths":212,"id":"a6c99a91le1y","geo_precision":"city","state":"Massachusetts"},"type":"Feature","geometry":{"type":"Point","coordinates":[-72.589811,42.101483]}},{"properties":{"city":"SYRACUSE","geo_score":0.857,"percent change":-0.06302521,"booths":232,"id":"a6c99ai0jvsn","geo_precision":"city","state":"New York"},"type":"Feature","geometry":{"type":"Point","coordinates":[-76.147424,43.048122]}},{"properties":{"city":"TAMPA","geo_score":0.857,"percent change":-0.131707317,"booths":195,"id":"a6c99aa3svsj","geo_precision":"city","state":"Florida"},"type":"Feature","geometry":{"type":"Point","coordinates":[-82.458428,27.947522]}},{"properties":{"city":"VENTURA","geo_score":0.857,"percent change":0.108433735,"booths":147,"id":"a6c99a9ins3d","geo_precision":"city","state":"California"},"type":"Feature","geometry":{"type":"Point","coordinates":[-119.358352,34.330829]}},{"properties":{"city":"WASHINGTON","geo_score":0.714,"percent change":0.103448276,"booths":256,"id":"a6c99a9f20nf","geo_precision":"city","state":"District of Colombia"},"type":"Feature","geometry":{"type":"Point","coordinates":[-77.036366,38.895112]}},{"properties":{"city":"Grand Rapids","geo_score":0.857,"percent change":-0.074626866,"booths":120,"id":"a6c99an0l7c7","geo_precision":"city","state":"Michigan"},"type":"Feature","geometry":{"type":"Point","coordinates":[-85.668086,42.96336]}}],"is_temporal":false,"author":{"url":"","metadata":"","contact_name":"","contact_address":"","source":"","contact_phone":""},"source":"","pagination":{"sort":null,"start":0,"total":51,"limit":1000000},"state":"complete","tags":"","published":"2014-08-13T05:40:16-04:00","id":136070}