{"type":"FeatureCollection","data_type":"Dataset","url_type":null,"permissions":[{"permissions":{"download":true,"view":true},"group_id":"everyone"}],"classification":null,"title":"Future Roundtables","count":89,"stream_id":136526,"contributor":{"url":"http://geocommons.com/users/30149","name":"hfernandes"},"data_attributes":null,"calculation_params":null,"icon_link":null,"link":"http://geocommons.com/overlays/136526.json","extent":[-157.858,21.3069,-68.3055,55.4007],"geometry_types":["point"],"unique_name":null,"name":"Future Roundtables","feature_count":89,"description":"","next_feature":null,"is_raster":false,"short_classification":"Y","stats":{"date":{"max":"2011/08/30 00:00:00 -0400","mean":"2011/08/06 09:42:28 -0400","variance":1102730525025.54,"stdev":1050109.76808405,"min":"2011/07/19 00:00:00 -0400","median":"2011/08/03 00:00:00 -0400"}},"features":[{"properties":{"city":"Mooresville","date":{"end_time":"2011/07/20 00:00:00 -0400","original":"7/19/2011","granularity":"day","time":"2011/07/19 00:00:00 -0400"},"country":"USA","geo_score":0.81,"id":"0","geo_precision":"city","state":"NC"},"type":"Feature","geometry":{"type":"Point","coordinates":[-77.847484,34.295725]}},{"properties":{"city":"Cumberland","date":{"end_time":"2011/07/20 00:00:00 -0400","original":"7/19/2011","granularity":"day","time":"2011/07/19 00:00:00 -0400"},"country":"USA","geo_score":0.757,"id":"1","geo_precision":"city","state":"MD"},"type":"Feature","geometry":{"type":"Point","coordinates":[-76.631238,39.048359]}},{"properties":{"city":"Nelsonville","date":{"end_time":"2011/07/20 00:00:00 -0400","original":"7/19/2011","granularity":"day","time":"2011/07/19 00:00:00 -0400"},"country":"USA","geo_score":0.857,"id":"2","geo_precision":"city","state":"OH"},"type":"Feature","geometry":{"type":"Point","coordinates":[-82.045466,39.357211]}},{"properties":{"city":"Portland","date":{"end_time":"2011/07/21 00:00:00 -0400","original":"7/20/2011","granularity":"day","time":"2011/07/20 00:00:00 -0400"},"country":"USA","geo_score":0.857,"id":"3","geo_precision":"city","state":"OR"},"type":"Feature","geometry":{"type":"Point","coordinates":[-122.676207,45.523452]}},{"properties":{"city":"Denver","date":{"end_time":"2011/07/21 00:00:00 -0400","original":"7/20/2011","granularity":"day","time":"2011/07/20 00:00:00 -0400"},"country":"USA","geo_score":0.857,"id":"4","geo_precision":"city","state":"CO"},"type":"Feature","geometry":{"type":"Point","coordinates":[-104.984703,39.739154]}},{"properties":{"city":"Hartford","date":{"end_time":"2011/07/21 00:00:00 -0400","original":"7/20/2011","granularity":"day","time":"2011/07/20 00:00:00 -0400"},"country":"USA","geo_score":0.857,"id":"5","geo_precision":"city","state":"CT"},"type":"Feature","geometry":{"type":"Point","coordinates":[-72.685093,41.763711]}},{"properties":{"city":"Vancouver","date":{"end_time":"2011/07/21 00:00:00 -0400","original":"7/20/2011","granularity":"day","time":"2011/07/20 00:00:00 -0400"},"country":"USA","geo_score":0.857,"id":"6","geo_precision":"city","state":"WA"},"type":"Feature","geometry":{"type":"Point","coordinates":[-122.661486,45.638728]}},{"properties":{"city":"Ann Arbor","date":{"end_time":"2011/07/22 00:00:00 -0400","original":"7/21/2011","granularity":"day","time":"2011/07/21 00:00:00 -0400"},"country":"USA","geo_score":0.75,"id":"7","geo_precision":"city","state":"MI"},"type":"Feature","geometry":{"type":"Point","coordinates":[-86.176715,42.96502]}},{"properties":{"city":"Portland","date":{"end_time":"2011/07/22 00:00:00 -0400","original":"7/21/2011","granularity":"day","time":"2011/07/21 00:00:00 -0400"},"country":"USA","geo_score":0.857,"id":"8","geo_precision":"city","state":"OR"},"type":"Feature","geometry":{"type":"Point","coordinates":[-122.676207,45.523452]}},{"properties":{"city":"Sturgeon Bay","date":{"end_time":"2011/07/22 00:00:00 -0400","original":"7/21/2011","granularity":"day","time":"2011/07/21 00:00:00 -0400"},"country":"USA","geo_score":0.857,"id":"9","geo_precision":"city","state":"WI"},"type":"Feature","geometry":{"type":"Point","coordinates":[-87.384142,44.945314]}},{"properties":{"city":"Las Vegas","date":{"end_time":"2011/07/23 00:00:00 -0400","original":"7/22/2011","granularity":"day","time":"2011/07/22 00:00:00 -0400"},"country":"USA","geo_score":0.857,"id":"10","geo_precision":"city","state":"NV"},"type":"Feature","geometry":{"type":"Point","coordinates":[-115.137223,36.174971]}},{"properties":{"city":"Los Angeles","date":{"end_time":"2011/07/26 00:00:00 -0400","original":"7/25/2011","granularity":"day","time":"2011/07/25 00:00:00 -0400"},"country":"USA","geo_score":0.857,"id":"11","geo_precision":"city","state":"CA"},"type":"Feature","geometry":{"type":"Point","coordinates":[-118.243685,34.052234]}},{"properties":{"city":"Minneapolis","date":{"end_time":"2011/07/26 00:00:00 -0400","original":"7/25/2011","granularity":"day","time":"2011/07/25 00:00:00 -0400"},"country":"USA","geo_score":0.857,"id":"12","geo_precision":"city","state":"MN"},"type":"Feature","geometry":{"type":"Point","coordinates":[-93.263836,44.979965]}},{"properties":{"city":"Spartanburg","date":{"end_time":"2011/07/27 00:00:00 -0400","original":"7/26/2011","granularity":"day","time":"2011/07/26 00:00:00 -0400"},"country":"USA","geo_score":0.857,"id":"13","geo_precision":"city","state":"SC"},"type":"Feature","geometry":{"type":"Point","coordinates":[-81.932048,34.949567]}},{"properties":{"city":"Newport News","date":{"end_time":"2011/07/27 00:00:00 -0400","original":"7/26/2011","granularity":"day","time":"2011/07/26 00:00:00 -0400"},"country":"USA","geo_score":0.857,"id":"14","geo_precision":"city","state":"VA"},"type":"Feature","geometry":{"type":"Point","coordinates":[-76.428003,36.978759]}},{"properties":{"city":"Orlando","date":{"end_time":"2011/07/27 00:00:00 -0400","original":"7/26/2011","granularity":"day","time":"2011/07/26 00:00:00 -0400"},"country":"USA","geo_score":0.857,"id":"15","geo_precision":"city","state":"FL"},"type":"Feature","geometry":{"type":"Point","coordinates":[-81.379237,28.538336]}},{"properties":{"city":"Raleigh","date":{"end_time":"2011/07/27 00:00:00 -0400","original":"7/26/2011","granularity":"day","time":"2011/07/26 00:00:00 -0400"},"country":"USA","geo_score":0.857,"id":"16","geo_precision":"city","state":"NC"},"type":"Feature","geometry":{"type":"Point","coordinates":[-78.638615,35.772096]}},{"properties":{"city":"Charles City","date":{"end_time":"2011/07/27 00:00:00 -0400","original":"7/26/2011","granularity":"day","time":"2011/07/26 00:00:00 -0400"},"country":"USA","geo_score":0.74,"id":"17","geo_precision":"city","state":"IA"},"type":"Feature","geometry":{"type":"Point","coordinates":[-92.161281,43.198027]}},{"properties":{"city":"Kendall","date":{"end_time":"2011/07/28 00:00:00 -0400","original":"7/27/2011","granularity":"day","time":"2011/07/27 00:00:00 -0400"},"country":"USA","geo_score":0.857,"id":"18","geo_precision":"city","state":"FL"},"type":"Feature","geometry":{"type":"Point","coordinates":[-80.317274,25.67927]}},{"properties":{"city":"Atlanta","date":{"end_time":"2011/07/29 00:00:00 -0400","original":"7/28/2011","granularity":"day","time":"2011/07/28 00:00:00 -0400"},"country":"USA","geo_score":0.857,"id":"19","geo_precision":"city","state":"GA"},"type":"Feature","geometry":{"type":"Point","coordinates":[-84.387982,33.748995]}},{"properties":{"city":"Denver","date":{"end_time":"2011/07/28 00:00:00 -0400","original":"7/27/2011","granularity":"day","time":"2011/07/27 00:00:00 -0400"},"country":"USA","geo_score":0.857,"id":"20","geo_precision":"city","state":"CO"},"type":"Feature","geometry":{"type":"Point","coordinates":[-104.984703,39.739154]}},{"properties":{"city":"New York","date":{"end_time":"2011/07/28 00:00:00 -0400","original":"7/27/2011","granularity":"day","time":"2011/07/27 00:00:00 -0400"},"country":"USA","geo_score":0.857,"id":"21","geo_precision":"city","state":"NY"},"type":"Feature","geometry":{"type":"Point","coordinates":[-74.005973,40.714269]}},{"properties":{"city":"Williamsport","date":{"end_time":"2011/07/29 00:00:00 -0400","original":"7/28/2011","granularity":"day","time":"2011/07/28 00:00:00 -0400"},"country":"USA","geo_score":0.857,"id":"22","geo_precision":"city","state":"PA"},"type":"Feature","geometry":{"type":"Point","coordinates":[-76.958314,41.266716]}},{"properties":{"city":"West Palm Beach","date":{"end_time":"2011/07/29 00:00:00 -0400","original":"7/28/2011","granularity":"day","time":"2011/07/28 00:00:00 -0400"},"country":"USA","geo_score":0.762,"id":"23","geo_precision":"city","state":"FL"},"type":"Feature","geometry":{"type":"Point","coordinates":[-80.035596,26.778118]}},{"properties":{"city":"Boston","date":{"end_time":"2011/07/29 00:00:00 -0400","original":"7/28/2011","granularity":"day","time":"2011/07/28 00:00:00 -0400"},"country":"USA","geo_score":0.857,"id":"24","geo_precision":"city","state":"MA"},"type":"Feature","geometry":{"type":"Point","coordinates":[-71.059773,42.358431]}},{"properties":{"city":"Lancaster","date":{"end_time":"2011/07/29 00:00:00 -0400","original":"7/28/2011","granularity":"day","time":"2011/07/28 00:00:00 -0400"},"country":"USA","geo_score":0.762,"id":"25","geo_precision":"city","state":"PA"},"type":"Feature","geometry":{"type":"Point","coordinates":[-76.658856,39.960376]}},{"properties":{"city":"Albuquerque","date":{"end_time":"2011/07/29 00:00:00 -0400","original":"7/28/2011","granularity":"day","time":"2011/07/28 00:00:00 -0400"},"country":"USA","geo_score":0.857,"id":"26","geo_precision":"city","state":"NM"},"type":"Feature","geometry":{"type":"Point","coordinates":[-106.651137,35.084491]}},{"properties":{"city":"Cleveland","date":{"end_time":"2011/07/30 00:00:00 -0400","original":"7/29/2011","granularity":"day","time":"2011/07/29 00:00:00 -0400"},"country":"USA","geo_score":0.857,"id":"27","geo_precision":"city","state":"OH"},"type":"Feature","geometry":{"type":"Point","coordinates":[-81.695409,41.499495]}},{"properties":{"city":"El Paso","date":{"end_time":"2011/07/31 00:00:00 -0400","original":"7/30/2011","granularity":"day","time":"2011/07/30 00:00:00 -0400"},"country":"USA","geo_score":0.857,"id":"28","geo_precision":"city","state":"TX"},"type":"Feature","geometry":{"type":"Point","coordinates":[-106.486931,31.75872]}},{"properties":{"city":"OPEN","date":{"end_time":"2011/08/02 00:00:00 -0400","original":"8/1/2011","granularity":"day","time":"2011/08/01 00:00:00 -0400"},"country":"USA","geo_score":0.0,"id":"29","geo_precision":"unmatched","state":"FL"},"type":"Feature","geometry":null},{"properties":{"city":"Honolulu","date":{"end_time":"2011/08/02 00:00:00 -0400","original":"8/1/2011","granularity":"day","time":"2011/08/01 00:00:00 -0400"},"country":"USA","geo_score":0.857,"id":"30","geo_precision":"city","state":"HI"},"type":"Feature","geometry":{"type":"Point","coordinates":[-157.858333,21.306944]}},{"properties":{"city":"Martinville","date":{"end_time":"2011/08/02 00:00:00 -0400","original":"8/1/2011","granularity":"day","time":"2011/08/01 00:00:00 -0400"},"country":"USA","geo_score":0.0,"id":"31","geo_precision":"unmatched","state":"VA"},"type":"Feature","geometry":null},{"properties":{"city":"Traverse","date":{"end_time":"2011/08/02 00:00:00 -0400","original":"8/1/2011","granularity":"day","time":"2011/08/01 00:00:00 -0400"},"country":"USA","geo_score":0.818,"id":"32","geo_precision":"city","state":"MI"},"type":"Feature","geometry":{"type":"Point","coordinates":[-88.234001,47.194369]}},{"properties":{"city":"Austin","date":{"end_time":"2011/08/02 00:00:00 -0400","original":"8/1/2011","granularity":"day","time":"2011/08/01 00:00:00 -0400"},"country":"USA","geo_score":0.857,"id":"33","geo_precision":"city","state":"TX"},"type":"Feature","geometry":{"type":"Point","coordinates":[-97.743061,30.267153]}},{"properties":{"city":"Charleston","date":{"end_time":"2011/08/02 00:00:00 -0400","original":"8/1/2011","granularity":"day","time":"2011/08/01 00:00:00 -0400"},"country":"USA","geo_score":0.857,"id":"34","geo_precision":"city","state":"WV"},"type":"Feature","geometry":{"type":"Point","coordinates":[-81.632624,38.34982]}},{"properties":{"city":"Exeter","date":{"end_time":"2011/08/02 00:00:00 -0400","original":"8/1/2011","granularity":"day","time":"2011/08/01 00:00:00 -0400"},"country":"USA","geo_score":0.857,"id":"35","geo_precision":"city","state":"NH"},"type":"Feature","geometry":{"type":"Point","coordinates":[-70.922262,42.951274]}},{"properties":{"city":"Bar Harbour","date":{"end_time":"2011/08/03 00:00:00 -0400","original":"8/2/2011","granularity":"day","time":"2011/08/02 00:00:00 -0400"},"country":"USA","geo_score":0.843,"id":"36","geo_precision":"city","state":"ME"},"type":"Feature","geometry":{"type":"Point","coordinates":[-68.305513,44.362323]}},{"properties":{"city":"Savannah","date":{"end_time":"2011/08/03 00:00:00 -0400","original":"8/2/2011","granularity":"day","time":"2011/08/02 00:00:00 -0400"},"country":"USA","geo_score":0.857,"id":"37","geo_precision":"city","state":"GA"},"type":"Feature","geometry":{"type":"Point","coordinates":[-81.099834,32.083541]}},{"properties":{"city":"Morgantown","date":{"end_time":"2011/08/03 00:00:00 -0400","original":"8/2/2011","granularity":"day","time":"2011/08/02 00:00:00 -0400"},"country":"USA","geo_score":0.857,"id":"38","geo_precision":"city","state":"WV"},"type":"Feature","geometry":{"type":"Point","coordinates":[-79.983141,39.609911]}},{"properties":{"city":"Dana Point","date":{"end_time":"2011/08/03 00:00:00 -0400","original":"8/2/2011","granularity":"day","time":"2011/08/02 00:00:00 -0400"},"country":"USA","geo_score":0.762,"id":"39","geo_precision":"city","state":"CA"},"type":"Feature","geometry":{"type":"Point","coordinates":[-123.386711,40.944025]}},{"properties":{"city":"Tacoma","date":{"end_time":"2011/08/03 00:00:00 -0400","original":"8/2/2011","granularity":"day","time":"2011/08/02 00:00:00 -0400"},"country":"USA","geo_score":0.857,"id":"40","geo_precision":"city","state":"WA"},"type":"Feature","geometry":{"type":"Point","coordinates":[-122.444291,47.252877]}},{"properties":{"city":"San Diego","date":{"end_time":"2011/08/04 00:00:00 -0400","original":"8/3/2011","granularity":"day","time":"2011/08/03 00:00:00 -0400"},"country":"USA","geo_score":0.857,"id":"41","geo_precision":"city","state":"CA"},"type":"Feature","geometry":{"type":"Point","coordinates":[-117.157255,32.715329]}},{"properties":{"city":"Elma","date":{"end_time":"2011/08/04 00:00:00 -0400","original":"8/3/2011","granularity":"day","time":"2011/08/03 00:00:00 -0400"},"country":"USA","geo_score":0.857,"id":"42","geo_precision":"city","state":"WA"},"type":"Feature","geometry":{"type":"Point","coordinates":[-123.736287,47.16]}},{"properties":{"city":"Elma","date":{"end_time":"2011/08/04 00:00:00 -0400","original":"8/3/2011","granularity":"day","time":"2011/08/03 00:00:00 -0400"},"country":"USA","geo_score":0.857,"id":"43","geo_precision":"city","state":"WA"},"type":"Feature","geometry":{"type":"Point","coordinates":[-123.736287,47.16]}},{"properties":{"city":"Stowe","date":{"end_time":"2011/08/04 00:00:00 -0400","original":"8/3/2011","granularity":"day","time":"2011/08/03 00:00:00 -0400"},"country":"USA","geo_score":0.857,"id":"44","geo_precision":"city","state":"VT"},"type":"Feature","geometry":{"type":"Point","coordinates":[-72.660043,44.535179]}},{"properties":{"city":"Morristown","date":{"end_time":"2011/08/05 00:00:00 -0400","original":"8/4/2011","granularity":"day","time":"2011/08/04 00:00:00 -0400"},"country":"USA","geo_score":0.857,"id":"45","geo_precision":"city","state":"TN"},"type":"Feature","geometry":{"type":"Point","coordinates":[-83.261343,36.188826]}},{"properties":{"city":"Philadelphia","date":{"end_time":"2011/08/05 00:00:00 -0400","original":"8/4/2011","granularity":"day","time":"2011/08/04 00:00:00 -0400"},"country":"USA","geo_score":0.857,"id":"46","geo_precision":"city","state":"PA"},"type":"Feature","geometry":{"type":"Point","coordinates":[-75.163789,39.952335]}},{"properties":{"city":"San Francisco","date":{"end_time":"2011/08/05 00:00:00 -0400","original":"8/4/2011","granularity":"day","time":"2011/08/04 00:00:00 -0400"},"country":"USA","geo_score":0.857,"id":"47","geo_precision":"city","state":"CA"},"type":"Feature","geometry":{"type":"Point","coordinates":[-122.419416,37.77493]}},{"properties":{"city":"Knoxville","date":{"end_time":"2011/08/05 00:00:00 -0400","original":"8/4/2011","granularity":"day","time":"2011/08/04 00:00:00 -0400"},"country":"USA","geo_score":0.794,"id":"48","geo_precision":"city","state":"TN"},"type":"Feature","geometry":{"type":"Point","coordinates":[-86.784443,36.16589]}},{"properties":{"city":"Ketchikan","date":{"end_time":"2011/08/06 00:00:00 -0400","original":"8/5/2011","granularity":"day","time":"2011/08/05 00:00:00 -0400"},"country":"USA","geo_score":0.857,"id":"49","geo_precision":"city","state":"AK"},"type":"Feature","geometry":{"type":"Point","coordinates":[-131.67409,55.400674]}},{"properties":{"city":"Toronto","date":{"end_time":"2011/08/06 00:00:00 -0400","original":"8/5/2011","granularity":"day","time":"2011/08/05 00:00:00 -0400"},"country":"USA","geo_score":0.0,"id":"50","geo_precision":"unmatched","state":"CA"},"type":"Feature","geometry":null},{"properties":{"city":"Cincinatti","date":{"end_time":"2011/08/08 00:00:00 -0400","original":"8/7/2011","granularity":"day","time":"2011/08/07 00:00:00 -0400"},"country":"USA","geo_score":0.829,"id":"51","geo_precision":"city","state":"OH"},"type":"Feature","geometry":{"type":"Point","coordinates":[-84.456886,39.162004]}},{"properties":{"city":"Kansas City","date":{"end_time":"2011/08/08 00:00:00 -0400","original":"8/7/2011","granularity":"day","time":"2011/08/07 00:00:00 -0400"},"country":"USA","geo_score":0.857,"id":"52","geo_precision":"city","state":"MO"},"type":"Feature","geometry":{"type":"Point","coordinates":[-94.598583,39.102404]}},{"properties":{"city":"Renick or Berkeley Springs","date":{"end_time":"2011/08/09 00:00:00 -0400","original":"8/8/2011","granularity":"day","time":"2011/08/08 00:00:00 -0400"},"country":"USA","geo_score":0.764,"id":"53","geo_precision":"city","state":"WV"},"type":"Feature","geometry":{"type":"Point","coordinates":[-77.92722,39.503154]}},{"properties":{"city":"Kent County","date":{"end_time":"2011/08/09 00:00:00 -0400","original":"8/8/2011","granularity":"day","time":"2011/08/08 00:00:00 -0400"},"country":"USA","geo_score":0.0,"id":"54","geo_precision":"unmatched","state":"DE"},"type":"Feature","geometry":null},{"properties":{"city":"Ames","date":{"end_time":"2011/08/10 00:00:00 -0400","original":"8/9/2011","granularity":"day","time":"2011/08/09 00:00:00 -0400"},"country":"USA","geo_score":0.857,"id":"55","geo_precision":"city","state":"IA"},"type":"Feature","geometry":{"type":"Point","coordinates":[-93.600254,42.037879]}},{"properties":{"city":"Sacramento","date":{"end_time":"2011/08/10 00:00:00 -0400","original":"8/9/2011","granularity":"day","time":"2011/08/09 00:00:00 -0400"},"country":"USA","geo_score":0.857,"id":"56","geo_precision":"city","state":"CA"},"type":"Feature","geometry":{"type":"Point","coordinates":[-121.4944,38.581572]}},{"properties":{"city":"Boise","date":{"end_time":"2011/08/11 00:00:00 -0400","original":"8/10/2011","granularity":"day","time":"2011/08/10 00:00:00 -0400"},"country":"USA","geo_score":0.857,"id":"57","geo_precision":"city","state":"ID"},"type":"Feature","geometry":{"type":"Point","coordinates":[-116.203451,43.6135]}},{"properties":{"city":"Boise","date":{"end_time":"2011/08/11 00:00:00 -0400","original":"8/10/2011","granularity":"day","time":"2011/08/10 00:00:00 -0400"},"country":"USA","geo_score":0.857,"id":"58","geo_precision":"city","state":"ID"},"type":"Feature","geometry":{"type":"Point","coordinates":[-116.203451,43.6135]}},{"properties":{"city":"Park City","date":{"end_time":"2011/08/12 00:00:00 -0400","original":"8/11/2011","granularity":"day","time":"2011/08/11 00:00:00 -0400"},"country":"USA","geo_score":0.857,"id":"59","geo_precision":"city","state":"UT"},"type":"Feature","geometry":{"type":"Point","coordinates":[-111.448892,40.71188]}},{"properties":{"city":"Albuquerque","date":{"end_time":"2011/08/15 00:00:00 -0400","original":"8/14/2011","granularity":"day","time":"2011/08/14 00:00:00 -0400"},"country":"USA","geo_score":0.857,"id":"60","geo_precision":"city","state":"NM"},"type":"Feature","geometry":{"type":"Point","coordinates":[-106.651137,35.084491]}},{"properties":{"city":"Seattle","date":{"end_time":"2011/08/16 00:00:00 -0400","original":"8/15/2011","granularity":"day","time":"2011/08/15 00:00:00 -0400"},"country":"USA","geo_score":0.857,"id":"61","geo_precision":"city","state":"WA"},"type":"Feature","geometry":{"type":"Point","coordinates":[-122.332071,47.60621]}},{"properties":{"city":"Cary","date":{"end_time":"2011/08/16 00:00:00 -0400","original":"8/15/2011","granularity":"day","time":"2011/08/15 00:00:00 -0400"},"country":"USA","geo_score":0.821,"id":"62","geo_precision":"city","state":"NC"},"type":"Feature","geometry":{"type":"Point","coordinates":[-79.220017,36.211527]}},{"properties":{"city":"Cary","date":{"end_time":"2011/08/16 00:00:00 -0400","original":"8/15/2011","granularity":"day","time":"2011/08/15 00:00:00 -0400"},"country":"USA","geo_score":0.821,"id":"63","geo_precision":"city","state":"NC"},"type":"Feature","geometry":{"type":"Point","coordinates":[-79.220017,36.211527]}},{"properties":{"city":"New Orleans","date":{"end_time":"2011/08/16 00:00:00 -0400","original":"8/15/2011","granularity":"day","time":"2011/08/15 00:00:00 -0400"},"country":"USA","geo_score":0.857,"id":"64","geo_precision":"city","state":"LA"},"type":"Feature","geometry":{"type":"Point","coordinates":[-89.930956,30.068812]}},{"properties":{"city":"New Orleans","date":{"end_time":"2011/08/17 00:00:00 -0400","original":"8/16/2011","granularity":"day","time":"2011/08/16 00:00:00 -0400"},"country":"USA","geo_score":0.857,"id":"65","geo_precision":"city","state":"LA"},"type":"Feature","geometry":{"type":"Point","coordinates":[-89.930956,30.068812]}},{"properties":{"city":"Huntsville","date":{"end_time":"2011/08/17 00:00:00 -0400","original":"8/16/2011","granularity":"day","time":"2011/08/16 00:00:00 -0400"},"country":"USA","geo_score":0.857,"id":"66","geo_precision":"city","state":"AL"},"type":"Feature","geometry":{"type":"Point","coordinates":[-86.556439,34.718428]}},{"properties":{"city":"Asheville","date":{"end_time":"2011/08/17 00:00:00 -0400","original":"8/16/2011","granularity":"day","time":"2011/08/16 00:00:00 -0400"},"country":"USA","geo_score":0.857,"id":"67","geo_precision":"city","state":"NC"},"type":"Feature","geometry":{"type":"Point","coordinates":[-82.554015,35.600945]}},{"properties":{"city":"Honolulu","date":{"end_time":"2011/08/18 00:00:00 -0400","original":"8/17/2011","granularity":"day","time":"2011/08/17 00:00:00 -0400"},"country":"USA","geo_score":0.857,"id":"68","geo_precision":"city","state":"HI"},"type":"Feature","geometry":{"type":"Point","coordinates":[-157.858333,21.306944]}},{"properties":{"city":"Rapid City","date":{"end_time":"2011/08/20 00:00:00 -0400","original":"8/19/2011","granularity":"day","time":"2011/08/19 00:00:00 -0400"},"country":"USA","geo_score":0.857,"id":"69","geo_precision":"city","state":"SD"},"type":"Feature","geometry":{"type":"Point","coordinates":[-103.231015,44.080543]}},{"properties":{"city":"San Diego","date":{"end_time":"2011/08/23 00:00:00 -0400","original":"8/22/2011","granularity":"day","time":"2011/08/22 00:00:00 -0400"},"country":"USA","geo_score":0.857,"id":"70","geo_precision":"city","state":"CA"},"type":"Feature","geometry":{"type":"Point","coordinates":[-117.157255,32.715329]}},{"properties":{"city":"San Francisco","date":{"end_time":"2011/08/23 00:00:00 -0400","original":"8/22/2011","granularity":"day","time":"2011/08/22 00:00:00 -0400"},"country":"USA","geo_score":0.857,"id":"71","geo_precision":"city","state":"CA"},"type":"Feature","geometry":{"type":"Point","coordinates":[-122.419416,37.77493]}},{"properties":{"city":"San Francisco","date":{"end_time":"2011/08/23 00:00:00 -0400","original":"8/22/2011","granularity":"day","time":"2011/08/22 00:00:00 -0400"},"country":"USA","geo_score":0.857,"id":"72","geo_precision":"city","state":"CA"},"type":"Feature","geometry":{"type":"Point","coordinates":[-122.419416,37.77493]}},{"properties":{"city":"Boston","date":{"end_time":"2011/08/23 00:00:00 -0400","original":"8/22/2011","granularity":"day","time":"2011/08/22 00:00:00 -0400"},"country":"USA","geo_score":0.857,"id":"73","geo_precision":"city","state":"MA"},"type":"Feature","geometry":{"type":"Point","coordinates":[-71.059773,42.358431]}},{"properties":{"city":"Cincinatti","date":{"end_time":"2011/08/23 00:00:00 -0400","original":"8/22/2011","granularity":"day","time":"2011/08/22 00:00:00 -0400"},"country":"USA","geo_score":0.829,"id":"74","geo_precision":"city","state":"OH"},"type":"Feature","geometry":{"type":"Point","coordinates":[-84.456886,39.162004]}},{"properties":{"city":"Fort Worth","date":{"end_time":"2011/08/23 00:00:00 -0400","original":"8/22/2011","granularity":"day","time":"2011/08/22 00:00:00 -0400"},"country":"USA","geo_score":0.746,"id":"75","geo_precision":"city","state":"TX"},"type":"Feature","geometry":{"type":"Point","coordinates":[-95.262161,31.108239]}},{"properties":{"city":"Fort Knox","date":{"end_time":"2011/08/23 00:00:00 -0400","original":"8/22/2011","granularity":"day","time":"2011/08/22 00:00:00 -0400"},"country":"USA","geo_score":0.732,"id":"76","geo_precision":"city","state":"KY"},"type":"Feature","geometry":{"type":"Point","coordinates":[-83.219065,36.848701]}},{"properties":{"city":"Charlotte","date":{"end_time":"2011/08/23 00:00:00 -0400","original":"8/22/2011","granularity":"day","time":"2011/08/22 00:00:00 -0400"},"country":"USA","geo_score":0.857,"id":"77","geo_precision":"city","state":"NC"},"type":"Feature","geometry":{"type":"Point","coordinates":[-80.843127,35.227087]}},{"properties":{"city":"Omaha","date":{"end_time":"2011/08/24 00:00:00 -0400","original":"8/23/2011","granularity":"day","time":"2011/08/23 00:00:00 -0400"},"country":"USA","geo_score":0.857,"id":"78","geo_precision":"city","state":"NE"},"type":"Feature","geometry":{"type":"Point","coordinates":[-95.937792,41.25861]}},{"properties":{"city":"Clemson","date":{"end_time":"2011/08/24 00:00:00 -0400","original":"8/23/2011","granularity":"day","time":"2011/08/23 00:00:00 -0400"},"country":"USA","geo_score":0.857,"id":"79","geo_precision":"city","state":"SC"},"type":"Feature","geometry":{"type":"Point","coordinates":[-82.802154,34.75974]}},{"properties":{"city":"Sioux Falls","date":{"end_time":"2011/08/25 00:00:00 -0400","original":"8/24/2011","granularity":"day","time":"2011/08/24 00:00:00 -0400"},"country":"USA","geo_score":0.857,"id":"80","geo_precision":"city","state":"SD"},"type":"Feature","geometry":{"type":"Point","coordinates":[-96.730328,43.546642]}},{"properties":{"city":"Knoxville (suburb)","date":{"end_time":"2011/08/25 00:00:00 -0400","original":"8/24/2011","granularity":"day","time":"2011/08/24 00:00:00 -0400"},"country":"USA","geo_score":0.762,"id":"81","geo_precision":"city","state":"TN"},"type":"Feature","geometry":{"type":"Point","coordinates":[-86.784443,36.16589]}},{"properties":{"city":"Minneapolis - St. Paul","date":{"end_time":"2011/08/26 00:00:00 -0400","original":"8/25/2011","granularity":"day","time":"2011/08/25 00:00:00 -0400"},"country":"USA","geo_score":0.807,"id":"82","geo_precision":"city","state":"MN"},"type":"Feature","geometry":{"type":"Point","coordinates":[-93.263836,44.979965]}},{"properties":{"city":"Saint Louis","date":{"end_time":"2011/08/27 00:00:00 -0400","original":"8/26/2011","granularity":"day","time":"2011/08/26 00:00:00 -0400"},"country":"USA","geo_score":0.0,"id":"83","geo_precision":"unmatched","state":"MO"},"type":"Feature","geometry":null},{"properties":{"city":"Chicago","date":{"end_time":"2011/08/29 00:00:00 -0400","original":"8/28/2011","granularity":"day","time":"2011/08/28 00:00:00 -0400"},"country":"USA","geo_score":0.714,"id":"84","geo_precision":"city","state":"IL"},"type":"Feature","geometry":{"type":"Point","coordinates":[-87.650052,41.850033]}},{"properties":{"city":"Biloxi","date":{"end_time":"2011/08/30 00:00:00 -0400","original":"8/29/2011","granularity":"day","time":"2011/08/29 00:00:00 -0400"},"country":"USA","geo_score":0.857,"id":"85","geo_precision":"city","state":"MS"},"type":"Feature","geometry":{"type":"Point","coordinates":[-88.978634,30.432454]}},{"properties":{"city":"San Francisco, CA","date":{"end_time":"2011/08/30 00:00:00 -0400","original":"8/29/2011","granularity":"day","time":"2011/08/29 00:00:00 -0400"},"country":"USA","geo_score":0.837,"id":"86","geo_precision":"city","state":"CA"},"type":"Feature","geometry":{"type":"Point","coordinates":[-122.419416,37.77493]}},{"properties":{"city":"Puerto Rico","date":{"end_time":"2011/08/31 00:00:00 -0400","original":"8/30/2011","granularity":"day","time":"2011/08/30 00:00:00 -0400"},"country":"USA","geo_score":0.0,"id":"87","geo_precision":"unmatched","state":"PR"},"type":"Feature","geometry":null},{"properties":{"city":"Minneapolis","date":{"end_time":"2011/08/31 00:00:00 -0400","original":"8/30/2011","granularity":"day","time":"2011/08/30 00:00:00 -0400"},"country":"USA","geo_score":0.857,"id":"88","geo_precision":"city","state":"MN"},"type":"Feature","geometry":{"type":"Point","coordinates":[-93.263836,44.979965]}}],"is_temporal":true,"author":{"url":"","metadata":"","contact_name":"","contact_address":"","source":"","contact_phone":""},"source":"","pagination":{"sort":null,"start":0,"total":89,"limit":1000000},"state":"complete","tags":"","published":"2014-08-13T06:14:45-04:00","id":136526}