{"type":"FeatureCollection","data_type":"Dataset","url_type":null,"permissions":[{"permissions":{"download":true,"view":true},"group_id":"everyone"}],"classification":null,"title":"domestic attacks no ","count":36,"stream_id":136739,"contributor":{"url":"http://geocommons.com/users/25620","name":"emilys"},"data_attributes":null,"calculation_params":null,"icon_link":null,"link":"http://geocommons.com/overlays/136739.json","extent":[-71017200000.0,27.7922,-73.7854,47.6132],"geometry_types":["point"],"unique_name":null,"name":"domestic attacks no ","feature_count":36,"description":"test reupload with no _ in id column","next_feature":null,"is_raster":false,"short_classification":"Y","stats":{"lat":{"max":47.61321796,"mean":38.365309715,"variance":18.9655666169826,"stdev":4.35494737246991,"min":27.79221219,"median":38.89037},"long":{"max":-73.785374,"mean":-1972701339.25974,"variance":1.40095807839968e+20,"stdev":11836207493.9555,"min":-71017245054.0,"median":-84.03627}},"features":[{"properties":{"id":"a67rctaknkds","lat":31.13489,"long":-97.77561,"state":"TX","plotid":"2009 FortHood Shooting"},"type":"Feature","geometry":{"type":"Point","coordinates":[-97.77561,31.13489]}},{"properties":{"id":"a67rct2ut4nh","lat":40.756,"long":-73.987,"state":"NY","plotid":"2010 TimesSquare Bombing"},"type":"Feature","geometry":{"type":"Point","coordinates":[-73.987,40.756]}},{"properties":{"id":"a67rct8v67ma","lat":39.270215,"long":-76.73983,"state":"MD","plotid":"2010 Cantonsville Bombing"},"type":"Feature","geometry":{"type":"Point","coordinates":[-76.73983,39.270215]}},{"properties":{"id":"a67rct83zkgi","lat":40.635608,"long":-73.785374,"state":"NY","plotid":"2007 JFK Bombing"},"type":"Feature","geometry":{"type":"Point","coordinates":[-73.785374,40.635608]}},{"properties":{"id":"a67rct8g3xcn","lat":40.887976,"long":-73.912674,"state":"NY","plotid":"2009 Newburgh Bombing"},"type":"Feature","geometry":{"type":"Point","coordinates":[-73.912674,40.887976]}},{"properties":{"id":"a67rct59az3m","lat":38.522065,"long":-77.290855,"state":"VA","plotid":"2009 NCCell Shooting"},"type":"Feature","geometry":{"type":"Point","coordinates":[-77.290855,38.522065]}},{"properties":{"id":"a67rct02pp1j","lat":40.71455,"long":-74.007125,"state":"NY","plotid":"2002 NewYork BridgeAttack"},"type":"Feature","geometry":{"type":"Point","coordinates":[-74.007125,40.71455]}},{"properties":{"id":"a67rct9r6ee5","lat":38.89037,"long":-77.03196,"state":"DC","plotid":"2010 WashingtonDC Bombing"},"type":"Feature","geometry":{"type":"Point","coordinates":[-77.03196,38.89037]}},{"properties":{"id":"a67rct0fljmd","lat":41.87888,"long":-87.635865,"state":"IL","plotid":"2006 LibertyCity7 Bombing"},"type":"Feature","geometry":{"type":"Point","coordinates":[-87.635865,41.87888]}},{"properties":{"id":"a67rct21atet","lat":36.89037,"long":-77.03196,"state":"DC","plotid":"2002 WashingtonDC Arson"},"type":"Feature","geometry":{"type":"Point","coordinates":[-77.03196,36.89037]}},{"properties":{"id":"a67rct5b072q","lat":39.799269,"long":-89.647735,"state":"MA","plotid":"2009 Sprinfield VBIED"},"type":"Feature","geometry":{"type":"Point","coordinates":[-89.647735,39.799269]}},{"properties":{"id":"a67rctazyytl","lat":40.02132,"long":-74.629574,"state":"NJ","plotid":"2007 FortDix Shooting"},"type":"Feature","geometry":{"type":"Point","coordinates":[-74.629574,40.02132]}},{"properties":{"id":"a67rct4y11wq","lat":40.71455,"long":-74.007125,"state":"NY","plotid":"2009 NewYork Bombing"},"type":"Feature","geometry":{"type":"Point","coordinates":[-74.007125,40.71455]}},{"properties":{"id":"a67rct1vpe0z","lat":34.748654,"long":-92.37555,"state":"AR","plotid":"2009 LittleRock Shooting"},"type":"Feature","geometry":{"type":"Point","coordinates":[-92.37555,34.748654]}},{"properties":{"id":"a67rct2tnjvb","lat":35.90640016,"long":-79.04295489,"state":"NC","plotid":"2006 ChapelHill Vehicular"},"type":"Feature","geometry":{"type":"Point","coordinates":[-79.04295489,35.90640016]}},{"properties":{"id":"a67rct4ifslx","lat":42.24133224,"long":-88.97540583,"state":"IL","plotid":"2006 Rockford Bombing"},"type":"Feature","geometry":{"type":"Point","coordinates":[-88.97540583,42.24133224]}},{"properties":{"id":"a67rct70reb0","lat":40.750122,"long":-73.987743,"state":"NY","plotid":"2004 NewYork Bombing"},"type":"Feature","geometry":{"type":"Point","coordinates":[-73.987743,40.750122]}},{"properties":{"id":"a67rct3gb5ng","lat":38.89037,"long":-77.03196,"state":"DC","plotid":"2006 Roswell UNK"},"type":"Feature","geometry":{"type":"Point","coordinates":[-77.03196,38.89037]}},{"properties":{"id":"a67rct184zj7","lat":32.784889,"long":-96.80265,"state":"TX","plotid":"2010 Dallas Bombing"},"type":"Feature","geometry":{"type":"Point","coordinates":[-96.80265,32.784889]}},{"properties":{"id":"a67rct3atot0","lat":45.511795,"long":-122.67563,"state":"OR","plotid":"2010 Portland Bombing"},"type":"Feature","geometry":{"type":"Point","coordinates":[-122.67563,45.511795]}},{"properties":{"id":"a67rct637c6z","lat":38.887661,"long":-77.033533,"state":"DC","plotid":"2009 WashingtonDC Shooting"},"type":"Feature","geometry":{"type":"Point","coordinates":[-77.033533,38.887661]}},{"properties":{"id":"a67rcta9iu1n","lat":34.011425,"long":-118.40141,"state":"CA","plotid":"2001 LA Bombing"},"type":"Feature","geometry":{"type":"Point","coordinates":[-118.40141,34.011425]}},{"properties":{"id":"a67rcsxclf7g","lat":33.492946,"long":-111.918854,"state":"AZ","plotid":"2004 Scottsdale Bombing"},"type":"Feature","geometry":{"type":"Point","coordinates":[-111.918854,33.492946]}},{"properties":{"id":"a67rct8rw40s","lat":30.368157,"long":-97.704739,"state":"TX","plotid":"2010 Austin Plane"},"type":"Feature","geometry":{"type":"Point","coordinates":[-97.704739,30.368157]}},{"properties":{"id":"a67rct3nbb94","lat":37.707394,"long":-97.68958,"state":"KS","plotid":"2009 Wichita Assasination"},"type":"Feature","geometry":{"type":"Point","coordinates":[-97.68958,37.707394]}},{"properties":{"id":"a67rct0v828y","lat":41.89513,"long":-84.03627,"state":"MI","plotid":"2010 Huatree GuerillaWarfare"},"type":"Feature","geometry":{"type":"Point","coordinates":[-84.03627,41.89513]}},{"properties":{"id":"a67rct1bt7qo","lat":37.77916007,"long":-122.4200495,"state":"CA","plotid":"2010 Oakland Shooting"},"type":"Feature","geometry":{"type":"Point","coordinates":[-122.4200495,37.77916007]}},{"properties":{"id":"a67rcszqtexy","lat":47.039225,"long":-122.89143,"state":"WA","plotid":"2003 Olympia Assaination"},"type":"Feature","geometry":{"type":"Point","coordinates":[-122.89143,47.039225]}},{"properties":{"id":"a67rct2968tf","lat":47.61321796,"long":-122.2948649,"state":"WA","plotid":"2009 Assasination Seattle"},"type":"Feature","geometry":{"type":"Point","coordinates":[-122.2948649,47.61321796]}},{"properties":{"id":"a67rct8oryj6","lat":36.182628,"long":-93.87733907,"state":"AR","plotid":"2010 Alpena Bombing"},"type":"Feature","geometry":{"type":"Point","coordinates":[-93.87733907,36.182628]}},{"properties":{"id":"a67rct1qtdq7","lat":38.89037,"long":-77.03196,"state":"DC","plotid":"2004 WashingtonDC WMD"},"type":"Feature","geometry":{"type":"Point","coordinates":[-77.03196,38.89037]}},{"properties":{"id":"a67rct1i6xbm","lat":27.79221219,"long":-82.63934321,"state":"FL","plotid":"2002 StPtersburg Bombing"},"type":"Feature","geometry":{"type":"Point","coordinates":[-82.63934321,27.79221219]}},{"properties":{"id":"a67rct9dbnz1","lat":34.048293,"long":-118.456899,"state":"CA","plotid":"2005 LA Shooting"},"type":"Feature","geometry":{"type":"Point","coordinates":[-118.456899,34.048293]}},{"properties":{"id":"a67rcsxp7mss","lat":42.08317012,"long":-71017245054.0,"state":"MA","plotid":"2009 Brooklyn Shooting"},"type":"Feature","geometry":{"type":"Point","coordinates":[-71017245054.0,42.08317012]}},{"properties":{"id":"a67rct130q3u","lat":35.520165,"long":-97.547796,"state":"OK","plotid":"2004 OKCity FireBomb"},"type":"Feature","geometry":{"type":"Point","coordinates":[-97.547796,35.520165]}},{"properties":{"id":"a67rct3vadz1","lat":36.89037,"long":-77.03196,"state":"DC","plotid":"2009 Jacksonville Assasination"},"type":"Feature","geometry":{"type":"Point","coordinates":[-77.03196,36.89037]}}],"is_temporal":false,"author":{"url":"","metadata":"","contact_name":"","contact_address":"","source":"","contact_phone":""},"source":"","pagination":{"sort":null,"start":0,"total":36,"limit":1000000},"state":"complete","tags":"","published":"2014-08-13T06:37:22-04:00","id":136739}