{"type":"FeatureCollection","data_type":"Dataset","url_type":null,"permissions":[{"permissions":{"download":true},"group_id":"everyone"}],"classification":null,"title":"Cohort_Zips","count":20,"stream_id":137445,"contributor":{"url":"http://geocommons.com/users/30367","name":"brschuler"},"data_attributes":null,"calculation_params":null,"icon_link":null,"link":"http://geocommons.com/overlays/137445.json","extent":[-81.4,7.98333,-80.3,8.71667],"geometry_types":["point"],"unique_name":null,"name":"Cohort_Zips","feature_count":20,"description":"","next_feature":null,"is_raster":false,"short_classification":"Y","stats":{"student":{"max":20,"mean":10.5,"variance":35.0,"stdev":5.91607978309962,"min":1,"median":11}},"features":[{"properties":{"city":"Philadelphia","zip":"19132","geo_score":0.912,"id":"a8ovf4okvimv","geo_precision":"zip","student":1,"state":"PA"},"type":"Feature","geometry":{"type":"Point","coordinates":[-81.4,7.9833333]}},{"properties":{"city":"Philadelphia","zip":"19122","geo_score":0.912,"id":"a8ovf4ogrcr9","geo_precision":"zip","student":2,"state":"PA"},"type":"Feature","geometry":{"type":"Point","coordinates":[-81.4,7.9833333]}},{"properties":{"city":"Philadelphia","zip":"19143","geo_score":0.912,"id":"a8ovf4bprl5j","geo_precision":"zip","student":3,"state":"PA"},"type":"Feature","geometry":{"type":"Point","coordinates":[-81.4,7.9833333]}},{"properties":{"city":"Philadelphia","zip":"19145","geo_score":0.912,"id":"a8ovf4l5ua1w","geo_precision":"zip","student":4,"state":"PA"},"type":"Feature","geometry":{"type":"Point","coordinates":[-81.4,7.9833333]}},{"properties":{"city":"Philadelphia","zip":"19145","geo_score":0.912,"id":"a8ovf4eazbmn","geo_precision":"zip","student":5,"state":"PA"},"type":"Feature","geometry":{"type":"Point","coordinates":[-81.4,7.9833333]}},{"properties":{"city":"Philadelphia","zip":"19131","geo_score":0.912,"id":"a8ovf4cr68ws","geo_precision":"zip","student":6,"state":"PA"},"type":"Feature","geometry":{"type":"Point","coordinates":[-81.4,7.9833333]}},{"properties":{"city":"Philadelphia","zip":"19151","geo_score":0.912,"id":"a8ovf49075md","geo_precision":"zip","student":7,"state":"PA"},"type":"Feature","geometry":{"type":"Point","coordinates":[-81.4,7.9833333]}},{"properties":{"city":"Philadelphia","zip":"19122","geo_score":0.912,"id":"a8ovf4gg4r9j","geo_precision":"zip","student":8,"state":"PA"},"type":"Feature","geometry":{"type":"Point","coordinates":[-81.4,7.9833333]}},{"properties":{"city":"Philadelphia","zip":"19133","geo_score":0.912,"id":"a8ovf4d3v7gf","geo_precision":"zip","student":9,"state":"PA"},"type":"Feature","geometry":{"type":"Point","coordinates":[-81.4,7.9833333]}},{"properties":{"city":"Philadelphia","zip":"19141","geo_score":0.912,"id":"a8ovf4n90jdb","geo_precision":"zip","student":10,"state":"PA"},"type":"Feature","geometry":{"type":"Point","coordinates":[-81.4,7.9833333]}},{"properties":{"city":"Philadelphia","zip":"19104","geo_score":0.912,"id":"a8ovf4f48wep","geo_precision":"zip","student":11,"state":"PA"},"type":"Feature","geometry":{"type":"Point","coordinates":[-81.4,7.9833333]}},{"properties":{"city":"Philadelphia","zip":"19121","geo_score":0.912,"id":"a8ovf4lbmqan","geo_precision":"zip","student":12,"state":"PA"},"type":"Feature","geometry":{"type":"Point","coordinates":[-81.4,7.9833333]}},{"properties":{"city":"Philadelphia","zip":"19131","geo_score":0.912,"id":"a8ovf4if0b1k","geo_precision":"zip","student":13,"state":"PA"},"type":"Feature","geometry":{"type":"Point","coordinates":[-81.4,7.9833333]}},{"properties":{"city":"Philadelphia","zip":"19143","geo_score":0.912,"id":"a8ovf4j12kgi","geo_precision":"zip","student":14,"state":"PA"},"type":"Feature","geometry":{"type":"Point","coordinates":[-81.4,7.9833333]}},{"properties":{"city":"Philadelphia","zip":"19135","geo_score":0.912,"id":"a8ovf4oa6awi","geo_precision":"zip","student":15,"state":"PA"},"type":"Feature","geometry":{"type":"Point","coordinates":[-81.4,7.9833333]}},{"properties":{"city":"Philadelphia","zip":"19134","geo_score":0.912,"id":"a8ovf4elrxti","geo_precision":"zip","student":16,"state":"PA"},"type":"Feature","geometry":{"type":"Point","coordinates":[-81.4,7.9833333]}},{"properties":{"city":"Philadelphia","zip":"19120","geo_score":0.912,"id":"a8ovf4c76wpo","geo_precision":"zip","student":17,"state":"PA"},"type":"Feature","geometry":{"type":"Point","coordinates":[-81.4,7.9833333]}},{"properties":{"city":"Philadelphia","zip":"19120","geo_score":0.912,"id":"a8ovf4a9km5s","geo_precision":"zip","student":18,"state":"PA"},"type":"Feature","geometry":{"type":"Point","coordinates":[-81.4,7.9833333]}},{"properties":{"city":"Prospect Park","zip":"19076","geo_score":0.881,"id":"a8ovf4oyymzt","geo_precision":"zip","student":19,"state":"PA"},"type":"Feature","geometry":{"type":"Point","coordinates":[-80.3,8.7166667]}},{"properties":{"city":"Philadelphia","zip":"19139","geo_score":0.912,"id":"a8ovf4bng96w","geo_precision":"zip","student":20,"state":"PA"},"type":"Feature","geometry":{"type":"Point","coordinates":[-81.4,7.9833333]}}],"is_temporal":false,"author":{"url":"","metadata":null,"contact_name":null,"contact_address":null,"source":null,"contact_phone":null},"source":"","pagination":{"sort":null,"start":0,"total":20,"limit":1000000},"state":"complete","tags":"","published":"2014-08-13T07:39:35-04:00","id":137445}