{"type":"FeatureCollection","data_type":"Dataset","url_type":null,"permissions":[{"permissions":{"download":true,"view":true},"group_id":"everyone"}],"classification":null,"title":"2010 Mulch Orders Fixed CSV","count":162,"stream_id":137400,"contributor":{"url":"http://geocommons.com/users/30036","name":"thidogrouped"},"data_attributes":null,"calculation_params":null,"icon_link":null,"link":"http://geocommons.com/overlays/137400.json","extent":[-169.512,-14.2267,-72.5855,64.6798],"geometry_types":["point"],"unique_name":null,"name":"2010 Mulch Orders Fixed CSV","feature_count":162,"description":"","next_feature":null,"is_raster":false,"short_classification":"Y","stats":{"numbags":{"max":70,"mean":18.2345679012346,"variance":174.516064718964,"stdev":13.210452858209,"min":0,"median":15}},"features":[{"properties":{"city":"Falls Church","zip":"22043","geo_score":0.0,"numbags":20,"id":"a6a3lbldbrpd","geo_precision":"unmatched","address":"7603 Bent Oak Ct","state":"VA"},"type":"Feature","geometry":null},{"properties":{"city":"Falls Church","zip":"22043","geo_score":0.505,"numbags":10,"id":"a6a3lbca88wz","geo_precision":"street","address":"7303 Gordons Rd","state":"VA"},"type":"Feature","geometry":{"type":"Point","coordinates":[-73.58027,40.58648]}},{"properties":{"city":"Falls Church","zip":"22046","geo_score":0.598,"numbags":50,"id":"a6a3lbb8c8vg","geo_precision":"street","address":"7237 Allan Ave","state":"VA"},"type":"Feature","geometry":{"type":"Point","coordinates":[-82.068657,32.396664]}},{"properties":{"city":"Falls Church","zip":"22046","geo_score":0.48,"numbags":10,"id":"a6a3lbmk8l47","geo_precision":"street","address":"6700 Fisher Ave","state":"VA"},"type":"Feature","geometry":{"type":"Point","coordinates":[-91.000717,35.81776]}},{"properties":{"city":"Arlington","zip":"22046","geo_score":0.0,"numbags":5,"id":"a6a3lbbty16e","geo_precision":"unmatched","address":"6411 11th St North","state":"VA"},"type":"Feature","geometry":null},{"properties":{"city":"Arlington","zip":null,"geo_score":0.642,"numbags":30,"id":"a6a3lb908na7","geo_precision":"street","address":"4952 Terrell St","state":"VA"},"type":"Feature","geometry":{"type":"Point","coordinates":[-83.759294,31.6326]}},{"properties":{"city":"Arlington","zip":"22207","geo_score":0.512,"numbags":7,"id":"a6a3lbbwvddi","geo_precision":"street","address":"4940 N. 35th St","state":"VA"},"type":"Feature","geometry":{"type":"Point","coordinates":[-92.993404,34.076263]}},{"properties":{"city":"Falls Church","zip":"22042","geo_score":0.0,"numbags":6,"id":"a6a3lbig8oli","geo_precision":"unmatched","address":"2806 Prince Albert Ct","state":"VA"},"type":"Feature","geometry":null},{"properties":{"city":"Falls Church","zip":"22042","geo_score":0.654,"numbags":10,"id":"a6a3lb9ibvkk","geo_precision":"street","address":"2753 Marshal St","state":"VA"},"type":"Feature","geometry":{"type":"Point","coordinates":[-86.924495,34.424471]}},{"properties":{"city":"Falls Church","zip":"22044","geo_score":0.0,"numbags":10,"id":"a6a3lb7xsdm7","geo_precision":"unmatched","address":"2602 Faber Ct","state":"VA"},"type":"Feature","geometry":null},{"properties":{"city":"Falls Church","zip":"22046","geo_score":0.634,"numbags":25,"id":"a6a3lbm76cxd","geo_precision":"street","address":"2532 Stuart Place","state":"VA"},"type":"Feature","geometry":{"type":"Point","coordinates":[-85.148122,31.883367]}},{"properties":{"city":"Falls Church","zip":"22046","geo_score":0.329,"numbags":12,"id":"a6a3lbafem9v","geo_precision":"street","address":"2323 Grove Ave","state":"VA"},"type":"Feature","geometry":{"type":"Point","coordinates":[-90.868034,42.495871]}},{"properties":{"city":"Falls Church","zip":"22046","geo_score":0.0,"numbags":20,"id":"a6a3lb9939qu","geo_precision":"unmatched","address":"2238 Casemont Dr","state":"VA"},"type":"Feature","geometry":null},{"properties":{"city":"Falls Church","zip":"22043","geo_score":0.0,"numbags":20,"id":"a6a3lbc9logp","geo_precision":"unmatched","address":"2119 Natahoa Ct","state":"VA"},"type":"Feature","geometry":null},{"properties":{"city":"Arlington","zip":"22205","geo_score":0.271,"numbags":4,"id":"a6a3lbdoqx00","geo_precision":"street","address":"1915 N. Van Buren","state":"VA"},"type":"Feature","geometry":{"type":"Point","coordinates":[-87.146427,33.728645]}},{"properties":{"city":"Falls Church","zip":"22043","geo_score":0.707,"numbags":30,"id":"a6a3lb9v5ubf","geo_precision":"street","address":"1842 Griffith Rd","state":"VA"},"type":"Feature","geometry":{"type":"Point","coordinates":[-88.584296,33.994237]}},{"properties":{"city":"Falls Church","zip":"22046","geo_score":0.54,"numbags":45,"id":"a6a3lbma83f0","geo_precision":"street","address":"1508 Crane St","state":"VA"},"type":"Feature","geometry":{"type":"Point","coordinates":[-87.824957,34.273867]}},{"properties":{"city":"Falls Church","zip":"22046","geo_score":0.634,"numbags":10,"id":"a6a3lbcnmcg5","geo_precision":"street","address":"1306 Gibson Pl","state":"VA"},"type":"Feature","geometry":{"type":"Point","coordinates":[-92.548169,34.311994]}},{"properties":{"city":"Falls Church","zip":"22046","geo_score":0.844,"numbags":10,"id":"a6a3lbfzudc2","geo_precision":"range","address":"1304 Robinson Pl.","state":"VA"},"type":"Feature","geometry":{"type":"Point","coordinates":[-86.358282,32.461123]}},{"properties":{"city":"Falls Church","zip":"22046","geo_score":0.393,"numbags":12,"id":"a6a3lbnu6nxd","geo_precision":"street","address":"1215 Ellison St","state":"VA"},"type":"Feature","geometry":{"type":"Point","coordinates":[-147.063856,64.679817]}},{"properties":{"city":"Falls Church","zip":"22046","geo_score":0.0,"numbags":30,"id":"a6a3lbk1v1fn","geo_precision":"unmatched","address":"1208 Seaton La","state":"VA"},"type":"Feature","geometry":null},{"properties":{"city":"Falls Church","zip":"22046","geo_score":0.823,"numbags":15,"id":"a6a3lbapa7yw","geo_precision":"range","address":"1113 Lincoln Ave","state":"VA"},"type":"Feature","geometry":{"type":"Point","coordinates":[-96.705416,40.808085]}},{"properties":{"city":"Falls Church","zip":"22046","geo_score":0.0,"numbags":30,"id":"a6a3lb7nlg21","geo_precision":"unmatched","address":"1110 Seaton La","state":"VA"},"type":"Feature","geometry":null},{"properties":{"city":"Falls Church","zip":"22046","geo_score":0.0,"numbags":6,"id":"a6a3lbljk3ir","geo_precision":"unmatched","address":"1108 Jackson Ct.","state":"VA"},"type":"Feature","geometry":null},{"properties":{"city":"Falls Church","zip":"22046","geo_score":0.0,"numbags":0,"id":"a6a3lbm1mmdy","geo_precision":"unmatched","address":"1104 Seaton La","state":"VA"},"type":"Feature","geometry":null},{"properties":{"city":"Falls Church","zip":"22046","geo_score":0.442,"numbags":40,"id":"a6a3lba61spw","geo_precision":"city","address":"1100 N. Tuckahoe St","state":"VA"},"type":"Feature","geometry":{"type":"Point","coordinates":[-94.529394,37.12867]}},{"properties":{"city":"Falls Church","zip":"22046","geo_score":0.549,"numbags":10,"id":"a6a3lbie2sf5","geo_precision":"street","address":"1020 Spruce St","state":"VA"},"type":"Feature","geometry":{"type":"Point","coordinates":[-104.620886,37.145211]}},{"properties":{"city":"Falls Church","zip":"22046","geo_score":0.393,"numbags":15,"id":"a6a3lbd0jzrt","geo_precision":"street","address":"1020 Ellison Sq","state":"VA"},"type":"Feature","geometry":{"type":"Point","coordinates":[-147.063856,64.679817]}},{"properties":{"city":"Falls Church","zip":"22046","geo_score":0.393,"numbags":10,"id":"a6a3lbe8nchv","geo_precision":"street","address":"1016 Ellison Sq","state":"VA"},"type":"Feature","geometry":{"type":"Point","coordinates":[-147.063856,64.679817]}},{"properties":{"city":"Falls Church","zip":"22046","geo_score":0.708,"numbags":20,"id":"a6a3lbb9zuot","geo_precision":"street","address":"1012 Parker St","state":"VA"},"type":"Feature","geometry":{"type":"Point","coordinates":[-88.842475,37.204784]}},{"properties":{"city":"Falls Church","zip":"22046","geo_score":0.442,"numbags":20,"id":"a6a3lblr6fqb","geo_precision":"city","address":"1011 N. Tuckahoe St","state":"VA"},"type":"Feature","geometry":{"type":"Point","coordinates":[-94.529394,37.12867]}},{"properties":{"city":"Falls Church","zip":"22046","geo_score":0.0,"numbags":2,"id":"a6a3lb81x3vm","geo_precision":"unmatched","address":"1010 Madison La","state":"VA"},"type":"Feature","geometry":null},{"properties":{"city":"Falls Church","zip":"22046","geo_score":0.708,"numbags":10,"id":"a6a3lbi4hpz4","geo_precision":"street","address":"920 Park Ave","state":"VA"},"type":"Feature","geometry":{"type":"Point","coordinates":[-92.79959,34.349979]}},{"properties":{"city":"Falls Church","zip":"22046","geo_score":0.79,"numbags":10,"id":"a6a3lbgqi917","geo_precision":"range","address":"915 Hillwood Ave","state":"VA"},"type":"Feature","geometry":{"type":"Point","coordinates":[-80.123375,26.012068]}},{"properties":{"city":"Falls Church","zip":"22046","geo_score":0.708,"numbags":10,"id":"a6a3lb9gs212","geo_precision":"street","address":"910 Park Ave","state":"VA"},"type":"Feature","geometry":{"type":"Point","coordinates":[-92.79959,34.349979]}},{"properties":{"city":"Falls Church","zip":"22046","geo_score":0.63,"numbags":4,"id":"a6a3lbfkmvdu","geo_precision":"street","address":"910 Lincoln Ave","state":"VA"},"type":"Feature","geometry":{"type":"Point","coordinates":[-96.707029,40.808085]}},{"properties":{"city":"Falls Church","zip":"22046","geo_score":0.437,"numbags":25,"id":"a6a3lbmau5s6","geo_precision":"street","address":"819 Fulton Ave","state":"VA"},"type":"Feature","geometry":{"type":"Point","coordinates":[-90.77136,34.780319]}},{"properties":{"city":"Falls Church","zip":"22046","geo_score":0.437,"numbags":15,"id":"a6a3lb8b950c","geo_precision":"street","address":"813 Fulton Ave","state":"VA"},"type":"Feature","geometry":{"type":"Point","coordinates":[-90.77136,34.780319]}},{"properties":{"city":"Falls Church","zip":"22046","geo_score":0.629,"numbags":20,"id":"a6a3lb7rgf71","geo_precision":"street","address":"807 Lincoln Ave","state":"VA"},"type":"Feature","geometry":{"type":"Point","coordinates":[-96.707029,40.808085]}},{"properties":{"city":"Falls Church","zip":"22046","geo_score":0.586,"numbags":6,"id":"a6a3lb8zflxh","geo_precision":"street","address":"802 Berry St","state":"VA"},"type":"Feature","geometry":{"type":"Point","coordinates":[-92.058619,33.603155]}},{"properties":{"city":"Falls Church","zip":"22046","geo_score":0.612,"numbags":60,"id":"a6a3lbkx1o12","geo_precision":"street","address":"709 Parker Ave","state":"VA"},"type":"Feature","geometry":{"type":"Point","coordinates":[-88.511164,37.84162]}},{"properties":{"city":"Falls Church","zip":"22046","geo_score":0.707,"numbags":6,"id":"a6a3lbcijqv0","geo_precision":"street","address":"709 Poplar Dr","state":"VA"},"type":"Feature","geometry":{"type":"Point","coordinates":[-82.622746,38.434488]}},{"properties":{"city":"Falls Church","zip":"22046","geo_score":0.707,"numbags":70,"id":"a6a3lbk8ozu9","geo_precision":"street","address":"707 Poplar Dr","state":"VA"},"type":"Feature","geometry":{"type":"Point","coordinates":[-82.622746,38.434488]}},{"properties":{"city":"Falls Church","zip":"22046","geo_score":0.708,"numbags":40,"id":"a6a3lbh8hzup","geo_precision":"street","address":"704 Park Ave","state":"VA"},"type":"Feature","geometry":{"type":"Point","coordinates":[-92.79959,34.349979]}},{"properties":{"city":"Falls Church","zip":"22046","geo_score":0.628,"numbags":30,"id":"a6a3lbdiehv2","geo_precision":"street","address":"704 Lincoln Ave","state":"VA"},"type":"Feature","geometry":{"type":"Point","coordinates":[-96.707029,40.808085]}},{"properties":{"city":"Falls Church","zip":"22046","geo_score":0.823,"numbags":10,"id":"a6a3lbn9wbq6","geo_precision":"range","address":"703 Randolph St","state":"VA"},"type":"Feature","geometry":{"type":"Point","coordinates":[-120.660889,40.433643]}},{"properties":{"city":"Falls Church","zip":"22046","geo_score":0.628,"numbags":15,"id":"a6a3lbjfbe14","geo_precision":"street","address":"702 Lincoln Ave","state":"VA"},"type":"Feature","geometry":{"type":"Point","coordinates":[-96.707029,40.808085]}},{"properties":{"city":"Falls Church","zip":"22046","geo_score":0.0,"numbags":30,"id":"a6a3lbj5aty7","geo_precision":"unmatched","address":"701 Timber La","state":"VA"},"type":"Feature","geometry":null},{"properties":{"city":"Falls Church","zip":"22046","geo_score":0.707,"numbags":30,"id":"a6a3lbh4dj4f","geo_precision":"street","address":"701 Poplar Dr","state":"VA"},"type":"Feature","geometry":{"type":"Point","coordinates":[-82.622746,38.434488]}},{"properties":{"city":"Falls Church","zip":"22046","geo_score":0.525,"numbags":10,"id":"a6a3lbn7i9ec","geo_precision":"city","address":"610 Langston La","state":"VA"},"type":"Feature","geometry":{"type":"Point","coordinates":[-93.913834,32.117539]}},{"properties":{"city":"Falls Church","zip":"22046","geo_score":0.4,"numbags":10,"id":"a6a3lblnjjrb","geo_precision":"city","address":"609 N. West St","state":"VA"},"type":"Feature","geometry":{"type":"Point","coordinates":[-111.805435,34.86724]}},{"properties":{"city":"Falls Church","zip":"22046","geo_score":0.628,"numbags":20,"id":"a6a3lb9l3dkc","geo_precision":"street","address":"607 Lincoln Ave","state":"VA"},"type":"Feature","geometry":{"type":"Point","coordinates":[-96.707029,40.808085]}},{"properties":{"city":"Falls Church","zip":"22046","geo_score":0.525,"numbags":30,"id":"a6a3lbkwnph0","geo_precision":"city","address":"606 Langston La","state":"VA"},"type":"Feature","geometry":{"type":"Point","coordinates":[-93.913834,32.117539]}},{"properties":{"city":"Falls Church","zip":"22046","geo_score":0.709,"numbags":25,"id":"a6a3lbgmul37","geo_precision":"range","address":"606 Greenwich St","state":"VA"},"type":"Feature","geometry":{"type":"Point","coordinates":[-118.866735,34.17949]}},{"properties":{"city":"Falls Church","zip":"22046","geo_score":0.512,"numbags":10,"id":"a6a3lbcu5ion","geo_precision":"range","address":"604 E. Broad St","state":"VA"},"type":"Feature","geometry":{"type":"Point","coordinates":[-90.479134,36.067224]}},{"properties":{"city":"Falls Church","zip":"22046","geo_score":0.601,"numbags":30,"id":"a6a3lb8dxsal","geo_precision":"street","address":"603 Dorchester Rd","state":"VA"},"type":"Feature","geometry":{"type":"Point","coordinates":[-81.376046,31.768596]}},{"properties":{"city":"Falls Church","zip":"22046","geo_score":0.512,"numbags":4,"id":"a6a3lbemc6o9","geo_precision":"range","address":"602 E. Broad St","state":"VA"},"type":"Feature","geometry":{"type":"Point","coordinates":[-90.479147,36.067225]}},{"properties":{"city":"Falls Church","zip":"22046","geo_score":0.628,"numbags":10,"id":"a6a3lbl6d50e","geo_precision":"street","address":"601 Lincoln Ave","state":"VA"},"type":"Feature","geometry":{"type":"Point","coordinates":[-96.707029,40.808085]}},{"properties":{"city":"Falls Church","zip":"22046","geo_score":0.537,"numbags":4,"id":"a6a3lbkx9ptt","geo_precision":"street","address":"527 Great Falls St","state":"VA"},"type":"Feature","geometry":{"type":"Point","coordinates":[-113.200754,48.425169]}},{"properties":{"city":"Falls Church","zip":"22046","geo_score":0.707,"numbags":20,"id":"a6a3lbhb5tcx","geo_precision":"street","address":"523 Poplar Dr","state":"VA"},"type":"Feature","geometry":{"type":"Point","coordinates":[-82.622746,38.434488]}},{"properties":{"city":"Falls Church","zip":"22046","geo_score":0.0,"numbags":12,"id":"a6a3lbmrlys2","geo_precision":"unmatched","address":"521 Timber La","state":"VA"},"type":"Feature","geometry":null},{"properties":{"city":"Falls Church","zip":"22046","geo_score":0.516,"numbags":20,"id":"a6a3lbfjrktf","geo_precision":"street","address":"515 Greenwich St","state":"VA"},"type":"Feature","geometry":{"type":"Point","coordinates":[-118.866806,34.179452]}},{"properties":{"city":"Falls Church","zip":"22046","geo_score":0.537,"numbags":12,"id":"a6a3lb93tc71","geo_precision":"street","address":"515 Great Falls St","state":"VA"},"type":"Feature","geometry":{"type":"Point","coordinates":[-113.200754,48.425169]}},{"properties":{"city":"Falls Church","zip":"22046","geo_score":0.516,"numbags":20,"id":"a6a3lba642nz","geo_precision":"street","address":"508 Greenwich St","state":"VA"},"type":"Feature","geometry":{"type":"Point","coordinates":[-118.866806,34.179452]}},{"properties":{"city":"Falls Church","zip":"22046","geo_score":0.6,"numbags":60,"id":"a6a3lbd70qxc","geo_precision":"street","address":"503 Dorchester Rd","state":"VA"},"type":"Feature","geometry":{"type":"Point","coordinates":[-81.376046,31.768596]}},{"properties":{"city":"Falls Church","zip":"22046","geo_score":0.876,"numbags":20,"id":"a6a3lbil8jzv","geo_precision":"range","address":"503 E. Columbia St","state":"VA"},"type":"Feature","geometry":{"type":"Point","coordinates":[-92.143589,39.20671]}},{"properties":{"city":"Falls Church","zip":"22046","geo_score":0.4,"numbags":40,"id":"a6a3lbi344bx","geo_precision":"city","address":"503 N. West St","state":"VA"},"type":"Feature","geometry":{"type":"Point","coordinates":[-111.805435,34.86724]}},{"properties":{"city":"Falls Church","zip":"22046","geo_score":0.6,"numbags":40,"id":"a6a3lbmaj2vo","geo_precision":"street","address":"501 Dorchester Rd","state":"VA"},"type":"Feature","geometry":{"type":"Point","coordinates":[-81.376046,31.768596]}},{"properties":{"city":"Falls Church","zip":"22046","geo_score":0.537,"numbags":6,"id":"a6a3lb7sxkya","geo_precision":"street","address":"501 Great Falls St","state":"VA"},"type":"Feature","geometry":{"type":"Point","coordinates":[-113.200754,48.425169]}},{"properties":{"city":"Falls Church","zip":"22046","geo_score":0.423,"numbags":10,"id":"a6a3lbkdghry","geo_precision":"city","address":"501 W. Westmoreland Rd","state":"VA"},"type":"Feature","geometry":{"type":"Point","coordinates":[-92.407933,34.880367]}},{"properties":{"city":"Falls Church","zip":"22046","geo_score":0.778,"numbags":35,"id":"a6a3lb9phkmw","geo_precision":"street","address":"500 E. Columbia St","state":"VA"},"type":"Feature","geometry":{"type":"Point","coordinates":[-92.143589,39.20671]}},{"properties":{"city":"Falls Church","zip":"22046","geo_score":0.376,"numbags":16,"id":"a6a3lbjuza4e","geo_precision":"street","address":"422 Sherrow Ave","state":"VA"},"type":"Feature","geometry":{"type":"Point","coordinates":[-112.224382,34.522562]}},{"properties":{"city":"Falls Church","zip":"22046","geo_score":0.707,"numbags":20,"id":"a6a3lbhz6kwc","geo_precision":"street","address":"421 Poplar Dr","state":"VA"},"type":"Feature","geometry":{"type":"Point","coordinates":[-82.622746,38.434488]}},{"properties":{"city":"Falls Church","zip":"22046","geo_score":0.415,"numbags":3,"id":"a6a3lbdzzcq6","geo_precision":"city","address":"419 Rollins St","state":"VA"},"type":"Feature","geometry":{"type":"Point","coordinates":[-75.70632,38.635392]}},{"properties":{"city":"Falls Church","zip":"22046","geo_score":0.539,"numbags":20,"id":"a6a3lbb0nrhp","geo_precision":"street","address":"415 E. Jefferson St","state":"VA"},"type":"Feature","geometry":{"type":"Point","coordinates":[-86.783823,33.569148]}},{"properties":{"city":"Falls Church","zip":"22046","geo_score":0.628,"numbags":8,"id":"a6a3lbhagctj","geo_precision":"street","address":"414 Lincoln Ave","state":"VA"},"type":"Feature","geometry":{"type":"Point","coordinates":[-96.707029,40.808085]}},{"properties":{"city":"Falls Church","zip":"22046","geo_score":0.46,"numbags":10,"id":"a6a3lbhug1bx","geo_precision":"street","address":"412 N. Cherry St","state":"VA"},"type":"Feature","geometry":{"type":"Point","coordinates":[-112.224382,34.522562]}},{"properties":{"city":"Falls Church","zip":"22046","geo_score":0.415,"numbags":60,"id":"a6a3lbdj6lu5","geo_precision":"street","address":"412 S. West St.","state":"VA"},"type":"Feature","geometry":{"type":"Point","coordinates":[-112.465263,34.796848]}},{"properties":{"city":"Falls Church","zip":"22046","geo_score":0.447,"numbags":36,"id":"a6a3lbhyhcrv","geo_precision":"city","address":"411 Midvale St","state":"VA"},"type":"Feature","geometry":{"type":"Point","coordinates":[-75.610482,39.659835]}},{"properties":{"city":"Falls Church","zip":"22046","geo_score":0.0,"numbags":20,"id":"a6a3lb8c4b6z","geo_precision":"unmatched","address":"401 Timber La","state":"VA"},"type":"Feature","geometry":null},{"properties":{"city":"Falls Church","zip":"22046","geo_score":0.499,"numbags":10,"id":"a6a3lb8y7vmj","geo_precision":"street","address":"347 James St","state":"VA"},"type":"Feature","geometry":{"type":"Point","coordinates":[-83.473873,32.966496]}},{"properties":{"city":"Falls Church","zip":"22046","geo_score":0.415,"numbags":15,"id":"a6a3lbn6b19m","geo_precision":"city","address":"345 Little Falls St","state":"VA"},"type":"Feature","geometry":{"type":"Point","coordinates":[-169.512222,-14.226667]}},{"properties":{"city":"Falls Church","zip":"22046","geo_score":0.499,"numbags":6,"id":"a6a3lbnvs81e","geo_precision":"street","address":"341 James St.","state":"VA"},"type":"Feature","geometry":{"type":"Point","coordinates":[-83.473873,32.966496]}},{"properties":{"city":"Falls Church","zip":"22046","geo_score":0.351,"numbags":20,"id":"a6a3lb8x6gyg","geo_precision":"range","address":"324 Van Buren St","state":"VA"},"type":"Feature","geometry":{"type":"Point","coordinates":[-87.146732,33.728496]}},{"properties":{"city":"Falls Church","zip":"22046","geo_score":0.351,"numbags":25,"id":"a6a3lb947sga","geo_precision":"range","address":"322 Van Buren St","state":"VA"},"type":"Feature","geometry":{"type":"Point","coordinates":[-87.146769,33.728485]}},{"properties":{"city":"Falls Church","zip":"22046","geo_score":0.408,"numbags":20,"id":"a6a3lbi3x0u4","geo_precision":"city","address":"320 Wrens Way","state":"VA"},"type":"Feature","geometry":{"type":"Point","coordinates":[-83.864342,31.891007]}},{"properties":{"city":"Falls Church","zip":"22046","geo_score":0.332,"numbags":25,"id":"a6a3lbgskmhu","geo_precision":"street","address":"319 Grove Ave","state":"VA"},"type":"Feature","geometry":{"type":"Point","coordinates":[-90.872873,42.491313]}},{"properties":{"city":"Falls Church","zip":"22046","geo_score":0.351,"numbags":20,"id":"a6a3lbg265a1","geo_precision":"range","address":"318 Van Buren St","state":"VA"},"type":"Feature","geometry":{"type":"Point","coordinates":[-87.146817,33.728469]}},{"properties":{"city":"Falls Church","zip":"22046","geo_score":0.468,"numbags":10,"id":"a6a3lbnfehnz","geo_precision":"range","address":"317 N. Van Buren St","state":"VA"},"type":"Feature","geometry":{"type":"Point","coordinates":[-87.146844,33.728465]}},{"properties":{"city":"Falls Church","zip":"22046","geo_score":0.561,"numbags":20,"id":"a6a3lbajij7i","geo_precision":"street","address":"315 N. Underwood St","state":"VA"},"type":"Feature","geometry":{"type":"Point","coordinates":[-86.604115,33.575365]}},{"properties":{"city":"Falls Church","zip":"22046","geo_score":0.33,"numbags":40,"id":"a6a3lbg2bfah","geo_precision":"street","address":"312 Grove Ave","state":"VA"},"type":"Feature","geometry":{"type":"Point","coordinates":[-90.869495,42.494405]}},{"properties":{"city":"Falls Church","zip":"22046","geo_score":0.553,"numbags":5,"id":"a6a3lbi6aduf","geo_precision":"street","address":"311 N. Virginia Ave.","state":"VA"},"type":"Feature","geometry":{"type":"Point","coordinates":[-87.007151,33.439858]}},{"properties":{"city":"Falls Church","zip":"22046","geo_score":0.732,"numbags":20,"id":"a6a3lb9ee2rc","geo_precision":"range","address":"309 Buxton Rd","state":"VA"},"type":"Feature","geometry":{"type":"Point","coordinates":[-84.756059,33.266151]}},{"properties":{"city":"Falls Church","zip":"22046","geo_score":0.61,"numbags":20,"id":"a6a3lbceonh9","geo_precision":"street","address":"309 Sycamore St","state":"VA"},"type":"Feature","geometry":{"type":"Point","coordinates":[-93.148924,33.906777]}},{"properties":{"city":"Falls Church","zip":"22046","geo_score":0.675,"numbags":10,"id":"a6a3lbiikkg2","geo_precision":"range","address":"308 N. Virginia Ave","state":"VA"},"type":"Feature","geometry":{"type":"Point","coordinates":[-87.006757,33.439875]}},{"properties":{"city":"Falls Church","zip":"22046","geo_score":0.902,"numbags":5,"id":"a6a3lbdnd3u8","geo_precision":"range","address":"307 Walnut St","state":"VA"},"type":"Feature","geometry":{"type":"Point","coordinates":[-93.46741,35.47334]}},{"properties":{"city":"Falls Church","zip":"22046","geo_score":0.415,"numbags":20,"id":"a6a3lb8db464","geo_precision":"city","address":"306 Rollins St","state":"VA"},"type":"Feature","geometry":{"type":"Point","coordinates":[-75.70632,38.635392]}},{"properties":{"city":"Falls Church","zip":"22046","geo_score":0.683,"numbags":20,"id":"a6a3lb8oq4qq","geo_precision":"street","address":"306 N. Underwood St","state":"VA"},"type":"Feature","geometry":{"type":"Point","coordinates":[-86.604115,33.575365]}},{"properties":{"city":"Falls Church","zip":"22046","geo_score":0.902,"numbags":12,"id":"a6a3lb9xk006","geo_precision":"range","address":"305 Pine St","state":"VA"},"type":"Feature","geometry":{"type":"Point","coordinates":[-86.87832,34.526654]}},{"properties":{"city":"Falls Church","zip":"22046","geo_score":0.0,"numbags":30,"id":"a6a3lbevnk3q","geo_precision":"unmatched","address":"305 Fellows Ct","state":"VA"},"type":"Feature","geometry":null},{"properties":{"city":"Falls Church","zip":"22046","geo_score":0.463,"numbags":12,"id":"a6a3lbmh00vs","geo_precision":"street","address":"304 Gundry Dr","state":"VA"},"type":"Feature","geometry":{"type":"Point","coordinates":[-91.548386,43.067416]}},{"properties":{"city":"Falls Church","zip":"22046","geo_score":0.805,"numbags":5,"id":"a6a3lbhvu1xt","geo_precision":"range","address":"301 Parker Ave","state":"VA"},"type":"Feature","geometry":{"type":"Point","coordinates":[-88.511182,37.837959]}},{"properties":{"city":"Falls Church","zip":"22046","geo_score":0.688,"numbags":10,"id":"a6a3lbjj81h2","geo_precision":"street","address":"301 Sycamore St","state":"VA"},"type":"Feature","geometry":{"type":"Point","coordinates":[-93.148924,33.906777]}},{"properties":{"city":"Falls Church","zip":"22046","geo_score":0.4,"numbags":40,"id":"a6a3lbd3pdqu","geo_precision":"city","address":"300 S. West St","state":"VA"},"type":"Feature","geometry":{"type":"Point","coordinates":[-111.805435,34.86724]}},{"properties":{"city":"Falls Church","zip":"22046","geo_score":0.688,"numbags":20,"id":"a6a3lba4uhjs","geo_precision":"street","address":"300 Sycamore St","state":"VA"},"type":"Feature","geometry":{"type":"Point","coordinates":[-93.148924,33.906777]}},{"properties":{"city":"Falls Church","zip":"22046","geo_score":0.707,"numbags":50,"id":"a6a3lb7x3225","geo_precision":"street","address":"300 Poplar Dr","state":"VA"},"type":"Feature","geometry":{"type":"Point","coordinates":[-82.622746,38.434488]}},{"properties":{"city":"Falls Church","zip":"22046","geo_score":0.33,"numbags":20,"id":"a6a3lba521g4","geo_precision":"street","address":"300 Grove Ave","state":"VA"},"type":"Feature","geometry":{"type":"Point","coordinates":[-90.869495,42.494405]}},{"properties":{"city":"Falls Church","zip":"22046","geo_score":0.463,"numbags":10,"id":"a6a3lbbp0z57","geo_precision":"street","address":"255 Gundry Dr","state":"VA"},"type":"Feature","geometry":{"type":"Point","coordinates":[-91.548386,43.067416]}},{"properties":{"city":"Falls Church","zip":"22046","geo_score":0.659,"numbags":12,"id":"a6a3lbd8ad4m","geo_precision":"street","address":"232 Kent St","state":"VA"},"type":"Feature","geometry":{"type":"Point","coordinates":[-122.276482,47.364739]}},{"properties":{"city":"Falls Church","zip":"22046","geo_score":0.512,"numbags":13,"id":"a6a3lbkej2d5","geo_precision":"street","address":"226 Noland St","state":"VA"},"type":"Feature","geometry":{"type":"Point","coordinates":[-91.069985,36.212951]}},{"properties":{"city":"Falls Church","zip":"22046","geo_score":0.577,"numbags":10,"id":"a6a3lbn75obx","geo_precision":"street","address":"226 S. Virginia Ave.","state":"VA"},"type":"Feature","geometry":{"type":"Point","coordinates":[-87.003491,33.43947]}},{"properties":{"city":"Falls Church","zip":"22046","geo_score":0.551,"numbags":25,"id":"a6a3lbcm4pmi","geo_precision":"street","address":"221 W. Cameron Rd","state":"VA"},"type":"Feature","geometry":{"type":"Point","coordinates":[-116.571981,46.605976]}},{"properties":{"city":"Falls Church","zip":"22046","geo_score":0.0,"numbags":3,"id":"a6a3lbn3w1ir","geo_precision":"unmatched","address":"219 James Thurber Ct","state":"VA"},"type":"Feature","geometry":null},{"properties":{"city":"Falls Church","zip":"22046","geo_score":0.0,"numbags":10,"id":"a6a3lbau3lx4","geo_precision":"unmatched","address":"218 James Thurber Ct","state":"VA"},"type":"Feature","geometry":null},{"properties":{"city":"Falls Church","zip":"22046","geo_score":0.79,"numbags":6,"id":"a6a3lbjclbm5","geo_precision":"range","address":"218 W. Greenway Blvd","state":"VA"},"type":"Feature","geometry":{"type":"Point","coordinates":[-83.978262,33.575874]}},{"properties":{"city":"Falls Church","zip":"22046","geo_score":0.468,"numbags":30,"id":"a6a3lb7m6zn2","geo_precision":"range","address":"215 N. Van Buren St","state":"VA"},"type":"Feature","geometry":{"type":"Point","coordinates":[-87.148294,33.728745]}},{"properties":{"city":"Falls Church","zip":"22046","geo_score":0.447,"numbags":10,"id":"a6a3lbf55lyo","geo_precision":"city","address":"214 Midvale St","state":"VA"},"type":"Feature","geometry":{"type":"Point","coordinates":[-75.610482,39.659835]}},{"properties":{"city":"Falls Church","zip":"22046","geo_score":0.574,"numbags":30,"id":"a6a3lbl131uy","geo_precision":"street","address":"214 Lawton St","state":"VA"},"type":"Feature","geometry":{"type":"Point","coordinates":[-98.404699,34.624296]}},{"properties":{"city":"Falls Church","zip":"22046","geo_score":0.876,"numbags":3,"id":"a6a3lbdsryl3","geo_precision":"range","address":"213 W. Columbia St","state":"VA"},"type":"Feature","geometry":{"type":"Point","coordinates":[-92.56519,38.98017]}},{"properties":{"city":"Falls Church","zip":"22046","geo_score":0.463,"numbags":4,"id":"a6a3lbmchkeo","geo_precision":"street","address":"213 Gundry Dr","state":"VA"},"type":"Feature","geometry":{"type":"Point","coordinates":[-91.548386,43.067416]}},{"properties":{"city":"Falls Church","zip":"22046","geo_score":0.447,"numbags":50,"id":"a6a3lbjgt134","geo_precision":"city","address":"212 Midvale St","state":"VA"},"type":"Feature","geometry":{"type":"Point","coordinates":[-75.610482,39.659835]}},{"properties":{"city":"Falls Church","zip":"22046","geo_score":0.4,"numbags":8,"id":"a6a3lbk4ofc4","geo_precision":"city","address":"210 S. West St.","state":"VA"},"type":"Feature","geometry":{"type":"Point","coordinates":[-111.805435,34.86724]}},{"properties":{"city":"Falls Church","zip":"22046","geo_score":0.512,"numbags":35,"id":"a6a3lbj1l8k5","geo_precision":"street","address":"210 Noland St","state":"VA"},"type":"Feature","geometry":{"type":"Point","coordinates":[-91.069985,36.212951]}},{"properties":{"city":"Falls Church","zip":"22046","geo_score":0.429,"numbags":4,"id":"a6a3lbjflihg","geo_precision":"street","address":"209 W. George Mason Rd","state":"VA"},"type":"Feature","geometry":{"type":"Point","coordinates":[-86.931001,34.44975]}},{"properties":{"city":"Falls Church","zip":"22046","geo_score":0.4,"numbags":10,"id":"a6a3lb7zvuo2","geo_precision":"city","address":"208 S. West St","state":"VA"},"type":"Feature","geometry":{"type":"Point","coordinates":[-111.805435,34.86724]}},{"properties":{"city":"Falls Church","zip":"22046","geo_score":0.79,"numbags":10,"id":"a6a3lbbealq3","geo_precision":"range","address":"208 W. Greenway Blvd","state":"VA"},"type":"Feature","geometry":{"type":"Point","coordinates":[-83.978155,33.575727]}},{"properties":{"city":"Falls Church","zip":"22046","geo_score":0.463,"numbags":3,"id":"a6a3lbmt76lv","geo_precision":"street","address":"207 Gundry Dr","state":"VA"},"type":"Feature","geometry":{"type":"Point","coordinates":[-91.548386,43.067416]}},{"properties":{"city":"Falls Church","zip":"22046","geo_score":0.732,"numbags":15,"id":"a6a3lb8j9zms","geo_precision":"range","address":"207 Buxton Rd","state":"VA"},"type":"Feature","geometry":{"type":"Point","coordinates":[-84.756305,33.266163]}},{"properties":{"city":"Falls Church","zip":"22046","geo_score":0.79,"numbags":40,"id":"a6a3lbm600hv","geo_precision":"range","address":"206 W. Greenway Blvd","state":"VA"},"type":"Feature","geometry":{"type":"Point","coordinates":[-83.978139,33.575697]}},{"properties":{"city":"Falls Church","zip":"22046","geo_score":0.902,"numbags":10,"id":"a6a3lb9hzb9r","geo_precision":"range","address":"206 Forest Dr","state":"VA"},"type":"Feature","geometry":{"type":"Point","coordinates":[-87.534167,33.064008]}},{"properties":{"city":"Falls Church","zip":"22046","geo_score":0.707,"numbags":25,"id":"a6a3lbfvcd2m","geo_precision":"range","address":"205 N. Lee St","state":"VA"},"type":"Feature","geometry":{"type":"Point","coordinates":[-107.087569,39.400599]}},{"properties":{"city":"Falls Church","zip":"22046","geo_score":0.666,"numbags":10,"id":"a6a3lbir6usb","geo_precision":"street","address":"205 S. Oak St","state":"VA"},"type":"Feature","geometry":{"type":"Point","coordinates":[-82.599954,29.814624]}},{"properties":{"city":"Falls Church","zip":"22046","geo_score":0.431,"numbags":3,"id":"a6a3lbm4vgnv","geo_precision":"street","address":"204 W. George Mason Rd","state":"VA"},"type":"Feature","geometry":{"type":"Point","coordinates":[-86.92954,34.449694]}},{"properties":{"city":"Falls Church","zip":"22046","geo_score":0.431,"numbags":20,"id":"a6a3lb81q5wi","geo_precision":"street","address":"204 W. George Mason Rd","state":"VA"},"type":"Feature","geometry":{"type":"Point","coordinates":[-86.92954,34.449694]}},{"properties":{"city":"Falls Church","zip":"22046","geo_score":0.652,"numbags":20,"id":"a6a3lbln92zu","geo_precision":"range","address":"202 Brook Dr","state":"VA"},"type":"Feature","geometry":{"type":"Point","coordinates":[-94.127845,33.673009]}},{"properties":{"city":"Falls Church","zip":"22046","geo_score":0.551,"numbags":12,"id":"a6a3lbheatyx","geo_precision":"street","address":"201 W. Cameron Rd","state":"VA"},"type":"Feature","geometry":{"type":"Point","coordinates":[-116.571981,46.605976]}},{"properties":{"city":"Falls Church","zip":"22046","geo_score":0.732,"numbags":6,"id":"a6a3lbfmmklo","geo_precision":"range","address":"201 Buxton Rd","state":"VA"},"type":"Feature","geometry":{"type":"Point","coordinates":[-84.75632,33.266164]}},{"properties":{"city":"Falls Church","zip":"22046","geo_score":0.666,"numbags":30,"id":"a6a3lb8pe4hy","geo_precision":"street","address":"200 S. Oak St","state":"VA"},"type":"Feature","geometry":{"type":"Point","coordinates":[-82.599954,29.814624]}},{"properties":{"city":"Falls Church","zip":"22046","geo_score":0.0,"numbags":30,"id":"a6a3lbb9llyc","geo_precision":"unmatched","address":"200 W. Rosemary La","state":"VA"},"type":"Feature","geometry":null},{"properties":{"city":"Falls Church","zip":"22046","geo_score":0.431,"numbags":10,"id":"a6a3lbfhtr8v","geo_precision":"street","address":"200 W. George Mason Rd","state":"VA"},"type":"Feature","geometry":{"type":"Point","coordinates":[-86.92954,34.449694]}},{"properties":{"city":"Falls Church","zip":"22046","geo_score":0.707,"numbags":5,"id":"a6a3lbibwbf5","geo_precision":"range","address":"198 S. Lee St.","state":"VA"},"type":"Feature","geometry":{"type":"Point","coordinates":[-107.087569,39.400605]}},{"properties":{"city":"Falls Church","zip":"22046","geo_score":0.87,"numbags":20,"id":"a6a3lbi227fk","geo_precision":"range","address":"149 S. Spring St","state":"VA"},"type":"Feature","geometry":{"type":"Point","coordinates":[-72.587331,42.107876]}},{"properties":{"city":"Falls Church","zip":"22046","geo_score":0.464,"numbags":20,"id":"a6a3lb8vqk85","geo_precision":"street","address":"134 N. Fairfax St.","state":"VA"},"type":"Feature","geometry":{"type":"Point","coordinates":[-85.148229,32.746376]}},{"properties":{"city":"Falls Church","zip":"22046","geo_score":0.342,"numbags":20,"id":"a6a3lbl8ok9c","geo_precision":"street","address":"131 N. Fairfax St","state":"VA"},"type":"Feature","geometry":{"type":"Point","coordinates":[-85.148229,32.746376]}},{"properties":{"city":"Falls Church","zip":"22046","geo_score":0.666,"numbags":30,"id":"a6a3lbf4thbz","geo_precision":"street","address":"124 S. Oak St","state":"VA"},"type":"Feature","geometry":{"type":"Point","coordinates":[-82.599954,29.814624]}},{"properties":{"city":"Falls Church","zip":"22046","geo_score":0.823,"numbags":30,"id":"a6a3lbdekvph","geo_precision":"range","address":"124 W. Marshall St","state":"VA"},"type":"Feature","geometry":{"type":"Point","coordinates":[-87.704461,34.513635]}},{"properties":{"city":"Falls Church","zip":"22046","geo_score":0.551,"numbags":25,"id":"a6a3lbgrwoy7","geo_precision":"street","address":"120 W. Cameron Rd","state":"VA"},"type":"Feature","geometry":{"type":"Point","coordinates":[-116.571981,46.605976]}},{"properties":{"city":"Falls Church","zip":"22046","geo_score":0.464,"numbags":15,"id":"a6a3lbnda2bc","geo_precision":"street","address":"120 N. Fairfax St","state":"VA"},"type":"Feature","geometry":{"type":"Point","coordinates":[-85.148229,32.746376]}},{"properties":{"city":"Falls Church","zip":"22046","geo_score":0.666,"numbags":20,"id":"a6a3lbcsclry","geo_precision":"street","address":"119 S. Oak St.","state":"VA"},"type":"Feature","geometry":{"type":"Point","coordinates":[-82.599954,29.814624]}},{"properties":{"city":"Falls Church","zip":"22046","geo_score":0.659,"numbags":15,"id":"a6a3lbm9ilnv","geo_precision":"street","address":"118 E. Jefferson St","state":"VA"},"type":"Feature","geometry":{"type":"Point","coordinates":[-86.783823,33.569148]}},{"properties":{"city":"Falls Church","zip":"22046","geo_score":0.488,"numbags":8,"id":"a6a3lbcgxgg0","geo_precision":"street","address":"117 W. Annandale Rd","state":"VA"},"type":"Feature","geometry":{"type":"Point","coordinates":[-86.265228,39.213595]}},{"properties":{"city":"Falls Church","zip":"22046","geo_score":0.551,"numbags":6,"id":"a6a3lb8d1ucj","geo_precision":"street","address":"115 W. Cameron Rd","state":"VA"},"type":"Feature","geometry":{"type":"Point","coordinates":[-116.571981,46.605976]}},{"properties":{"city":"Falls Church","zip":"22046","geo_score":0.79,"numbags":40,"id":"a6a3lbj4nhn7","geo_precision":"range","address":"115 W. Greenway Blvd","state":"VA"},"type":"Feature","geometry":{"type":"Point","coordinates":[-83.976485,33.575187]}},{"properties":{"city":"Falls Church","zip":"22046","geo_score":0.87,"numbags":10,"id":"a6a3lbcdoz69","geo_precision":"range","address":"112 S. Spring St","state":"VA"},"type":"Feature","geometry":{"type":"Point","coordinates":[-72.585574,42.106893]}},{"properties":{"city":"Falls Church","zip":"22046","geo_score":0.659,"numbags":20,"id":"a6a3lbhny8kj","geo_precision":"street","address":"110 E. Jefferson St","state":"VA"},"type":"Feature","geometry":{"type":"Point","coordinates":[-86.783823,33.569148]}},{"properties":{"city":"Falls Church","zip":"22046","geo_score":0.87,"numbags":5,"id":"a6a3lbhbq9nw","geo_precision":"range","address":"108 S. Spring St","state":"VA"},"type":"Feature","geometry":{"type":"Point","coordinates":[-72.585486,42.106826]}},{"properties":{"city":"Falls Church","zip":"22046","geo_score":0.707,"numbags":5,"id":"a6a3lbkj1v1y","geo_precision":"range","address":"106 Dulany Pl","state":"VA"},"type":"Feature","geometry":{"type":"Point","coordinates":[-86.345369,33.27937]}},{"properties":{"city":"Falls Church","zip":"22046","geo_score":0.531,"numbags":2,"id":"a6a3lb88r9bv","geo_precision":"street","address":"106 Grace La","state":"VA"},"type":"Feature","geometry":{"type":"Point","coordinates":[-92.122467,32.138954]}},{"properties":{"city":"Falls Church","zip":"22046","geo_score":0.79,"numbags":5,"id":"a6a3lbamaz3i","geo_precision":"range","address":"105 W. Greenway Blvd","state":"VA"},"type":"Feature","geometry":{"type":"Point","coordinates":[-83.976342,33.575195]}},{"properties":{"city":"Falls Church","zip":"22046","geo_score":0.707,"numbags":20,"id":"a6a3lbczxz5y","geo_precision":"range","address":"105 S. Lee St.","state":"VA"},"type":"Feature","geometry":{"type":"Point","coordinates":[-107.087599,39.400745]}},{"properties":{"city":"Falls Church","zip":"22046","geo_score":0.0,"numbags":10,"id":"a6a3lbmkc4vo","geo_precision":"unmatched","address":"102 W. Rosemary La","state":"VA"},"type":"Feature","geometry":null},{"properties":{"city":"Falls Church","zip":"22046","geo_score":0.707,"numbags":20,"id":"a6a3lbdpbwpr","geo_precision":"street","address":"101 Poplar Dr","state":"VA"},"type":"Feature","geometry":{"type":"Point","coordinates":[-82.622746,38.434488]}}],"is_temporal":false,"author":{"url":"","metadata":"","contact_name":"","contact_address":"","source":"","contact_phone":""},"source":"","pagination":{"sort":null,"start":0,"total":162,"limit":1000000},"state":"complete","tags":"","published":"2014-08-13T07:37:28-04:00","id":137400}