{"type":"FeatureCollection","data_type":"Dataset","url_type":null,"permissions":[{"permissions":{"download":true,"view":true},"group_id":"everyone"}],"classification":null,"title":"LegalAid2010","count":92,"stream_id":137574,"contributor":{"url":"http://geocommons.com/users/28852","name":"akcenajs"},"data_attributes":null,"calculation_params":null,"icon_link":null,"link":"http://geocommons.com/overlays/137574.json","extent":[-98.5483,29.528,-96.7972,30.8785],"geometry_types":["point"],"unique_name":null,"name":"LegalAid2010","feature_count":92,"description":"The total number of calls from 2010 to 2-1-1 Texas UWCA about low cost legal aid services.","next_feature":null,"is_raster":false,"short_classification":"Y","stats":{"legalaid":{"max":143,"variance":860.268872431916,"mean":19.9239130434783,"stdev":29.3303404758949,"min":1,"median":8}},"features":[{"properties":{"zip":"78741","geo_score":0.714,"legalaid":143,"id":"a6bxckmyh92o","geo_precision":"zip"},"type":"Feature","geometry":{"type":"Point","coordinates":[-97.690559,30.243266]}},{"properties":{"zip":"78753","geo_score":0.714,"legalaid":123,"id":"a6bxckh90lbu","geo_precision":"zip"},"type":"Feature","geometry":{"type":"Point","coordinates":[-97.671672,30.382982]}},{"properties":{"zip":"78744","geo_score":0.714,"legalaid":109,"id":"a6bxckn5kbvx","geo_precision":"zip"},"type":"Feature","geometry":{"type":"Point","coordinates":[-97.693058,30.164101]}},{"properties":{"zip":"78745","geo_score":0.714,"legalaid":105,"id":"a6bxckprnkbg","geo_precision":"zip"},"type":"Feature","geometry":{"type":"Point","coordinates":[-97.803617,30.225765]}},{"properties":{"zip":"78702","geo_score":0.714,"legalaid":92,"id":"a6bxckrjgucd","geo_precision":"zip"},"type":"Feature","geometry":{"type":"Point","coordinates":[-97.713581,30.264115]}},{"properties":{"zip":"78758","geo_score":0.714,"legalaid":89,"id":"a6bxckpvr2x1","geo_precision":"zip"},"type":"Feature","geometry":{"type":"Point","coordinates":[-97.708233,30.383637]}},{"properties":{"zip":"78724","geo_score":0.714,"legalaid":67,"id":"a6bxckpbjnki","geo_precision":"zip"},"type":"Feature","geometry":{"type":"Point","coordinates":[-97.617871,30.292188]}},{"properties":{"zip":"78721","geo_score":0.714,"legalaid":67,"id":"a6bxcket93bm","geo_precision":"zip"},"type":"Feature","geometry":{"type":"Point","coordinates":[-97.684781,30.268684]}},{"properties":{"zip":"78723","geo_score":0.714,"legalaid":64,"id":"a6bxcku97dx0","geo_precision":"zip"},"type":"Feature","geometry":{"type":"Point","coordinates":[-97.686631,30.305107]}},{"properties":{"zip":"78664","geo_score":0.714,"legalaid":61,"id":"a6bxckopggu6","geo_precision":"zip"},"type":"Feature","geometry":{"type":"Point","coordinates":[-97.662228,30.451591]}},{"properties":{"zip":"78660","geo_score":0.714,"legalaid":57,"id":"a6bxckf4rk6v","geo_precision":"zip"},"type":"Feature","geometry":{"type":"Point","coordinates":[-97.597055,30.442737]}},{"properties":{"zip":"78704","geo_score":0.714,"legalaid":56,"id":"a6bxckhoazem","geo_precision":"zip"},"type":"Feature","geometry":{"type":"Point","coordinates":[-97.768832,30.240685]}},{"properties":{"zip":"78752","geo_score":0.714,"legalaid":43,"id":"a6bxcks5ks0q","geo_precision":"zip"},"type":"Feature","geometry":{"type":"Point","coordinates":[-97.699932,30.332901]}},{"properties":{"zip":"78748","geo_score":0.714,"legalaid":42,"id":"a6bxckuu1qoj","geo_precision":"zip"},"type":"Feature","geometry":{"type":"Point","coordinates":[-97.818061,30.145767]}},{"properties":{"zip":"78617","geo_score":0.714,"legalaid":36,"id":"a6bxckhef42y","geo_precision":"zip"},"type":"Feature","geometry":{"type":"Point","coordinates":[-97.557777,30.187435]}},{"properties":{"zip":"78641","geo_score":0.714,"legalaid":32,"id":"a6bxcktflczy","geo_precision":"zip"},"type":"Feature","geometry":{"type":"Point","coordinates":[-97.830289,30.520753]}},{"properties":{"zip":"78681","geo_score":0.714,"legalaid":31,"id":"a6bxckov89qv","geo_precision":"zip"},"type":"Feature","geometry":{"type":"Point","coordinates":[-97.718672,30.52398]}},{"properties":{"zip":"78666","geo_score":0.714,"legalaid":29,"id":"a6bxckgffs5q","geo_precision":"zip"},"type":"Feature","geometry":{"type":"Point","coordinates":[-97.94806,29.753002]}},{"properties":{"zip":"78640","geo_score":0.714,"legalaid":28,"id":"a6bxckojbaxy","geo_precision":"zip"},"type":"Feature","geometry":{"type":"Point","coordinates":[-97.786114,29.957718]}},{"properties":{"zip":"78613","geo_score":0.714,"legalaid":28,"id":"a6bxcksg2gzd","geo_precision":"zip"},"type":"Feature","geometry":{"type":"Point","coordinates":[-97.628724,30.494032]}},{"properties":{"zip":"78653","geo_score":0.714,"legalaid":27,"id":"a6bxckh4frm5","geo_precision":"zip"},"type":"Feature","geometry":{"type":"Point","coordinates":[-97.516665,30.231045]}},{"properties":{"zip":"78754","geo_score":0.714,"legalaid":24,"id":"a6bxckg5hjjb","geo_precision":"zip"},"type":"Feature","geometry":{"type":"Point","coordinates":[-97.646734,30.365596]}},{"properties":{"zip":"78729","geo_score":0.714,"legalaid":24,"id":"a6bxckll5j72","geo_precision":"zip"},"type":"Feature","geometry":{"type":"Point","coordinates":[-97.775009,30.442701]}},{"properties":{"zip":"78626","geo_score":0.714,"legalaid":22,"id":"a6bxckq6nn84","geo_precision":"zip"},"type":"Feature","geometry":{"type":"Point","coordinates":[-97.540838,30.637973]}},{"properties":{"zip":"78602","geo_score":0.714,"legalaid":21,"id":"a6bxckky052d","geo_precision":"zip"},"type":"Feature","geometry":{"type":"Point","coordinates":[-97.420829,30.181881]}},{"properties":{"zip":"78728","geo_score":0.714,"legalaid":20,"id":"a6bxckrq6859","geo_precision":"zip"},"type":"Feature","geometry":{"type":"Point","coordinates":[-97.694784,30.452151]}},{"properties":{"zip":"78621","geo_score":0.714,"legalaid":20,"id":"a6bxckoio1fs","geo_precision":"zip"},"type":"Feature","geometry":{"type":"Point","coordinates":[-97.284161,30.42604]}},{"properties":{"zip":"78759","geo_score":0.714,"legalaid":18,"id":"a6bxcku8tro1","geo_precision":"zip"},"type":"Feature","geometry":{"type":"Point","coordinates":[-97.849453,30.339093]}},{"properties":{"zip":"76574","geo_score":0.714,"legalaid":18,"id":"a6bxcksbp0ln","geo_precision":"zip"},"type":"Feature","geometry":{"type":"Point","coordinates":[-97.388333,30.638808]}},{"properties":{"zip":"78644","geo_score":0.714,"legalaid":17,"id":"a6bxcki8rfyk","geo_precision":"zip"},"type":"Feature","geometry":{"type":"Point","coordinates":[-97.605553,29.82328]}},{"properties":{"zip":"78727","geo_score":0.714,"legalaid":16,"id":"a6bxckkl6sxv","geo_precision":"zip"},"type":"Feature","geometry":{"type":"Point","coordinates":[-97.719678,30.427402]}},{"properties":{"zip":"78757","geo_score":0.714,"legalaid":16,"id":"a6bxcki6ya7f","geo_precision":"zip"},"type":"Feature","geometry":{"type":"Point","coordinates":[-97.601444,30.348567]}},{"properties":{"zip":"78750","geo_score":0.714,"legalaid":16,"id":"a6bxckkkf19s","geo_precision":"zip"},"type":"Feature","geometry":{"type":"Point","coordinates":[-97.8155,30.406729]}},{"properties":{"zip":"78610","geo_score":0.714,"legalaid":15,"id":"a6bxckqw76ao","geo_precision":"zip"},"type":"Feature","geometry":{"type":"Point","coordinates":[-97.781115,30.092714]}},{"properties":{"zip":"78749","geo_score":0.714,"legalaid":13,"id":"a6bxckfp7l83","geo_precision":"zip"},"type":"Feature","geometry":{"type":"Point","coordinates":[-97.857187,30.207969]}},{"properties":{"zip":"78751","geo_score":0.714,"legalaid":12,"id":"a6bxcki8cm54","geo_precision":"zip"},"type":"Feature","geometry":{"type":"Point","coordinates":[-98.459461,29.528007]}},{"properties":{"zip":"78628","geo_score":0.714,"legalaid":12,"id":"a6bxcklblul9","geo_precision":"zip"},"type":"Feature","geometry":{"type":"Point","coordinates":[-97.852238,30.78213]}},{"properties":{"zip":"78735","geo_score":0.714,"legalaid":12,"id":"a6bxckuuy02r","geo_precision":"zip"},"type":"Feature","geometry":{"type":"Point","coordinates":[-97.955842,30.222429]}},{"properties":{"zip":"78701","geo_score":0.714,"legalaid":10,"id":"a6bxcksjsmoi","geo_precision":"zip"},"type":"Feature","geometry":{"type":"Point","coordinates":[-97.741382,30.268335]}},{"properties":{"zip":"78747","geo_score":0.714,"legalaid":10,"id":"a6bxckr5vf6p","geo_precision":"zip"},"type":"Feature","geometry":{"type":"Point","coordinates":[-97.691112,30.056883]}},{"properties":{"zip":"78725","geo_score":0.714,"legalaid":10,"id":"a6bxckict5l5","geo_precision":"zip"},"type":"Feature","geometry":{"type":"Point","coordinates":[-97.583334,30.247433]}},{"properties":{"zip":"78654","geo_score":0.714,"legalaid":10,"id":"a6bxckkqry4j","geo_precision":"zip"},"type":"Feature","geometry":{"type":"Point","coordinates":[-98.145019,30.560747]}},{"properties":{"zip":"78957","geo_score":0.714,"legalaid":10,"id":"a6bxckin7cpk","geo_precision":"zip"},"type":"Feature","geometry":{"type":"Point","coordinates":[-97.264157,30.011332]}},{"properties":{"zip":"78634","geo_score":0.714,"legalaid":9,"id":"a6bxckq1x34e","geo_precision":"zip"},"type":"Feature","geometry":{"type":"Point","coordinates":[-97.554189,30.551885]}},{"properties":{"zip":"78616","geo_score":0.714,"legalaid":9,"id":"a6bxckolujaq","geo_precision":"zip"},"type":"Feature","geometry":{"type":"Point","coordinates":[-97.55333,29.797726]}},{"properties":{"zip":"78756","geo_score":0.714,"legalaid":8,"id":"a6bxckmwbkbg","geo_precision":"zip"},"type":"Feature","geometry":{"type":"Point","coordinates":[-97.737583,30.320606]}},{"properties":{"zip":"78734","geo_score":0.714,"legalaid":8,"id":"a6bxckpg3n4k","geo_precision":"zip"},"type":"Feature","geometry":{"type":"Point","coordinates":[-97.991679,30.367979]}},{"properties":{"zip":"78620","geo_score":0.714,"legalaid":8,"id":"a6bxckt338ty","geo_precision":"zip"},"type":"Feature","geometry":{"type":"Point","coordinates":[-98.210848,30.19465]}},{"properties":{"zip":"78717","geo_score":0.714,"legalaid":7,"id":"a6bxckfvm7sh","geo_precision":"zip"},"type":"Feature","geometry":{"type":"Point","coordinates":[-97.739731,30.513532]}},{"properties":{"zip":"78642","geo_score":0.714,"legalaid":7,"id":"a6bxckji6zy7","geo_precision":"zip"},"type":"Feature","geometry":{"type":"Point","coordinates":[-97.91191,30.715353]}},{"properties":{"zip":"78942","geo_score":0.714,"legalaid":7,"id":"a6bxckfob9g4","geo_precision":"zip"},"type":"Feature","geometry":{"type":"Point","coordinates":[-96.998873,30.127718]}},{"properties":{"zip":"78722","geo_score":0.714,"legalaid":6,"id":"a6bxckn561c1","geo_precision":"zip"},"type":"Feature","geometry":{"type":"Point","coordinates":[-97.718832,30.286857]}},{"properties":{"zip":"78726","geo_score":0.714,"legalaid":6,"id":"a6bxckigpn6u","geo_precision":"zip"},"type":"Feature","geometry":{"type":"Point","coordinates":[-97.843801,30.427124]}},{"properties":{"zip":"78705","geo_score":0.714,"legalaid":6,"id":"a6bxcku91f5e","geo_precision":"zip"},"type":"Feature","geometry":{"type":"Point","coordinates":[-97.736932,30.293057]}},{"properties":{"zip":"78645","geo_score":0.714,"legalaid":5,"id":"a6bxckk6u3lr","geo_precision":"zip"},"type":"Feature","geometry":{"type":"Point","coordinates":[-97.996124,30.379367]}},{"properties":{"zip":"78733","geo_score":0.714,"legalaid":5,"id":"a6bxckojpe3j","geo_precision":"zip"},"type":"Feature","geometry":{"type":"Point","coordinates":[-97.94501,30.308537]}},{"properties":{"zip":"78731","geo_score":0.714,"legalaid":4,"id":"a6bxckpyn72c","geo_precision":"zip"},"type":"Feature","geometry":{"type":"Point","coordinates":[-97.769769,30.345554]}},{"properties":{"zip":"78636","geo_score":0.714,"legalaid":4,"id":"a6bxckl9wz41","geo_precision":"zip"},"type":"Feature","geometry":{"type":"Point","coordinates":[-98.405866,30.21577]}},{"properties":{"zip":"78612","geo_score":0.714,"legalaid":3,"id":"a6bxckhe4xdd","geo_precision":"zip"},"type":"Feature","geometry":{"type":"Point","coordinates":[-97.486885,30.083931]}},{"properties":{"zip":"78742","geo_score":0.714,"legalaid":3,"id":"a6bxckl7m8v5","geo_precision":"zip"},"type":"Feature","geometry":{"type":"Point","coordinates":[-97.669953,30.236455]}},{"properties":{"zip":"78703","geo_score":0.714,"legalaid":3,"id":"a6bxckmug18u","geo_precision":"zip"},"type":"Feature","geometry":{"type":"Point","coordinates":[-98.027233,30.245205]}},{"properties":{"zip":"78719","geo_score":0.714,"legalaid":3,"id":"a6bxckuad087","geo_precision":"zip"},"type":"Feature","geometry":{"type":"Point","coordinates":[-97.663891,30.168824]}},{"properties":{"zip":"78736","geo_score":0.714,"legalaid":3,"id":"a6bxckv2dla7","geo_precision":"zip"},"type":"Feature","geometry":{"type":"Point","coordinates":[-97.973888,30.272424]}},{"properties":{"zip":"78669","geo_score":0.714,"legalaid":3,"id":"a6bxckg3l21j","geo_precision":"zip"},"type":"Feature","geometry":{"type":"Point","coordinates":[-97.678896,30.508255]}},{"properties":{"zip":"78605","geo_score":0.714,"legalaid":3,"id":"a6bxckf3lr3s","geo_precision":"zip"},"type":"Feature","geometry":{"type":"Point","coordinates":[-98.094465,30.696853]}},{"properties":{"zip":"78732","geo_score":0.714,"legalaid":3,"id":"a6bxcktc5egg","geo_precision":"zip"},"type":"Feature","geometry":{"type":"Point","coordinates":[-97.888622,30.391868]}},{"properties":{"zip":"78611","geo_score":0.714,"legalaid":2,"id":"a6bxckkzt6zw","geo_precision":"zip"},"type":"Feature","geometry":{"type":"Point","coordinates":[-98.238816,30.749465]}},{"properties":{"zip":"78639","geo_score":0.714,"legalaid":2,"id":"a6bxcks1ahdi","geo_precision":"zip"},"type":"Feature","geometry":{"type":"Point","coordinates":[-98.548345,30.697117]}},{"properties":{"zip":"78746","geo_score":0.714,"legalaid":2,"id":"a6bxcknu2h0f","geo_precision":"zip"},"type":"Feature","geometry":{"type":"Point","coordinates":[-97.801952,30.297984]}},{"properties":{"zip":"78648","geo_score":0.714,"legalaid":2,"id":"a6bxckkdoen2","geo_precision":"zip"},"type":"Feature","geometry":{"type":"Point","coordinates":[-97.727778,29.718282]}},{"properties":{"zip":"78652","geo_score":0.714,"legalaid":2,"id":"a6bxcknmy058","geo_precision":"zip"},"type":"Feature","geometry":{"type":"Point","coordinates":[-97.839325,30.123827]}},{"properties":{"zip":"78657","geo_score":0.714,"legalaid":2,"id":"a6bxckquwamb","geo_precision":"zip"},"type":"Feature","geometry":{"type":"Point","coordinates":[-98.333113,30.537773]}},{"properties":{"zip":"76537","geo_score":0.714,"legalaid":2,"id":"a6bxckofdqkf","geo_precision":"zip"},"type":"Feature","geometry":{"type":"Point","coordinates":[-97.597231,30.762967]}},{"properties":{"zip":"78606","geo_score":0.714,"legalaid":2,"id":"a6bxckqootbb","geo_precision":"zip"},"type":"Feature","geometry":{"type":"Point","coordinates":[-98.419985,30.137027]}},{"properties":{"zip":"76530","geo_score":0.714,"legalaid":2,"id":"a6bxckf3tuyq","geo_precision":"zip"},"type":"Feature","geometry":{"type":"Point","coordinates":[-97.330276,30.714083]}},{"properties":{"zip":"78945","geo_score":0.714,"legalaid":1,"id":"a6bxckpnw0bk","geo_precision":"zip"},"type":"Feature","geometry":{"type":"Point","coordinates":[-96.797201,29.947724]}},{"properties":{"zip":"78676","geo_score":0.714,"legalaid":1,"id":"a6bxckgj74m0","geo_precision":"zip"},"type":"Feature","geometry":{"type":"Point","coordinates":[-98.111121,30.028268]}},{"properties":{"zip":"78956","geo_score":0.714,"legalaid":1,"id":"a6bxcktr256f","geo_precision":"zip"},"type":"Feature","geometry":{"type":"Point","coordinates":[-96.909426,29.782452]}},{"properties":{"zip":"78643","geo_score":0.714,"legalaid":1,"id":"a6bxckgyaeqd","geo_precision":"zip"},"type":"Feature","geometry":{"type":"Point","coordinates":[-98.410027,30.599632]}},{"properties":{"zip":"76527","geo_score":0.714,"legalaid":1,"id":"a6bxckqvxngw","geo_precision":"zip"},"type":"Feature","geometry":{"type":"Point","coordinates":[-97.78119,30.807586]}},{"properties":{"zip":"78739","geo_score":0.714,"legalaid":1,"id":"a6bxckp4qok1","geo_precision":"zip"},"type":"Feature","geometry":{"type":"Point","coordinates":[-97.886794,30.172937]}},{"properties":{"zip":"78767","geo_score":0.714,"legalaid":1,"id":"a6bxckm6d9bq","geo_precision":"zip"},"type":"Feature","geometry":{"type":"Point","coordinates":[-97.896285,30.222007]}},{"properties":{"zip":"78655","geo_score":0.714,"legalaid":1,"id":"a6bxckh1ttgk","geo_precision":"zip"},"type":"Feature","geometry":{"type":"Point","coordinates":[-97.850842,29.839448]}},{"properties":{"zip":"78680","geo_score":0.714,"legalaid":1,"id":"a6bxcklkild9","geo_precision":"zip"},"type":"Feature","geometry":{"type":"Point","coordinates":[-97.602552,30.656817]}},{"properties":{"zip":"78714","geo_score":0.714,"legalaid":1,"id":"a6bxckh1wvm4","geo_precision":"zip"},"type":"Feature","geometry":{"type":"Point","coordinates":[-97.443751,30.335787]}},{"properties":{"zip":"78760","geo_score":0.714,"legalaid":1,"id":"a6bxckettigq","geo_precision":"zip"},"type":"Feature","geometry":{"type":"Point","coordinates":[-97.771258,30.326374]}},{"properties":{"zip":"78761","geo_score":0.714,"legalaid":1,"id":"a6bxckf1i5a2","geo_precision":"zip"},"type":"Feature","geometry":{"type":"Point","coordinates":[-97.771258,30.326374]}},{"properties":{"zip":"78766","geo_score":0.714,"legalaid":1,"id":"a6bxckneuap2","geo_precision":"zip"},"type":"Feature","geometry":{"type":"Point","coordinates":[-97.62333,30.442202]}},{"properties":{"zip":"78619","geo_score":0.714,"legalaid":1,"id":"a6bxckutnq3m","geo_precision":"zip"},"type":"Feature","geometry":{"type":"Point","coordinates":[-98.000454,30.09393]}},{"properties":{"zip":"78691","geo_score":0.714,"legalaid":1,"id":"a6bxckpo34zr","geo_precision":"zip"},"type":"Feature","geometry":{"type":"Point","coordinates":[-97.771258,30.326374]}},{"properties":{"zip":"78667","geo_score":0.714,"legalaid":1,"id":"a6bxckhlmaf2","geo_precision":"zip"},"type":"Feature","geometry":{"type":"Point","coordinates":[-98.003574,30.054378]}},{"properties":{"zip":"78608","geo_score":0.714,"legalaid":1,"id":"a6bxckk65fwb","geo_precision":"zip"},"type":"Feature","geometry":{"type":"Point","coordinates":[-97.910703,30.878476]}}],"is_temporal":false,"author":{"url":"","metadata":"","contact_name":"","contact_address":"","source":"","contact_phone":""},"source":"","pagination":{"sort":null,"start":0,"total":92,"limit":1000000},"state":"complete","tags":"211,texas","published":"2011-07-22T20:34:05Z","id":137574}