{"type":"FeatureCollection","data_type":"Dataset","url_type":null,"permissions":[{"permissions":{"download":true,"view":true},"group_id":"everyone"}],"classification":null,"title":"srsa by norm oblig 500","count":500,"stream_id":13807,"contributor":{"url":"http://geocommons.com/users/7141","name":"jaganrvce"},"data_attributes":null,"calculation_params":null,"icon_link":null,"link":"http://geocommons.com/overlays/13807.json","extent":[-135.181,27.6602,-67.1368,58.3318],"geometry_types":["point"],"unique_name":null,"name":"srsa by norm oblig 500","feature_count":500,"description":"","next_feature":null,"is_raster":false,"short_classification":"Y","stats":{"lon":{"max":-67.1368,"mean":-103.1465436,"variance":264.773405366953,"stdev":16.2718593088483,"min":-135.181,"median":-108.817},"zip":{"max":99832.0,"mean":64333.522,"variance":743398261.97747,"stdev":27265.3307696325,"min":1237.0,"median":59725.0},"norm oblig":{"max":10396.35088,"mean":1129.7807152384,"variance":2513782.85864849,"stdev":1585.49136189652,"min":238.9093419,"median":492.7567568},"obligation amount":{"max":24448.0,"mean":17037.56,"variance":6061541.28096192,"stdev":2462.01975641178,"min":9013.0,"median":17478.0},"lat":{"max":58.3318,"mean":42.5892792,"variance":24.7040275174021,"stdev":4.97031462961874,"min":27.6602,"median":43.8673},"number of students":{"max":101.4388889,"mean":34.357140442386,"variance":491.483379309785,"stdev":22.1694244244136,"min":1.850649351,"median":32.79501953}},"features":[{"properties":{"lon":-135.181,"city":"PELICAN","zip":99832.0,"norm oblig":778.375,"obligation amount":12454.0,"organization":"Pelican City School District","id":"a6aui9ip40j5","lat":58.3318,"address":"P.O. BOX 90","number of students":16.0,"state":"AK"},"type":"Feature","geometry":{"type":"Point","coordinates":[-135.181,58.3318]}},{"properties":{"lon":-124.369,"city":"FORKS","zip":98331.0,"norm oblig":482.7163961,"obligation amount":14323.0,"organization":"Queets-Clearwater School 20","id":"a6aui9pfjjnw","lat":47.9763,"address":"146000 HIGHWAY 101","number of students":29.67166667,"state":"WA"},"type":"Feature","geometry":{"type":"Point","coordinates":[-124.369,47.9763]}},{"properties":{"lon":-124.2,"city":"SAMOA","zip":95564.0,"norm oblig":311.2314465,"obligation amount":12054.0,"organization":"Peninsula Union School District","id":"a6aui9hmo3zf","lat":40.7951,"address":"P.O. BOX 175","number of students":38.73001953,"state":"CA"},"type":"Feature","geometry":{"type":"Point","coordinates":[-124.2,40.7951]}},{"properties":{"lon":-123.939,"city":"EUREKA","zip":95503.0,"norm oblig":277.7256689,"obligation amount":16047.0,"organization":"Garfield Elementary School District","id":"a6aui9todpiu","lat":40.7878,"address":"2200 FRESHWATER ROAD","number of students":57.78003906,"state":"CA"},"type":"Feature","geometry":{"type":"Point","coordinates":[-123.939,40.7878]}},{"properties":{"lon":-123.913,"city":"KNEELAND","zip":95549.0,"norm oblig":504.2807239,"obligation amount":15431.0,"organization":"Kneeland School District","id":"a6aui9s9wujx","lat":40.647,"address":"9313 KNEELAND ROAD","number of students":30.60001953,"state":"CA"},"type":"Feature","geometry":{"type":"Point","coordinates":[-123.913,40.647]}},{"properties":{"lon":-123.885,"city":"BLUE LAKE","zip":95525.0,"norm oblig":1277.015794,"obligation amount":16780.0,"organization":"Green Point School District","id":"a6aui9pc384s","lat":40.9619,"address":"180 VALKENSAR LANE","number of students":13.14000977,"state":"CA"},"type":"Feature","geometry":{"type":"Point","coordinates":[-123.885,40.9619]}},{"properties":{"lon":-123.859,"city":"KORBEL","zip":95550.0,"norm oblig":1751.001232,"obligation amount":18333.0,"organization":"Maple Creek Elementary School","id":"a6aui9qry5rw","lat":40.7688,"address":"15933 MAPLE CREEK RT.","number of students":10.47000977,"state":"CA"},"type":"Feature","geometry":{"type":"Point","coordinates":[-123.859,40.7688]}},{"properties":{"lon":-123.645,"city":"COSMOPOLIS","zip":98537.0,"norm oblig":313.5424537,"obligation amount":17660.0,"organization":"North River School District 200","id":"a6aui9t6wmzl","lat":46.8782,"address":"2867 N RIVER RD","number of students":56.32411111,"state":"WA"},"type":"Feature","geometry":{"type":"Point","coordinates":[-123.645,46.8782]}},{"properties":{"lon":-123.484,"city":"SATSOP","zip":98583.0,"norm oblig":273.3020636,"obligation amount":13544.0,"organization":"Satsop School District","id":"a6aui9i1mtia","lat":47.0022,"address":"853 MONTE ELMA RD","number of students":49.55688889,"state":"WA"},"type":"Feature","geometry":{"type":"Point","coordinates":[-123.484,47.0022]}},{"properties":{"lon":-123.467,"city":"SOMES BAR","zip":95568.0,"norm oblig":748.7907509,"obligation amount":16728.0,"organization":"Junction Elementary School District","id":"a6aui9gxcq7c","lat":41.4511,"address":"HWY. 96","number of students":22.34001953,"state":"CA"},"type":"Feature","geometry":{"type":"Point","coordinates":[-123.467,41.4511]}},{"properties":{"lon":-123.387,"city":"ANNAPOLIS","zip":95412.0,"norm oblig":251.4217963,"obligation amount":18389.0,"organization":"Horicon Elementary School District","id":"a6aui9ftz9z8","lat":38.7104,"address":"35555 ANNAPOLIS ROAD","number of students":73.14003906,"state":"CA"},"type":"Feature","geometry":{"type":"Point","coordinates":[-123.387,38.7104]}},{"properties":{"lon":-123.236,"city":"FORKS OF SALMON","zip":96031.0,"norm oblig":1418.795013,"obligation amount":15323.0,"organization":"Forks of Salmon School District","id":"a6aui9j3mrq7","lat":41.2191,"address":"SALMON RIVER ROAD","number of students":10.80000977,"state":"CA"},"type":"Feature","geometry":{"type":"Point","coordinates":[-123.236,41.2191]}},{"properties":{"lon":-123.235,"city":"SEIAD VALLEY","zip":96086.0,"norm oblig":442.2196326,"obligation amount":16654.0,"organization":"Seiad Elementary","id":"a6aui9i26h4k","lat":41.8339,"address":"P.O. BOX 647","number of students":37.66001953,"state":"CA"},"type":"Feature","geometry":{"type":"Point","coordinates":[-123.235,41.8339]}},{"properties":{"lon":-123.19,"city":"CAZADERO","zip":95421.0,"norm oblig":349.8880378,"obligation amount":15668.0,"organization":"MONTGOMERY ELEMENTARY SCHOOL","id":"a6aui9jjxyjt","lat":38.5621,"address":"P.O. BOX 286","number of students":44.78003906,"state":"CA"},"type":"Feature","geometry":{"type":"Point","coordinates":[-123.19,38.5621]}},{"properties":{"lon":-123.19,"city":"CAZADERO","zip":95421.0,"norm oblig":361.2118045,"obligation amount":16092.0,"organization":"Fort Ross Elementary School District","id":"a6aui9gdt950","lat":38.5621,"address":"30600 SEA VIEW ROAD","number of students":44.55003906,"state":"CA"},"type":"Feature","geometry":{"type":"Point","coordinates":[-123.19,38.5621]}},{"properties":{"lon":-123.148,"city":"Covelo","zip":95428.0,"norm oblig":321.5773969,"obligation amount":16796.0,"organization":"Eel River Charter School","id":"a6aui9ssogyd","lat":39.8351,"address":"PO Box 218","number of students":52.23003906,"state":"CA"},"type":"Feature","geometry":{"type":"Point","coordinates":[-123.148,39.8351]}},{"properties":{"lon":-123.035,"city":"BIG BAR","zip":96010.0,"norm oblig":1043.795426,"obligation amount":15563.0,"organization":"Cox Bar School","id":"a6aui9ru3a95","lat":40.6726,"address":"P.O. BOX 529","number of students":14.91000977,"state":"CA"},"type":"Feature","geometry":{"type":"Point","coordinates":[-123.035,40.6726]}},{"properties":{"lon":-122.984,"city":"SHAW ISLAND","zip":98286.0,"norm oblig":1641.901322,"obligation amount":20000.0,"organization":"Shaw Island School District No. 10","id":"a6aui9saq063","lat":48.5578,"address":"44 HOFFMAN COVE RD","number of students":12.181,"state":"WA"},"type":"Feature","geometry":{"type":"Point","coordinates":[-122.984,48.5578]}},{"properties":{"lon":-122.978,"city":"HORSE CREEK","zip":96050.0,"norm oblig":929.4795672,"obligation amount":15197.0,"organization":"Klamath River Union Elementary School","id":"a6aui9t389qs","lat":41.8712,"address":"30438 WALKER ROAD","number of students":16.35000977,"state":"CA"},"type":"Feature","geometry":{"type":"Point","coordinates":[-122.978,41.8712]}},{"properties":{"lon":-122.957,"city":"WEAVERVILLE","zip":96093.0,"norm oblig":317.841023,"obligation amount":19258.0,"organization":"Trinity County Office of Education","id":"a6aui9fwzq6q","lat":40.7049,"address":"P.O. BOX 1256","number of students":60.59003906,"state":"CA"},"type":"Feature","geometry":{"type":"Point","coordinates":[-122.957,40.7049]}},{"properties":{"lon":-122.944,"city":"BRINNON","zip":98320.0,"norm oblig":239.9717058,"obligation amount":10743.0,"organization":"Brinnon School District","id":"a6aui9lmkdo8","lat":47.6983,"address":"46 SCHOOLHOUSE RD","number of students":44.76777778,"state":"WA"},"type":"Feature","geometry":{"type":"Point","coordinates":[-122.944,47.6983]}},{"properties":{"lon":-122.88,"city":"WINLOCK","zip":98596.0,"norm oblig":374.9547103,"obligation amount":16903.0,"organization":"Evaline School District 36","id":"a6aui9m6rolx","lat":46.4909,"address":"111 SCHOOLHOUSE RD","number of students":45.08011111,"state":"WA"},"type":"Feature","geometry":{"type":"Point","coordinates":[-122.88,46.4909]}},{"properties":{"lon":-122.823,"city":"PETALUMA","zip":94952.0,"norm oblig":1595.050731,"obligation amount":18375.0,"organization":"Union Joint School District","id":"a6aui9tck8c4","lat":38.2654,"address":"5300 RED HILL ROAD","number of students":11.52000977,"state":"CA"},"type":"Feature","geometry":{"type":"Point","coordinates":[-122.823,38.2654]}},{"properties":{"lon":-122.823,"city":"PETALUMA","zip":94952.0,"norm oblig":1224.261933,"obligation amount":18266.0,"organization":"Lincoln School District","id":"a6aui9sii921","lat":38.2654,"address":"1300 HICKS VALLEY ROAD","number of students":14.92000977,"state":"CA"},"type":"Feature","geometry":{"type":"Point","coordinates":[-122.823,38.2654]}},{"properties":{"lon":-122.823,"city":"PETALUMA","zip":94952.0,"norm oblig":885.7351566,"obligation amount":17821.0,"organization":"Laguna Joint School District","id":"a6aui9ffpu8f","lat":38.2654,"address":"3286 CHILENO VALLEY ROAD","number of students":20.12000977,"state":"CA"},"type":"Feature","geometry":{"type":"Point","coordinates":[-122.823,38.2654]}},{"properties":{"lon":-122.81,"city":"SANTA ROSA","zip":95403.0,"norm oblig":2090.971429,"obligation amount":18296.0,"organization":"Kashia Elementary School District","id":"a6aui9p5oeix","lat":38.477,"address":"C/O SCOE FOR KASHIA ELEMENTARY","number of students":8.75,"state":"CA"},"type":"Feature","geometry":{"type":"Point","coordinates":[-122.81,38.477]}},{"properties":{"lon":-122.7,"city":"GAZELLE","zip":96034.0,"norm oblig":278.115469,"obligation amount":14907.0,"organization":"Gazelle Union Elementary","id":"a6aui9qok4hm","lat":41.4415,"address":"P.O. BOX 6","number of students":53.60003906,"state":"CA"},"type":"Feature","geometry":{"type":"Point","coordinates":[-122.7,41.4415]}},{"properties":{"lon":-122.686,"city":"TRINITY CENTER","zip":96091.0,"norm oblig":574.5996989,"obligation amount":17600.0,"organization":"Trinity Center Elementary School","id":"a6aui9n8ymfn","lat":41.0501,"address":"P.O. BOX 127","number of students":30.63001953,"state":"CA"},"type":"Feature","geometry":{"type":"Point","coordinates":[-122.686,41.0501]}},{"properties":{"lon":-122.686,"city":"NICASIO","zip":94946.0,"norm oblig":289.3326985,"obligation amount":17305.0,"organization":"Nicasio School District","id":"a6aui9oin661","lat":38.009,"address":"5555 NICASIO VALLEY ROAD","number of students":59.81003906,"state":"CA"},"type":"Feature","geometry":{"type":"Point","coordinates":[-122.686,38.009]}},{"properties":{"lon":-122.686,"city":"TRINITY CENTER","zip":96091.0,"norm oblig":1934.583681,"obligation amount":17005.0,"organization":"Coffee Creek School","id":"a6aui9j1flwz","lat":41.0501,"address":"COFFEE CREEK ROAD &amp; HWY. 3","number of students":8.790004883,"state":"CA"},"type":"Feature","geometry":{"type":"Point","coordinates":[-122.686,41.0501]}},{"properties":{"lon":-122.588,"city":"FRENCH GULCH","zip":96033.0,"norm oblig":808.6508384,"obligation amount":15049.0,"organization":"French Gulch-Whiskeytown School District","id":"a6aui9v6u4ud","lat":40.6892,"address":"P.O. DRAWER 368","number of students":18.61000977,"state":"CA"},"type":"Feature","geometry":{"type":"Point","coordinates":[-122.588,40.6892]}},{"properties":{"lon":-122.581,"city":"PASKENTA","zip":96074.0,"norm oblig":988.4890589,"obligation amount":16231.0,"organization":"Elkins Elementary","id":"a6aui9hxryzn","lat":39.8772,"address":"P.O. BOX 407","number of students":16.42000977,"state":"CA"},"type":"Feature","geometry":{"type":"Point","coordinates":[-122.581,39.8772]}},{"properties":{"lon":-122.537,"city":"ASHLAND","zip":97520.0,"norm oblig":454.1685979,"obligation amount":17587.0,"organization":"Pinehurst School District 94","id":"a6aui9mfmvkd","lat":42.1481,"address":"15337 HWY 66","number of students":38.72350506,"state":"OR"},"type":"Feature","geometry":{"type":"Point","coordinates":[-122.537,42.1481]}},{"properties":{"lon":-122.526,"city":"HORNBROOK","zip":96044.0,"norm oblig":335.4436086,"obligation amount":14622.0,"organization":"Hornbrook Elementary School","id":"a6aui9plmi7c","lat":41.9398,"address":"DRAWER 169","number of students":43.59003906,"state":"CA"},"type":"Feature","geometry":{"type":"Point","coordinates":[-122.526,41.9398]}},{"properties":{"lon":-122.492,"city":"FLOURNOY","zip":96029.0,"norm oblig":447.108001,"obligation amount":12756.0,"organization":"Flournoy Union Elementary","id":"a6aui9tsjdf8","lat":39.9024,"address":"P.O. BOX 2260","number of students":28.53001953,"state":"CA"},"type":"Feature","geometry":{"type":"Point","coordinates":[-122.492,39.9024]}},{"properties":{"lon":-122.316,"city":"WASHOUGAL","zip":98671.0,"norm oblig":310.7002589,"obligation amount":17694.0,"organization":"Mount Pleasant School District","id":"a6aui9o1r8se","lat":45.6117,"address":"152 MARBLE RD","number of students":56.94877778,"state":"WA"},"type":"Feature","geometry":{"type":"Point","coordinates":[-122.316,45.6117]}},{"properties":{"lon":-122.316,"city":"CASTELLA","zip":96017.0,"norm oblig":247.8884326,"obligation amount":16730.0,"organization":"Castle Rock Union Elementary School District","id":"a6aui9tnq0b6","lat":41.1103,"address":"P.O. BOX 180","number of students":67.49003906,"state":"CA"},"type":"Feature","geometry":{"type":"Point","coordinates":[-122.316,41.1103]}},{"properties":{"lon":-122.197,"city":"MONTAGUE","zip":96064.0,"norm oblig":1770.358974,"obligation amount":17261.0,"organization":"Bogus Elementary School","id":"a6aui9il2aws","lat":41.7575,"address":"13735 AGER-BESWICK ROAD","number of students":9.75,"state":"CA"},"type":"Feature","geometry":{"type":"Point","coordinates":[-122.197,41.7575]}},{"properties":{"lon":-122.197,"city":"MONTAGUE","zip":96064.0,"norm oblig":556.4102564,"obligation amount":16275.0,"organization":"LITTLE SHASTA ELEMENTARY","id":"a6aui9mbwnzx","lat":41.7575,"address":"8409 LOWER LITTLE SHASTA ROAD","number of students":29.25,"state":"CA"},"type":"Feature","geometry":{"type":"Point","coordinates":[-122.197,41.7575]}},{"properties":{"lon":-122.197,"city":"MONTAGUE","zip":96064.0,"norm oblig":395.3783714,"obligation amount":17539.0,"organization":"Delphic Elementary","id":"a6aui9kx66aa","lat":41.7575,"address":"1420 DELPHIC ROAD","number of students":44.36003906,"state":"CA"},"type":"Feature","geometry":{"type":"Point","coordinates":[-122.197,41.7575]}},{"properties":{"lon":-122.135,"city":"CORNING","zip":96021.0,"norm oblig":351.58313,"obligation amount":16542.0,"organization":"Kirkwood Elementary","id":"a6aui9qczk28","lat":40.1254,"address":"2049 KIRKWOOD ROAD","number of students":47.05003906,"state":"CA"},"type":"Feature","geometry":{"type":"Point","coordinates":[-122.135,40.1254]}},{"properties":{"lon":-122.042,"city":"OAK RUN","zip":96069.0,"norm oblig":255.1654437,"obligation amount":14251.0,"organization":"Oak Run Elementary School District","id":"a6aui9ooj6sy","lat":40.6915,"address":"P.O. BOX 48","number of students":55.85003906,"state":"CA"},"type":"Feature","geometry":{"type":"Point","coordinates":[-122.042,40.6915]}},{"properties":{"lon":-121.955,"city":"CANYON","zip":94516.0,"norm oblig":284.6837012,"obligation amount":18866.0,"organization":"Canyon Elementary","id":"a6aui9mz4rhk","lat":37.7772,"address":"P.O. BOX 187","number of students":66.27003906,"state":"CA"},"type":"Feature","geometry":{"type":"Point","coordinates":[-121.955,37.7772]}},{"properties":{"lon":-121.913,"city":"STEVENSON","zip":98648.0,"norm oblig":248.9031187,"obligation amount":16792.0,"organization":"SKAMANIA SCHOOL DISTRICT 2","id":"a6aui9qstuch","lat":45.6737,"address":"122 BUTLER LOOP RD","number of students":67.464,"state":"WA"},"type":"Feature","geometry":{"type":"Point","coordinates":[-121.913,45.6737]}},{"properties":{"lon":-121.87,"city":"Chico","zip":95973.0,"norm oblig":243.0839854,"obligation amount":18207.0,"organization":"Nord Country School -- California Charter School","id":"a6aui9m886e0","lat":39.8376,"address":"5554 California Street","number of students":74.90003906,"state":"CA"},"type":"Feature","geometry":{"type":"Point","coordinates":[-121.87,39.8376]}},{"properties":{"lon":-121.865,"city":"MANTON","zip":96059.0,"norm oblig":432.259608,"obligation amount":15704.0,"organization":"Manton Joint Union Elementary","id":"a6aui9kggkzi","lat":40.4209,"address":"P.O. BOX 410","number of students":36.33001953,"state":"CA"},"type":"Feature","geometry":{"type":"Point","coordinates":[-121.865,40.4209]}},{"properties":{"lon":-121.863,"city":"WHITMORE","zip":96096.0,"norm oblig":362.9030217,"obligation amount":12600.0,"organization":"Whitmore Union Elementary School District","id":"a6aui9q1626r","lat":40.5751,"address":"P.O. BOX 10","number of students":34.72001953,"state":"CA"},"type":"Feature","geometry":{"type":"Point","coordinates":[-121.863,40.5751]}},{"properties":{"lon":-121.841,"city":"PAYNES CREEK","zip":96075.0,"norm oblig":399.6424876,"obligation amount":12305.0,"organization":"Plum Valley Elementary","id":"a6aui9hdfvln","lat":40.3641,"address":"29840 PLUM CREEK ROAD","number of students":30.79001953,"state":"CA"},"type":"Feature","geometry":{"type":"Point","coordinates":[-121.841,40.3641]}},{"properties":{"lon":-121.825,"city":"BIG BEND","zip":96011.0,"norm oblig":1140.659329,"obligation amount":15205.0,"organization":"Indian Springs Elementary School District","id":"a6aui9ssa0jg","lat":40.9749,"address":"P.O. BOX 70","number of students":13.33000977,"state":"CA"},"type":"Feature","geometry":{"type":"Point","coordinates":[-121.825,40.9749]}},{"properties":{"lon":-121.705,"city":"CUPERTINO","zip":95014.0,"norm oblig":506.5302102,"obligation amount":17607.0,"organization":"Montebello Elementary School","id":"a6aui9ti4bxf","lat":37.1894,"address":"15101 MONTEBELLO ROAD","number of students":34.76001953,"state":"CA"},"type":"Feature","geometry":{"type":"Point","coordinates":[-121.705,37.1894]}},{"properties":{"lon":-121.617,"city":"BYRON","zip":94514.0,"norm oblig":436.6142548,"obligation amount":17565.0,"organization":"Mountain House School District","id":"a6aui9owunda","lat":37.8589,"address":"3950 MOUNTAIN HOUSE ROAD","number of students":40.23001953,"state":"CA"},"type":"Feature","geometry":{"type":"Point","coordinates":[-121.617,37.8589]}},{"properties":{"lon":-121.608,"city":"BIG SUR","zip":93920.0,"norm oblig":908.4325968,"obligation amount":16697.0,"organization":"Pacific Unified","id":"a6aui9q04ikg","lat":36.0541,"address":"1 PACIFIC VALLEY","number of students":18.38000977,"state":"CA"},"type":"Feature","geometry":{"type":"Point","coordinates":[-121.608,36.0541]}},{"properties":{"lon":-121.55,"city":"INDEX","zip":98256.0,"norm oblig":498.4301448,"obligation amount":12506.0,"organization":"Index School District No. 063","id":"a6aui9g8beo6","lat":47.8118,"address":"436 INDEX AVE","number of students":25.09077778,"state":"WA"},"type":"Feature","geometry":{"type":"Point","coordinates":[-121.55,47.8118]}},{"properties":{"lon":-121.447,"city":"BINGEN","zip":98605.0,"norm oblig":251.3855192,"obligation amount":16279.0,"organization":"Mill A School District","id":"a6aui9pg7ifx","lat":45.7215,"address":"1142 JESSUP RD","number of students":64.75711111,"state":"WA"},"type":"Feature","geometry":{"type":"Point","coordinates":[-121.447,45.7215]}},{"properties":{"lon":-121.417,"city":"OROVILLE","zip":95966.0,"norm oblig":412.7622082,"obligation amount":14942.0,"organization":"Feather Falls Union Elementary School District","id":"a6aui9tr56cn","lat":39.4631,"address":"2651 LUMPKIN ROAD","number of students":36.20001953,"state":"CA"},"type":"Feature","geometry":{"type":"Point","coordinates":[-121.417,39.4631]}},{"properties":{"lon":-121.392,"city":"HOLLISTER","zip":95023.0,"norm oblig":694.3119266,"obligation amount":18920.0,"organization":"Cienega Union Elementary School District","id":"a6aui9ngqnwu","lat":36.8281,"address":"11936 CIENEGA ROAD","number of students":27.25,"state":"CA"},"type":"Feature","geometry":{"type":"Point","coordinates":[-121.392,36.8281]}},{"properties":{"lon":-121.369,"city":"SKYKOMISH","zip":98288.0,"norm oblig":239.9764085,"obligation amount":14241.0,"organization":"Skykomish School District 404","id":"a6aui9rh6nyk","lat":47.7222,"address":"105 6TH ST N","number of students":59.34333333,"state":"WA"},"type":"Feature","geometry":{"type":"Point","coordinates":[-121.369,47.7222]}},{"properties":{"lon":-121.282,"city":"GLENWOOD","zip":98619.0,"norm oblig":261.4669216,"obligation amount":14863.0,"organization":"Glenwood School District No. 401","id":"a6aui9pm17hw","lat":45.9899,"address":"320 BUNNELL ST","number of students":56.84466667,"state":"WA"},"type":"Feature","geometry":{"type":"Point","coordinates":[-121.282,45.9899]}},{"properties":{"lon":-121.227,"city":"Stockton","zip":95213.0,"norm oblig":3267.971249,"obligation amount":20000.0,"organization":"Venture Academy","id":"a6aui9sg6kpp","lat":37.9048,"address":"PO Box 213030","number of students":6.120004883,"state":"CA"},"type":"Feature","geometry":{"type":"Point","coordinates":[-121.227,37.9048]}},{"properties":{"lon":-121.149,"city":"PAICINES","zip":95043.0,"norm oblig":4818.202701,"obligation amount":18261.0,"organization":"Panoche Elementary School","id":"a6aui9sp2b6y","lat":36.5874,"address":"31441 PANOCHE ROAD","number of students":3.790002441,"state":"CA"},"type":"Feature","geometry":{"type":"Point","coordinates":[-121.149,36.5874]}},{"properties":{"lon":-121.149,"city":"PAICINES","zip":95043.0,"norm oblig":972.8349837,"obligation amount":17978.0,"organization":"Jefferson School","id":"a6aui9ut41o3","lat":36.5874,"address":"221 OLD HERNANDEZ ROAD","number of students":18.48000977,"state":"CA"},"type":"Feature","geometry":{"type":"Point","coordinates":[-121.149,36.5874]}},{"properties":{"lon":-121.149,"city":"PAICINES","zip":95043.0,"norm oblig":469.1299583,"obligation amount":17583.0,"organization":"Willow Grove Union Elementary School","id":"a6aui9p7id45","lat":36.5874,"address":"P.O. BOX 46","number of students":37.48001953,"state":"CA"},"type":"Feature","geometry":{"type":"Point","coordinates":[-121.149,36.5874]}},{"properties":{"lon":-121.073,"city":"WISHRAM","zip":98673.0,"norm oblig":272.9615157,"obligation amount":14266.0,"organization":"Wishram School","id":"a6aui9k7jbsh","lat":45.6415,"address":"135 BUNN","number of students":52.26377778,"state":"WA"},"type":"Feature","geometry":{"type":"Point","coordinates":[-121.073,45.6415]}},{"properties":{"lon":-121.052,"city":"KING CITY","zip":93930.0,"norm oblig":654.3669887,"obligation amount":17380.0,"organization":"Bitterwater Tully USD","id":"a6aui9ohplxc","lat":36.2019,"address":"LONOAK RT.","number of students":26.56001953,"state":"CA"},"type":"Feature","geometry":{"type":"Point","coordinates":[-121.052,36.2019]}},{"properties":{"lon":-121.018,"city":"QUINCY","zip":95971.0,"norm oblig":689.6014026,"obligation amount":16978.0,"organization":"Plumas County Office of Education","id":"a6aui9hg0kzs","lat":40.0051,"address":"50 CHURCH ST., SUITE B","number of students":24.62001953,"state":"CA"},"type":"Feature","geometry":{"type":"Point","coordinates":[-121.018,40.0051]}},{"properties":{"lon":-120.937,"city":"BRADLEY","zip":93426.0,"norm oblig":348.1280825,"obligation amount":9114.0,"organization":"BRADLEY UNION ELEMENTARY SCHOOL DISTRICT","id":"a6aui9fg3iwl","lat":35.9076,"address":"P.O. BOX 60","number of students":26.18001953,"state":"CA"},"type":"Feature","geometry":{"type":"Point","coordinates":[-120.937,35.9076]}},{"properties":{"lon":-120.6,"city":"SOMERSET","zip":95684.0,"norm oblig":558.1971423,"obligation amount":18147.0,"organization":"Indian Diggings Elementary School","id":"a6aui9gcgvt5","lat":38.6393,"address":"6020 OMO RANCH ROAD","number of students":32.51001953,"state":"CA"},"type":"Feature","geometry":{"type":"Point","coordinates":[-120.6,38.6393]}},{"properties":{"lon":-120.509,"city":"LA GRANGE","zip":95329.0,"norm oblig":1173.594022,"obligation amount":17956.0,"organization":"La Grange Elementary School District","id":"a6aui9qdqaa2","lat":37.6532,"address":"P.O. BOX 66","number of students":15.30000977,"state":"CA"},"type":"Feature","geometry":{"type":"Point","coordinates":[-120.509,37.6532]}},{"properties":{"lon":-120.49,"city":"ELLENSBURG","zip":98926.0,"norm oblig":627.7857995,"obligation amount":20000.0,"organization":"Damman School District 007","id":"a6aui9h7ouhn","lat":47.0281,"address":"3712 UMPTANUM RD","number of students":31.858,"state":"WA"},"type":"Feature","geometry":{"type":"Point","coordinates":[-120.49,47.0281]}},{"properties":{"lon":-120.44,"city":"CHINESE CAMP","zip":95309.0,"norm oblig":1364.936123,"obligation amount":16311.0,"organization":"Chinese Camp Elementary School","id":"a6aui9i1k0eo","lat":37.8079,"address":"P.O. BOX 100","number of students":11.95000977,"state":"CA"},"type":"Feature","geometry":{"type":"Point","coordinates":[-120.44,37.8079]}},{"properties":{"lon":-120.371,"city":"SIERRAVILLE","zip":96126.0,"norm oblig":833.1851207,"obligation amount":18830.0,"organization":"Sierra County Office of Education","id":"a6aui9r4mibm","lat":39.5825,"address":"P.O. BOX 157","number of students":22.60001953,"state":"CA"},"type":"Feature","geometry":{"type":"Point","coordinates":[-120.371,39.5825]}},{"properties":{"lon":-120.37,"city":"LAKEVIEW","zip":97630.0,"norm oblig":830.0636785,"obligation amount":18467.0,"organization":"Adel SD -- Lake County School District 21","id":"a6aui9jjph72","lat":42.1808,"address":"357 N  L  ST","number of students":22.24769072,"state":"OR"},"type":"Feature","geometry":{"type":"Point","coordinates":[-120.37,42.1808]}},{"properties":{"lon":-120.355,"city":"PLUSH","zip":97637.0,"norm oblig":1504.706589,"obligation amount":18482.0,"organization":"Plush School District 18","id":"a6aui9v451q6","lat":42.8053,"address":"PO BOX 3","number of students":12.2827933,"state":"OR"},"type":"Feature","geometry":{"type":"Point","coordinates":[-120.355,42.8053]}},{"properties":{"lon":-120.354,"city":"ROOSEVELT","zip":99356.0,"norm oblig":995.3495059,"obligation amount":20000.0,"organization":"Roosevelt School","id":"a6aui9h07gb7","lat":45.8514,"address":"615 CHINOOK AVE","number of students":20.09344444,"state":"WA"},"type":"Feature","geometry":{"type":"Point","coordinates":[-120.354,45.8514]}},{"properties":{"lon":-120.33,"city":"PAISLEY","zip":97636.0,"norm oblig":253.3414621,"obligation amount":18298.0,"organization":"Paisley School District 11","id":"a6aui9fwhf0v","lat":42.7752,"address":"PO BOX 97","number of students":72.22662982,"state":"OR"},"type":"Feature","geometry":{"type":"Point","coordinates":[-120.33,42.7752]}},{"properties":{"lon":-120.326,"city":"RAVENDALE","zip":96123.0,"norm oblig":1278.52936,"obligation amount":17746.0,"organization":"Juniper Ridge Elementary School -- Ravendale-Termo Elementary School District","id":"a6aui9o5lmjd","lat":40.7761,"address":"P.O. BOX 99","number of students":13.88000977,"state":"CA"},"type":"Feature","geometry":{"type":"Point","coordinates":[-120.326,40.7761]}},{"properties":{"lon":-120.252,"city":"KYBURZ","zip":95720.0,"norm oblig":1191.731013,"obligation amount":18305.0,"organization":"Silver Fork School District","id":"a6aui9q51qzh","lat":38.8925,"address":"P.O. BOX 45","number of students":15.36000977,"state":"CA"},"type":"Feature","geometry":{"type":"Point","coordinates":[-120.252,38.8925]}},{"properties":{"lon":-120.019,"city":"MARIPOSA","zip":95338.0,"norm oblig":324.3408759,"obligation amount":17229.0,"organization":"Mariposa County Office of Education","id":"a6aui9tbjol1","lat":37.5729,"address":"P.O. BOX 8","number of students":53.12003906,"state":"CA"},"type":"Feature","geometry":{"type":"Point","coordinates":[-120.019,37.5729]}},{"properties":{"lon":-120.015,"city":"MITCHELL","zip":97750.0,"norm oblig":238.9093419,"obligation amount":13844.0,"organization":"Mitchell School District 55","id":"a6aui9mtrf3z","lat":44.6447,"address":"PO BOX 247","number of students":57.94666667,"state":"OR"},"type":"Feature","geometry":{"type":"Point","coordinates":[-120.015,44.6447]}},{"properties":{"lon":-119.914,"city":"SPRAY","zip":97874.0,"norm oblig":246.1041389,"obligation amount":15361.0,"organization":"Spray School District 1","id":"a6aui9gqm8dz","lat":44.7801,"address":"PO BOX 230","number of students":62.41666667,"state":"OR"},"type":"Feature","geometry":{"type":"Point","coordinates":[-119.914,44.7801]}},{"properties":{"lon":-119.904,"city":"PALISADES","zip":98845.0,"norm oblig":349.6821493,"obligation amount":12560.0,"organization":"Palisades School District 102","id":"a6aui9vde7l1","lat":47.3936,"address":"1114 PALISADES RD","number of students":35.91833333,"state":"WA"},"type":"Feature","geometry":{"type":"Point","coordinates":[-119.904,47.3936]}},{"properties":{"lon":-119.833,"city":"MARKLEEVILLE","zip":96120.0,"norm oblig":414.5108244,"obligation amount":18910.0,"organization":"Alpine County Office of Education","id":"a6aui9oie9pb","lat":38.7713,"address":"43 HAWKSIDE DR.","number of students":45.62003906,"state":"CA"},"type":"Feature","geometry":{"type":"Point","coordinates":[-119.833,38.7713]}},{"properties":{"lon":-119.673,"city":"Fresno","zip":93727.0,"norm oblig":426.2725356,"obligation amount":18837.0,"organization":"Hume Lake Charter School","id":"a6aui9k6tgoz","lat":36.7631,"address":"5545 East Hedges Avenue","number of students":44.19003906,"state":"CA"},"type":"Feature","geometry":{"type":"Point","coordinates":[-119.673,36.7631]}},{"properties":{"lon":-119.247,"city":"BIG CREEK","zip":93605.0,"norm oblig":397.2901381,"obligation amount":13929.0,"organization":"Big Creek School","id":"a6aui9fliy4r","lat":37.2136,"address":"P.O. BOX 98","number of students":35.06001953,"state":"CA"},"type":"Feature","geometry":{"type":"Point","coordinates":[-119.247,37.2136]}},{"properties":{"lon":-119.091,"city":"LONG CREEK","zip":97856.0,"norm oblig":407.3509534,"obligation amount":14457.0,"organization":"Long Creek School District 17","id":"a6aui9od8atm","lat":44.7137,"address":"PO BOX 429","number of students":35.49028149,"state":"OR"},"type":"Feature","geometry":{"type":"Point","coordinates":[-119.091,44.7137]}},{"properties":{"lon":-119.086,"city":"SANTA PAULA","zip":93060.0,"norm oblig":335.9745441,"obligation amount":17595.0,"organization":"Santa Clara Elementary School District","id":"a6aui9p8y5mr","lat":34.3649,"address":"20030 E. TELEGRAPH ROAD","number of students":52.37003906,"state":"CA"},"type":"Feature","geometry":{"type":"Point","coordinates":[-119.086,34.3649]}},{"properties":{"lon":-119.082,"city":"HINES","zip":97738.0,"norm oblig":1861.720109,"obligation amount":19164.0,"organization":"Suntex School District 10","id":"a6aui9rp3fza","lat":43.5558,"address":"PO BOX 805","number of students":10.29370629,"state":"OR"},"type":"Feature","geometry":{"type":"Point","coordinates":[-119.082,43.5558]}},{"properties":{"lon":-119.082,"city":"HINES","zip":97738.0,"norm oblig":10396.35088,"obligation amount":19240.0,"organization":"Double O School District","id":"a6aui9hwxu4y","lat":43.5558,"address":"PO BOX 888","number of students":1.850649351,"state":"OR"},"type":"Feature","geometry":{"type":"Point","coordinates":[-119.082,43.5558]}},{"properties":{"lon":-119.079,"city":"FRENCHGLEN","zip":97736.0,"norm oblig":2175.857931,"obligation amount":20000.0,"organization":"Frenchglen/Harney County School District 16","id":"a6aui9udo8a4","lat":43.562,"address":"39235 HWY 205","number of students":9.191776595,"state":"OR"},"type":"Feature","geometry":{"type":"Point","coordinates":[-119.079,43.562]}},{"properties":{"lon":-119.07,"city":"FIELDS","zip":97710.0,"norm oblig":1475.375649,"obligation amount":17383.0,"organization":"SOUTH HARNEY SCHOOL DISTRICT 33","id":"a6aui9rgpy8y","lat":43.0198,"address":"23657 FIELDS-DENIO RD","number of students":11.78208411,"state":"OR"},"type":"Feature","geometry":{"type":"Point","coordinates":[-119.07,43.0198]}},{"properties":{"lon":-119.07,"city":"DREWSEY","zip":97904.0,"norm oblig":1649.143905,"obligation amount":19416.0,"organization":"Harney County School District 5","id":"a6aui9ll6be0","lat":43.0198,"address":"79654 PINE CREEK RD","number of students":11.77338129,"state":"OR"},"type":"Feature","geometry":{"type":"Point","coordinates":[-119.07,43.0198]}},{"properties":{"lon":-119.07,"city":"CRANE","zip":97732.0,"norm oblig":257.1671398,"obligation amount":20414.0,"organization":"Crane UHSD -- Harney County SD 1J","id":"a6aui9gaaw16","lat":43.0198,"address":"PO BOX 828","number of students":79.38028169,"state":"OR"},"type":"Feature","geometry":{"type":"Point","coordinates":[-119.07,43.0198]}},{"properties":{"lon":-119.07,"city":"DIAMOND","zip":97722.0,"norm oblig":1514.586426,"obligation amount":18662.0,"organization":"Harney County School District 7 -- Diamond School District 7","id":"a6aui9nh604y","lat":43.0198,"address":"40524 S DIAMOND LN","number of students":12.32151542,"state":"OR"},"type":"Feature","geometry":{"type":"Point","coordinates":[-119.07,43.0198]}},{"properties":{"lon":-119.07,"city":"DREWSEY","zip":97904.0,"norm oblig":1686.115389,"obligation amount":16054.0,"organization":"Harney County School District 13","id":"a6aui9fxec8w","lat":43.0198,"address":"PO BOX 109","number of students":9.521293801,"state":"OR"},"type":"Feature","geometry":{"type":"Point","coordinates":[-119.07,43.0198]}},{"properties":{"lon":-118.905,"city":"TUPMAN","zip":93276.0,"norm oblig":246.3703125,"obligation amount":15748.0,"organization":"Elk Hills Elementary School","id":"a6aui9l0bohn","lat":35.2944,"address":"P.O. BOX 129","number of students":63.92003906,"state":"CA"},"type":"Feature","geometry":{"type":"Point","coordinates":[-118.905,35.2944]}},{"properties":{"lon":-118.905,"city":"MCKITTRICK","zip":93251.0,"norm oblig":526.1345035,"obligation amount":15763.0,"organization":"Belridge School District","id":"a6aui9idvez1","lat":35.2944,"address":"19447 WAGON WHEEL ROAD","number of students":29.96001953,"state":"CA"},"type":"Feature","geometry":{"type":"Point","coordinates":[-118.905,35.2944]}},{"properties":{"lon":-118.905,"city":"MCKITTRICK","zip":93251.0,"norm oblig":262.3334443,"obligation amount":15176.0,"organization":"Mckittrick Elementary","id":"a6aui9ol8o6f","lat":35.2944,"address":"P.O. BOX 277","number of students":57.85003906,"state":"CA"},"type":"Feature","geometry":{"type":"Point","coordinates":[-118.905,35.2944]}},{"properties":{"lon":-118.899,"city":"PASCO","zip":99301.0,"norm oblig":1685.109251,"obligation amount":20000.0,"organization":"Star School District 054 -- Star Elementary School","id":"a6aui9krbkse","lat":46.4207,"address":"24180 PASCO KAHLOTUS RD","number of students":11.86866667,"state":"WA"},"type":"Feature","geometry":{"type":"Point","coordinates":[-118.899,46.4207]}},{"properties":{"lon":-118.857,"city":"GORMAN","zip":93243.0,"norm oblig":383.0828794,"obligation amount":16848.0,"organization":"Gorman Joint Elementary School District","id":"a6aui9vuj020","lat":34.8818,"address":"P.O. BOX 104","number of students":43.98003906,"state":"CA"},"type":"Feature","geometry":{"type":"Point","coordinates":[-118.857,34.8818]}},{"properties":{"lon":-118.796,"city":"WOODY","zip":93287.0,"norm oblig":1408.769231,"obligation amount":18314.0,"organization":"Blake School District","id":"a6aui9gkakpj","lat":35.6084,"address":"P.O. BOX 40","number of students":13.0,"state":"CA"},"type":"Feature","geometry":{"type":"Point","coordinates":[-118.796,35.6084]}},{"properties":{"lon":-118.71,"city":"GLENNVILLE","zip":93226.0,"norm oblig":593.6318163,"obligation amount":15755.0,"organization":"Linns Valley-Poso Flat USD","id":"a6aui9o05z7a","lat":35.733,"address":"P.O. BOX 399","number of students":26.54001953,"state":"CA"},"type":"Feature","geometry":{"type":"Point","coordinates":[-118.71,35.733]}},{"properties":{"lon":-118.704,"city":"UKIAH","zip":97880.0,"norm oblig":429.7840213,"obligation amount":16528.0,"organization":"Umatilla County School District 80R","id":"a6aui9h7f9fj","lat":45.4985,"address":"PO BOX 218","number of students":38.45652509,"state":"OR"},"type":"Feature","geometry":{"type":"Point","coordinates":[-118.704,45.4985]}},{"properties":{"lon":-118.704,"city":"PORTERVILLE","zip":93257.0,"norm oblig":288.7587906,"obligation amount":14822.0,"organization":"Citrus South Tule School District","id":"a6aui9t9fe6c","lat":35.9738,"address":"31374 SUCCESS VALLEY DR.","number of students":51.33003906,"state":"CA"},"type":"Feature","geometry":{"type":"Point","coordinates":[-118.704,35.9738]}},{"properties":{"lon":-118.656,"city":"CALIF. HOT SPRINGS","zip":93207.0,"norm oblig":688.6260322,"obligation amount":16045.0,"organization":"Hot Springs Elementary School","id":"a6aui9tmftq1","lat":35.8818,"address":"P.O. BOX 38","number of students":23.30001953,"state":"CA"},"type":"Feature","geometry":{"type":"Point","coordinates":[-118.656,35.8818]}},{"properties":{"lon":-118.599,"city":"ALMIRA","zip":99103.0,"norm oblig":250.9156092,"obligation amount":15491.0,"organization":"Almira School District No. 17","id":"a6aui9va6o3u","lat":47.5297,"address":"310 S 3RD ST","number of students":61.73788889,"state":"WA"},"type":"Feature","geometry":{"type":"Point","coordinates":[-118.599,47.5297]}},{"properties":{"lon":-118.338,"city":"WASHTUCNA","zip":99371.0,"norm oblig":313.7891229,"obligation amount":14407.0,"organization":"Washtucna School District 109-43","id":"a6aui9onztyi","lat":46.8153,"address":"101 SCHOOL ST","number of students":45.913,"state":"WA"},"type":"Feature","geometry":{"type":"Point","coordinates":[-118.338,46.8153]}},{"properties":{"lon":-118.235,"city":"INDEPENDENCE","zip":93526.0,"norm oblig":282.9147034,"obligation amount":19606.0,"organization":"Inyo County Office of Education","id":"a6aui9ooaezq","lat":36.8312,"address":"P.O. DRAWER G","number of students":69.30003906,"state":"CA"},"type":"Feature","geometry":{"type":"Point","coordinates":[-118.235,36.8312]}},{"properties":{"lon":-118.218,"city":"KELLER","zip":99140.0,"norm oblig":337.50597,"obligation amount":12720.0,"organization":"Keller School District 3","id":"a6aui9s1u8ni","lat":48.8897,"address":"367 MAIN ST","number of students":37.68822222,"state":"WA"},"type":"Feature","geometry":{"type":"Point","coordinates":[-118.218,48.8897]}},{"properties":{"lon":-118.195,"city":"UNITY","zip":97884.0,"norm oblig":277.192995,"obligation amount":14799.0,"organization":"Burnt River School District 30J","id":"a6aui9kzt7pg","lat":44.4561,"address":"PO BOX 8","number of students":53.38879505,"state":"OR"},"type":"Feature","geometry":{"type":"Point","coordinates":[-118.195,44.4561]}},{"properties":{"lon":-118.161,"city":"BENGE","zip":99105.0,"norm oblig":3098.426688,"obligation amount":20000.0,"organization":"Benge Elementary","id":"a6aui9pfvtpc","lat":46.8591,"address":"2978 E BENGE WINONA RD","number of students":6.454888889,"state":"WA"},"type":"Feature","geometry":{"type":"Point","coordinates":[-118.161,46.8591]}},{"properties":{"lon":-118.153,"city":"DIXIE","zip":99329.0,"norm oblig":760.6651475,"obligation amount":17581.0,"organization":"Dixie School District","id":"a6aui9fz8gcz","lat":46.1408,"address":"HWY 12 &amp; BISCUIT RIDGE RD","number of students":23.11266667,"state":"WA"},"type":"Feature","geometry":{"type":"Point","coordinates":[-118.153,46.1408]}},{"properties":{"lon":-118.102,"city":"STARBUCK","zip":99359.0,"norm oblig":1240.597652,"obligation amount":19374.0,"organization":"Starbuck School District 35","id":"a6aui9m2gqmq","lat":46.5128,"address":"717 TUCANNON ST","number of students":15.61666667,"state":"WA"},"type":"Feature","geometry":{"type":"Point","coordinates":[-118.102,46.5128]}},{"properties":{"lon":-118.077,"city":"HUNTERS","zip":99137.0,"norm oblig":1200.222727,"obligation amount":17244.0,"organization":"Evergreen School District 205","id":"a6aui9pwzmr1","lat":48.1504,"address":"3341 ADDY GIFFORD RD","number of students":14.36733333,"state":"WA"},"type":"Feature","geometry":{"type":"Point","coordinates":[-118.077,48.1504]}},{"properties":{"lon":-117.809,"city":"COLVILLE","zip":99114.0,"norm oblig":351.6887438,"obligation amount":12449.0,"organization":"Onion Creek Elementary","id":"a6aui9p5wvw8","lat":48.6769,"address":"2006 LOTZE CREEK RD","number of students":35.39777778,"state":"WA"},"type":"Feature","geometry":{"type":"Point","coordinates":[-117.809,48.6769]}},{"properties":{"lon":-117.687,"city":"LAMONT","zip":99017.0,"norm oblig":570.1892494,"obligation amount":17987.0,"organization":"Lamont School District 264","id":"a6aui9jjkowi","lat":46.9618,"address":"602 MAIN ST","number of students":31.54566667,"state":"WA"},"type":"Feature","geometry":{"type":"Point","coordinates":[-117.687,46.9618]}},{"properties":{"lon":-117.644,"city":"STEPTOE","zip":99174.0,"norm oblig":517.1168213,"obligation amount":18897.0,"organization":"Steptoe School District 3304","id":"a6aui9ok4ff3","lat":46.8387,"address":"12 TENNESSEE ST","number of students":36.543,"state":"WA"},"type":"Feature","geometry":{"type":"Point","coordinates":[-117.644,46.8387]}},{"properties":{"lon":-117.551,"city":"SPOKANE","zip":99224.0,"norm oblig":576.2460358,"obligation amount":18898.0,"organization":"Great Northern School District 312","id":"a6aui9fhcq80","lat":47.6288,"address":"3115 N SPOTTED RD","number of students":32.79501953,"state":"WA"},"type":"Feature","geometry":{"type":"Point","coordinates":[-117.551,47.6288]}},{"properties":{"lon":-117.498,"city":"AROCK","zip":97902.0,"norm oblig":763.47218,"obligation amount":17548.0,"organization":"Arock School District 081","id":"a6aui9n7hnxv","lat":42.9156,"address":"PO BOX 131","number of students":22.98446552,"state":"OR"},"type":"Feature","geometry":{"type":"Point","coordinates":[-117.498,42.9156]}},{"properties":{"lon":-117.469,"city":"JORDAN VALLEY","zip":97910.0,"norm oblig":1139.280319,"obligation amount":17431.0,"organization":"Pleasant Valley Elementary 364","id":"a6aui9vqnhlh","lat":42.9512,"address":"28026 MOUNTAIN ROAD","number of students":15.30000977,"state":"ID"},"type":"Feature","geometry":{"type":"Point","coordinates":[-117.469,42.9512]}},{"properties":{"lon":-117.283,"city":"VALE","zip":97918.0,"norm oblig":1383.230632,"obligation amount":18227.0,"organization":"Juntura School District 012","id":"a6aui9nspfte","lat":44.0523,"address":"363  A  ST W","number of students":13.17712288,"state":"OR"},"type":"Feature","geometry":{"type":"Point","coordinates":[-117.283,44.0523]}},{"properties":{"lon":-116.846,"city":"SANTA YSABEL","zip":92070.0,"norm oblig":577.7773733,"obligation amount":16120.0,"organization":"Spencer Valley School District","id":"a6aui9h1hbzm","lat":33.0169,"address":"P.O. BOX 159","number of students":27.90001953,"state":"CA"},"type":"Feature","geometry":{"type":"Point","coordinates":[-116.846,33.0169]}},{"properties":{"lon":-115.817,"city":"TROY","zip":59935.0,"norm oblig":961.5333333,"obligation amount":14423.0,"organization":"McCormick Elementary School District No. 15","id":"a6aui9l4gybw","lat":48.5805,"address":"1860 OLD HIGHWAY 2 NORTH","number of students":15.0,"state":"MT"},"type":"Feature","geometry":{"type":"Point","coordinates":[-115.817,48.5805]}},{"properties":{"lon":-115.817,"city":"TROY","zip":59935.0,"norm oblig":3601.0,"obligation amount":18005.0,"organization":"Yaak School District  24","id":"a6aui9mgydku","lat":48.5805,"address":"30117 YAAK RIVER ROAD","number of students":5.0,"state":"MT"},"type":"Feature","geometry":{"type":"Point","coordinates":[-115.817,48.5805]}},{"properties":{"lon":-115.645,"city":"AVERY","zip":83802.0,"norm oblig":883.2743494,"obligation amount":15104.0,"organization":"AVERY SCHOOL DISTRICT 394","id":"a6aui9rz1fpl","lat":47.5012,"address":"PO BOX 7","number of students":17.10000977,"state":"ID"},"type":"Feature","geometry":{"type":"Point","coordinates":[-115.645,47.5012]}},{"properties":{"lon":-115.367,"city":"DESERT CENTER","zip":92239.0,"norm oblig":734.8134948,"obligation amount":12242.0,"organization":"Desert Center Unified School District","id":"a6aui9kdlge4","lat":33.809,"address":"P.O. BOX 106","number of students":16.66000977,"state":"CA"},"type":"Feature","geometry":{"type":"Point","coordinates":[-115.367,33.809]}},{"properties":{"lon":-115.331,"city":"TREGO","zip":59934.0,"norm oblig":341.2954545,"obligation amount":15017.0,"organization":"Trego School District 53","id":"a6aui9jnxzri","lat":48.4457,"address":"PO BOX 10","number of students":44.0,"state":"MT"},"type":"Feature","geometry":{"type":"Point","coordinates":[-115.331,48.4457]}},{"properties":{"lon":-115.28,"city":"BRAWLEY","zip":92227.0,"norm oblig":255.0117846,"obligation amount":17096.0,"organization":"Mulberry Elementary School District","id":"a6aui9v6pkav","lat":33.0964,"address":"1391 E. RUTHERFORD ROAD","number of students":67.04003906,"state":"CA"},"type":"Feature","geometry":{"type":"Point","coordinates":[-115.28,33.0964]}},{"properties":{"lon":-115.083,"city":"PLAINS","zip":59859.0,"norm oblig":6072.666667,"obligation amount":18218.0,"organization":"Camas Prairie School District 11","id":"a6aui9vhlryn","lat":47.6031,"address":"781 MONTANA HIGHWAY 382","number of students":3.0,"state":"MT"},"type":"Feature","geometry":{"type":"Point","coordinates":[-115.083,47.6031]}},{"properties":{"lon":-114.881,"city":"FORTINE","zip":59918.0,"norm oblig":276.6792453,"obligation amount":14664.0,"organization":"FORTINE ELEMENTARY","id":"a6aui9j5157c","lat":48.7586,"address":"BOX 96","number of students":53.0,"state":"MT"},"type":"Feature","geometry":{"type":"Point","coordinates":[-114.881,48.7586]}},{"properties":{"lon":-114.816,"city":"ROGERSON","zip":83302.0,"norm oblig":4651.16015,"obligation amount":20000.0,"organization":"Three Creek School","id":"a6aui9shimrq","lat":42.1669,"address":"49909 THREE CREEK ROAD","number of students":4.300002441,"state":"ID"},"type":"Feature","geometry":{"type":"Point","coordinates":[-114.816,42.1669]}},{"properties":{"lon":-114.799,"city":"PARADISE","zip":59856.0,"norm oblig":461.9310345,"obligation amount":13396.0,"organization":"Paradise Elementary","id":"a6aui9htsj4d","lat":47.3878,"address":"PO BOX 126","number of students":29.0,"state":"MT"},"type":"Feature","geometry":{"type":"Point","coordinates":[-114.799,47.3878]}},{"properties":{"lon":-114.727,"city":"MARION","zip":59925.0,"norm oblig":4748.75,"obligation amount":18995.0,"organization":"Pleasant Valley Elementary","id":"a6aui9mupzs9","lat":48.0937,"address":"7975 PLEASANT VALLEY ROAD","number of students":4.0,"state":"MT"},"type":"Feature","geometry":{"type":"Point","coordinates":[-114.727,48.0937]}},{"properties":{"lon":-114.567,"city":"FORT MOHAVE","zip":86426.0,"norm oblig":259.8415628,"obligation amount":19861.0,"organization":"The Academy of Building Industries, Inc. -- LEA [ Local Education Agency] Public Charter School","id":"a6aui9mlvmsz","lat":35.0664,"address":"1547 E. LIPAN BOULEVARD","number of students":76.43503906,"state":"AZ"},"type":"Feature","geometry":{"type":"Point","coordinates":[-114.567,35.0664]}},{"properties":{"lon":-114.299,"city":"LOLO","zip":59847.0,"norm oblig":334.7741935,"obligation amount":10378.0,"organization":"Woodman Elementary School District No. 18 -- Missoula County","id":"a6aui9s97856","lat":46.7454,"address":"18470 HIGHWAY 12 WEST","number of students":31.0,"state":"MT"},"type":"Feature","geometry":{"type":"Point","coordinates":[-114.299,46.7454]}},{"properties":{"lon":-114.282,"city":"DAYTON","zip":59914.0,"norm oblig":356.1081081,"obligation amount":13176.0,"organization":"Upper West Shore School District 33","id":"a6aui9khd1wo","lat":47.8549,"address":"PO BOX 195","number of students":37.0,"state":"MT"},"type":"Feature","geometry":{"type":"Point","coordinates":[-114.282,47.8549]}},{"properties":{"lon":-114.23,"city":"POLSON","zip":59860.0,"norm oblig":777.6,"obligation amount":11664.0,"organization":"VALLEY VIEW ELEMENTARY SCHOOL DISTRICT","id":"a6aui9ngoejd","lat":47.7373,"address":"42448 VALLEY VIEW ROAD","number of students":15.0,"state":"MT"},"type":"Feature","geometry":{"type":"Point","coordinates":[-114.23,47.7373]}},{"properties":{"lon":-114.062,"city":"WEST GLACIER","zip":59936.0,"norm oblig":429.4137931,"obligation amount":12453.0,"organization":"West Glacier Elementary 8","id":"a6aui9hymxis","lat":48.433,"address":"PO BOX 309","number of students":29.0,"state":"MT"},"type":"Feature","geometry":{"type":"Point","coordinates":[-114.062,48.433]}},{"properties":{"lon":-114.004,"city":"BOUSE","zip":85325.0,"norm oblig":373.5388744,"obligation amount":17420.0,"organization":"Bouse Elementary School","id":"a6aui9mtrf1o","lat":33.9578,"address":"P O BOX S","number of students":46.63503906,"state":"AZ"},"type":"Feature","geometry":{"type":"Point","coordinates":[-114.004,33.9578]}},{"properties":{"lon":-113.921,"city":"SWAN LAKE","zip":59911.0,"norm oblig":5460.333333,"obligation amount":16381.0,"organization":"Swan Lake School District 73","id":"a6aui9o0xrdb","lat":48.1459,"address":"BOX 5086","number of students":3.0,"state":"MT"},"type":"Feature","geometry":{"type":"Point","coordinates":[-113.921,48.1459]}},{"properties":{"lon":-113.525,"city":"DATELAND","zip":85333.0,"norm oblig":517.1550113,"obligation amount":17198.0,"organization":"Sentinel Elementary District No. 71","id":"a6aui9rdzhaz","lat":32.8257,"address":"HC-1 BOX 57","number of students":33.25501953,"state":"AZ"},"type":"Feature","geometry":{"type":"Point","coordinates":[-113.525,32.8257]}},{"properties":{"lon":-113.444,"city":"GREENOUGH","zip":59836.0,"norm oblig":4569.0,"obligation amount":18276.0,"organization":"Sunset Elementary School District No. 30 -- Missoula County","id":"a6aui9k3eyc1","lat":47.0133,"address":"PO BOX 344","number of students":4.0,"state":"MT"},"type":"Feature","geometry":{"type":"Point","coordinates":[-113.444,47.0133]}},{"properties":{"lon":-113.239,"city":"HALL","zip":59837.0,"norm oblig":704.9047619,"obligation amount":14803.0,"organization":"Hall Elementary School District No. 8","id":"a6aui9fw8szc","lat":46.4667,"address":"BOX 22","number of students":21.0,"state":"MT"},"type":"Feature","geometry":{"type":"Point","coordinates":[-113.239,46.4667]}},{"properties":{"lon":-113.219,"city":"E GLACIER PARK","zip":59434.0,"norm oblig":292.4848485,"obligation amount":9652.0,"organization":"East Glacier Park Grade School","id":"a6aui9r96jbq","lat":48.4457,"address":"BOX 150","number of students":33.0,"state":"MT"},"type":"Feature","geometry":{"type":"Point","coordinates":[-113.219,48.4457]}},{"properties":{"lon":-113.165,"city":"BAGDAD","zip":86321.0,"norm oblig":756.4981139,"obligation amount":19964.0,"organization":"Hillside Elementary School","id":"a6aui9ll7q9t","lat":34.5836,"address":"HC 01 BOX 3056","number of students":26.39001953,"state":"AZ"},"type":"Feature","geometry":{"type":"Point","coordinates":[-113.165,34.5836]}},{"properties":{"lon":-113.097,"city":"OVANDO","zip":59854.0,"norm oblig":904.3125,"obligation amount":14469.0,"organization":"Ovando Elementary","id":"a6aui9h1j4d7","lat":47.0359,"address":"BOX 176","number of students":16.0,"state":"MT"},"type":"Feature","geometry":{"type":"Point","coordinates":[-113.097,47.0359]}},{"properties":{"lon":-112.997,"city":"DILLON","zip":59725.0,"norm oblig":1623.666667,"obligation amount":14613.0,"organization":"Grant Elementary School","id":"a6aui9h24kad","lat":45.2444,"address":"811 E ORR","number of students":9.0,"state":"MT"},"type":"Feature","geometry":{"type":"Point","coordinates":[-112.997,45.2444]}},{"properties":{"lon":-112.997,"city":"DILLON","zip":59725.0,"norm oblig":1527.833333,"obligation amount":18334.0,"organization":"Jackson Elementary School","id":"a6aui9qaruc5","lat":45.2444,"address":"19200 HWY 278","number of students":12.0,"state":"MT"},"type":"Feature","geometry":{"type":"Point","coordinates":[-112.997,45.2444]}},{"properties":{"lon":-112.997,"city":"DILLON","zip":59725.0,"norm oblig":1567.0,"obligation amount":18804.0,"organization":"Wisdom Elementary School","id":"a6aui9jltaw0","lat":45.2444,"address":"19200 HWY 278","number of students":12.0,"state":"MT"},"type":"Feature","geometry":{"type":"Point","coordinates":[-112.997,45.2444]}},{"properties":{"lon":-112.997,"city":"DILLON","zip":59725.0,"norm oblig":3600.2,"obligation amount":18001.0,"organization":"Polaris Elementary School","id":"a6aui9jmp78d","lat":45.2444,"address":"19200 HWY 278","number of students":5.0,"state":"MT"},"type":"Feature","geometry":{"type":"Point","coordinates":[-112.997,45.2444]}},{"properties":{"lon":-112.937,"city":"GOLD CREEK","zip":59733.0,"norm oblig":3082.833333,"obligation amount":18497.0,"organization":"Gold Creek Elementary","id":"a6aui9rvowlh","lat":46.5879,"address":"PO BOX 330011","number of students":6.0,"state":"MT"},"type":"Feature","geometry":{"type":"Point","coordinates":[-112.937,46.5879]}},{"properties":{"lon":-112.931,"city":"HELMVILLE","zip":59843.0,"norm oblig":734.75,"obligation amount":17634.0,"organization":"Helmville Elementary","id":"a6aui9foht4f","lat":46.8634,"address":"PO BOX 91","number of students":24.0,"state":"MT"},"type":"Feature","geometry":{"type":"Point","coordinates":[-112.931,46.8634]}},{"properties":{"lon":-112.931,"city":"CUT BANK","zip":59427.0,"norm oblig":723.4814815,"obligation amount":19534.0,"organization":"Mountain View Elementary School","id":"a6aui9gkneek","lat":48.6543,"address":"PO BOX 1169","number of students":27.0,"state":"MT"},"type":"Feature","geometry":{"type":"Point","coordinates":[-112.931,48.6543]}},{"properties":{"lon":-112.776,"city":"GARRISON","zip":59731.0,"norm oblig":1537.833333,"obligation amount":18454.0,"organization":"Garrison Elementary","id":"a6aui9gl4x2a","lat":46.5948,"address":"33 SCHOOL HOUSE RD","number of students":12.0,"state":"MT"},"type":"Feature","geometry":{"type":"Point","coordinates":[-112.776,46.5948]}},{"properties":{"lon":-112.757,"city":"YARNELL","zip":85362.0,"norm oblig":336.4296348,"obligation amount":17311.0,"organization":"Yarnell Elementary School District 52","id":"a6aui9v7t866","lat":34.2508,"address":"P O BOX 575","number of students":51.45503906,"state":"AZ"},"type":"Feature","geometry":{"type":"Point","coordinates":[-112.757,34.2508]}},{"properties":{"lon":-112.701,"city":"GLEN","zip":59732.0,"norm oblig":1443.769231,"obligation amount":18769.0,"organization":"Reichle Elementary School","id":"a6aui9oo6kgg","lat":45.1498,"address":"PO BOX 320097","number of students":13.0,"state":"MT"},"type":"Feature","geometry":{"type":"Point","coordinates":[-112.701,45.1498]}},{"properties":{"lon":-112.65,"city":"AVON","zip":59713.0,"norm oblig":466.3636364,"obligation amount":15390.0,"organization":"Avon Elementary","id":"a6aui9joud3c","lat":46.5657,"address":"PO BOX 246","number of students":33.0,"state":"MT"},"type":"Feature","geometry":{"type":"Point","coordinates":[-112.65,46.5657]}},{"properties":{"lon":-112.638,"city":"MELROSE","zip":59743.0,"norm oblig":1329.785714,"obligation amount":18617.0,"organization":"Melrose Elementary","id":"a6aui9t6y5um","lat":45.9053,"address":"PO BOX 128","number of students":14.0,"state":"MT"},"type":"Feature","geometry":{"type":"Point","coordinates":[-112.638,45.9053]}},{"properties":{"lon":-112.638,"city":"DIVIDE","zip":59727.0,"norm oblig":1848.4,"obligation amount":18484.0,"organization":"Divide Elementary School","id":"a6aui9jt8b67","lat":45.9053,"address":"PO BOX 9","number of students":10.0,"state":"MT"},"type":"Feature","geometry":{"type":"Point","coordinates":[-112.638,45.9053]}},{"properties":{"lon":-112.594,"city":"DUPUYER","zip":59432.0,"norm oblig":622.6875,"obligation amount":9963.0,"organization":"Dupuyer School District 2","id":"a6aui9o3af4t","lat":48.1815,"address":"PO BOX 149","number of students":16.0,"state":"MT"},"type":"Feature","geometry":{"type":"Point","coordinates":[-112.594,48.1815]}},{"properties":{"lon":-112.543,"city":"ARBON","zip":83212.0,"norm oblig":2247.189778,"obligation amount":20000.0,"organization":"Arbon Elementary School 383","id":"a6aui9gwj5ua","lat":42.5128,"address":"4405 ARBON VALLEY HWY","number of students":8.900004883,"state":"ID"},"type":"Feature","geometry":{"type":"Point","coordinates":[-112.543,42.5128]}},{"properties":{"lon":-112.513,"city":"AUGUSTA","zip":59410.0,"norm oblig":468.3142857,"obligation amount":16391.0,"organization":"Augusta Public Schools - High School","id":"a6aui9tc54at","lat":47.444,"address":"PO BOX 307","number of students":35.0,"state":"MT"},"type":"Feature","geometry":{"type":"Point","coordinates":[-112.513,47.444]}},{"properties":{"lon":-112.457,"city":"BYNUM","zip":59419.0,"norm oblig":497.5151515,"obligation amount":16418.0,"organization":"Bynum Elementary School","id":"a6aui9u91j74","lat":48.0523,"address":"PO BOX 766","number of students":33.0,"state":"MT"},"type":"Feature","geometry":{"type":"Point","coordinates":[-112.457,48.0523]}},{"properties":{"lon":-112.401,"city":"ELLISTON","zip":59728.0,"norm oblig":458.3823529,"obligation amount":15585.0,"organization":"Elliston Elementary","id":"a6aui9qrkpnr","lat":46.5034,"address":"PO BOX 160","number of students":34.0,"state":"MT"},"type":"Feature","geometry":{"type":"Point","coordinates":[-112.401,46.5034]}},{"properties":{"lon":-112.398,"city":"SKULL VALLEY","zip":86338.0,"norm oblig":884.104386,"obligation amount":18995.0,"organization":"Skull Valley Elementary School District 15","id":"a6aui9luiwga","lat":34.7067,"address":"P O BOX 127","number of students":21.48501953,"state":"AZ"},"type":"Feature","geometry":{"type":"Point","coordinates":[-112.398,34.7067]}},{"properties":{"lon":-112.398,"city":"CROWN KING","zip":86343.0,"norm oblig":4143.362567,"obligation amount":19826.0,"organization":"Crown King School","id":"a6aui9p2zvdz","lat":34.7067,"address":"PO BOX 188","number of students":4.785002441,"state":"AZ"},"type":"Feature","geometry":{"type":"Point","coordinates":[-112.398,34.7067]}},{"properties":{"lon":-112.398,"city":"SEDONA","zip":86340.0,"norm oblig":423.1009831,"obligation amount":20000.0,"organization":"Desert Star Community School","id":"a6aui9glu9st","lat":34.7067,"address":"P.O. BOX 4611","number of students":47.27003906,"state":"AZ"},"type":"Feature","geometry":{"type":"Point","coordinates":[-112.398,34.7067]}},{"properties":{"lon":-112.317,"city":"PENDROY","zip":59467.0,"norm oblig":498.7741935,"obligation amount":15462.0,"organization":"Pendroy Elementary","id":"a6aui9rz0yeo","lat":48.0429,"address":"PO BOX 65","number of students":31.0,"state":"MT"},"type":"Feature","geometry":{"type":"Point","coordinates":[-112.317,48.0429]}},{"properties":{"lon":-112.264,"city":"ASH FORK","zip":86320.0,"norm oblig":376.2561493,"obligation amount":18604.0,"organization":"The Academy of Hope","id":"a6aui9v991wg","lat":34.9702,"address":"P.O. BOX 435","number of students":49.44503906,"state":"AZ"},"type":"Feature","geometry":{"type":"Point","coordinates":[-112.264,34.9702]}},{"properties":{"lon":-112.207,"city":"FAIRFIELD","zip":59436.0,"norm oblig":346.8095238,"obligation amount":14566.0,"organization":"Golden Ridge Elementary","id":"a6aui9rw8uxu","lat":47.6139,"address":"1374 HIWAY 408","number of students":42.0,"state":"MT"},"type":"Feature","geometry":{"type":"Point","coordinates":[-112.207,47.6139]}},{"properties":{"lon":-112.197,"city":"BASIN","zip":59631.0,"norm oblig":940.75,"obligation amount":15052.0,"organization":"Basin Elementary School District 5","id":"a6aui9pd0j9l","lat":46.3296,"address":"PO BOX 128","number of students":16.0,"state":"MT"},"type":"Feature","geometry":{"type":"Point","coordinates":[-112.197,46.3296]}},{"properties":{"lon":-112.187,"city":"CAVE CREEK","zip":85327.0,"norm oblig":335.4235979,"obligation amount":20538.0,"organization":"Ventana Academic Charter School","id":"a6aui9k0sxk6","lat":33.2765,"address":"P.O. BOX 1589","number of students":61.23003906,"state":"AZ"},"type":"Feature","geometry":{"type":"Point","coordinates":[-112.187,33.2765]}},{"properties":{"lon":-112.148,"city":"WOLF CREEK","zip":59648.0,"norm oblig":750.2916667,"obligation amount":18007.0,"organization":"Auchard Creek Elementary","id":"a6aui9fnnbou","lat":47.0856,"address":"9605 HWY 287","number of students":24.0,"state":"MT"},"type":"Feature","geometry":{"type":"Point","coordinates":[-112.148,47.0856]}},{"properties":{"lon":-112.148,"city":"WOLF CREEK","zip":59648.0,"norm oblig":773.6428571,"obligation amount":10831.0,"organization":"Wolf Creek Elementary","id":"a6aui9jk9qgx","lat":47.0856,"address":"C/O B J YOUNG BOX 200","number of students":14.0,"state":"MT"},"type":"Feature","geometry":{"type":"Point","coordinates":[-112.148,47.0856]}},{"properties":{"lon":-112.057,"city":"ALDER","zip":59710.0,"norm oblig":829.3684211,"obligation amount":15758.0,"organization":"Alder School District No.2","id":"a6aui9mbljtb","lat":45.1939,"address":"PO BOX 110","number of students":19.0,"state":"MT"},"type":"Feature","geometry":{"type":"Point","coordinates":[-112.057,45.1939]}},{"properties":{"lon":-112.053,"city":"MARICOPA","zip":85239.0,"norm oblig":980.0273601,"obligation amount":17567.0,"organization":"Mobile Elementary School District No. 86","id":"a6aui9fy9yag","lat":32.9576,"address":"42798 S 99TH AVE","number of students":17.92500977,"state":"AZ"},"type":"Feature","geometry":{"type":"Point","coordinates":[-112.053,32.9576]}},{"properties":{"lon":-112.044,"city":"COTTONWOOD","zip":86326.0,"norm oblig":520.6735423,"obligation amount":19550.0,"organization":"Pathways Charter Schools, Inc.","id":"a6aui9kxattp","lat":34.6436,"address":"P.O. BOX 235","number of students":37.54751953,"state":"AZ"},"type":"Feature","geometry":{"type":"Point","coordinates":[-112.044,34.6436]}},{"properties":{"lon":-111.943,"city":"BOULDER","zip":59632.0,"norm oblig":264.2345679,"obligation amount":21403.0,"organization":"Montana Department of Corrections - Youth","id":"a6aui9q8m9n6","lat":46.1419,"address":"2 RIVERSIDE ROAD","number of students":81.0,"state":"MT"},"type":"Feature","geometry":{"type":"Point","coordinates":[-111.943,46.1419]}},{"properties":{"lon":-111.891,"city":"SASABE","zip":85633.0,"norm oblig":1096.648588,"obligation amount":17837.0,"organization":"San Fernando School District 35","id":"a6aui9nc0oii","lat":31.9701,"address":"P O BOX 80","number of students":16.26500977,"state":"AZ"},"type":"Feature","geometry":{"type":"Point","coordinates":[-111.891,31.9701]}},{"properties":{"lon":-111.846,"city":"CONRAD","zip":59425.0,"norm oblig":1870.2,"obligation amount":18702.0,"organization":"Miami School District 31","id":"a6aui9kfunl7","lat":48.1828,"address":"417 4TH AVE SW","number of students":10.0,"state":"MT"},"type":"Feature","geometry":{"type":"Point","coordinates":[-111.846,48.1828]}},{"properties":{"lon":-111.81,"city":"CAMP VERDE","zip":86322.0,"norm oblig":619.7685164,"obligation amount":19845.0,"organization":"Sunnyside Charter and Montessori School","id":"a6aui9rcqn66","lat":34.5697,"address":"P .O. BOX 2166","number of students":32.02001953,"state":"AZ"},"type":"Feature","geometry":{"type":"Point","coordinates":[-111.81,34.5697]}},{"properties":{"lon":-111.715,"city":"BRADY","zip":59416.0,"norm oblig":1220.8,"obligation amount":18312.0,"organization":"Knees Elementary","id":"a6aui9gftjoy","lat":48.0657,"address":"21377 BRADY ROAD E","number of students":15.0,"state":"MT"},"type":"Feature","geometry":{"type":"Point","coordinates":[-111.715,48.0657]}},{"properties":{"lon":-111.714,"city":"SACATON","zip":85247.0,"norm oblig":257.7258693,"obligation amount":13952.0,"organization":"Vechij Himdag Alternative School, Inc.","id":"a6aui9vbvqp9","lat":33.1416,"address":"P.O. BOX 220","number of students":54.13503906,"state":"AZ"},"type":"Feature","geometry":{"type":"Point","coordinates":[-111.714,33.1416]}},{"properties":{"lon":-111.694,"city":"POWER","zip":59468.0,"norm oblig":308.6603774,"obligation amount":16359.0,"organization":"Power High School","id":"a6aui9ivsevh","lat":47.727,"address":"PO BOX 155","number of students":53.0,"state":"MT"},"type":"Feature","geometry":{"type":"Point","coordinates":[-111.694,47.727]}},{"properties":{"lon":-111.635,"city":"WILLOW CREEK","zip":59760.0,"norm oblig":1123.470588,"obligation amount":19099.0,"organization":"Willow Creek High School","id":"a6aui9g6k1ya","lat":45.7827,"address":"PO BOX 189","number of students":17.0,"state":"MT"},"type":"Feature","geometry":{"type":"Point","coordinates":[-111.635,45.7827]}},{"properties":{"lon":-111.635,"city":"WILLOW CREEK","zip":59760.0,"norm oblig":435.7272727,"obligation amount":14379.0,"organization":"Willow Creek Elementary","id":"a6aui9so5uep","lat":45.7827,"address":"PO BOX 189","number of students":33.0,"state":"MT"},"type":"Feature","geometry":{"type":"Point","coordinates":[-111.635,45.7827]}},{"properties":{"lon":-111.47,"city":"GALATA","zip":59444.0,"norm oblig":971.35,"obligation amount":19427.0,"organization":"Liberty Elementary 10","id":"a6aui9vbohu3","lat":48.8111,"address":"RURAL ROUTE NORTH","number of students":20.0,"state":"MT"},"type":"Feature","geometry":{"type":"Point","coordinates":[-111.47,48.8111]}},{"properties":{"lon":-111.47,"city":"GALATA","zip":59444.0,"norm oblig":1244.571429,"obligation amount":17424.0,"organization":"Galata Elementary 21","id":"a6aui9j7q9l3","lat":48.8111,"address":"BOX 76","number of students":14.0,"state":"MT"},"type":"Feature","geometry":{"type":"Point","coordinates":[-111.47,48.8111]}},{"properties":{"lon":-111.324,"city":"FLAGSTAFF","zip":86004.0,"norm oblig":264.8789874,"obligation amount":17041.0,"organization":"Painted Desert Demonstration Projects, Inc. -- The STAR School","id":"a6aui9nqxgd3","lat":35.6109,"address":"145 LEUPP RD.","number of students":64.33503906,"state":"AZ"},"type":"Feature","geometry":{"type":"Point","coordinates":[-111.324,35.6109]}},{"properties":{"lon":-111.291,"city":"GREAT FALLS","zip":59405.0,"norm oblig":3736.4,"obligation amount":18682.0,"organization":"Deep Creek School","id":"a6aui9fo57s9","lat":47.2776,"address":"1508 MILLEGAN ROAD","number of students":5.0,"state":"MT"},"type":"Feature","geometry":{"type":"Point","coordinates":[-111.291,47.2776]}},{"properties":{"lon":-111.253,"city":"IRWIN","zip":83428.0,"norm oblig":279.6806723,"obligation amount":16641.0,"organization":"Swan Valley School District 92","id":"a6aui9pi8oly","lat":43.3861,"address":"PO BOX 220","number of students":59.5,"state":"ID"},"type":"Feature","geometry":{"type":"Point","coordinates":[-111.253,43.3861]}},{"properties":{"lon":-111.24,"city":"BOZEMAN","zip":59718.0,"norm oblig":1439.769231,"obligation amount":18717.0,"organization":"Cottonwood Elementary","id":"a6aui9txju5b","lat":45.6681,"address":"13233 COTTONWOOD ROAD","number of students":13.0,"state":"MT"},"type":"Feature","geometry":{"type":"Point","coordinates":[-111.24,45.6681]}},{"properties":{"lon":-111.168,"city":"BOZEMAN","zip":59715.0,"norm oblig":1399.142857,"obligation amount":19588.0,"organization":"Malmborg Elementary","id":"a6aui9hzfipq","lat":45.81,"address":"375 JACKSON CREEK ROAD","number of students":14.0,"state":"MT"},"type":"Feature","geometry":{"type":"Point","coordinates":[-111.168,45.81]}},{"properties":{"lon":-111.1,"city":"BELGRADE","zip":59714.0,"norm oblig":2303.625,"obligation amount":18429.0,"organization":"Springhill Elementary","id":"a6aui9us8ih6","lat":45.4268,"address":"6020 SPRINGHILL COMM ROAD","number of students":8.0,"state":"MT"},"type":"Feature","geometry":{"type":"Point","coordinates":[-111.1,45.4268]}},{"properties":{"lon":-111.1,"city":"BELGRADE","zip":59714.0,"norm oblig":2375.0,"obligation amount":19000.0,"organization":"Pass Creek School District 25","id":"a6aui9r2jstl","lat":45.4268,"address":"3747 PASS CREEK ROAD","number of students":8.0,"state":"MT"},"type":"Feature","geometry":{"type":"Point","coordinates":[-111.1,45.4268]}},{"properties":{"lon":-111.066,"city":"TUBAC","zip":85646.0,"norm oblig":409.4244111,"obligation amount":19288.0,"organization":"Santa Cruz Valley Opportunities in Education -- Montessori de Santa Cruz Charter School","id":"a6aui9oi53my","lat":31.5938,"address":"PO BOX 4706","number of students":47.11003906,"state":"AZ"},"type":"Feature","geometry":{"type":"Point","coordinates":[-111.066,31.5938]}},{"properties":{"lon":-110.967,"city":"WHITLASH","zip":59545.0,"norm oblig":6417.333333,"obligation amount":19252.0,"organization":"Whitlash Elementary 27","id":"a6aui9gf7wgo","lat":48.5097,"address":"1 MAIN ST","number of students":3.0,"state":"MT"},"type":"Feature","geometry":{"type":"Point","coordinates":[-110.967,48.5097]}},{"properties":{"lon":-110.882,"city":"NOGALES","zip":85621.0,"norm oblig":707.4632537,"obligation amount":20000.0,"organization":"Santa Cruz County Regional School District","id":"a6aui9nn2bku","lat":31.4633,"address":"3241 N. GRAND AVE.","number of students":28.27001953,"state":"AZ"},"type":"Feature","geometry":{"type":"Point","coordinates":[-110.882,31.4633]}},{"properties":{"lon":-110.861,"city":"TONTO BASIN","zip":85553.0,"norm oblig":251.7177844,"obligation amount":17125.0,"organization":"Tonto Basin Elementary School District","id":"a6aui9jenbqs","lat":33.7415,"address":"P O BOX 337","number of students":68.03253906,"state":"AZ"},"type":"Feature","geometry":{"type":"Point","coordinates":[-110.861,33.7415]}},{"properties":{"lon":-110.85,"city":"ORACLE","zip":85623.0,"norm oblig":322.7929917,"obligation amount":20478.0,"organization":"Sierra Oaks School, Inc.","id":"a6aui9nx7izk","lat":32.6421,"address":"650 WEST LINDA VISTA ROAD","number of students":63.44003906,"state":"AZ"},"type":"Feature","geometry":{"type":"Point","coordinates":[-110.85,32.6421]}},{"properties":{"lon":-110.845,"city":"MARTINSDALE","zip":59053.0,"norm oblig":9343.5,"obligation amount":18687.0,"organization":"Lennep Elementary","id":"a6aui9hhzeeh","lat":46.619,"address":"25 LENNEP ROAD","number of students":2.0,"state":"MT"},"type":"Feature","geometry":{"type":"Point","coordinates":[-110.845,46.619]}},{"properties":{"lon":-110.676,"city":"PATAGONIA","zip":85624.0,"norm oblig":301.552808,"obligation amount":14951.0,"organization":"Patagonia Union High School District 20","id":"a6aui9pggerf","lat":31.5238,"address":"P O BOX 254","number of students":49.58003906,"state":"AZ"},"type":"Feature","geometry":{"type":"Point","coordinates":[-110.676,31.5238]}},{"properties":{"lon":-110.676,"city":"PATAGONIA","zip":85624.0,"norm oblig":1070.090399,"obligation amount":20000.0,"organization":"Patagonia Community Montessori School","id":"a6aui9fp7o1d","lat":31.5238,"address":"P.O. BOX 1008","number of students":18.69000977,"state":"AZ"},"type":"Feature","geometry":{"type":"Point","coordinates":[-110.676,31.5238]}},{"properties":{"lon":-110.495,"city":"GEYSER","zip":59447.0,"norm oblig":338.2790698,"obligation amount":14546.0,"organization":"Geyser Elementary","id":"a6aui9njah0e","lat":47.2589,"address":"PO BOX 70","number of students":43.0,"state":"MT"},"type":"Feature","geometry":{"type":"Point","coordinates":[-110.495,47.2589]}},{"properties":{"lon":-110.495,"city":"GEYSER","zip":59447.0,"norm oblig":550.5625,"obligation amount":17618.0,"organization":"Geyser High School","id":"a6aui9rnx8j0","lat":47.2589,"address":"PO BOX 70","number of students":32.0,"state":"MT"},"type":"Feature","geometry":{"type":"Point","coordinates":[-110.495,47.2589]}},{"properties":{"lon":-110.477,"city":"SPRINGDALE","zip":59082.0,"norm oblig":2696.714286,"obligation amount":18877.0,"organization":"Springdale School District 63","id":"a6aui9jwgplt","lat":45.3333,"address":"BOX 102","number of students":7.0,"state":"MT"},"type":"Feature","geometry":{"type":"Point","coordinates":[-110.477,45.3333]}},{"properties":{"lon":-110.471,"city":"HIGHWOOD","zip":59450.0,"norm oblig":427.4878049,"obligation amount":17527.0,"organization":"Highwood High School","id":"a6aui9hpd1zo","lat":47.861,"address":"160 WEST STREET SOUTH","number of students":41.0,"state":"MT"},"type":"Feature","geometry":{"type":"Point","coordinates":[-110.471,47.861]}},{"properties":{"lon":-110.471,"city":"HIGHWOOD","zip":59450.0,"norm oblig":252.0566038,"obligation amount":13359.0,"organization":"Highwood Elementary School","id":"a6aui9qqz92v","lat":47.861,"address":"160 WEST STREET SOUTH","number of students":53.0,"state":"MT"},"type":"Feature","geometry":{"type":"Point","coordinates":[-110.471,47.861]}},{"properties":{"lon":-110.471,"city":"FLOWEREE","zip":59440.0,"norm oblig":2400.75,"obligation amount":19206.0,"organization":"BENTON LAKE","id":"a6aui9t32oe4","lat":47.861,"address":"17557 BOOTLEGGER TRAIL","number of students":8.0,"state":"MT"},"type":"Feature","geometry":{"type":"Point","coordinates":[-110.471,47.861]}},{"properties":{"lon":-110.369,"city":"LIVINGSTON","zip":59047.0,"norm oblig":697.28,"obligation amount":17432.0,"organization":"Pine Creek Elementary School District 19","id":"a6aui9oze6wb","lat":45.5307,"address":"2575 EAST RIVER RD","number of students":25.0,"state":"MT"},"type":"Feature","geometry":{"type":"Point","coordinates":[-110.369,45.5307]}},{"properties":{"lon":-110.351,"city":"WINSLOW","zip":86047.0,"norm oblig":852.45078,"obligation amount":18690.0,"organization":"Little Singer Community Jr. High School","id":"a6aui9g7xx0o","lat":34.6338,"address":"P.O. BOX AQ","number of students":21.92501953,"state":"AZ"},"type":"Feature","geometry":{"type":"Point","coordinates":[-110.351,34.6338]}},{"properties":{"lon":-110.311,"city":"BIG SANDY","zip":59520.0,"norm oblig":2753.571429,"obligation amount":19275.0,"organization":"WARRICK ELEMENTARY","id":"a6aui9nkzwvv","lat":48.1764,"address":"29200 WARRICK RD","number of students":7.0,"state":"MT"},"type":"Feature","geometry":{"type":"Point","coordinates":[-110.311,48.1764]}},{"properties":{"lon":-110.301,"city":"GILDFORD","zip":59525.0,"norm oblig":2166.555556,"obligation amount":19499.0,"organization":"Gildford Colony Elementary School District 89","id":"a6aui9i21wes","lat":48.5715,"address":"HCR 74 BOX 6","number of students":9.0,"state":"MT"},"type":"Feature","geometry":{"type":"Point","coordinates":[-110.301,48.5715]}},{"properties":{"lon":-110.269,"city":"GERALDINE","zip":59446.0,"norm oblig":425.825,"obligation amount":17033.0,"organization":"Geraldine High School","id":"a6aui9gzcfnv","lat":47.6001,"address":"PO BOX 347","number of students":40.0,"state":"MT"},"type":"Feature","geometry":{"type":"Point","coordinates":[-110.269,47.6001]}},{"properties":{"lon":-110.159,"city":"HEREFORD","zip":85615.0,"norm oblig":357.540354,"obligation amount":20033.0,"organization":"Sierra Summit Academy","id":"a6aui9tj8rbp","lat":31.4119,"address":"P.O. BOX 1360","number of students":56.03003906,"state":"AZ"},"type":"Feature","geometry":{"type":"Point","coordinates":[-110.159,31.4119]}},{"properties":{"lon":-110.094,"city":"HAVRE","zip":59501.0,"norm oblig":1257.933333,"obligation amount":18869.0,"organization":"Davey Elementary District 12","id":"a6aui9m058gj","lat":48.663,"address":"PO BOX 1829","number of students":15.0,"state":"MT"},"type":"Feature","geometry":{"type":"Point","coordinates":[-110.094,48.663]}},{"properties":{"lon":-110.094,"city":"HAVRE","zip":59501.0,"norm oblig":1061.5,"obligation amount":14861.0,"organization":"Cottonwood Elementary District 57","id":"a6aui9qrguam","lat":48.663,"address":"24570 ROAD 415 N","number of students":14.0,"state":"MT"},"type":"Feature","geometry":{"type":"Point","coordinates":[-110.094,48.663]}},{"properties":{"lon":-110.09,"city":"HOLBROOK","zip":86025.0,"norm oblig":1057.19631,"obligation amount":19574.0,"organization":"Rainbow Accommodation School","id":"a6aui9m2qx93","lat":34.7768,"address":"PO BOX 668","number of students":18.51500977,"state":"AZ"},"type":"Feature","geometry":{"type":"Point","coordinates":[-110.09,34.7768]}},{"properties":{"lon":-109.95,"city":"BIG TIMBER","zip":59011.0,"norm oblig":3122.0,"obligation amount":18732.0,"organization":"McLeod Elementary","id":"a6aui9qrus65","lat":45.8342,"address":"346 OTTER CR RD","number of students":6.0,"state":"MT"},"type":"Feature","geometry":{"type":"Point","coordinates":[-109.95,45.8342]}},{"properties":{"lon":-109.907,"city":"COOKE CITY","zip":59020.0,"norm oblig":6390.666667,"obligation amount":19172.0,"organization":"Cooke City School District 9","id":"a6aui9j6s12a","lat":45.0234,"address":"PO BOX 1070","number of students":3.0,"state":"MT"},"type":"Feature","geometry":{"type":"Point","coordinates":[-109.907,45.0234]}},{"properties":{"lon":-109.896,"city":"PEARCE","zip":85625.0,"norm oblig":466.5975537,"obligation amount":13564.0,"organization":"Ash Creek Elementary School District","id":"a6aui9nj83bu","lat":31.7662,"address":"6460 EAST HIGHWAY 181","number of students":29.07001953,"state":"AZ"},"type":"Feature","geometry":{"type":"Point","coordinates":[-109.896,31.7662]}},{"properties":{"lon":-109.855,"city":"GREYCLIFF","zip":59033.0,"norm oblig":1710.0,"obligation amount":17100.0,"organization":"Greycliff Elementary","id":"a6aui9fd3ne3","lat":45.6963,"address":"PO BOX 65","number of students":10.0,"state":"MT"},"type":"Feature","geometry":{"type":"Point","coordinates":[-109.855,45.6963]}},{"properties":{"lon":-109.855,"city":"MELVILLE","zip":59055.0,"norm oblig":1897.666667,"obligation amount":17079.0,"organization":"Melville Elementary","id":"a6aui9qjs6mu","lat":45.6963,"address":"PO BOX 275","number of students":9.0,"state":"MT"},"type":"Feature","geometry":{"type":"Point","coordinates":[-109.855,45.6963]}},{"properties":{"lon":-109.844,"city":"MCNEAL","zip":85617.0,"norm oblig":276.7393365,"obligation amount":14598.0,"organization":"Double Adobe School District","id":"a6aui9kkop57","lat":31.5121,"address":"7081 N CENTRAL HWY","number of students":52.75,"state":"AZ"},"type":"Feature","geometry":{"type":"Point","coordinates":[-109.844,31.5121]}},{"properties":{"lon":-109.844,"city":"MCNEAL","zip":85617.0,"norm oblig":369.1329487,"obligation amount":15439.0,"organization":"McNeal Elementary 55","id":"a6aui9qmdmxp","lat":31.5121,"address":"P O BOX 8","number of students":41.82503906,"state":"AZ"},"type":"Feature","geometry":{"type":"Point","coordinates":[-109.844,31.5121]}},{"properties":{"lon":-109.836,"city":"COCHISE","zip":85606.0,"norm oblig":329.4433123,"obligation amount":18294.0,"organization":"Cochise Elementary School District  26","id":"a6aui9safhij","lat":32.0439,"address":"P O BOX 1088","number of students":55.53003906,"state":"AZ"},"type":"Feature","geometry":{"type":"Point","coordinates":[-109.836,32.0439]}},{"properties":{"lon":-109.835,"city":"JUDITH GAP","zip":59453.0,"norm oblig":1263.307692,"obligation amount":16423.0,"organization":"Judith Gap High School","id":"a6aui9vn83sh","lat":46.4857,"address":"PO BOX 67","number of students":13.0,"state":"MT"},"type":"Feature","geometry":{"type":"Point","coordinates":[-109.835,46.4857]}},{"properties":{"lon":-109.835,"city":"SHAWMUT","zip":59078.0,"norm oblig":3093.166667,"obligation amount":18559.0,"organization":"Shawmut School","id":"a6aui9o8jmmk","lat":46.4857,"address":"PO BOX 65","number of students":6.0,"state":"MT"},"type":"Feature","geometry":{"type":"Point","coordinates":[-109.835,46.4857]}},{"properties":{"lon":-109.772,"city":"FISHTAIL","zip":59028.0,"norm oblig":2335.375,"obligation amount":18683.0,"organization":"Fishtail Elementary","id":"a6aui9r2u1p4","lat":45.4102,"address":"PO BOX 75","number of students":8.0,"state":"MT"},"type":"Feature","geometry":{"type":"Point","coordinates":[-109.772,45.4102]}},{"properties":{"lon":-109.754,"city":"PORTAL","zip":85632.0,"norm oblig":3057.461488,"obligation amount":19048.0,"organization":"Apache Elementary School District 42","id":"a6aui9t343wv","lat":31.8801,"address":"P O BOX 16435","number of students":6.230004883,"state":"AZ"},"type":"Feature","geometry":{"type":"Point","coordinates":[-109.754,31.8801]}},{"properties":{"lon":-109.702,"city":"SAFFORD","zip":85546.0,"norm oblig":247.1650546,"obligation amount":24043.0,"organization":"Gila Educational Group, Inc.","id":"a6aui9pcg1kg","lat":32.8136,"address":"1976 THATCHER BLVD","number of students":97.27507813,"state":"AZ"},"type":"Feature","geometry":{"type":"Point","coordinates":[-109.702,32.8136]}},{"properties":{"lon":-109.693,"city":"MOORE","zip":59464.0,"norm oblig":444.6097561,"obligation amount":18229.0,"organization":"Moore High School","id":"a6aui9t7k1cw","lat":46.9745,"address":"509 HIGHLAND","number of students":41.0,"state":"MT"},"type":"Feature","geometry":{"type":"Point","coordinates":[-109.693,46.9745]}},{"properties":{"lon":-109.693,"city":"MOORE","zip":59464.0,"norm oblig":246.4603175,"obligation amount":15527.0,"organization":"Moore Elementary","id":"a6aui9ug9grh","lat":46.9745,"address":"509 HIGHLAND","number of students":63.0,"state":"MT"},"type":"Feature","geometry":{"type":"Point","coordinates":[-109.693,46.9745]}},{"properties":{"lon":-109.54,"city":"MOAB","zip":84532.0,"norm oblig":445.6666667,"obligation amount":17381.0,"organization":"Moab Community School","id":"a6aui9pyii4c","lat":38.5804,"address":"358 E 300 S","number of students":39.0,"state":"UT"},"type":"Feature","geometry":{"type":"Point","coordinates":[-109.54,38.5804]}},{"properties":{"lon":-109.522,"city":"REED POINT","zip":59069.0,"norm oblig":834.8095238,"obligation amount":17531.0,"organization":"Reed Point High School","id":"a6aui9lryq71","lat":45.7439,"address":"PO BOX 338","number of students":21.0,"state":"MT"},"type":"Feature","geometry":{"type":"Point","coordinates":[-109.522,45.7439]}},{"properties":{"lon":-109.455,"city":"ABSAROKEE","zip":59001.0,"norm oblig":2380.875,"obligation amount":19047.0,"organization":"Nye Elementary","id":"a6aui9h47k6k","lat":45.5156,"address":"BOX 699","number of students":8.0,"state":"MT"},"type":"Feature","geometry":{"type":"Point","coordinates":[-109.455,45.5156]}},{"properties":{"lon":-109.382,"city":"LEWISTOWN","zip":59457.0,"norm oblig":2248.375,"obligation amount":17987.0,"organization":"King Colony Elementary School","id":"a6aui9nfntbr","lat":47.25,"address":"2370 KING COLONY RD","number of students":8.0,"state":"MT"},"type":"Feature","geometry":{"type":"Point","coordinates":[-109.382,47.25]}},{"properties":{"lon":-109.382,"city":"LEWISTOWN","zip":59457.0,"norm oblig":3286.333333,"obligation amount":19718.0,"organization":"Deerfield Colony Elementary School","id":"a6aui9kp1nyj","lat":47.25,"address":"ROUTE 3 BOX 3139","number of students":6.0,"state":"MT"},"type":"Feature","geometry":{"type":"Point","coordinates":[-109.382,47.25]}},{"properties":{"lon":-109.382,"city":"LEWISTOWN","zip":59457.0,"norm oblig":2449.625,"obligation amount":19597.0,"organization":"Spring Creek Colony Elementary School -- Fergus County Superintendent of Schools","id":"a6aui9mmsxya","lat":47.25,"address":"PO BOX 1185","number of students":8.0,"state":"MT"},"type":"Feature","geometry":{"type":"Point","coordinates":[-109.382,47.25]}},{"properties":{"lon":-109.324,"city":"RED LODGE","zip":59068.0,"norm oblig":414.7,"obligation amount":16588.0,"organization":"Luther Elementary","id":"a6aui9jigyn0","lat":45.2413,"address":"1401 RED LODGE CREEK RD","number of students":40.0,"state":"MT"},"type":"Feature","geometry":{"type":"Point","coordinates":[-109.324,45.2413]}},{"properties":{"lon":-109.271,"city":"BLUE","zip":85922.0,"norm oblig":7810.976653,"obligation amount":19918.0,"organization":"Blue Elementary School District","id":"a6aui9oil94p","lat":33.1025,"address":"BOX 80","number of students":2.550001221,"state":"AZ"},"type":"Feature","geometry":{"type":"Point","coordinates":[-109.271,33.1025]}},{"properties":{"lon":-109.262,"city":"CHINOOK","zip":59523.0,"norm oblig":2313.5,"obligation amount":18508.0,"organization":"Bear Paw Elementary","id":"a6aui9pnxyua","lat":48.4877,"address":"29815 CLEAR CREEK ROAD","number of students":8.0,"state":"MT"},"type":"Feature","geometry":{"type":"Point","coordinates":[-109.262,48.4877]}},{"properties":{"lon":-109.262,"city":"CHINOOK","zip":59523.0,"norm oblig":2260.875,"obligation amount":18087.0,"organization":"Cleveland-Lone Tree Bench -- Elementary","id":"a6aui9r0vwkp","lat":48.4877,"address":"PO BOX 1684","number of students":8.0,"state":"MT"},"type":"Feature","geometry":{"type":"Point","coordinates":[-109.262,48.4877]}},{"properties":{"lon":-109.262,"city":"CHINOOK","zip":59523.0,"norm oblig":403.85,"obligation amount":16154.0,"organization":"Zurich Elementary School","id":"a6aui9v3smyb","lat":48.4877,"address":"7405 PARADISE VALLEY RD","number of students":40.0,"state":"MT"},"type":"Feature","geometry":{"type":"Point","coordinates":[-109.262,48.4877]}},{"properties":{"lon":-109.241,"city":"ALPINE","zip":85920.0,"norm oblig":343.3451839,"obligation amount":17478.0,"organization":"Alpine Elementary School","id":"a6aui9fv3g7t","lat":34.1771,"address":"P O BOX 170","number of students":50.90503906,"state":"AZ"},"type":"Feature","geometry":{"type":"Point","coordinates":[-109.241,34.1771]}},{"properties":{"lon":-109.23,"city":"RAPELJE","zip":59067.0,"norm oblig":347.1333333,"obligation amount":15621.0,"organization":"Rapelje Elementary District 32","id":"a6aui9lv1a71","lat":45.9489,"address":"PO BOX 89","number of students":45.0,"state":"MT"},"type":"Feature","geometry":{"type":"Point","coordinates":[-109.23,45.9489]}},{"properties":{"lon":-109.23,"city":"RAPELJE","zip":59067.0,"norm oblig":756.826087,"obligation amount":17407.0,"organization":"Rapelje High School District 32","id":"a6aui9rssllm","lat":45.9489,"address":"PO BOX 89","number of students":23.0,"state":"MT"},"type":"Feature","geometry":{"type":"Point","coordinates":[-109.23,45.9489]}},{"properties":{"lon":-108.912,"city":"MOLT","zip":59057.0,"norm oblig":6141.666667,"obligation amount":18425.0,"organization":"Molt Elementary","id":"a6aui9t0opzm","lat":45.9447,"address":"PO BOX 70","number of students":3.0,"state":"MT"},"type":"Feature","geometry":{"type":"Point","coordinates":[-108.912,45.9447]}},{"properties":{"lon":-108.894,"city":"TURNER","zip":59542.0,"norm oblig":492.7567568,"obligation amount":18232.0,"organization":"Turner High School -- School District No. 43","id":"a6aui9hd2s2s","lat":48.3605,"address":"BOX 40","number of students":37.0,"state":"MT"},"type":"Feature","geometry":{"type":"Point","coordinates":[-108.894,48.3605]}},{"properties":{"lon":-108.849,"city":"EDGAR","zip":59026.0,"norm oblig":4470.5,"obligation amount":17882.0,"organization":"Edgar Elementary","id":"a6aui9tx5mjm","lat":45.4442,"address":"BOX 84","number of students":4.0,"state":"MT"},"type":"Feature","geometry":{"type":"Point","coordinates":[-108.849,45.4442]}},{"properties":{"lon":-108.818,"city":"HARLEM","zip":59526.0,"norm oblig":3283.833333,"obligation amount":19703.0,"organization":"North Harlem Elementary School","id":"a6aui9o4d1ja","lat":48.6551,"address":"668 HILLCREST ROAD","number of students":6.0,"state":"MT"},"type":"Feature","geometry":{"type":"Point","coordinates":[-108.818,48.6551]}},{"properties":{"lon":-108.817,"city":"FROMBERG","zip":59029.0,"norm oblig":269.4285714,"obligation amount":11316.0,"organization":"Fromberg High School District No. 6","id":"a6aui9oiq0a4","lat":45.3987,"address":"PO BOX 189","number of students":42.0,"state":"MT"},"type":"Feature","geometry":{"type":"Point","coordinates":[-108.817,45.3987]}},{"properties":{"lon":-108.763,"city":"GRASS RANGE","zip":59032.0,"norm oblig":1515.615385,"obligation amount":19703.0,"organization":"Ayers Colony Elementary School","id":"a6aui9m015ig","lat":47.2866,"address":"BOX 100 HWY 87 W 106007","number of students":13.0,"state":"MT"},"type":"Feature","geometry":{"type":"Point","coordinates":[-108.763,47.2866]}},{"properties":{"lon":-108.763,"city":"GRASS RANGE","zip":59032.0,"norm oblig":311.1428571,"obligation amount":13068.0,"organization":"Grass Range Elementary School District 27 -- Grades K-8","id":"a6aui9l52faa","lat":47.2866,"address":"PO BOX 58","number of students":42.0,"state":"MT"},"type":"Feature","geometry":{"type":"Point","coordinates":[-108.763,47.2866]}},{"properties":{"lon":-108.763,"city":"GRASS RANGE","zip":59032.0,"norm oblig":588.8928571,"obligation amount":16489.0,"organization":"Grass Range High School District 27 -- Grades 9-12","id":"a6aui9ibe322","lat":47.2866,"address":"PO BOX 58","number of students":28.0,"state":"MT"},"type":"Feature","geometry":{"type":"Point","coordinates":[-108.763,47.2866]}},{"properties":{"lon":-108.76,"city":"BROADVIEW","zip":59015.0,"norm oblig":318.1886792,"obligation amount":16864.0,"organization":"Broadview High School","id":"a6aui9pfumwh","lat":46.0417,"address":"PO BOX 147","number of students":53.0,"state":"MT"},"type":"Feature","geometry":{"type":"Point","coordinates":[-108.76,46.0417]}},{"properties":{"lon":-108.387,"city":"BILLINGS","zip":59101.0,"norm oblig":593.6153846,"obligation amount":15434.0,"organization":"Morin School District 17","id":"a6aui9lfk8j6","lat":45.687,"address":"8824 PRYOR ROAD","number of students":26.0,"state":"MT"},"type":"Feature","geometry":{"type":"Point","coordinates":[-108.387,45.687]}},{"properties":{"lon":-108.247,"city":"DODSON","zip":59524.0,"norm oblig":257.5142857,"obligation amount":9013.0,"organization":"Dodson Elementary School District 2","id":"a6aui9g4le62","lat":48.395,"address":"BOX 278","number of students":35.0,"state":"MT"},"type":"Feature","geometry":{"type":"Point","coordinates":[-108.247,48.395]}},{"properties":{"lon":-108.247,"city":"DODSON","zip":59524.0,"norm oblig":658.9565217,"obligation amount":15156.0,"organization":"Dodson High School","id":"a6aui9v2m261","lat":48.395,"address":"BOX 278","number of students":23.0,"state":"MT"},"type":"Feature","geometry":{"type":"Point","coordinates":[-108.247,48.395]}},{"properties":{"lon":-107.869,"city":"MELSTONE","zip":59054.0,"norm oblig":243.7142857,"obligation amount":11942.0,"organization":"Melstone Elementary","id":"a6aui9rsryo6","lat":46.5986,"address":"BOX 97","number of students":49.0,"state":"MT"},"type":"Feature","geometry":{"type":"Point","coordinates":[-107.869,46.5986]}},{"properties":{"lon":-107.869,"city":"MELSTONE","zip":59054.0,"norm oblig":826.6,"obligation amount":16532.0,"organization":"Melstone High School","id":"a6aui9sdaj7p","lat":46.5986,"address":"BOX 97","number of students":20.0,"state":"MT"},"type":"Feature","geometry":{"type":"Point","coordinates":[-107.869,46.5986]}},{"properties":{"lon":-107.482,"city":"DECKER","zip":59025.0,"norm oblig":3616.6,"obligation amount":18083.0,"organization":"Spring Creek Elementary","id":"a6aui9kmya2z","lat":45.5187,"address":"BOX 118","number of students":5.0,"state":"MT"},"type":"Feature","geometry":{"type":"Point","coordinates":[-107.482,45.5187]}},{"properties":{"lon":-107.343,"city":"SACO","zip":59261.0,"norm oblig":344.3783784,"obligation amount":12742.0,"organization":"Saco Elementary School District 12 A","id":"a6aui9rugdey","lat":48.4572,"address":"BOX 298","number of students":37.0,"state":"MT"},"type":"Feature","geometry":{"type":"Point","coordinates":[-107.343,48.4572]}},{"properties":{"lon":-107.343,"city":"SACO","zip":59261.0,"norm oblig":664.2307692,"obligation amount":17270.0,"organization":"Saco High School District 12 B","id":"a6aui9mna0si","lat":48.4572,"address":"BOX 298","number of students":26.0,"state":"MT"},"type":"Feature","geometry":{"type":"Point","coordinates":[-107.343,48.4572]}},{"properties":{"lon":-107.027,"city":"SAND SPRINGS","zip":59077.0,"norm oblig":6524.666667,"obligation amount":19574.0,"organization":"Big Dry Creek School","id":"a6aui9ikbdfe","lat":47.4141,"address":"C/O LINDA RICH, BOX 65","number of students":3.0,"state":"MT"},"type":"Feature","geometry":{"type":"Point","coordinates":[-107.027,47.4141]}},{"properties":{"lon":-107.027,"city":"BRUSETT","zip":59318.0,"norm oblig":2330.5,"obligation amount":18644.0,"organization":"Pine Grove School","id":"a6aui9vbtfn2","lat":47.4141,"address":"PO BOX 35","number of students":8.0,"state":"MT"},"type":"Feature","geometry":{"type":"Point","coordinates":[-107.027,47.4141]}},{"properties":{"lon":-107.027,"city":"SAND SPRINGS","zip":59077.0,"norm oblig":4848.0,"obligation amount":19392.0,"organization":"Sand Springs School","id":"a6aui9q6sytf","lat":47.4141,"address":"C/O LINDA RICH, BOX 65","number of students":4.0,"state":"MT"},"type":"Feature","geometry":{"type":"Point","coordinates":[-107.027,47.4141]}},{"properties":{"lon":-107.027,"city":"COHAGEN","zip":59322.0,"norm oblig":3823.0,"obligation amount":19115.0,"organization":"Cohagen School","id":"a6aui9ryair6","lat":47.4141,"address":"PO BOX 113","number of students":5.0,"state":"MT"},"type":"Feature","geometry":{"type":"Point","coordinates":[-107.027,47.4141]}},{"properties":{"lon":-107.027,"city":"MOSBY","zip":59058.0,"norm oblig":3882.8,"obligation amount":19414.0,"organization":"Ross School","id":"a6aui9ummoz2","lat":47.4141,"address":"HC 67 BOX 5 C/O BROWNING","number of students":5.0,"state":"MT"},"type":"Feature","geometry":{"type":"Point","coordinates":[-107.027,47.4141]}},{"properties":{"lon":-106.992,"city":"BIRNEY","zip":59012.0,"norm oblig":2652.166667,"obligation amount":15913.0,"organization":"Birney School District 3","id":"a6aui9pae66z","lat":46.018,"address":"PO BOX 521","number of students":6.0,"state":"MT"},"type":"Feature","geometry":{"type":"Point","coordinates":[-106.992,46.018]}},{"properties":{"lon":-106.944,"city":"JORDAN","zip":59337.0,"norm oblig":248.2777778,"obligation amount":13407.0,"organization":"Garfield County District High School","id":"a6aui9txm4gb","lat":47.3256,"address":"BOX 409","number of students":54.0,"state":"MT"},"type":"Feature","geometry":{"type":"Point","coordinates":[-106.944,47.3256]}},{"properties":{"lon":-106.944,"city":"JORDAN","zip":59337.0,"norm oblig":9892.5,"obligation amount":19785.0,"organization":"Kester School","id":"a6aui9qxdfkr","lat":47.3256,"address":"HC62 BOX 7","number of students":2.0,"state":"MT"},"type":"Feature","geometry":{"type":"Point","coordinates":[-106.944,47.3256]}},{"properties":{"lon":-106.854,"city":"HINSDALE","zip":59241.0,"norm oblig":633.3793103,"obligation amount":18368.0,"organization":"Hinsdale Public Schools","id":"a6aui9qnmwbq","lat":48.3426,"address":"PO BOX 398","number of students":29.0,"state":"MT"},"type":"Feature","geometry":{"type":"Point","coordinates":[-106.854,48.3426]}},{"properties":{"lon":-106.667,"city":"ROSEBUD","zip":59347.0,"norm oblig":279.9322034,"obligation amount":16516.0,"organization":"Rosebud Elementary School District 12","id":"a6aui9fp5o71","lat":46.2679,"address":"BOX 38","number of students":59.0,"state":"MT"},"type":"Feature","geometry":{"type":"Point","coordinates":[-106.667,46.2679]}},{"properties":{"lon":-106.667,"city":"ROSEBUD","zip":59347.0,"norm oblig":526.3235294,"obligation amount":17895.0,"organization":"Rosebud High School District 12","id":"a6aui9vd6h32","lat":46.2679,"address":"BOX 38","number of students":34.0,"state":"MT"},"type":"Feature","geometry":{"type":"Point","coordinates":[-106.667,46.2679]}},{"properties":{"lon":-106.032,"city":"FRAZER","zip":59225.0,"norm oblig":312.1111111,"obligation amount":11236.0,"organization":"Frazer Public High School","id":"a6aui9llwt3p","lat":48.2959,"address":"PO BOX 488","number of students":36.0,"state":"MT"},"type":"Feature","geometry":{"type":"Point","coordinates":[-106.032,48.2959]}},{"properties":{"lon":-106.032,"city":"FRAZER","zip":59225.0,"norm oblig":423.825,"obligation amount":16953.0,"organization":"Lustre Elementary","id":"a6aui9njvbnu","lat":48.2959,"address":"HC 66 BOX 58","number of students":40.0,"state":"MT"},"type":"Feature","geometry":{"type":"Point","coordinates":[-106.032,48.2959]}},{"properties":{"lon":-105.886,"city":"PEERLESS","zip":59253.0,"norm oblig":749.0869565,"obligation amount":17229.0,"organization":"Peerless School District  2","id":"a6aui9njp5hr","lat":48.7294,"address":"BOX 475","number of students":23.0,"state":"MT"},"type":"Feature","geometry":{"type":"Point","coordinates":[-105.886,48.7294]}},{"properties":{"lon":-105.795,"city":"MILES CITY","zip":59301.0,"norm oblig":10000.0,"obligation amount":20000.0,"organization":"SY Elementary","id":"a6aui9pjq6n4","lat":46.4478,"address":"HC 40 Box 6592","number of students":2.0,"state":"MT"},"type":"Feature","geometry":{"type":"Point","coordinates":[-105.795,46.4478]}},{"properties":{"lon":-105.795,"city":"MILES CITY","zip":59301.0,"norm oblig":3531.4,"obligation amount":17657.0,"organization":"SH Elementary","id":"a6aui9g5ggx0","lat":46.4478,"address":"HC 40 BOX 6591","number of students":5.0,"state":"MT"},"type":"Feature","geometry":{"type":"Point","coordinates":[-105.795,46.4478]}},{"properties":{"lon":-105.63,"city":"BIDDLE","zip":59314.0,"norm oblig":2407.875,"obligation amount":19263.0,"organization":"Biddle Elementary District 6","id":"a6aui9gbfoo3","lat":45.3911,"address":"BOX 397","number of students":8.0,"state":"MT"},"type":"Feature","geometry":{"type":"Point","coordinates":[-105.63,45.3911]}},{"properties":{"lon":-105.536,"city":"VIDA","zip":59274.0,"norm oblig":923.7647059,"obligation amount":15704.0,"organization":"Vida Elementary School","id":"a6aui9m527bz","lat":47.8741,"address":"BOX 31","number of students":17.0,"state":"MT"},"type":"Feature","geometry":{"type":"Point","coordinates":[-105.536,47.8741]}},{"properties":{"lon":-105.462,"city":"ISMAY","zip":59336.0,"norm oblig":9258.0,"obligation amount":18516.0,"organization":"Trail Creek District  13 -- Trail Creek Elementary","id":"a6aui9jo3vvv","lat":46.324,"address":"HC 80 BOX 18","number of students":2.0,"state":"MT"},"type":"Feature","geometry":{"type":"Point","coordinates":[-105.462,46.324]}},{"properties":{"lon":-105.462,"city":"VOLBORG","zip":59351.0,"norm oblig":6253.333333,"obligation amount":18760.0,"organization":"South Stacey Elementary District 90","id":"a6aui9ttvx9t","lat":46.324,"address":"HC 70 BOX 73","number of students":3.0,"state":"MT"},"type":"Feature","geometry":{"type":"Point","coordinates":[-105.462,46.324]}},{"properties":{"lon":-105.462,"city":"ISMAY","zip":59336.0,"norm oblig":3541.25,"obligation amount":14165.0,"organization":"Cottonwood Elementary","id":"a6aui9s4crzw","lat":46.324,"address":"HC 80 BOX 18","number of students":4.0,"state":"MT"},"type":"Feature","geometry":{"type":"Point","coordinates":[-105.462,46.324]}},{"properties":{"lon":-105.462,"city":"KINSEY","zip":59338.0,"norm oblig":255.0958904,"obligation amount":18622.0,"organization":"Kinsey Elementary","id":"a6aui9izjk8o","lat":46.324,"address":"HC 46 BOX 396","number of students":73.0,"state":"MT"},"type":"Feature","geometry":{"type":"Point","coordinates":[-105.462,46.324]}},{"properties":{"lon":-105.462,"city":"ISMAY","zip":59336.0,"norm oblig":9534.5,"obligation amount":19069.0,"organization":"Spring Creek Elementary","id":"a6aui9g1jq2l","lat":46.324,"address":"HC 80 BOX 18","number of students":2.0,"state":"MT"},"type":"Feature","geometry":{"type":"Point","coordinates":[-105.462,46.324]}},{"properties":{"lon":-105.173,"city":"LINDSAY","zip":59339.0,"norm oblig":1321.666667,"obligation amount":11895.0,"organization":"Lindsay School -- Dawson County Rural Schools","id":"a6aui9j5snl5","lat":47.2542,"address":"PO BOX B","number of students":9.0,"state":"MT"},"type":"Feature","geometry":{"type":"Point","coordinates":[-105.173,47.2542]}},{"properties":{"lon":-104.988,"city":"RICHEY","zip":59259.0,"norm oblig":743.5217391,"obligation amount":17101.0,"organization":"Richey Public High School District","id":"a6aui9uevsek","lat":47.4634,"address":"BOX 60","number of students":23.0,"state":"MT"},"type":"Feature","geometry":{"type":"Point","coordinates":[-104.988,47.4634]}},{"properties":{"lon":-104.988,"city":"RICHEY","zip":59259.0,"norm oblig":340.3076923,"obligation amount":13272.0,"organization":"Richey Elementary School District","id":"a6aui9vbjsgi","lat":47.4634,"address":"BOX 60","number of students":39.0,"state":"MT"},"type":"Feature","geometry":{"type":"Point","coordinates":[-104.988,47.4634]}},{"properties":{"lon":-104.96,"city":"BLOOMFIELD","zip":59315.0,"norm oblig":1190.285714,"obligation amount":16664.0,"organization":"Bloomfield School","id":"a6aui9md1vqk","lat":47.41,"address":"2285 FAS 470","number of students":14.0,"state":"MT"},"type":"Feature","geometry":{"type":"Point","coordinates":[-104.96,47.41]}},{"properties":{"lon":-104.64,"city":"EKALAKA","zip":59324.0,"norm oblig":243.1923077,"obligation amount":12646.0,"organization":"Carter County High School -- Ekalaka Public Schools","id":"a6aui9nx8gn9","lat":45.8976,"address":"BOX 458","number of students":52.0,"state":"MT"},"type":"Feature","geometry":{"type":"Point","coordinates":[-104.64,45.8976]}},{"properties":{"lon":-104.638,"city":"LAMBERT","zip":59243.0,"norm oblig":627.0,"obligation amount":17556.0,"organization":"Lambert High School","id":"a6aui9kqeovw","lat":47.7521,"address":"BOX 260","number of students":28.0,"state":"MT"},"type":"Feature","geometry":{"type":"Point","coordinates":[-104.638,47.7521]}},{"properties":{"lon":-104.539,"city":"HAMMOND","zip":59332.0,"norm oblig":2338.25,"obligation amount":18706.0,"organization":"Hammond/Hawks Home Elementary","id":"a6aui9mo15v8","lat":45.5671,"address":"HC 49 BOX 15","number of students":8.0,"state":"MT"},"type":"Feature","geometry":{"type":"Point","coordinates":[-104.539,45.5671]}},{"properties":{"lon":-104.493,"city":"FROID","zip":59226.0,"norm oblig":780.6363636,"obligation amount":17174.0,"organization":"Froid High School","id":"a6aui9m97se4","lat":48.3357,"address":"BOX 218","number of students":22.0,"state":"MT"},"type":"Feature","geometry":{"type":"Point","coordinates":[-104.493,48.3357]}},{"properties":{"lon":-104.493,"city":"FROID","zip":59226.0,"norm oblig":308.1627907,"obligation amount":13251.0,"organization":"Froid Elementary School District","id":"a6aui9i6rjaj","lat":48.3357,"address":"BOX 218","number of students":43.0,"state":"MT"},"type":"Feature","geometry":{"type":"Point","coordinates":[-104.493,48.3357]}},{"properties":{"lon":-104.343,"city":"SAVAGE","zip":59262.0,"norm oblig":457.3684211,"obligation amount":17380.0,"organization":"Savage High School","id":"a6aui9jwmuca","lat":47.4526,"address":"BOX 110","number of students":38.0,"state":"MT"},"type":"Feature","geometry":{"type":"Point","coordinates":[-104.343,47.4526]}},{"properties":{"lon":-104.314,"city":"WESTBY","zip":59275.0,"norm oblig":287.9642857,"obligation amount":16126.0,"organization":"Westby K-12 Schools","id":"a6aui9towf0p","lat":48.8683,"address":"PO BOX 109","number of students":56.0,"state":"MT"},"type":"Feature","geometry":{"type":"Point","coordinates":[-104.314,48.8683]}},{"properties":{"lon":-104.195,"city":"SIDNEY","zip":59270.0,"norm oblig":3725.4,"obligation amount":18627.0,"organization":"Brorson Elementary School District 11","id":"a6aui9mlb944","lat":47.6558,"address":"PO BOX 145","number of students":5.0,"state":"MT"},"type":"Feature","geometry":{"type":"Point","coordinates":[-104.195,47.6558]}},{"properties":{"lon":-104.085,"city":"AGATE","zip":80101.0,"norm oblig":268.408319,"obligation amount":15931.0,"organization":"Agate School District 300","id":"a6aui9kp5j8t","lat":39.3823,"address":"PO BOX 118","number of students":59.3536,"state":"CO"},"type":"Feature","geometry":{"type":"Point","coordinates":[-104.085,39.3823]}},{"properties":{"lon":-103.952,"city":"GOLVA","zip":58632.0,"norm oblig":343.663118,"obligation amount":10657.0,"organization":"Golva Elementary School","id":"a6aui9ittiu8","lat":46.6722,"address":"PO BOX 170","number of students":31.01001953,"state":"ND"},"type":"Feature","geometry":{"type":"Point","coordinates":[-103.952,46.6722]}},{"properties":{"lon":-103.902,"city":"MOSQUERO","zip":87733.0,"norm oblig":520.6792825,"obligation amount":16089.0,"organization":"Mosquero Municipal Schools","id":"a6aui9q0cxl1","lat":35.8041,"address":"P.O. BOX 258","number of students":30.90001953,"state":"NM"},"type":"Feature","geometry":{"type":"Point","coordinates":[-103.902,35.8041]}},{"properties":{"lon":-103.83,"city":"EDGEMONT","zip":57735.0,"norm oblig":724.9090909,"obligation amount":15948.0,"organization":"Elk Mountain School District","id":"a6aui9q7bdaa","lat":43.2945,"address":"10222 VALLEY RD","number of students":22.0,"state":"SD"},"type":"Feature","geometry":{"type":"Point","coordinates":[-103.83,43.2945]}},{"properties":{"lon":-103.485,"city":"AMIDON","zip":58620.0,"norm oblig":3662.190394,"obligation amount":16370.0,"organization":"Central Elementary School District 32","id":"a6aui9o1q48b","lat":46.455,"address":"106 COURT AVE","number of students":4.470002441,"state":"ND"},"type":"Feature","geometry":{"type":"Point","coordinates":[-103.485,46.455]}},{"properties":{"lon":-103.485,"city":"MARMARTH","zip":58643.0,"norm oblig":2075.53437,"obligation amount":18410.0,"organization":"Marmarth School District 12","id":"a6aui9vsgk8h","lat":46.455,"address":"PO BOX 70","number of students":8.870004883,"state":"ND"},"type":"Feature","geometry":{"type":"Point","coordinates":[-103.485,46.455]}},{"properties":{"lon":-103.374,"city":"KIM","zip":81049.0,"norm oblig":246.8241987,"obligation amount":14421.0,"organization":"Kim Reorganized 88","id":"a6aui9o1zqyy","lat":37.3328,"address":"P O BOX 100","number of students":58.4262,"state":"CO"},"type":"Feature","geometry":{"type":"Point","coordinates":[-103.374,37.3328]}},{"properties":{"lon":-103.298,"city":"CARTWRIGHT","zip":58838.0,"norm oblig":3567.037937,"obligation amount":19048.0,"organization":"Horse Creek School District 32","id":"a6aui9po7y1g","lat":47.7374,"address":"1812 HORSE CREEK RD","number of students":5.340004883,"state":"ND"},"type":"Feature","geometry":{"type":"Point","coordinates":[-103.298,47.7374]}},{"properties":{"lon":-103.061,"city":"BIG BEND NATIONAL PARK","zip":79834.0,"norm oblig":891.9732945,"obligation amount":17769.0,"organization":"San Vicente Independent School District","id":"a6aui9j5k520","lat":29.8187,"address":"P O BOX 195","number of students":19.921,"state":"TX"},"type":"Feature","geometry":{"type":"Point","coordinates":[-103.061,29.8187]}},{"properties":{"lon":-102.605,"city":"SHERIDAN LAKE","zip":81071.0,"norm oblig":355.0380581,"obligation amount":20085.0,"organization":"Plainview School District RE-2","id":"a6aui9r6n3ba","lat":38.4414,"address":"P O BOX 1268","number of students":56.5714,"state":"CO"},"type":"Feature","geometry":{"type":"Point","coordinates":[-102.605,38.4414]}},{"properties":{"lon":-102.515,"city":"FELT","zip":73937.0,"norm oblig":260.1510741,"obligation amount":15825.0,"organization":"Felt Public School","id":"a6aui9fuir44","lat":36.7505,"address":"PO BOX 47","number of students":60.83003906,"state":"OK"},"type":"Feature","geometry":{"type":"Point","coordinates":[-102.515,36.7505]}},{"properties":{"lon":-102.474,"city":"CAMPO","zip":81029.0,"norm oblig":353.7668032,"obligation amount":15748.0,"organization":"Campo School District RE-6","id":"a6aui9ri2y0s","lat":37.1844,"address":"P O BOX 70","number of students":44.5152,"state":"CO"},"type":"Feature","geometry":{"type":"Point","coordinates":[-102.474,37.1844]}},{"properties":{"lon":-101.781,"city":"TEXHOMA","zip":73949.0,"norm oblig":3116.358061,"obligation amount":18667.0,"organization":"Plainview School District 13C001 -- Plainview Elementary School","id":"a6aui9oqy2z9","lat":36.5075,"address":"RR 1 BOX 71","number of students":5.990004883,"state":"OK"},"type":"Feature","geometry":{"type":"Point","coordinates":[-101.781,36.5075]}},{"properties":{"lon":-101.714,"city":"ARTHUR","zip":69121.0,"norm oblig":243.1187781,"obligation amount":18443.0,"organization":"Arthur County High School","id":"a6aui9nyi1fi","lat":41.5541,"address":"100 MARSHALL AVE BOX 145","number of students":75.86003906,"state":"NE"},"type":"Feature","geometry":{"type":"Point","coordinates":[-101.714,41.5541]}},{"properties":{"lon":-101.606,"city":"MINOT","zip":58703.0,"norm oblig":1882.689344,"obligation amount":18055.0,"organization":"Eureka Elementary","id":"a6aui9in214p","lat":48.2994,"address":"6621 HWY 83 N","number of students":9.590004883,"state":"ND"},"type":"Feature","geometry":{"type":"Point","coordinates":[-101.606,48.2994]}},{"properties":{"lon":-101.216,"city":"OPTIMA","zip":73945.0,"norm oblig":278.0011127,"obligation amount":17275.0,"organization":"Optima School","id":"a6aui9hz8403","lat":36.8108,"address":"RR 1 BOX 188","number of students":62.14003906,"state":"OK"},"type":"Feature","geometry":{"type":"Point","coordinates":[-101.216,36.8108]}},{"properties":{"lon":-100.694,"city":"BALDWIN","zip":58521.0,"norm oblig":936.0377546,"obligation amount":14649.0,"organization":"Baldwin Elementary School","id":"a6aui9vbzqa7","lat":47.0161,"address":"PO BOX 154","number of students":15.65000977,"state":"ND"},"type":"Feature","geometry":{"type":"Point","coordinates":[-100.694,47.0161]}},{"properties":{"lon":-100.456,"city":"BISMARCK","zip":58504.0,"norm oblig":3880.612417,"obligation amount":16415.0,"organization":"Manning School District 45","id":"a6aui9lyvlgf","lat":46.8299,"address":"10500 HWY 1804 S","number of students":4.230002441,"state":"ND"},"type":"Feature","geometry":{"type":"Point","coordinates":[-100.456,46.8299]}},{"properties":{"lon":-100.456,"city":"BISMARCK","zip":58504.0,"norm oblig":331.82171,"obligation amount":15881.0,"organization":"Apple Creek School","id":"a6aui9t69ani","lat":46.8299,"address":"2000 93RD ST SE","number of students":47.86003906,"state":"ND"},"type":"Feature","geometry":{"type":"Point","coordinates":[-100.456,46.8299]}},{"properties":{"lon":-100.456,"city":"MENOKEN","zip":58558.0,"norm oblig":1517.695612,"obligation amount":17924.0,"organization":"Menoken School","id":"a6aui9klbxms","lat":46.8084,"address":"PO BOX D","number of students":11.81000977,"state":"ND"},"type":"Feature","geometry":{"type":"Point","coordinates":[-100.456,46.8084]}},{"properties":{"lon":-100.325,"city":"DARROUZETT","zip":79024.0,"norm oblig":274.6600423,"obligation amount":17027.0,"organization":"Darrouzett Independent School District","id":"a6aui9urylwq","lat":36.4453,"address":"P O BOX 98","number of students":61.993,"state":"TX"},"type":"Feature","geometry":{"type":"Point","coordinates":[-100.325,36.4453]}},{"properties":{"lon":-100.277,"city":"STERLING","zip":58572.0,"norm oblig":527.7862716,"obligation amount":16620.0,"organization":"Sterling Elementary School","id":"a6aui9fnfeja","lat":46.8761,"address":"PO BOX 68","number of students":31.49001953,"state":"ND"},"type":"Feature","geometry":{"type":"Point","coordinates":[-100.277,46.8761]}},{"properties":{"lon":-100.224,"city":"WHEELER","zip":79096.0,"norm oblig":281.8409661,"obligation amount":22266.0,"organization":"Kelton Independent School District","id":"a6aui9s56gs4","lat":35.3949,"address":"16703 FM 2697","number of students":79.002,"state":"TX"},"type":"Feature","geometry":{"type":"Point","coordinates":[-100.224,35.3949]}},{"properties":{"lon":-100.098,"city":"HAGUE","zip":58542.0,"norm oblig":4266.859115,"obligation amount":14550.0,"organization":"Bakker10","id":"a6aui9sj8nc4","lat":46.0802,"address":"880 96TH ST SE","number of students":3.410002441,"state":"ND"},"type":"Feature","geometry":{"type":"Point","coordinates":[-100.098,46.0802]}},{"properties":{"lon":-100.047,"city":"ROWENA","zip":76875.0,"norm oblig":279.9063887,"obligation amount":19615.0,"organization":"Olfen ISD","id":"a6aui9terxys","lat":31.6684,"address":"1122 PRIVATE RD 2562","number of students":70.077,"state":"TX"},"type":"Feature","geometry":{"type":"Point","coordinates":[-100.047,31.6684]}},{"properties":{"lon":-100.003,"city":"LENORA","zip":67645.0,"norm oblig":349.324017,"obligation amount":15510.0,"organization":"West Solomon Valley USD 213","id":"a6aui9pgu6q9","lat":39.6105,"address":"PO BOX 98","number of students":44.40003906,"state":"KS"},"type":"Feature","geometry":{"type":"Point","coordinates":[-100.003,39.6105]}},{"properties":{"lon":-99.9372,"city":"HURDSFIELD","zip":58451.0,"norm oblig":1056.167611,"obligation amount":14554.0,"organization":"Pleasant Valley School District 35","id":"a6aui9hvq3sm","lat":47.4728,"address":"201 MILLER AVE","number of students":13.78000977,"state":"ND"},"type":"Feature","geometry":{"type":"Point","coordinates":[-99.9372,47.4728]}},{"properties":{"lon":-99.8847,"city":"BENJAMIN","zip":79505.0,"norm oblig":245.098881,"obligation amount":17128.0,"organization":"Benjamin ISD","id":"a6aui9hfqega","lat":33.5993,"address":"P O BOX 166","number of students":69.882,"state":"TX"},"type":"Feature","geometry":{"type":"Point","coordinates":[-99.8847,33.5993]}},{"properties":{"lon":-99.6892,"city":"ROBINSON","zip":58478.0,"norm oblig":1960.250856,"obligation amount":12428.0,"organization":"Robinson Public School","id":"a6aui9ffoe5r","lat":46.9796,"address":"PO BOX 38","number of students":6.340004883,"state":"ND"},"type":"Feature","geometry":{"type":"Point","coordinates":[-99.6892,46.9796]}},{"properties":{"lon":-99.485,"city":"MOUNTAIN HOME","zip":78058.0,"norm oblig":1193.672835,"obligation amount":20000.0,"organization":"Divide ISD","id":"a6aui9fm9sjt","lat":30.1725,"address":"120 DIVIDE SCHOOL RD","number of students":16.75500977,"state":"TX"},"type":"Feature","geometry":{"type":"Point","coordinates":[-99.485,30.1725]}},{"properties":{"lon":-98.5179,"city":"REALITOS","zip":78376.0,"norm oblig":258.4067341,"obligation amount":11911.0,"organization":"Ramirez Common School District","id":"a6aui9td8svc","lat":27.6602,"address":"10492 SCHOOL ST","number of students":46.094,"state":"TX"},"type":"Feature","geometry":{"type":"Point","coordinates":[-98.5179,27.6602]}},{"properties":{"lon":-98.3469,"city":"PALO PINTO","zip":76484.0,"norm oblig":252.8469199,"obligation amount":18762.0,"organization":"Palo Pinto Independent School District","id":"a6aui9nacdgg","lat":32.7048,"address":"P O BOX 280","number of students":74.203,"state":"TX"},"type":"Feature","geometry":{"type":"Point","coordinates":[-98.3469,32.7048]}},{"properties":{"lon":-98.208,"city":"MORGAN MILL","zip":76465.0,"norm oblig":241.0350621,"obligation amount":24447.0,"organization":"Morgan Mill ISD","id":"a6aui9lhuksb","lat":32.2153,"address":"P O BOX 8","number of students":101.4250781,"state":"TX"},"type":"Feature","geometry":{"type":"Point","coordinates":[-98.208,32.2153]}},{"properties":{"lon":-97.7201,"city":"MONTAGUE","zip":76251.0,"norm oblig":240.3106465,"obligation amount":16369.0,"organization":"Montague ISD","id":"a6aui9uu797g","lat":33.6472,"address":"P O BOX 78","number of students":68.116,"state":"TX"},"type":"Feature","geometry":{"type":"Point","coordinates":[-97.7201,33.6472]}},{"properties":{"lon":-97.6369,"city":"LISBON","zip":58054.0,"norm oblig":942.0938725,"obligation amount":18173.0,"organization":"Ft. Ransom School District  6","id":"a6aui9ta85ox","lat":46.456,"address":"PO BOX 593","number of students":19.29000977,"state":"ND"},"type":"Feature","geometry":{"type":"Point","coordinates":[-97.6369,46.456]}},{"properties":{"lon":-97.4373,"city":"GRAFTON","zip":58237.0,"norm oblig":1123.461304,"obligation amount":15706.0,"organization":"Nash Public School District 51","id":"a6aui9scvn00","lat":48.3689,"address":"102 NASH DR","number of students":13.98000977,"state":"ND"},"type":"Feature","geometry":{"type":"Point","coordinates":[-97.4373,48.3689]}},{"properties":{"lon":-97.3284,"city":"WESTHOFF","zip":77994.0,"norm oblig":312.1068173,"obligation amount":14586.0,"organization":"Westhoff ISD","id":"a6aui9i67unl","lat":29.1021,"address":"P O BOX 38","number of students":46.734,"state":"TX"},"type":"Feature","geometry":{"type":"Point","coordinates":[-97.3284,29.1021]}},{"properties":{"lon":-97.1583,"city":"GAINESVILLE","zip":76240.0,"norm oblig":279.5102015,"obligation amount":17371.0,"organization":"Walnut Bend School ISD","id":"a6aui9gp67lb","lat":33.6547,"address":"47 C R 198","number of students":62.148,"state":"TX"},"type":"Feature","geometry":{"type":"Point","coordinates":[-97.1583,33.6547]}},{"properties":{"lon":-97.0484,"city":"BYARS","zip":74831.0,"norm oblig":262.9512324,"obligation amount":14344.0,"organization":"Byars School District -- Byars Elementary School","id":"a6aui9tdb3hu","lat":34.8734,"address":"45218 110TH ST","number of students":54.55003906,"state":"OK"},"type":"Feature","geometry":{"type":"Point","coordinates":[-97.0484,34.8734]}},{"properties":{"lon":-96.8833,"city":"KAW CITY","zip":74641.0,"norm oblig":564.5468521,"obligation amount":17580.0,"organization":"Kaw City Public School","id":"a6aui9nvx5kx","lat":36.8382,"address":"PO BOX 150","number of students":31.14001953,"state":"OK"},"type":"Feature","geometry":{"type":"Point","coordinates":[-96.8833,36.8382]}},{"properties":{"lon":-96.4953,"city":"BOLEY","zip":74829.0,"norm oblig":632.9962167,"obligation amount":18800.0,"organization":"Boley Public Schools","id":"a6aui9fmdhsm","lat":35.5135,"address":"PO BOX 248","number of students":29.70001953,"state":"OK"},"type":"Feature","geometry":{"type":"Point","coordinates":[-96.4953,35.5135]}},{"properties":{"lon":-96.326,"city":"MILFAY","zip":74046.0,"norm oblig":275.9968173,"obligation amount":14810.0,"organization":"Milfay School","id":"a6aui9jzjhof","lat":35.9013,"address":"PO BOX 219","number of students":53.66003906,"state":"OK"},"type":"Feature","geometry":{"type":"Point","coordinates":[-96.326,35.9013]}},{"properties":{"lon":-95.9623,"city":"MATAGORDA","zip":77457.0,"norm oblig":239.3098881,"obligation amount":14814.0,"organization":"Matagorda ISD","id":"a6aui9gwn6u4","lat":28.6496,"address":"P O BOX 657","number of students":61.903,"state":"TX"},"type":"Feature","geometry":{"type":"Point","coordinates":[-95.9623,28.6496]}},{"properties":{"lon":-95.9007,"city":"CANTON","zip":75103.0,"norm oblig":426.6609919,"obligation amount":19047.0,"organization":"Ranch Academy and Life Skills Center","id":"a6aui9gkls5q","lat":32.6115,"address":"3120 VZCR 2318","number of students":44.642,"state":"TX"},"type":"Feature","geometry":{"type":"Point","coordinates":[-95.9007,32.6115]}},{"properties":{"lon":-95.8896,"city":"BALATON","zip":56115.0,"norm oblig":828.337039,"obligation amount":18737.0,"organization":"Yankton Country Charter School","id":"a6aui9gqagax","lat":44.2615,"address":"BOX 406","number of students":22.62001953,"state":"MN"},"type":"Feature","geometry":{"type":"Point","coordinates":[-95.8896,44.2615]}},{"properties":{"lon":-95.8416,"city":"MORRIS","zip":74445.0,"norm oblig":709.1415143,"obligation amount":16367.0,"organization":"Liberty Public Schools","id":"a6aui9qvth91","lat":35.6243,"address":"24140 LIBERTY RD","number of students":23.08001953,"state":"OK"},"type":"Feature","geometry":{"type":"Point","coordinates":[-95.8416,35.6243]}},{"properties":{"lon":-95.7988,"city":"LEONARD","zip":74043.0,"norm oblig":723.7653503,"obligation amount":15836.0,"organization":"Leonard Public School","id":"a6aui9gqqfse","lat":35.9183,"address":"PO BOX 37","number of students":21.88001953,"state":"OK"},"type":"Feature","geometry":{"type":"Point","coordinates":[-95.7988,35.9183]}},{"properties":{"lon":-95.5737,"city":"SWINK","zip":74761.0,"norm oblig":279.0939867,"obligation amount":12202.0,"organization":"Swink Public School","id":"a6aui9fsjfat","lat":34.0117,"address":"PO BOX 73","number of students":43.72003906,"state":"OK"},"type":"Feature","geometry":{"type":"Point","coordinates":[-95.5737,34.0117]}},{"properties":{"lon":-95.5313,"city":"MILROY","zip":56263.0,"norm oblig":396.1699459,"obligation amount":16655.0,"organization":"Milroy Area Charter School","id":"a6aui9otsimd","lat":44.4176,"address":"BOX 129","number of students":42.04003906,"state":"MN"},"type":"Feature","geometry":{"type":"Point","coordinates":[-95.5313,44.4176]}},{"properties":{"lon":-95.5313,"city":"MILROY","zip":56263.0,"norm oblig":352.4970987,"obligation amount":12986.0,"organization":"Milroy Independent School District 635","id":"a6aui9rs69tt","lat":44.4176,"address":"BOX 10","number of students":36.84001953,"state":"MN"},"type":"Feature","geometry":{"type":"Point","coordinates":[-95.5313,44.4176]}},{"properties":{"lon":-95.5145,"city":"HUGO","zip":74743.0,"norm oblig":239.9998652,"obligation amount":16692.0,"organization":"Goodland Public School","id":"a6aui9rki57d","lat":34.0189,"address":"1218 N 4200 RD","number of students":69.55003906,"state":"OK"},"type":"Feature","geometry":{"type":"Point","coordinates":[-95.5145,34.0189]}},{"properties":{"lon":-95.3584,"city":"NASHOBA","zip":74558.0,"norm oblig":255.1041556,"obligation amount":13569.0,"organization":"Nashoba Elementary School","id":"a6aui9j9jagw","lat":34.4188,"address":"PO BOX 17","number of students":53.19003906,"state":"OK"},"type":"Feature","geometry":{"type":"Point","coordinates":[-95.3584,34.4188]}},{"properties":{"lon":-95.2375,"city":"OSAKIS","zip":56360.0,"norm oblig":259.1731302,"obligation amount":15299.0,"organization":"Lakes Area Charter School -- A public grades 9-12 Charter School.","id":"a6aui9llrltl","lat":45.8712,"address":"601 NOKOMIS STREET  W","number of students":59.03003906,"state":"MN"},"type":"Feature","geometry":{"type":"Point","coordinates":[-95.2375,45.8712]}},{"properties":{"lon":-95.0431,"city":"GILLETT GROVE","zip":51341.0,"norm oblig":309.8730159,"obligation amount":19522.0,"organization":"South Clay Community School -- Public K-12 District PK-6 Students In-House","id":"a6aui9t1s7r3","lat":43.0157,"address":"BOX 68","number of students":63.0,"state":"IA"},"type":"Feature","geometry":{"type":"Point","coordinates":[-95.0431,43.0157]}},{"properties":{"lon":-94.9707,"city":"MORTON","zip":56270.0,"norm oblig":941.8083102,"obligation amount":18224.0,"organization":"ECI Nompa Woonspe","id":"a6aui9n5dilm","lat":44.5861,"address":"BOX 10","number of students":19.35000977,"state":"MN"},"type":"Feature","geometry":{"type":"Point","coordinates":[-94.9707,44.5861]}},{"properties":{"lon":-94.8013,"city":"BEMIDJI","zip":56601.0,"norm oblig":271.9434072,"obligation amount":17350.0,"organization":"Voyageurs Expeditionary High School","id":"a6aui9mw49v6","lat":47.572,"address":"102 FIRST STREET WEST","number of students":63.80003906,"state":"MN"},"type":"Feature","geometry":{"type":"Point","coordinates":[-94.8013,47.572]}},{"properties":{"lon":-94.6063,"city":"CLEARFIELD","zip":50840.0,"norm oblig":284.0,"obligation amount":12496.0,"organization":"Clearfield Community School","id":"a6aui9guefmj","lat":40.7822,"address":"PO BOX  99","number of students":44.0,"state":"IA"},"type":"Feature","geometry":{"type":"Point","coordinates":[-94.6063,40.7822]}},{"properties":{"lon":-94.5942,"city":"PRESCOTT","zip":50859.0,"norm oblig":565.137931,"obligation amount":16389.0,"organization":"Prescott Community School District","id":"a6aui9l3atz3","lat":41.0577,"address":"PO BOX  1","number of students":29.0,"state":"IA"},"type":"Feature","geometry":{"type":"Point","coordinates":[-94.5942,41.0577]}},{"properties":{"lon":-94.4644,"city":"PILLAGER","zip":56473.0,"norm oblig":423.4837852,"obligation amount":15364.0,"organization":"Pillager Area Charter School -- ISD 4080","id":"a6aui9r75cis","lat":46.693,"address":"BOX 130","number of students":36.28001953,"state":"MN"},"type":"Feature","geometry":{"type":"Point","coordinates":[-94.4644,46.693]}},{"properties":{"lon":-94.3484,"city":"MARIETTA","zip":75566.0,"norm oblig":373.5168575,"obligation amount":12468.0,"organization":"Marietta Independent School District","id":"a6aui9mm82t6","lat":33.0958,"address":"308 N CENTRAL HWY 250","number of students":33.38001953,"state":"TX"},"type":"Feature","geometry":{"type":"Point","coordinates":[-94.3484,33.0958]}},{"properties":{"lon":-94.2924,"city":"MISSOURI CITY","zip":64072.0,"norm oblig":354.7228496,"obligation amount":16286.0,"organization":"Missouri City School District  56","id":"a6aui9s7g6ao","lat":39.2458,"address":"PO BOX 259","number of students":45.9119,"state":"MO"},"type":"Feature","geometry":{"type":"Point","coordinates":[-94.2924,39.2458]}},{"properties":{"lon":-94.2353,"city":"CENTER","zip":75935.0,"norm oblig":263.235917,"obligation amount":14916.0,"organization":"Excelsior ISD","id":"a6aui9n5zea6","lat":31.7808,"address":"11270 STATE HWY 7 W","number of students":56.664,"state":"TX"},"type":"Feature","geometry":{"type":"Point","coordinates":[-94.2353,31.7808]}},{"properties":{"lon":-94.1245,"city":"LUVERNE","zip":50560.0,"norm oblig":243.2903226,"obligation amount":15084.0,"organization":"LuVerne Community School District","id":"a6aui9g2zeyz","lat":42.9762,"address":"PO BOX  69","number of students":62.0,"state":"IA"},"type":"Feature","geometry":{"type":"Point","coordinates":[-94.1245,42.9762]}},{"properties":{"lon":-94.0783,"city":"KINGSTON","zip":64650.0,"norm oblig":276.1620381,"obligation amount":14400.0,"organization":"Kingston R42","id":"a6aui9gc468l","lat":39.6335,"address":"139 E LINCOLN","number of students":52.1433,"state":"MO"},"type":"Feature","geometry":{"type":"Point","coordinates":[-94.0783,39.6335]}},{"properties":{"lon":-94.0578,"city":"GREEN ISLE","zip":55338.0,"norm oblig":290.9972041,"obligation amount":18877.0,"organization":"Green Isle Community School","id":"a6aui9o9z1hj","lat":44.6357,"address":"190 MCGRANN STREET","number of students":64.87003906,"state":"MN"},"type":"Feature","geometry":{"type":"Point","coordinates":[-94.0578,44.6357]}},{"properties":{"lon":-94.0023,"city":"HAMILTON","zip":64644.0,"norm oblig":397.8061859,"obligation amount":18503.0,"organization":"New York R-IV School","id":"a6aui9poc2mc","lat":39.7192,"address":"6061 NE STATE RTE U","number of students":46.5126,"state":"MO"},"type":"Feature","geometry":{"type":"Point","coordinates":[-94.0023,39.7192]}},{"properties":{"lon":-93.9627,"city":"HENDERSON","zip":56044.0,"norm oblig":362.7722772,"obligation amount":18320.0,"organization":"EdVisions Off-Campus Charter School","id":"a6aui9gu0v7o","lat":44.5649,"address":"P.O. BOX 307","number of students":50.5,"state":"MN"},"type":"Feature","geometry":{"type":"Point","coordinates":[-93.9627,44.5649]}},{"properties":{"lon":-93.9413,"city":"COWGILL","zip":64637.0,"norm oblig":240.733957,"obligation amount":13209.0,"organization":"Cowgill R-VI School District","id":"a6aui9qidh05","lat":39.5901,"address":"PO BOX 49","number of students":54.8697,"state":"MO"},"type":"Feature","geometry":{"type":"Point","coordinates":[-93.9413,39.5901]}},{"properties":{"lon":-93.785,"city":"CLINTON","zip":64735.0,"norm oblig":272.9088545,"obligation amount":14483.0,"organization":"Davis R-12 School District","id":"a6aui9h4elss","lat":38.4018,"address":"227 SW HWY T","number of students":53.069,"state":"MO"},"type":"Feature","geometry":{"type":"Point","coordinates":[-93.785,38.4018]}},{"properties":{"lon":-93.5989,"city":"TRENTON","zip":64683.0,"norm oblig":269.165766,"obligation amount":18554.0,"organization":"Pleasant View R-VI School District","id":"a6aui9ppb2wp","lat":40.0836,"address":"128 SE 20TH ST","number of students":68.9315,"state":"MO"},"type":"Feature","geometry":{"type":"Point","coordinates":[-93.5989,40.0836]}},{"properties":{"lon":-93.2674,"city":"FARIBAULT","zip":55021.0,"norm oblig":430.4124584,"obligation amount":18766.0,"organization":"Discovery Public Schools","id":"a6aui9phdd08","lat":44.3629,"address":"126 8TH STREET NW","number of students":43.60003906,"state":"MN"},"type":"Feature","geometry":{"type":"Point","coordinates":[-93.2674,44.3629]}},{"properties":{"lon":-93.2642,"city":"SLATER","zip":65349.0,"norm oblig":303.2760267,"obligation amount":15596.0,"organization":"Orearville R-IV School","id":"a6aui9r3gjzn","lat":39.1012,"address":"PO BOX 13A","number of students":51.4251,"state":"MO"},"type":"Feature","geometry":{"type":"Point","coordinates":[-93.2642,39.1012]}},{"properties":{"lon":-93.004,"city":"GILLIAM","zip":65330.0,"norm oblig":305.5314864,"obligation amount":17842.0,"organization":"Gilliam C-4 School District","id":"a6aui9urhdah","lat":39.2327,"address":"PO BOX 8","number of students":58.3966,"state":"MO"},"type":"Feature","geometry":{"type":"Point","coordinates":[-93.004,39.2327]}},{"properties":{"lon":-92.9092,"city":"RUETER","zip":65744.0,"norm oblig":248.2245396,"obligation amount":16431.0,"organization":"Mark Twain R-8 School District","id":"a6aui9ljo631","lat":36.6283,"address":"37707 US HWY 160","number of students":66.1941,"state":"MO"},"type":"Feature","geometry":{"type":"Point","coordinates":[-92.9092,36.6283]}},{"properties":{"lon":-92.8373,"city":"SCANDIA","zip":55073.0,"norm oblig":2787.254331,"obligation amount":18591.0,"organization":"Franconia School District","id":"a6aui9noatt4","lat":45.2532,"address":"BOX 130","number of students":6.670004883,"state":"MN"},"type":"Feature","geometry":{"type":"Point","coordinates":[-92.8373,45.2532]}},{"properties":{"lon":-92.4461,"city":"ALEXANDRIA","zip":71306.0,"norm oblig":491.4002556,"obligation amount":20000.0,"organization":"Louisiana Special Education Center","id":"a6aui9o3rgep","lat":31.0756,"address":"P O DRAWER 7797","number of students":40.70001953,"state":"LA"},"type":"Feature","geometry":{"type":"Point","coordinates":[-92.4461,31.0756]}},{"properties":{"lon":-92.1491,"city":"HOLLIDAY","zip":65258.0,"norm oblig":239.6056276,"obligation amount":18640.0,"organization":"Holliday C-2 School","id":"a6aui9j4mgdl","lat":39.4887,"address":"PO BOX 7038","number of students":77.7945,"state":"MO"},"type":"Feature","geometry":{"type":"Point","coordinates":[-92.1491,39.4887]}},{"properties":{"lon":-92.1184,"city":"DULUTH","zip":55803.0,"norm oblig":252.815632,"obligation amount":14590.0,"organization":"Lake Superior High School","id":"a6aui9k7k7bw","lat":47.2173,"address":"5215 RICE LAKE ROAD","number of students":57.71003906,"state":"MN"},"type":"Feature","geometry":{"type":"Point","coordinates":[-92.1184,47.2173]}},{"properties":{"lon":-91.9259,"city":"WYACONDA","zip":63474.0,"norm oblig":246.6039998,"obligation amount":12401.0,"organization":"Wyaconda C-1 School","id":"a6aui9hwbpb8","lat":40.3922,"address":"PO BOX 168","number of students":50.2871,"state":"MO"},"type":"Feature","geometry":{"type":"Point","coordinates":[-91.9259,40.3922]}},{"properties":{"lon":-91.6851,"city":"LURAY","zip":63453.0,"norm oblig":310.6103897,"obligation amount":16633.0,"organization":"Luray School District 33","id":"a6aui9j890ck","lat":40.4312,"address":"PO BOX 248","number of students":53.5494,"state":"MO"},"type":"Feature","geometry":{"type":"Point","coordinates":[-91.6851,40.4312]}},{"properties":{"lon":-91.606,"city":"DAKOTA","zip":55925.0,"norm oblig":355.8015998,"obligation amount":17815.0,"organization":"Dakota Area Community School -- Public Elementary Charter School","id":"a6aui9rc0qnn","lat":43.9356,"address":"220 GOLDEN RULE ROAD","number of students":50.07003906,"state":"MN"},"type":"Feature","geometry":{"type":"Point","coordinates":[-91.606,43.9356]}},{"properties":{"lon":-91.5712,"city":"HOUSTON","zip":55943.0,"norm oblig":282.6963848,"obligation amount":20569.0,"organization":"Ridgeway Community School","id":"a6aui9kgvow8","lat":43.7814,"address":"35564 COUNTY ROAD 12","number of students":72.76003906,"state":"MN"},"type":"Feature","geometry":{"type":"Point","coordinates":[-91.5712,43.7814]}},{"properties":{"lon":-91.2157,"city":"IMBODEN","zip":72434.0,"norm oblig":329.9736303,"obligation amount":17680.0,"organization":"Imboden Area Charter School","id":"a6aui9gqz79p","lat":36.1837,"address":"P O BOX 297","number of students":53.58003906,"state":"AR"},"type":"Feature","geometry":{"type":"Point","coordinates":[-91.2157,36.1837]}},{"properties":{"lon":-91.0884,"city":"LOUISIANA","zip":63353.0,"norm oblig":354.1623038,"obligation amount":17081.0,"organization":"Boncl R-10 School District","id":"a6aui9jamoph","lat":39.4401,"address":"23526 PIKE 9247","number of students":48.2293,"state":"MO"},"type":"Feature","geometry":{"type":"Point","coordinates":[-91.0884,39.4401]}},{"properties":{"lon":-90.8019,"city":"TOFTE","zip":55615.0,"norm oblig":396.3076901,"obligation amount":17497.0,"organization":"Birch Grove Community School","id":"a6aui9sg3ol0","lat":47.6486,"address":"P.O. BOX 2242","number of students":44.15003906,"state":"MN"},"type":"Feature","geometry":{"type":"Point","coordinates":[-90.8019,47.6486]}},{"properties":{"lon":-90.4229,"city":"GRAND MARAIS","zip":55604.0,"norm oblig":450.3562504,"obligation amount":17055.0,"organization":"Great Expectations School","id":"a6aui9ieq4jg","lat":47.8723,"address":"BOX 310","number of students":37.87001953,"state":"MN"},"type":"Feature","geometry":{"type":"Point","coordinates":[-90.4229,47.8723]}},{"properties":{"lon":-89.881,"city":"MANITO","zip":61546.0,"norm oblig":301.3032793,"obligation amount":18030.0,"organization":"Spring Lake CCSD 606","id":"a6aui9h0uf9b","lat":40.3664,"address":"13650 N MANITO RD","number of students":59.84003906,"state":"IL"},"type":"Feature","geometry":{"type":"Point","coordinates":[-89.881,40.3664]}},{"properties":{"lon":-89.7283,"city":"ROCK FALLS","zip":61071.0,"norm oblig":610.4761094,"obligation amount":18064.0,"organization":"Nelson Elementary School District 8","id":"a6aui9uc4ltc","lat":41.6871,"address":"PO BOX 880","number of students":29.59001953,"state":"IL"},"type":"Feature","geometry":{"type":"Point","coordinates":[-89.7283,41.6871]}},{"properties":{"lon":-89.5963,"city":"OHIO","zip":61349.0,"norm oblig":357.6127286,"obligation amount":18038.0,"organization":"Ohio High School District 505","id":"a6aui9mipb7d","lat":41.4593,"address":"PO BOX 478","number of students":50.44003906,"state":"IL"},"type":"Feature","geometry":{"type":"Point","coordinates":[-89.5963,41.4593]}},{"properties":{"lon":-89.5532,"city":"OAKDALE","zip":62268.0,"norm oblig":251.9118834,"obligation amount":19697.0,"organization":"Oakdale Community Consolidated School District 1","id":"a6aui9itnub2","lat":38.2744,"address":"280 E MAIN ST","number of students":78.19003906,"state":"IL"},"type":"Feature","geometry":{"type":"Point","coordinates":[-89.5532,38.2744]}},{"properties":{"lon":-89.5175,"city":"BERGLAND","zip":49910.0,"norm oblig":528.0,"obligation amount":19536.0,"organization":"Gogebic-Ontonagon Intermediate School District","id":"a6aui9tykzwu","lat":46.5853,"address":"P.O. BOX 218","number of students":37.0,"state":"MI"},"type":"Feature","geometry":{"type":"Point","coordinates":[-89.5175,46.5853]}},{"properties":{"lon":-89.4798,"city":"DALZELL","zip":61320.0,"norm oblig":253.2985435,"obligation amount":17546.0,"organization":"Dalzell School District 98","id":"a6aui9l7k52p","lat":41.3667,"address":"307 CHESTNUT ST","number of students":69.27003906,"state":"IL"},"type":"Feature","geometry":{"type":"Point","coordinates":[-89.4798,41.3667]}},{"properties":{"lon":-89.3686,"city":"BUREAU","zip":61315.0,"norm oblig":301.9554074,"obligation amount":14977.0,"organization":"Leepertown Community Consolidated District","id":"a6aui9u0tudl","lat":41.2894,"address":"PO BOX 170","number of students":49.60003906,"state":"IL"},"type":"Feature","geometry":{"type":"Point","coordinates":[-89.3686,41.2894]}},{"properties":{"lon":-89.3001,"city":"HOYLETON","zip":62803.0,"norm oblig":249.7149608,"obligation amount":17530.0,"organization":"Hoyleton School District 29","id":"a6aui9r5zohk","lat":38.3711,"address":"520 N MAIN","number of students":70.20003906,"state":"IL"},"type":"Feature","geometry":{"type":"Point","coordinates":[-89.3001,38.3711]}},{"properties":{"lon":-89.0861,"city":"STEWARD","zip":60553.0,"norm oblig":251.4600979,"obligation amount":19976.0,"organization":"Steward Elementary District 220","id":"a6aui9pbeqex","lat":41.7967,"address":"602 MAIN ST","number of students":79.44003906,"state":"IL"},"type":"Feature","geometry":{"type":"Point","coordinates":[-89.0861,41.7967]}},{"properties":{"lon":-88.8923,"city":"MOUNT VERNON","zip":62864.0,"norm oblig":269.6109692,"obligation amount":16848.0,"organization":"McClellan CCSD 12","id":"a6aui9in2zgv","lat":38.2933,"address":"9475 N IL HWY 148","number of students":62.49003906,"state":"IL"},"type":"Feature","geometry":{"type":"Point","coordinates":[-88.8923,38.2933]}},{"properties":{"lon":-88.8532,"city":"TOIVOLA","zip":49965.0,"norm oblig":1204.333333,"obligation amount":18065.0,"organization":"Elm River Township School District","id":"a6aui9ow1jj8","lat":46.9109,"address":"3999 E. WINONA RD.","number of students":15.0,"state":"MI"},"type":"Feature","geometry":{"type":"Point","coordinates":[-88.8532,46.9109]}},{"properties":{"lon":-88.7463,"city":"BLUFORD","zip":62814.0,"norm oblig":263.6450234,"obligation amount":13525.0,"organization":"Farrington Community Consolidated School District 99","id":"a6aui9kn4i1x","lat":38.3845,"address":"20941 E DIVIDE RD","number of students":51.30003906,"state":"IL"},"type":"Feature","geometry":{"type":"Point","coordinates":[-88.7463,38.3845]}},{"properties":{"lon":-88.6086,"city":"GRAYMONT","zip":61743.0,"norm oblig":379.3969904,"obligation amount":17752.0,"organization":"Rooks Creek Community Consolidated School District 424","id":"a6aui9l9o83f","lat":40.8794,"address":"PO BOX 117","number of students":46.79003906,"state":"IL"},"type":"Feature","geometry":{"type":"Point","coordinates":[-88.6086,40.8794]}},{"properties":{"lon":-88.3297,"city":"MUKWONAGO","zip":53149.0,"norm oblig":344.9245283,"obligation amount":18281.0,"organization":"Norris School District","id":"a6aui9rojbcq","lat":42.9759,"address":"W247S10395 CENTER RD","number of students":53.0,"state":"WI"},"type":"Feature","geometry":{"type":"Point","coordinates":[-88.3297,42.9759]}},{"properties":{"lon":-88.1391,"city":"SKANEE","zip":49962.0,"norm oblig":1347.5,"obligation amount":16170.0,"organization":"Arvon Township School","id":"a6aui9pa70se","lat":46.8671,"address":"21798 SKANEE ROAD","number of students":12.0,"state":"MI"},"type":"Feature","geometry":{"type":"Point","coordinates":[-88.1391,46.8671]}},{"properties":{"lon":-87.9463,"city":"COPPER HARBOR","zip":49918.0,"norm oblig":6495.0,"obligation amount":19485.0,"organization":"Grant Township School District 2","id":"a6aui9tv1fei","lat":47.4716,"address":"P.O. BOX 74","number of students":3.0,"state":"MI"},"type":"Feature","geometry":{"type":"Point","coordinates":[-87.9463,47.4716]}},{"properties":{"lon":-87.6726,"city":"BIG BAY","zip":49808.0,"norm oblig":370.525,"obligation amount":14821.0,"organization":"POWELL TOWNSHIP SCHOOL DISTRICT","id":"a6aui9om5ah0","lat":46.7708,"address":"P.O. BOX 160","number of students":40.0,"state":"MI"},"type":"Feature","geometry":{"type":"Point","coordinates":[-87.6726,46.7708]}},{"properties":{"lon":-87.6148,"city":"ARNOLD","zip":49819.0,"norm oblig":1040.529412,"obligation amount":17689.0,"organization":"Wells Township School District 18","id":"a6aui9twip2a","lat":46.6041,"address":"P.O. BOX 108","number of students":17.0,"state":"MI"},"type":"Feature","geometry":{"type":"Point","coordinates":[-87.6148,46.6041]}},{"properties":{"lon":-87.0497,"city":"DEERTON","zip":49822.0,"norm oblig":506.7241379,"obligation amount":14695.0,"organization":"AuTrain-Onota Public School","id":"a6aui9m15i0j","lat":46.427,"address":"P.O. BOX 105","number of students":29.0,"state":"MI"},"type":"Feature","geometry":{"type":"Point","coordinates":[-87.0497,46.427]}},{"properties":{"lon":-86.3782,"city":"SODUS","zip":49126.0,"norm oblig":317.5254237,"obligation amount":18734.0,"organization":"Sodus Township School District 5","id":"a6aui9fn6kcf","lat":42.0295,"address":"4439 RIVER ROAD","number of students":59.0,"state":"MI"},"type":"Feature","geometry":{"type":"Point","coordinates":[-86.3782,42.0295]}},{"properties":{"lon":-86.3494,"city":"LUDINGTON","zip":49431.0,"norm oblig":311.1904762,"obligation amount":19605.0,"organization":"Mason-Lake ISD","id":"a6aui9rlknzc","lat":43.9989,"address":"2130 W. US-10","number of students":63.0,"state":"MI"},"type":"Feature","geometry":{"type":"Point","coordinates":[-86.3494,43.9989]}},{"properties":{"lon":-86.3341,"city":"HART","zip":49420.0,"norm oblig":511.6315789,"obligation amount":19442.0,"organization":"Oceana ISD","id":"a6aui9gbkgaj","lat":43.701,"address":"844 GRISWOLD STREET","number of students":38.0,"state":"MI"},"type":"Feature","geometry":{"type":"Point","coordinates":[-86.3341,43.701]}},{"properties":{"lon":-86.0961,"city":"BANGOR","zip":49013.0,"norm oblig":877.65,"obligation amount":17553.0,"organization":"Bangor Township School District 8","id":"a6aui9lvm0fa","lat":42.3128,"address":"35594 66TH STREET","number of students":20.0,"state":"MI"},"type":"Feature","geometry":{"type":"Point","coordinates":[-86.0961,42.3128]}},{"properties":{"lon":-86.072,"city":"GLENN","zip":49416.0,"norm oblig":433.25,"obligation amount":17330.0,"organization":"Glenn Public School","id":"a6aui9ohf1uv","lat":42.6305,"address":"P.O. BOX 68","number of students":40.0,"state":"MI"},"type":"Feature","geometry":{"type":"Point","coordinates":[-86.072,42.6305]}},{"properties":{"lon":-85.9641,"city":"GRAND MARAIS","zip":49839.0,"norm oblig":240.2,"obligation amount":16814.0,"organization":"Burt Township School","id":"a6aui9olscpo","lat":46.6688,"address":"P.O. BOX 338","number of students":70.0,"state":"MI"},"type":"Feature","geometry":{"type":"Point","coordinates":[-85.9641,46.6688]}},{"properties":{"lon":-85.8949,"city":"ALLEGAN","zip":49010.0,"norm oblig":1077.5,"obligation amount":19395.0,"organization":"Outlook Academy","id":"a6aui9n6v9fl","lat":42.5393,"address":"310 THOMAS STREET","number of students":18.0,"state":"MI"},"type":"Feature","geometry":{"type":"Point","coordinates":[-85.8949,42.5393]}},{"properties":{"lon":-85.5473,"city":"BEAVER ISLAND","zip":49782.0,"norm oblig":259.4615385,"obligation amount":16865.0,"organization":"Beaver Island Community School District","id":"a6aui9q8xc7g","lat":45.6684,"address":"37895 KING'S HIGHWAY","number of students":65.0,"state":"MI"},"type":"Feature","geometry":{"type":"Point","coordinates":[-85.5473,45.6684]}},{"properties":{"lon":-85.3654,"city":"PARIS","zip":49338.0,"norm oblig":419.5714286,"obligation amount":14685.0,"organization":"Big Jackson Public School","id":"a6aui9vfndqw","lat":43.7278,"address":"4020 EAST 13 MILE ROAD","number of students":35.0,"state":"MI"},"type":"Feature","geometry":{"type":"Point","coordinates":[-85.3654,43.7278]}},{"properties":{"lon":-85.0929,"city":"KALKASKA","zip":49646.0,"norm oblig":369.5744681,"obligation amount":17370.0,"organization":"Excelsior District 1 -- Crawford School","id":"a6aui9jtxmxd","lat":44.6971,"address":"5521 M-72 NE","number of students":47.0,"state":"MI"},"type":"Feature","geometry":{"type":"Point","coordinates":[-85.0929,44.6971]}},{"properties":{"lon":-85.0905,"city":"IONIA","zip":48846.0,"norm oblig":565.4545455,"obligation amount":18660.0,"organization":"Berlin Township School District","id":"a6aui9p2l79o","lat":42.9734,"address":"6679 S. STATE ROAD","number of students":33.0,"state":"MI"},"type":"Feature","geometry":{"type":"Point","coordinates":[-85.0905,42.9734]}},{"properties":{"lon":-85.0905,"city":"IONIA","zip":48846.0,"norm oblig":2480.428571,"obligation amount":17363.0,"organization":"Ionia Township School District","id":"a6aui9j35gwy","lat":42.9734,"address":"2120 N. STATE ROAD","number of students":7.0,"state":"MI"},"type":"Feature","geometry":{"type":"Point","coordinates":[-85.0905,42.9734]}},{"properties":{"lon":-85.0905,"city":"IONIA","zip":48846.0,"norm oblig":569.6538462,"obligation amount":14811.0,"organization":"Easton Township School District","id":"a6aui9r9fwtx","lat":42.9734,"address":"1779 HAYNOR ROAD","number of students":26.0,"state":"MI"},"type":"Feature","geometry":{"type":"Point","coordinates":[-85.0905,42.9734]}},{"properties":{"lon":-84.9912,"city":"POINTE AUX PINS","zip":49775.0,"norm oblig":9978.0,"obligation amount":19956.0,"organization":"Bois Blanc Pines School District","id":"a6aui9fxh5zk","lat":45.9691,"address":"P.O. BOX 876","number of students":2.0,"state":"MI"},"type":"Feature","geometry":{"type":"Point","coordinates":[-84.9912,45.9691]}},{"properties":{"lon":-84.6182,"city":"MACKINAC ISLAND","zip":49757.0,"norm oblig":266.0285714,"obligation amount":18622.0,"organization":"Mackinac Island Public School","id":"a6aui9otxfvl","lat":45.8537,"address":"P.O. BOX 340","number of students":70.0,"state":"MI"},"type":"Feature","geometry":{"type":"Point","coordinates":[-84.6182,45.8537]}},{"properties":{"lon":-84.6112,"city":"ROSCOMMON","zip":48653.0,"norm oblig":254.7228916,"obligation amount":21142.0,"organization":"COOR Intermediate School District","id":"a6aui9jbqmrn","lat":44.3945,"address":"P.O. BOX 827","number of students":83.0,"state":"MI"},"type":"Feature","geometry":{"type":"Point","coordinates":[-84.6112,44.3945]}},{"properties":{"lon":-84.5829,"city":"HILLSDALE","zip":49242.0,"norm oblig":327.0,"obligation amount":13080.0,"organization":"Sauk Trail Academy","id":"a6aui9g0mu7p","lat":41.8539,"address":"160 W. MECHANIC ROAD","number of students":40.0,"state":"MI"},"type":"Feature","geometry":{"type":"Point","coordinates":[-84.5829,41.8539]}},{"properties":{"lon":-84.4361,"city":"BEAVERTON","zip":48612.0,"norm oblig":249.2424242,"obligation amount":16450.0,"organization":"Creative Learning Academy","id":"a6aui9it5d2b","lat":43.9652,"address":"540 LANG ROAD","number of students":66.0,"state":"MI"},"type":"Feature","geometry":{"type":"Point","coordinates":[-84.4361,43.9652]}},{"properties":{"lon":-83.8716,"city":"ONAWAY","zip":49765.0,"norm oblig":338.0847458,"obligation amount":19947.0,"organization":"Presque Isle Academy II","id":"a6aui9mq5l7l","lat":45.3633,"address":"21045 M-68 HWY.","number of students":59.0,"state":"MI"},"type":"Feature","geometry":{"type":"Point","coordinates":[-83.8716,45.3633]}},{"properties":{"lon":-83.6771,"city":"TAWAS CITY","zip":48763.0,"norm oblig":339.4912281,"obligation amount":19351.0,"organization":"Iosco ISD","id":"a6aui9myxuq6","lat":44.2775,"address":"27 N. REMPERT ROAD","number of students":57.0,"state":"MI"},"type":"Feature","geometry":{"type":"Point","coordinates":[-83.6771,44.2775]}},{"properties":{"lon":-83.5629,"city":"EAST TAWAS","zip":48730.0,"norm oblig":245.7230769,"obligation amount":15972.0,"organization":"Sunrise Education Center","id":"a6aui9ihdc0l","lat":44.3496,"address":"686 AULERICH","number of students":65.0,"state":"MI"},"type":"Feature","geometry":{"type":"Point","coordinates":[-83.5629,44.3496]}},{"properties":{"lon":-83.3195,"city":"LAPEER","zip":48446.0,"norm oblig":271.45,"obligation amount":21716.0,"organization":"Lapeer County Intermediate School District","id":"a6aui9jjlwzt","lat":43.1214,"address":"1996 W. OREGON STREET","number of students":80.0,"state":"MI"},"type":"Feature","geometry":{"type":"Point","coordinates":[-83.3195,43.1214]}},{"properties":{"lon":-82.9582,"city":"CALEDONIA","zip":43314.0,"norm oblig":333.3220339,"obligation amount":19666.0,"organization":"River Valley Digital Academy","id":"a6aui9ky8jim","lat":40.6312,"address":"197 BROCKLESBY RD","number of students":59.0,"state":"OH"},"type":"Feature","geometry":{"type":"Point","coordinates":[-82.9582,40.6312]}},{"properties":{"lon":-82.9491,"city":"BAD AXE","zip":48413.0,"norm oblig":1824.5,"obligation amount":18245.0,"organization":"Sigel Township School District 3F","id":"a6aui9vf3rxe","lat":43.7946,"address":"4151 SECTION LINE ROAD","number of students":10.0,"state":"MI"},"type":"Feature","geometry":{"type":"Point","coordinates":[-82.9491,43.7946]}},{"properties":{"lon":-82.9491,"city":"BAD AXE","zip":48413.0,"norm oblig":774.826087,"obligation amount":17821.0,"organization":"Church School District","id":"a6aui9fych8b","lat":43.7946,"address":"2927 CROCKARD ROAD","number of students":23.0,"state":"MI"},"type":"Feature","geometry":{"type":"Point","coordinates":[-82.9491,43.7946]}},{"properties":{"lon":-82.9491,"city":"BAD AXE","zip":48413.0,"norm oblig":792.4166667,"obligation amount":19018.0,"organization":"Colfax Township School District 1F","id":"a6aui9kxdu46","lat":43.7946,"address":"1509 N. VAN DYKE ROAD","number of students":24.0,"state":"MI"},"type":"Feature","geometry":{"type":"Point","coordinates":[-82.9491,43.7946]}},{"properties":{"lon":-82.9491,"city":"BAD AXE","zip":48413.0,"norm oblig":316.4126984,"obligation amount":19934.0,"organization":"Huron Intermediate School District","id":"a6aui9fkvtok","lat":43.7946,"address":"711 E. SOPER ROAD","number of students":63.0,"state":"MI"},"type":"Feature","geometry":{"type":"Point","coordinates":[-82.9491,43.7946]}},{"properties":{"lon":-82.9491,"city":"BAD AXE","zip":48413.0,"norm oblig":3603.8,"obligation amount":18019.0,"organization":"Bloomfield Township School District 7","id":"a6aui9kfxyhb","lat":43.7946,"address":"2072 N. VERONA ROAD","number of students":5.0,"state":"MI"},"type":"Feature","geometry":{"type":"Point","coordinates":[-82.9491,43.7946]}},{"properties":{"lon":-82.9491,"city":"BAD AXE","zip":48413.0,"norm oblig":714.48,"obligation amount":17862.0,"organization":"Verona Township School District 1F","id":"a6aui9gamx2p","lat":43.7946,"address":"3487 SCHOOL STREET","number of students":25.0,"state":"MI"},"type":"Feature","geometry":{"type":"Point","coordinates":[-82.9491,43.7946]}},{"properties":{"lon":-82.853,"city":"CARDINGTON","zip":43315.0,"norm oblig":334.0172414,"obligation amount":19373.0,"organization":"Cardingon-Lincoln Local Digital Academy","id":"a6aui9jn06xq","lat":40.4796,"address":"121 NICHOLS ST","number of students":58.0,"state":"OH"},"type":"Feature","geometry":{"type":"Point","coordinates":[-82.853,40.4796]}},{"properties":{"lon":-82.819,"city":"PUT IN BAY","zip":43456.0,"norm oblig":283.140625,"obligation amount":18121.0,"organization":"Put-in-Bay Local School District","id":"a6aui9vu03gz","lat":41.6472,"address":"PO BOX 659","number of students":64.0,"state":"OH"},"type":"Feature","geometry":{"type":"Point","coordinates":[-82.819,41.6472]}},{"properties":{"lon":-82.8003,"city":"HARBOR BEACH","zip":48441.0,"norm oblig":1683.727273,"obligation amount":18521.0,"organization":"Sigel Township School District 6","id":"a6aui9hcfx5b","lat":43.8673,"address":"4499 KIPPER ROAD","number of students":11.0,"state":"MI"},"type":"Feature","geometry":{"type":"Point","coordinates":[-82.8003,43.8673]}},{"properties":{"lon":-82.8003,"city":"HARBOR BEACH","zip":48441.0,"norm oblig":880.7619048,"obligation amount":18496.0,"organization":"Sigel Township School District 4F","id":"a6aui9i8cs7w","lat":43.8673,"address":"5754 SECTION LINE ROAD","number of students":21.0,"state":"MI"},"type":"Feature","geometry":{"type":"Point","coordinates":[-82.8003,43.8673]}},{"properties":{"lon":-82.7244,"city":"SANDUSKY","zip":44870.0,"norm oblig":1062.222222,"obligation amount":19120.0,"organization":"Kelleys Island Local School","id":"a6aui9vbaobs","lat":41.3991,"address":"2900 COLUMBUS AVE","number of students":18.0,"state":"OH"},"type":"Feature","geometry":{"type":"Point","coordinates":[-82.7244,41.3991]}},{"properties":{"lon":-82.6244,"city":"PATASKALA","zip":43062.0,"norm oblig":436.4222222,"obligation amount":19639.0,"organization":"Southwest Licking Digital Academy","id":"a6aui9h62uer","lat":40.0149,"address":"927A South Street","number of students":45.0,"state":"OH"},"type":"Feature","geometry":{"type":"Point","coordinates":[-82.6244,40.0149]}},{"properties":{"lon":-81.9101,"city":"BANNER ELK","zip":28604.0,"norm oblig":671.7894737,"obligation amount":12764.0,"organization":"Grandfather Academy","id":"a6aui9rp0oer","lat":36.072,"address":"PO BOX 2260","number of students":19.0,"state":"NC"},"type":"Feature","geometry":{"type":"Point","coordinates":[-81.9101,36.072]}},{"properties":{"lon":-81.8942,"city":"DUNCAN FALLS","zip":43734.0,"norm oblig":269.2105263,"obligation amount":20460.0,"organization":"Franklin Local Digital Academy","id":"a6aui9nujs69","lat":39.8721,"address":"360 CEDAR ST","number of students":76.0,"state":"OH"},"type":"Feature","geometry":{"type":"Point","coordinates":[-81.8942,39.8721]}},{"properties":{"lon":-79.3297,"city":"SAXAPAHAW","zip":27340.0,"norm oblig":280.6944444,"obligation amount":20210.0,"organization":"The Hawbridge School","id":"a6aui9ip24wd","lat":35.9488,"address":"1735 SAXAPAHAW ROAD","number of students":72.0,"state":"NC"},"type":"Feature","geometry":{"type":"Point","coordinates":[-79.3297,35.9488]}},{"properties":{"lon":-78.8444,"city":"RANDOLPH","zip":14772.0,"norm oblig":308.6086957,"obligation amount":21294.0,"organization":"Randolph Academy UFSD","id":"a6aui9pc9zkg","lat":42.1568,"address":"336 MAIN ST-ER","number of students":69.0,"state":"NY"},"type":"Feature","geometry":{"type":"Point","coordinates":[-78.8444,42.1568]}},{"properties":{"lon":-77.758,"city":"STATE COLLEGE","zip":16803.0,"norm oblig":731.8076923,"obligation amount":19027.0,"organization":"Wonderland Charter School","id":"a6aui9fin9ra","lat":40.8787,"address":"2112 SANDY DR","number of students":26.0,"state":"PA"},"type":"Feature","geometry":{"type":"Point","coordinates":[-77.758,40.8787]}},{"properties":{"lon":-75.3799,"city":"WOODSTOWN","zip":8098.0,"norm oblig":281.7061345,"obligation amount":22272.0,"organization":"Salem County Special Services School District","id":"a6aui9v0u119","lat":39.586,"address":"13  SOUTH MAIN STREET","number of students":79.06111111,"state":"NJ"},"type":"Feature","geometry":{"type":"Point","coordinates":[-75.3799,39.586]}},{"properties":{"lon":-74.9706,"city":"STOCKTON","zip":8559.0,"norm oblig":414.5162859,"obligation amount":18948.0,"organization":"Stockton Borough School District","id":"a6aui9tvl0sd","lat":40.4364,"address":"19 SOUTH MAIN STREET","number of students":45.71111111,"state":"NJ"},"type":"Feature","geometry":{"type":"Point","coordinates":[-74.9706,40.4364]}},{"properties":{"lon":-74.9375,"city":"BLAIRSTOWN","zip":7825.0,"norm oblig":247.7156886,"obligation amount":23544.0,"organization":"Ridge and Valley Charter School","id":"a6aui9lbvfgo","lat":40.9422,"address":"1234 STATE ROUTE 94","number of students":95.04444444,"state":"NJ"},"type":"Feature","geometry":{"type":"Point","coordinates":[-74.9375,40.9422]}},{"properties":{"lon":-74.8633,"city":"FLEMINGTON","zip":8822.0,"norm oblig":241.0121036,"obligation amount":24448.0,"organization":"Hunterdon County Educational Services Commission","id":"a6aui9j0h9sw","lat":40.5079,"address":"SANDHILL SCHOOL","number of students":101.4388889,"state":"NJ"},"type":"Feature","geometry":{"type":"Point","coordinates":[-74.8633,40.5079]}},{"properties":{"lon":-74.83,"city":"LEBANON","zip":8833.0,"norm oblig":246.6227209,"obligation amount":19538.0,"organization":"Lebanon Borough School","id":"a6aui9ooub0e","lat":40.6354,"address":"6 MAPLE STREET","number of students":79.22222222,"state":"NJ"},"type":"Feature","geometry":{"type":"Point","coordinates":[-74.83,40.6354]}},{"properties":{"lon":-74.7679,"city":"WEST CAPE MAY","zip":8204.0,"norm oblig":357.7008729,"obligation amount":16634.0,"organization":"West Cape May Board of Education","id":"a6aui9v1kjtv","lat":39.1103,"address":"301 MOORE STREET","number of students":46.50254237,"state":"NJ"},"type":"Feature","geometry":{"type":"Point","coordinates":[-74.7679,39.1103]}},{"properties":{"lon":-74.7182,"city":"SPARTA","zip":7871.0,"norm oblig":1159.047006,"obligation amount":20000.0,"organization":"Sussex County Educational Services Commission","id":"a6aui9jer4ta","lat":41.0406,"address":"10 GAIL COURT","number of students":17.25555556,"state":"NJ"},"type":"Feature","geometry":{"type":"Point","coordinates":[-74.7182,41.0406]}},{"properties":{"lon":-74.5265,"city":"PISECO","zip":12139.0,"norm oblig":1020.666667,"obligation amount":18372.0,"organization":"Piseco Common School","id":"a6aui9pxcpkg","lat":43.4284,"address":"P.O. BOX 7","number of students":18.0,"state":"NY"},"type":"Feature","geometry":{"type":"Point","coordinates":[-74.5265,43.4284]}},{"properties":{"lon":-74.4569,"city":"INLET","zip":13360.0,"norm oblig":532.0606061,"obligation amount":17558.0,"organization":"Inlet Common School District","id":"a6aui9mlregu","lat":43.6676,"address":"PO BOX 207","number of students":33.0,"state":"NY"},"type":"Feature","geometry":{"type":"Point","coordinates":[-74.4569,43.6676]}},{"properties":{"lon":-73.9809,"city":"WEST PARK","zip":12493.0,"norm oblig":367.3148148,"obligation amount":19835.0,"organization":"West Park Union Free School District","id":"a6aui9v4kpmu","lat":41.7953,"address":"P.O. BOX 10","number of students":54.0,"state":"NY"},"type":"Feature","geometry":{"type":"Point","coordinates":[-73.9809,41.7953]}},{"properties":{"lon":-73.8152,"city":"NEWCOMB","zip":12852.0,"norm oblig":283.3396226,"obligation amount":15017.0,"organization":"Newcomb Central School","id":"a6aui9j0ssqa","lat":44.1457,"address":"PO BOX 418","number of students":53.0,"state":"NY"},"type":"Feature","geometry":{"type":"Point","coordinates":[-73.8152,44.1457]}},{"properties":{"lon":-73.4714,"city":"DANBURY","zip":6810.0,"norm oblig":765.625,"obligation amount":18375.0,"organization":"EDUCATION CONNECTION","id":"a6aui9sl4i4w","lat":41.3762,"address":"345 MAIN STREET","number of students":24.0,"state":"CT"},"type":"Feature","geometry":{"type":"Point","coordinates":[-73.4714,41.3762]}},{"properties":{"lon":-73.4222,"city":"PUTNAM STATION","zip":12861.0,"norm oblig":339.4878049,"obligation amount":13919.0,"organization":"Putnam Central School District","id":"a6aui9m6j946","lat":43.7438,"address":"P.O. BOX 91","number of students":41.0,"state":"NY"},"type":"Feature","geometry":{"type":"Point","coordinates":[-73.4222,43.7438]}},{"properties":{"lon":-73.235,"city":"LANESBOROUGH","zip":1237.0,"norm oblig":454.6153846,"obligation amount":17730.0,"organization":"Hancock School","id":"a6aui9pthvzg","lat":42.4876,"address":"188 SUMMER STREET","number of students":39.0,"state":"MA"},"type":"Feature","geometry":{"type":"Point","coordinates":[-73.235,42.4876]}},{"properties":{"lon":-73.1863,"city":"NORTH ADAMS","zip":1247.0,"norm oblig":313.2222222,"obligation amount":16914.0,"organization":"Savoy Elementary School","id":"a6aui9o38uv1","lat":42.427,"address":"98 CHURCH STREET","number of students":54.0,"state":"MA"},"type":"Feature","geometry":{"type":"Point","coordinates":[-73.1863,42.427]}},{"properties":{"lon":-73.0582,"city":"WINSTED","zip":6098.0,"norm oblig":240.7125,"obligation amount":19257.0,"organization":"Explorations Charter School","id":"a6aui9fhzggb","lat":41.9257,"address":"286 MAIN STREET","number of students":80.0,"state":"CT"},"type":"Feature","geometry":{"type":"Point","coordinates":[-73.0582,41.9257]}},{"properties":{"lon":-72.7588,"city":"SHELBURNE FALLS","zip":1370.0,"norm oblig":313.704918,"obligation amount":19136.0,"organization":"Rowe School District -- Rowe Elementary School","id":"a6aui9vp8cx6","lat":42.5888,"address":"24 ASHFIELD RD","number of students":61.0,"state":"MA"},"type":"Feature","geometry":{"type":"Point","coordinates":[-72.7588,42.5888]}},{"properties":{"lon":-72.7235,"city":"FISHERS ISLAND","zip":6390.0,"norm oblig":280.1940299,"obligation amount":18773.0,"organization":"Fishers Island UFSD","id":"a6aui9q0cztn","lat":40.9923,"address":"P.O. DRAWER A","number of students":67.0,"state":"NY"},"type":"Feature","geometry":{"type":"Point","coordinates":[-72.7235,40.9923]}},{"properties":{"lon":-72.6371,"city":"WAINSCOTT","zip":11975.0,"norm oblig":294.8939394,"obligation amount":19463.0,"organization":"Child Development Center-Hamptons Charter","id":"a6aui9ose8b5","lat":40.9223,"address":"P.O. BOX 404","number of students":66.0,"state":"NY"},"type":"Feature","geometry":{"type":"Point","coordinates":[-72.6371,40.9223]}},{"properties":{"lon":-72.2764,"city":"UNION","zip":6076.0,"norm oblig":272.2361111,"obligation amount":19601.0,"organization":"Union Public Schools","id":"a6aui9qei1ty","lat":41.9005,"address":"18 KINNEY HOLLOW ROAD","number of students":72.0,"state":"CT"},"type":"Feature","geometry":{"type":"Point","coordinates":[-72.2764,41.9005]}},{"properties":{"lon":-72.248,"city":"KEENE","zip":3431.0,"norm oblig":249.469436,"obligation amount":12935.0,"organization":"Nelson Town School District","id":"a6aui9vdx21y","lat":42.9036,"address":"34 WEST ST.","number of students":51.85003906,"state":"NH"},"type":"Feature","geometry":{"type":"Point","coordinates":[-72.248,42.9036]}},{"properties":{"lon":-72.1997,"city":"NEWPORT","zip":3773.0,"norm oblig":451.9507754,"obligation amount":11466.0,"organization":"Croydon Village School","id":"a6aui9rd4p5v","lat":43.3905,"address":"9 DEPOT ST., SUITE 2","number of students":25.37001953,"state":"NH"},"type":"Feature","geometry":{"type":"Point","coordinates":[-72.1997,43.3905]}},{"properties":{"lon":-72.0146,"city":"N. HAVERHILL","zip":3774.0,"norm oblig":344.8138946,"obligation amount":20313.0,"organization":"Bath School District","id":"a6aui9j7hypa","lat":44.0778,"address":"2975 DARTMOUTH COLLEGE HWY.","number of students":58.91003906,"state":"NH"},"type":"Feature","geometry":{"type":"Point","coordinates":[-72.0146,44.0778]}},{"properties":{"lon":-71.9758,"city":"HAMPTON","zip":6247.0,"norm oblig":293.5344828,"obligation amount":17025.0,"organization":"EASTCONN","id":"a6aui9kdmi0e","lat":41.7887,"address":"376 HARTFORD TURNPIKE","number of students":58.0,"state":"CT"},"type":"Feature","geometry":{"type":"Point","coordinates":[-71.9758,41.7887]}},{"properties":{"lon":-71.8776,"city":"LITTLETON","zip":3561.0,"norm oblig":1253.02744,"obligation amount":18620.0,"organization":"Landaff School District","id":"a6aui9jgib78","lat":44.3353,"address":"MOUNT EUSTIS COMMON, 262 COTTAGE STREET, STE 230","number of students":14.86000977,"state":"NH"},"type":"Feature","geometry":{"type":"Point","coordinates":[-71.8776,44.3353]}},{"properties":{"lon":-71.8196,"city":"HENNIKER","zip":3242.0,"norm oblig":294.6557441,"obligation amount":13619.0,"organization":"Stoddard School District","id":"a6aui9vjtdse","lat":43.1801,"address":"41 LIBERTY HILL ROAD, BLDG. 5","number of students":46.22003906,"state":"NH"},"type":"Feature","geometry":{"type":"Point","coordinates":[-71.8196,43.1801]}},{"properties":{"lon":-71.694,"city":"PLYMOUTH","zip":3264.0,"norm oblig":540.303077,"obligation amount":18165.0,"organization":"Waterville Valley School District","id":"a6aui9rk3ttw","lat":43.7109,"address":"47 OLD WARD BRIDGE RD.","number of students":33.62001953,"state":"NH"},"type":"Feature","geometry":{"type":"Point","coordinates":[-71.694,43.7109]}},{"properties":{"lon":-71.4224,"city":"GROVETON","zip":3582.0,"norm oblig":384.2470554,"obligation amount":10440.0,"organization":"Stark School District -- SAU 58","id":"a6aui9m9agy3","lat":44.751,"address":"15 PREBLE ST.","number of students":27.17001953,"state":"NH"},"type":"Feature","geometry":{"type":"Point","coordinates":[-71.4224,44.751]}},{"properties":{"lon":-71.2431,"city":"REHOBOTH","zip":2769.0,"norm oblig":4966.5,"obligation amount":19866.0,"organization":"Gosnold School Department","id":"a6aui9ntth2j","lat":41.853,"address":"16 WILLIAMS STREET","number of students":4.0,"state":"MA"},"type":"Feature","geometry":{"type":"Point","coordinates":[-71.2431,41.853]}},{"properties":{"lon":-71.1547,"city":"GORHAM","zip":3581.0,"norm oblig":644.3699484,"obligation amount":13564.0,"organization":"Errol School District","id":"a6aui9fnor4v","lat":44.4048,"address":"123 MAIN ST.","number of students":21.05001953,"state":"NH"},"type":"Feature","geometry":{"type":"Point","coordinates":[-71.1547,44.4048]}},{"properties":{"lon":-71.1026,"city":"CONWAY","zip":3818.0,"norm oblig":239.7340564,"obligation amount":12809.0,"organization":"Jackson School District","id":"a6aui9p2bh0n","lat":43.7889,"address":"176A MAIN STREET","number of students":53.43003906,"state":"NH"},"type":"Feature","geometry":{"type":"Point","coordinates":[-71.1026,43.7889]}},{"properties":{"lon":-70.8092,"city":"GREENLAND","zip":3840.0,"norm oblig":431.194165,"obligation amount":15993.0,"organization":"Newington Public School","id":"a6aui9ikogjk","lat":43.0386,"address":"48 POST RD.","number of students":37.09001953,"state":"NH"},"type":"Feature","geometry":{"type":"Point","coordinates":[-70.8092,43.0386]}},{"properties":{"lon":-70.2707,"city":"FALMOUTH","zip":4105.0,"norm oblig":893.6111111,"obligation amount":16085.0,"organization":"Governor Baxter School for the Deaf","id":"a6aui9rmj3qa","lat":43.7393,"address":"MACKWORTH ISLAND","number of students":18.0,"state":"ME"},"type":"Feature","geometry":{"type":"Point","coordinates":[-70.2707,43.7393]}},{"properties":{"lon":-70.1204,"city":"CHEBEAGUE ISLAND","zip":4017.0,"norm oblig":889.5,"obligation amount":19569.0,"organization":"Chebeague Island School -- Chebeague Island School Department","id":"a6aui9kjkmjn","lat":43.7278,"address":"14 SCHOOL HOUSE ROAD","number of students":22.0,"state":"ME"},"type":"Feature","geometry":{"type":"Point","coordinates":[-70.1204,43.7278]}},{"properties":{"lon":-69.5751,"city":"WHITEFIELD","zip":4353.0,"norm oblig":289.5609756,"obligation amount":11872.0,"organization":"Somerville Elementary School","id":"a6aui9ssegnt","lat":44.1884,"address":"69 AUGUSTA ROAD","number of students":41.0,"state":"ME"},"type":"Feature","geometry":{"type":"Point","coordinates":[-69.5751,44.1884]}},{"properties":{"lon":-69.5172,"city":"BOOTHBAY HBR.","zip":4538.0,"norm oblig":481.9375,"obligation amount":15422.0,"organization":"Southport Central School","id":"a6aui9q64cls","lat":43.9562,"address":"51 EMERY LANE","number of students":32.0,"state":"ME"},"type":"Feature","geometry":{"type":"Point","coordinates":[-69.5172,43.9562]}},{"properties":{"lon":-69.4242,"city":"DAMARISCOTTA","zip":4543.0,"norm oblig":1679.818182,"obligation amount":18478.0,"organization":"Long Island School","id":"a6aui9j16p46","lat":43.9865,"address":"128 PINE RIDGE ROAD","number of students":11.0,"state":"ME"},"type":"Feature","geometry":{"type":"Point","coordinates":[-69.4242,43.9865]}},{"properties":{"lon":-69.3046,"city":"GREENVILLE","zip":4441.0,"norm oblig":2365.0,"obligation amount":16555.0,"organization":"Shirley School Department Union 60","id":"a6aui9v8ray7","lat":45.7924,"address":"PO BOX 100","number of students":7.0,"state":"ME"},"type":"Feature","geometry":{"type":"Point","coordinates":[-69.3046,45.7924]}},{"properties":{"lon":-68.8557,"city":"NORTH HAVEN","zip":4853.0,"norm oblig":336.3278689,"obligation amount":20516.0,"organization":"North Haven MSAD 7","id":"a6aui9if0xol","lat":44.1135,"address":"93 PULPIT HARBOR ROAD","number of students":61.0,"state":"ME"},"type":"Feature","geometry":{"type":"Point","coordinates":[-68.8557,44.1135]}},{"properties":{"lon":-68.8557,"city":"NORTH HAVEN","zip":4853.0,"norm oblig":2833.142857,"obligation amount":19832.0,"organization":"Maine School Administrative District 65","id":"a6aui9h3lidb","lat":44.1135,"address":"PO BOX 449","number of students":7.0,"state":"ME"},"type":"Feature","geometry":{"type":"Point","coordinates":[-68.8557,44.1135]}},{"properties":{"lon":-68.8183,"city":"HOLDEN","zip":4429.0,"norm oblig":399.972973,"obligation amount":14799.0,"organization":"Airline Community School","id":"a6aui9qgt5fv","lat":44.8943,"address":"202 KIDDER HILL ROAD","number of students":37.0,"state":"ME"},"type":"Feature","geometry":{"type":"Point","coordinates":[-68.8183,44.8943]}},{"properties":{"lon":-68.6863,"city":"SARGENTVILLE","zip":4673.0,"norm oblig":3248.0,"obligation amount":19488.0,"organization":"Isle Au Haut -- School Union 76","id":"a6aui9fqaofd","lat":44.3136,"address":"RR 1 BOX 27A","number of students":6.0,"state":"ME"},"type":"Feature","geometry":{"type":"Point","coordinates":[-68.6863,44.3136]}},{"properties":{"lon":-68.6474,"city":"LEE","zip":4455.0,"norm oblig":1878.0,"obligation amount":16902.0,"organization":"Reed School District -- Maine School Union 110","id":"a6aui9g1x0lu","lat":45.5199,"address":"31 WINN ROAD","number of students":9.0,"state":"ME"},"type":"Feature","geometry":{"type":"Point","coordinates":[-68.6474,45.5199]}},{"properties":{"lon":-68.6239,"city":"BLUE HILL","zip":4614.0,"norm oblig":290.0392157,"obligation amount":14792.0,"organization":"Castine School Department","id":"a6aui9rmzmmc","lat":44.2969,"address":"PO BOX 630","number of students":51.0,"state":"ME"},"type":"Feature","geometry":{"type":"Point","coordinates":[-68.6239,44.2969]}},{"properties":{"lon":-68.3087,"city":"MOUNT DESERT","zip":4660.0,"norm oblig":1409.461538,"obligation amount":18323.0,"organization":"Cranberry Islesford Elementary School -- Maine School Union 98","id":"a6aui9rxmgwj","lat":44.3347,"address":"1081 EAGLE LAKE RD PO BOX 60","number of students":13.0,"state":"ME"},"type":"Feature","geometry":{"type":"Point","coordinates":[-68.3087,44.3347]}},{"properties":{"lon":-68.3087,"city":"MOUNT DESERT","zip":4660.0,"norm oblig":533.862069,"obligation amount":15482.0,"organization":"Swan's Island School","id":"a6aui9s3w8dk","lat":44.3347,"address":"1081 EAGLE LAKE RD PO BOX 60","number of students":29.0,"state":"ME"},"type":"Feature","geometry":{"type":"Point","coordinates":[-68.3087,44.3347]}},{"properties":{"lon":-68.3087,"city":"MOUNT DESERT","zip":4660.0,"norm oblig":1389.357143,"obligation amount":19451.0,"organization":"Frenchboro Elementary School","id":"a6aui9i36trr","lat":44.3347,"address":"1081 EAGLE LAKE RD PO BOX 60","number of students":14.0,"state":"ME"},"type":"Feature","geometry":{"type":"Point","coordinates":[-68.3087,44.3347]}},{"properties":{"lon":-68.0126,"city":"PRESQUE ISLE","zip":4769.0,"norm oblig":400.7857143,"obligation amount":11222.0,"organization":"Bridgewater School Department","id":"a6aui9te1v43","lat":46.7151,"address":"79 BLAKE ST STE 1 PO BOX 1118","number of students":28.0,"state":"ME"},"type":"Feature","geometry":{"type":"Point","coordinates":[-68.0126,46.7151]}},{"properties":{"lon":-67.9232,"city":"CHERRYFIELD","zip":4622.0,"norm oblig":3869.0,"obligation amount":19345.0,"organization":"Monhegan School","id":"a6aui9tl7thm","lat":44.6032,"address":"2 ELM STREET","number of students":5.0,"state":"ME"},"type":"Feature","geometry":{"type":"Point","coordinates":[-67.9232,44.6032]}},{"properties":{"lon":-67.8661,"city":"DANFORTH","zip":4424.0,"norm oblig":751.4285714,"obligation amount":15780.0,"organization":"Vanceboro Union 108 -- Vanceboro Elementary","id":"a6aui9uoa2cj","lat":45.6588,"address":"31A HOULTON ROAD","number of students":21.0,"state":"ME"},"type":"Feature","geometry":{"type":"Point","coordinates":[-67.8661,45.6588]}},{"properties":{"lon":-67.8661,"city":"DANFORTH","zip":4424.0,"norm oblig":432.2631579,"obligation amount":16426.0,"organization":"East Range II/Topsfield CSD 12","id":"a6aui9k1a0x1","lat":45.6588,"address":"31A HOULTON ROAD","number of students":38.0,"state":"ME"},"type":"Feature","geometry":{"type":"Point","coordinates":[-67.8661,45.6588]}},{"properties":{"lon":-67.852,"city":"CASWELL","zip":4750.0,"norm oblig":425.5,"obligation amount":17020.0,"organization":"Dawn F. Barnes Elementary School -- Caswell School District","id":"a6aui9kt9fcf","lat":46.9067,"address":"1025 VAN BUREN ROAD","number of students":40.0,"state":"ME"},"type":"Feature","geometry":{"type":"Point","coordinates":[-67.852,46.9067]}},{"properties":{"lon":-67.4955,"city":"CUTLER","zip":4626.0,"norm oblig":330.9387755,"obligation amount":16216.0,"organization":"Cutler School Department -- Maine School Union 134","id":"a6aui9hy7inm","lat":45.003,"address":"2066 CUTLER RD PO BOX 270","number of students":49.0,"state":"ME"},"type":"Feature","geometry":{"type":"Point","coordinates":[-67.4955,45.003]}},{"properties":{"lon":-67.4955,"city":"CUTLER","zip":4626.0,"norm oblig":526.9354839,"obligation amount":16335.0,"organization":"Whiting School Department -- Maine School Union 134","id":"a6aui9jh7xhp","lat":45.003,"address":"2066 CUTLER RD PO BOX 270","number of students":31.0,"state":"ME"},"type":"Feature","geometry":{"type":"Point","coordinates":[-67.4955,45.003]}},{"properties":{"lon":-67.4692,"city":"MACHIAS","zip":4654.0,"norm oblig":1530.8,"obligation amount":15308.0,"organization":"School Union 102 -- Wesley School Department","id":"a6aui9sihctz","lat":44.6606,"address":"RR 1 BOX 12A","number of students":10.0,"state":"ME"},"type":"Feature","geometry":{"type":"Point","coordinates":[-67.4692,44.6606]}},{"properties":{"lon":-67.3891,"city":"CALAIS","zip":4619.0,"norm oblig":253.9354839,"obligation amount":15744.0,"organization":"Robbinston School Department -- School Union 106","id":"a6aui9o6snf3","lat":45.1883,"address":"32 BLUE DEVIL HILL","number of students":62.0,"state":"ME"},"type":"Feature","geometry":{"type":"Point","coordinates":[-67.3891,45.1883]}},{"properties":{"lon":-67.1368,"city":"EASTPORT","zip":4631.0,"norm oblig":427.4054054,"obligation amount":15814.0,"organization":"Charlotte School Department","id":"a6aui9l3vmyw","lat":45.0363,"address":"102 HIGH STREET","number of students":37.0,"state":"ME"},"type":"Feature","geometry":{"type":"Point","coordinates":[-67.1368,45.0363]}}],"is_temporal":false,"author":{"url":"","metadata":"","contact_name":"","contact_address":"","source":"","contact_phone":""},"source":"","pagination":{"sort":null,"start":0,"total":500,"limit":1000000},"state":"complete","tags":"","published":"2014-08-10T17:39:04-04:00","id":13807}