{"type":"FeatureCollection","data_type":"Dataset","url_type":null,"permissions":[{"permissions":{"download":true,"view":true},"group_id":"everyone"}],"classification":null,"title":"Bureau of Prisons, USA Federal Prison Population, USA, 6.25.2009 ","count":194,"stream_id":13824,"contributor":{"url":"http://geocommons.com/users/139","name":"Burkey"},"data_attributes":null,"calculation_params":null,"icon_link":null,"link":"http://geocommons.com/overlays/13824.json","extent":[-157.928,18.4231,-66.1123,47.4219],"geometry_types":["point"],"unique_name":null,"name":"Bureau of Prisons, USA Federal Prison Population, USA, 6.25.2009 ","feature_count":194,"description":"This dataset displays the inmate populations for all the Federal Prisons throughout the United States on 6.25.09. This weekly Population Report can be found on the Bureau of Prisons website at bop.gov. These facilities are positioned by their lat/lon and this dataset is updated on a weekly basis.\n","next_feature":null,"is_raster":false,"short_classification":"Y","stats":{"lon":{"max":-66.112323,"mean":-91.454472757732,"variance":220.032144549256,"stdev":14.8334805271472,"min":-157.928178,"median":-87.451298},"zip":{"max":98198.0,"mean":51708.0309278351,"variance":793193793.387639,"stdev":28163.6963729486,"min":965.0,"median":44501.0},"population count":{"max":4189.0,"mean":993.252577319588,"variance":438188.759708349,"stdev":661.958276410492,"min":103.0,"median":1068.0},"lat":{"max":47.421922,"mean":36.0105002010309,"variance":22.5540193115455,"stdev":4.74910721205002,"min":18.423141,"median":36.14189}},"features":[{"properties":{"city":"ALDERSON","lon":-80.661862,"zip":24910.0,"facility":"ALDERSON FPC","type":"Federal Prison Camp","population count":1122.0,"id":"a63dmft0u0dl","address":"GLEN RAY RD. BOX A","lat":37.727322,"state":"WV"},"type":"Feature","geometry":{"type":"Point","coordinates":[-80.661862,37.727322]}},{"properties":{"city":"WHITE DEER","lon":-76.927658,"zip":17810.0,"facility":"ALLENWOOD LOW FCI","type":"Federal Correctional Institution","population count":1432.0,"id":"a63dmfrjmxz3","address":"RT 15, 2 MILES N OF ALLENWOOD","lat":41.130398,"state":"PA"},"type":"Feature","geometry":{"type":"Point","coordinates":[-76.927658,41.130398]}},{"properties":{"city":"WHITE DEER","lon":-76.927658,"zip":17810.0,"facility":"ALLENWOOD MED FCI","type":"Federal Correctional Institution","population count":1452.0,"id":"a63dmfgt3xw7","address":"RT 15, 2 MILES N OF ALLENWOOD","lat":41.130398,"state":"PA"},"type":"Feature","geometry":{"type":"Point","coordinates":[-76.927658,41.130398]}},{"properties":{"city":"WHITE DEER","lon":-76.927658,"zip":17810.0,"facility":"ALLENWOOD USP","type":"U.S. Penitentiary","population count":1164.0,"id":"a63dmfkayn1x","address":"RT 15, 2 MILES N OF ALLENWOOD","lat":41.130398,"state":"PA"},"type":"Feature","geometry":{"type":"Point","coordinates":[-76.927658,41.130398]}},{"properties":{"city":"ASHLAND","lon":-82.705091,"zip":41105.0,"facility":"ASHLAND FCI","type":"Federal Correctional Institution","population count":1288.0,"id":"a63dmfs5rcug","address":"ST. ROUTE 716","lat":38.435208,"state":"KY"},"type":"Feature","geometry":{"type":"Point","coordinates":[-82.705091,38.435208]}},{"properties":{"city":"ASHLAND","lon":-82.701028,"zip":41105.0,"facility":"ASHLAND-CAMP","type":"Satellite Camp","population count":297.0,"id":"a63dmfsdy4qn","address":"ST. ROUTE 716","lat":38.432817,"state":"KY"},"type":"Feature","geometry":{"type":"Point","coordinates":[-82.701028,38.432817]}},{"properties":{"city":"ATLANTA","lon":-84.3689,"zip":30315.0,"facility":"ATLANTA USP","type":"U.S. Penitentiary","population count":1948.0,"id":"a63dmftmakfr","address":"601 MCDONOUGH BLVD SE","lat":33.710814,"state":"GA"},"type":"Feature","geometry":{"type":"Point","coordinates":[-84.3689,33.710814]}},{"properties":{"city":"ATLANTA","lon":-84.364282,"zip":30315.0,"facility":"ATLANTA-CAMP","type":"Satellite Camp","population count":424.0,"id":"a63dmfkp2ffw","address":"601 MCDONOUGH BLVD SE","lat":33.709303,"state":"GA"},"type":"Feature","geometry":{"type":"Point","coordinates":[-84.364282,33.709303]}},{"properties":{"city":"ATWATER","lon":-120.559323,"zip":95301.0,"facility":"ATWATER USP","type":"U.S. Penitentiary","population count":1163.0,"id":"a63dmfvg5s9o","address":"1 FEDERAL WAY","lat":37.385414,"state":"CA"},"type":"Feature","geometry":{"type":"Point","coordinates":[-120.559323,37.385414]}},{"properties":{"city":"ATWATER","lon":-120.559323,"zip":95301.0,"facility":"ATWATER-CAMP","type":"Satellite Camp","population count":117.0,"id":"a63dmfmqj93g","address":"1 FEDERAL WAY","lat":37.385414,"state":"CA"},"type":"Feature","geometry":{"type":"Point","coordinates":[-120.559323,37.385414]}},{"properties":{"city":"BASTROP","lon":-97.3144,"zip":78602.0,"facility":"BASTROP FCI","type":"Federal Correctional Institution","population count":1262.0,"id":"a63dmfk8p8un","address":"1341 HIGHWAY 95 NORTH","lat":30.222598,"state":"TX"},"type":"Feature","geometry":{"type":"Point","coordinates":[-97.3144,30.222598]}},{"properties":{"city":"BASTROP","lon":-97.31368,"zip":78602.0,"facility":"BASTROP-CAMP","type":"Satellite Camp","population count":190.0,"id":"a63dmfu5uai2","address":"1341 HIGHWAY 95 NORTH","lat":30.219685,"state":"TX"},"type":"Feature","geometry":{"type":"Point","coordinates":[-97.31368,30.219685]}},{"properties":{"city":"BEAUMONT","lon":-94.079515,"zip":77705.0,"facility":"BEAUMONT LOW FCI","type":"Federal Correctional Institution","population count":1907.0,"id":"a63dmfvwd6r7","address":"5560 KNAUTH ROAD","lat":29.964706,"state":"TX"},"type":"Feature","geometry":{"type":"Point","coordinates":[-94.079515,29.964706]}},{"properties":{"city":"BEAUMONT","lon":-94.079515,"zip":77705.0,"facility":"BEAUMONT MED FCI","type":"Federal Correctional Institution","population count":1728.0,"id":"a63dmfunfqro","address":"5830 KNAUTH ROAD","lat":29.964706,"state":"TX"},"type":"Feature","geometry":{"type":"Point","coordinates":[-94.079515,29.964706]}},{"properties":{"city":"BEAUMONT","lon":-94.079515,"zip":77705.0,"facility":"BEAUMONT USP","type":"U.S. Penitentiary","population count":1195.0,"id":"a63dmfpszxai","address":"6200 KNAUTH ROAD","lat":29.964706,"state":"TX"},"type":"Feature","geometry":{"type":"Point","coordinates":[-94.079515,29.964706]}},{"properties":{"city":"BEAUMONT","lon":-94.079515,"zip":77705.0,"facility":"BEAUMONT USP-CAMP","type":"Satellite Camp","population count":499.0,"id":"a63dmfitycb4","address":"5870 KNAUTH ROAD","lat":29.964706,"state":"TX"},"type":"Feature","geometry":{"type":"Point","coordinates":[-94.079515,29.964706]}},{"properties":{"city":"BEAVER","lon":-81.12927,"zip":25813.0,"facility":"BECKLEY FCI","type":"Federal Correctional Institution","population count":1853.0,"id":"a63dmfor9u0a","address":"1600 INDUSTRIAL ROAD","lat":37.812352,"state":"WV"},"type":"Feature","geometry":{"type":"Point","coordinates":[-81.12927,37.812352]}},{"properties":{"city":"BEAVER","lon":-81.12927,"zip":25813.0,"facility":"BECKLEY-CAMP","type":"Satellite Camp","population count":371.0,"id":"a63dmfpr849o","address":"1600 INDUSTRIAL ROAD","lat":37.812352,"state":"WV"},"type":"Feature","geometry":{"type":"Point","coordinates":[-81.12927,37.812352]}},{"properties":{"city":"BENNETTSVILLE","lon":-79.716185,"zip":29512.0,"facility":"BENNETTSVILE-CAMP","type":"Satellite Camp","population count":128.0,"id":"a63dmfg9nt42","address":"696 MUCKERMAN ROAD","lat":34.652522,"state":"SC"},"type":"Feature","geometry":{"type":"Point","coordinates":[-79.716185,34.652522]}},{"properties":{"city":"BENNETTSVILLE","lon":-79.718727,"zip":29512.0,"facility":"BENNETTSVILLE FCI","type":"Federal Correctional Institution","population count":1796.0,"id":"a63dmfv2uyop","address":"696 MUCKERMAN ROAD","lat":34.672032,"state":"SC"},"type":"Feature","geometry":{"type":"Point","coordinates":[-79.718727,34.672032]}},{"properties":{"city":"INEZ","lon":-82.539453,"zip":41224.0,"facility":"BIG SANDY USP","type":"U.S. Penitentiary","population count":1426.0,"id":"a63dmflrbjfq","address":"1197 AIRPORT ROAD","lat":37.505998,"state":"KY"},"type":"Feature","geometry":{"type":"Point","coordinates":[-82.539453,37.505998]}},{"properties":{"city":"INEZ","lon":-82.539453,"zip":41224.0,"facility":"BIG SANDY-CAMP","type":"Satellite Camp","population count":109.0,"id":"a63dmfl7hoa1","address":"1197 AIRPORT ROAD","lat":37.505998,"state":"KY"},"type":"Feature","geometry":{"type":"Point","coordinates":[-82.539453,37.505998]}},{"properties":{"city":"BIG SPRING D","lon":-101.509363,"zip":79720.0,"facility":"BIG SPRING CI","type":"Private Correctional Institution","population count":3470.0,"id":"a63dmfq1l5tv","address":"1900 SIMLER AVE","lat":32.225503,"state":"TX"},"type":"Feature","geometry":{"type":"Point","coordinates":[-101.509363,32.225503]}},{"properties":{"city":"BIG SPRING","lon":-101.509719,"zip":79720.0,"facility":"BIG SPRING FCI","type":"Federal Correctional Institution","population count":1544.0,"id":"a63dmfgm4qdr","address":"1900 SIMLER AVE","lat":32.225713,"state":"TX"},"type":"Feature","geometry":{"type":"Point","coordinates":[-101.509719,32.225713]}},{"properties":{"city":"BIG SPRING D","lon":-101.506088,"zip":79720.0,"facility":"BIG SPRING-CAMP","type":"Satellite Camp","population count":179.0,"id":"a63dmfln5c0h","address":"1900 SIMLER AVE","lat":32.219665,"state":"TX"},"type":"Feature","geometry":{"type":"Point","coordinates":[-101.506088,32.219665]}},{"properties":{"city":"BROOKLYN","lon":-74.003153,"zip":11232.0,"facility":"BROOKLYN MDC","type":"Metropolitan Detention Center","population count":2712.0,"id":"a63dmfseko17","address":"80 29TH STREET","lat":40.660016,"state":"NY"},"type":"Feature","geometry":{"type":"Point","coordinates":[-74.003153,40.660016]}},{"properties":{"city":"BRYAN","lon":-96.3617,"zip":77803.0,"facility":"BRYAN FPC","type":"Federal Prison Camp","population count":895.0,"id":"a63dmfwk3lwv","address":"1100 URSULINE AVENUE","lat":30.677603,"state":"TX"},"type":"Feature","geometry":{"type":"Point","coordinates":[-96.3617,30.677603]}},{"properties":{"city":"BUTNER","lon":-78.806403,"zip":27509.0,"facility":"BUTNER FMC","type":"Federal Medical Center","population count":955.0,"id":"a63dmfov26rt","address":"OLD N. CAROLINA HWY 75","lat":36.14189,"state":"NC"},"type":"Feature","geometry":{"type":"Point","coordinates":[-78.806403,36.14189]}},{"properties":{"city":"BUTNER","lon":-78.806403,"zip":27509.0,"facility":"BUTNER LOW FCI","type":"Federal Correctional Institution","population count":1347.0,"id":"a63dmfr5rpvt","address":"OLD NC HWY 75","lat":36.14189,"state":"NC"},"type":"Feature","geometry":{"type":"Point","coordinates":[-78.806403,36.14189]}},{"properties":{"city":"BUTNER","lon":-78.806403,"zip":27509.0,"facility":"BUTNER MED I FCI","type":"Federal Correctional Institution","population count":713.0,"id":"a63dmfsz7193","address":"OLD NC HWY 75","lat":36.14189,"state":"NC"},"type":"Feature","geometry":{"type":"Point","coordinates":[-78.806403,36.14189]}},{"properties":{"city":"BUTNER","lon":-78.806403,"zip":27509.0,"facility":"BUTNER MED II FCI","type":"Federal Correctional Institution","population count":1492.0,"id":"a63dmfmgqpxt","address":"OLD NC HWY 75","lat":36.14189,"state":"NC"},"type":"Feature","geometry":{"type":"Point","coordinates":[-78.806403,36.14189]}},{"properties":{"city":"BUTNER","lon":-78.806403,"zip":27509.0,"facility":"BUTNER-CAMP","type":"Satellite Camp","population count":330.0,"id":"a63dmftqejan","address":"OLD NC HWY 75","lat":36.14189,"state":"NC"},"type":"Feature","geometry":{"type":"Point","coordinates":[-78.806403,36.14189]}},{"properties":{"city":"CALIFORNIA CITY","lon":-117.858867,"zip":93504.0,"facility":"CALIFORNIA CITY CI","type":"Private Correctional Institution","population count":2624.0,"id":"a63dmfg7fmva","address":"22844 VIRGINIA BOULEVARD","lat":35.153251,"state":"CA"},"type":"Feature","geometry":{"type":"Point","coordinates":[-117.858867,35.153251]}},{"properties":{"city":"WAYMART","lon":-75.421456,"zip":18472.0,"facility":"CANAAN USP","type":"U.S. Penitentiary","population count":1274.0,"id":"a63dmfisq118","address":"3057 EASTON TURNPIKE","lat":41.562417,"state":"PA"},"type":"Feature","geometry":{"type":"Point","coordinates":[-75.421456,41.562417]}},{"properties":{"city":"WAYMART","lon":-75.421456,"zip":18472.0,"facility":"CANAAN-CAMP","type":"Satellite Camp","population count":120.0,"id":"a63dmfvg85l9","address":"3057 EASTON TURNPIKE","lat":41.562417,"state":"PA"},"type":"Feature","geometry":{"type":"Point","coordinates":[-75.421456,41.562417]}},{"properties":{"city":"FORT WORTH","lon":-97.41847,"zip":76127.0,"facility":"CARSWELL FMC","type":"Federal Medical Center","population count":1466.0,"id":"a63dmfl52bzf","address":"J ST BLDG 3000","lat":32.784049,"state":"TX"},"type":"Feature","geometry":{"type":"Point","coordinates":[-97.41847,32.784049]}},{"properties":{"city":"FORT WORTH","lon":-97.41847,"zip":76127.0,"facility":"CARSWELL-CAMP","type":"Satellite Camp","population count":256.0,"id":"a63dmfkmqlqc","address":"J ST BLDG 3000","lat":32.784049,"state":"TX"},"type":"Feature","geometry":{"type":"Point","coordinates":[-97.41847,32.784049]}},{"properties":{"city":"CHICAGO","lon":-87.629896,"zip":60605.0,"facility":"CHICAGO MCC","type":"Metropolitan Correctional Center","population count":667.0,"id":"a63dmfpoe5cl","address":"71 WEST VAN BUREN STREET","lat":41.876845,"state":"IL"},"type":"Feature","geometry":{"type":"Point","coordinates":[-87.629896,41.876845]}},{"properties":{"city":"MILAN","lon":-107.908088,"zip":87021.0,"facility":"CIBOLA COUNTY CI","type":"Private Correctional Institution","population count":1153.0,"id":"a63dmft3wbkp","address":"2000 CIBOLA LOOP","lat":35.17977,"state":"NM"},"type":"Feature","geometry":{"type":"Point","coordinates":[-107.908088,35.17977]}},{"properties":{"city":"COLEMAN","lon":-82.009338,"zip":33521.0,"facility":"COLEMAN I USP","type":"U.S. Penitentiary","population count":1546.0,"id":"a63dmfi7hlor","address":"846 NE 54TH TERRACE","lat":28.768607,"state":"FL"},"type":"Feature","geometry":{"type":"Point","coordinates":[-82.009338,28.768607]}},{"properties":{"city":"COLEMAN","lon":-82.009338,"zip":33521.0,"facility":"COLEMAN II USP","type":"U.S. Penitentiary","population count":1576.0,"id":"a63dmfupqc2w","address":"846 NE 54TH TERRACE","lat":28.768607,"state":"FL"},"type":"Feature","geometry":{"type":"Point","coordinates":[-82.009338,28.768607]}},{"properties":{"city":"COLEMAN","lon":-82.009338,"zip":33521.0,"facility":"COLEMAN LOW FCI","type":"Federal Correctional Institution","population count":2003.0,"id":"a63dmfhq5e3y","address":"846 NE 54TH TERRACE","lat":28.768607,"state":"FL"},"type":"Feature","geometry":{"type":"Point","coordinates":[-82.009338,28.768607]}},{"properties":{"city":"COLEMAN","lon":-82.009338,"zip":33521.0,"facility":"COLEMAN MED FCI","type":"Federal Correctional Institution","population count":1670.0,"id":"a63dmfmos9br","address":"846 NE 54TH TERRACE","lat":28.768607,"state":"FL"},"type":"Feature","geometry":{"type":"Point","coordinates":[-82.009338,28.768607]}},{"properties":{"city":"COLEMAN","lon":-82.009338,"zip":33521.0,"facility":"COLEMAN MED FCI-CAMP","type":"Satellite Camp","population count":456.0,"id":"a63dmfsaoa90","address":"846 NE 54TH TERRACE","lat":28.768607,"state":"FL"},"type":"Feature","geometry":{"type":"Point","coordinates":[-82.009338,28.768607]}},{"properties":{"city":"CUMBERLAND","lon":-78.76238,"zip":21502.0,"facility":"CUMBERLAND FCI","type":"Federal Correctional Institution","population count":1264.0,"id":"a63dmftdza0n","address":"14601 BURBRIDGE RD SE","lat":39.595527,"state":"MD"},"type":"Feature","geometry":{"type":"Point","coordinates":[-78.76238,39.595527]}},{"properties":{"city":"CUMBERLAND","lon":-78.76238,"zip":21502.0,"facility":"CUMBERLAND-CAMP","type":"Satellite Camp","population count":271.0,"id":"a63dmfl2lvkl","address":"14601 BURBRIDGE RD SE","lat":39.595527,"state":"MD"},"type":"Feature","geometry":{"type":"Point","coordinates":[-78.76238,39.595527]}},{"properties":{"city":"POST","lon":-101.374071,"zip":79356.0,"facility":"DALBY CI","type":"Private Correctional Institution","population count":1885.0,"id":"a63dmfuq7ysh","address":"805 NORTH AVENUE F","lat":33.201457,"state":"TX"},"type":"Feature","geometry":{"type":"Point","coordinates":[-101.374071,33.201457]}},{"properties":{"city":"DANBURY","lon":-73.467465,"zip":6811.0,"facility":"DANBURY FCI","type":"Federal Correctional Institution","population count":1175.0,"id":"a63dmfr5onhc","address":"ROUTE 37","lat":41.436684,"state":"CT"},"type":"Feature","geometry":{"type":"Point","coordinates":[-73.467465,41.436684]}},{"properties":{"city":"DANBURY","lon":-73.467465,"zip":6811.0,"facility":"DANBURY-CAMP","type":"Satellite Camp","population count":201.0,"id":"a63dmfge1vlg","address":"ROUTE 37","lat":41.436684,"state":"CT"},"type":"Feature","geometry":{"type":"Point","coordinates":[-73.467465,41.436684]}},{"properties":{"city":"AYER","lon":-71.62087,"zip":1432.0,"facility":"DEVENS FMC","type":"Federal Medical Center","population count":1068.0,"id":"a63dmfo76ye8","address":"42 PATTON ROAD","lat":42.525388,"state":"MA"},"type":"Feature","geometry":{"type":"Point","coordinates":[-71.62087,42.525388]}},{"properties":{"city":"AYER","lon":-71.62087,"zip":1432.0,"facility":"DEVENS-CAMP","type":"Satellite Camp","population count":114.0,"id":"a63dmfp2y1xy","address":"42 PATTON ROAD","lat":42.525388,"state":"MA"},"type":"Feature","geometry":{"type":"Point","coordinates":[-71.62087,42.525388]}},{"properties":{"city":"DUBLIN","lon":-121.888046,"zip":94568.0,"facility":"DUBLIN FCI","type":"Federal Correctional Institution","population count":1182.0,"id":"a63dmforjknr","address":"5701 8TH ST - CAMP PARKS","lat":37.717635,"state":"CA"},"type":"Feature","geometry":{"type":"Point","coordinates":[-121.888046,37.717635]}},{"properties":{"city":"DUBLIN","lon":-121.888046,"zip":94568.0,"facility":"DUBLIN-CAMP","type":"Satellite Camp","population count":327.0,"id":"a63dmfondxcu","address":"5701 8TH ST - CAMP PARKS","lat":37.717635,"state":"CA"},"type":"Feature","geometry":{"type":"Point","coordinates":[-121.888046,37.717635]}},{"properties":{"city":"DULUTH","lon":-92.197441,"zip":55814.0,"facility":"DULUTH FPC","type":"Federal Prison Camp","population count":909.0,"id":"a63dmfl0w7p4","address":"6902 STEBNER ROAD","lat":46.836148,"state":"MN"},"type":"Feature","geometry":{"type":"Point","coordinates":[-92.197441,46.836148]}},{"properties":{"city":"EDEN","lon":-99.833981,"zip":76837.0,"facility":"EDEN CI","type":"Private Correctional Institution","population count":1527.0,"id":"a63dmftigujb","address":"702 EAST BROADWAY","lat":31.217711,"state":"TX"},"type":"Feature","geometry":{"type":"Point","coordinates":[-99.833981,31.217711]}},{"properties":{"city":"EDGEFIELD","lon":-81.917252,"zip":29824.0,"facility":"EDGEFIELD FCI","type":"Federal Correctional Institution","population count":1799.0,"id":"a63dmfvi5osc","address":"501 GARY HILL ROAD","lat":33.757775,"state":"SC"},"type":"Feature","geometry":{"type":"Point","coordinates":[-81.917252,33.757775]}},{"properties":{"city":"EDGEFIELD","lon":-81.917252,"zip":29824.0,"facility":"EDGEFIELD-CAMP","type":"Satellite Camp","population count":448.0,"id":"a63dmfm0q92u","address":"501 GARY HILL ROAD","lat":33.757775,"state":"SC"},"type":"Feature","geometry":{"type":"Point","coordinates":[-81.917252,33.757775]}},{"properties":{"city":"EL RENO","lon":-98.005024,"zip":73036.0,"facility":"EL RENO FCI","type":"Federal Correctional Institution","population count":1192.0,"id":"a63dmfkbgac7","address":"4205 HIGHWAY 66 WEST","lat":35.533572,"state":"OK"},"type":"Feature","geometry":{"type":"Point","coordinates":[-98.005024,35.533572]}},{"properties":{"city":"EL RENO","lon":-98.005024,"zip":73036.0,"facility":"EL RENO-CAMP","type":"Satellite Camp","population count":274.0,"id":"a63dmfujy8i0","address":"4205 HIGHWAY 66 WEST","lat":35.533572,"state":"OK"},"type":"Feature","geometry":{"type":"Point","coordinates":[-98.005024,35.533572]}},{"properties":{"city":"ELKTON","lon":-80.704762,"zip":44415.0,"facility":"ELKTON FCI","type":"Federal Correctional Institution","population count":1883.0,"id":"a63dmfky5ner","address":"8730 SCROGGS ROAD","lat":40.772353,"state":"OH"},"type":"Feature","geometry":{"type":"Point","coordinates":[-80.704762,40.772353]}},{"properties":{"city":"ELKTON","lon":-80.704762,"zip":44415.0,"facility":"ELKTON-FSL","type":"Satellite Camp","population count":617.0,"id":"a63dmfi4jmm5","address":"8730 SCROGGS ROAD","lat":40.772353,"state":"OH"},"type":"Feature","geometry":{"type":"Point","coordinates":[-80.704762,40.772353]}},{"properties":{"city":"LITTLETON","lon":-105.105458,"zip":80123.0,"facility":"ENGLEWOOD FCI","type":"Federal Correctional Institution","population count":949.0,"id":"a63dmfpvzkdr","address":"9595 WEST QUINCY AVENUE","lat":39.641503,"state":"CO"},"type":"Feature","geometry":{"type":"Point","coordinates":[-105.105458,39.641503]}},{"properties":{"city":"LITTLETON","lon":-105.105458,"zip":80123.0,"facility":"ENGLEWOOD-CAMP","type":"Satellite Camp","population count":152.0,"id":"a63dmfpepxea","address":"9595 WEST QUINCY AVENUE","lat":39.641503,"state":"CO"},"type":"Feature","geometry":{"type":"Point","coordinates":[-105.105458,39.641503]}},{"properties":{"city":"ESTILL","lon":-81.255393,"zip":29918.0,"facility":"ESTILL FCI","type":"Federal Correctional Institution","population count":1238.0,"id":"a63dmfggrdr3","address":"COLUMBIA HIGHWAY S &amp; SECESSI","lat":32.720671,"state":"SC"},"type":"Feature","geometry":{"type":"Point","coordinates":[-81.255393,32.720671]}},{"properties":{"city":"ESTILL","lon":-81.255393,"zip":29918.0,"facility":"ESTILL-CAMP","type":"Satellite Camp","population count":271.0,"id":"a63dmfnqv8z5","address":"COLUMBIA HIGHWAY S &amp; SECESSI","lat":32.720671,"state":"SC"},"type":"Feature","geometry":{"type":"Point","coordinates":[-81.255393,32.720671]}},{"properties":{"city":"FAIRTON","lon":-75.160242,"zip":8320.0,"facility":"FAIRTON FCI","type":"Federal Correctional Institution","population count":1456.0,"id":"a63dmfk6zlbr","address":"655 FAIRTON-MILLVILLE ROAD","lat":39.384926,"state":"NJ"},"type":"Feature","geometry":{"type":"Point","coordinates":[-75.160242,39.384926]}},{"properties":{"city":"FAIRTON","lon":-75.160242,"zip":8320.0,"facility":"FAIRTON-CAMP","type":"Satellite Camp","population count":110.0,"id":"a63dmfpla6ae","address":"655 FAIRTON-MILLVILLE ROAD","lat":39.384926,"state":"NJ"},"type":"Feature","geometry":{"type":"Point","coordinates":[-75.160242,39.384926]}},{"properties":{"city":"FLORENCE","lon":-105.102573,"zip":81226.0,"facility":"FLORENCE ADMAX USP","type":"U.S. Penitentiary","population count":469.0,"id":"a63dmfi71hiw","address":"5880 HWY 67 SOUTH","lat":38.360662,"state":"CO"},"type":"Feature","geometry":{"type":"Point","coordinates":[-105.102573,38.360662]}},{"properties":{"city":"FLORENCE","lon":-105.102573,"zip":81226.0,"facility":"FLORENCE FCI","type":"Federal Correctional Institution","population count":1170.0,"id":"a63dmfjhwjay","address":"5880 HWY 67 SOUTH","lat":38.360662,"state":"CO"},"type":"Feature","geometry":{"type":"Point","coordinates":[-105.102573,38.360662]}},{"properties":{"city":"FLORENCE","lon":-105.102573,"zip":81226.0,"facility":"FLORENCE HIGH USP","type":"U.S. Penitentiary","population count":998.0,"id":"a63dmflkfu93","address":"5880 HWY 67 SOUTH","lat":38.360662,"state":"CO"},"type":"Feature","geometry":{"type":"Point","coordinates":[-105.102573,38.360662]}},{"properties":{"city":"FLORENCE","lon":-105.102573,"zip":81226.0,"facility":"FLORENCE USP-CAMP","type":"Satellite Camp","population count":476.0,"id":"a63dmfqhmckc","address":"5880 HWY 67 SOUTH","lat":38.360662,"state":"CO"},"type":"Feature","geometry":{"type":"Point","coordinates":[-105.102573,38.360662]}},{"properties":{"city":"FORREST CITY","lon":-90.799181,"zip":72335.0,"facility":"FORREST CITY FCI","type":"Federal Correctional Institution","population count":2073.0,"id":"a63dmfw639gs","address":"1400 DALE BUMPERS ROAD","lat":34.979524,"state":"AR"},"type":"Feature","geometry":{"type":"Point","coordinates":[-90.799181,34.979524]}},{"properties":{"city":"FORREST CITY","lon":-90.799181,"zip":72335.0,"facility":"FORREST CITY FCI-CAMP","type":"Satellite Camp","population count":310.0,"id":"a63dmflepbsy","address":"1400 DALE BUMPERS ROAD","lat":34.979524,"state":"AR"},"type":"Feature","geometry":{"type":"Point","coordinates":[-90.799181,34.979524]}},{"properties":{"city":"FORREST CITY","lon":-90.799181,"zip":72335.0,"facility":"FORREST CITY MED FCI","type":"Federal Correctional Institution","population count":1790.0,"id":"a63dmfqayezd","address":"1400 DALE BUMPERS ROAD","lat":34.979524,"state":"AR"},"type":"Feature","geometry":{"type":"Point","coordinates":[-90.799181,34.979524]}},{"properties":{"city":"FORT DIX","lon":-74.613847,"zip":8640.0,"facility":"FORT DIX FCI","type":"Federal Correctional Institution","population count":4189.0,"id":"a63dmfl68gmh","address":"5756 HARTFORD &amp; POINTVILE RD","lat":39.998962,"state":"NJ"},"type":"Feature","geometry":{"type":"Point","coordinates":[-74.613847,39.998962]}},{"properties":{"city":"FORT DIX","lon":-74.613847,"zip":8640.0,"facility":"FORT DIX-CAMP","type":"Satellite Camp","population count":417.0,"id":"a63dmflx62tu","address":"5756 HARTFORD &amp; POINTVILE RD","lat":39.998962,"state":"NJ"},"type":"Feature","geometry":{"type":"Point","coordinates":[-74.613847,39.998962]}},{"properties":{"city":"FORT WORTH","lon":-97.286638,"zip":76119.0,"facility":"FORT WORTH FCI","type":"Federal Correctional Institution","population count":1755.0,"id":"a63dmfkdyxs8","address":"3150 HORTON ROAD","lat":32.679968,"state":"TX"},"type":"Feature","geometry":{"type":"Point","coordinates":[-97.286638,32.679968]}},{"properties":{"city":"GLENVILLE","lon":-80.784298,"zip":26351.0,"facility":"GILMER FCI","type":"Federal Correctional Institution","population count":1718.0,"id":"a63dmfh8dl6m","address":"201 FCI LANE","lat":38.91568,"state":"WV"},"type":"Feature","geometry":{"type":"Point","coordinates":[-80.784298,38.91568]}},{"properties":{"city":"GLENVILLE","lon":-80.784298,"zip":26351.0,"facility":"GILMER-CAMP","type":"Satellite Camp","population count":111.0,"id":"a63dmfsirpgo","address":"201 FCI LANE","lat":38.91568,"state":"WV"},"type":"Feature","geometry":{"type":"Point","coordinates":[-80.784298,38.91568]}},{"properties":{"city":"GREENVILLE","lon":-89.409415,"zip":62246.0,"facility":"GREENVILLE FCI","type":"Federal Correctional Institution","population count":1258.0,"id":"a63dmfrh25o6","address":"100 U.S. HWY 40","lat":38.865954,"state":"IL"},"type":"Feature","geometry":{"type":"Point","coordinates":[-89.409415,38.865954]}},{"properties":{"city":"GREENVILLE","lon":-89.409415,"zip":62246.0,"facility":"GREENVILLE-CAMP","type":"Satellite Camp","population count":297.0,"id":"a63dmflhs65e","address":"100 U.S. HWY 40","lat":38.865954,"state":"IL"},"type":"Feature","geometry":{"type":"Point","coordinates":[-89.409415,38.865954]}},{"properties":{"city":"GUAYNABO","lon":-66.112323,"zip":965.0,"facility":"GUAYNABO MDC","type":"Metropolitan Detention Center","population count":1368.0,"id":"a63dmfp8s9sh","address":"HWY 28 INTSECT OF ROAD 165","lat":18.423141,"state":"PR"},"type":"Feature","geometry":{"type":"Point","coordinates":[-66.112323,18.423141]}},{"properties":{"city":"BRUCETON MILLS","lon":-79.632862,"zip":26525.0,"facility":"HAZELTON USP","type":"U.S. Penitentiary","population count":1607.0,"id":"a63dmfik52ay","address":"1640 SKY VIEW DRIVE","lat":39.622957,"state":"WV"},"type":"Feature","geometry":{"type":"Point","coordinates":[-79.632862,39.622957]}},{"properties":{"city":"BRUCETON MILLS","lon":-79.632862,"zip":26525.0,"facility":"HAZELTON-CAMP","type":"Satellite Camp","population count":107.0,"id":"a63dmfn7r1ri","address":"1640 SKY VIEW DRIVE","lat":39.622957,"state":"WV"},"type":"Feature","geometry":{"type":"Point","coordinates":[-79.632862,39.622957]}},{"properties":{"city":"BRUCETON MILLS","lon":-79.632862,"zip":26525.0,"facility":"HAZELTON-FEMALE","type":"Female Satellite Camp","population count":455.0,"id":"a63dmftcg5ua","address":"1640 SKY VIEW DRIVE","lat":39.622957,"state":"WV"},"type":"Feature","geometry":{"type":"Point","coordinates":[-79.632862,39.622957]}},{"properties":{"city":"HERLONG","lon":-120.166089,"zip":96113.0,"facility":"HERLONG FCI","type":"Federal Correctional Institution","population count":953.0,"id":"a63dmfvtya2d","address":"741-925 ACCESS ROAD A-25","lat":40.150922,"state":"CA"},"type":"Feature","geometry":{"type":"Point","coordinates":[-120.166089,40.150922]}},{"properties":{"city":"HERLONG","lon":-120.166089,"zip":96113.0,"facility":"HERLONG-CAMP","type":"Satellite Camp","population count":118.0,"id":"a63dmfm2uubg","address":"741-925 ACCESS ROAD A-25","lat":40.150922,"state":"CA"},"type":"Feature","geometry":{"type":"Point","coordinates":[-120.166089,40.150922]}},{"properties":{"city":"HONOLULU","lon":-157.928178,"zip":96819.0,"facility":"HONOLULU FDC","type":"Federal Detention Center","population count":648.0,"id":"a63dmftcx0jt","address":"351 ELLIOTT ST","lat":21.333516,"state":"HI"},"type":"Feature","geometry":{"type":"Point","coordinates":[-157.928178,21.333516]}},{"properties":{"city":"HOUSTON","lon":-95.360663,"zip":77002.0,"facility":"HOUSTON FDC","type":"Federal Detention Center","population count":818.0,"id":"a63dmfjhmg1e","address":"1200 TEXAS AVENUE","lat":29.758491,"state":"TX"},"type":"Feature","geometry":{"type":"Point","coordinates":[-95.360663,29.758491]}},{"properties":{"city":"JESUP","lon":-81.901954,"zip":31599.0,"facility":"JESUP FCI","type":"Federal Correctional Institution","population count":1137.0,"id":"a63dmfjp0x1u","address":"2600 HIGHWAY 301 SOUTH","lat":31.564345,"state":"GA"},"type":"Feature","geometry":{"type":"Point","coordinates":[-81.901954,31.564345]}},{"properties":{"city":"JESUP","lon":-81.901954,"zip":31599.0,"facility":"JESUP-CAMP","type":"Satellite Camp","population count":154.0,"id":"a63dmfsisg7m","address":"2600 HIGHWAY 301 SOUTH","lat":31.564345,"state":"GA"},"type":"Feature","geometry":{"type":"Point","coordinates":[-81.901954,31.564345]}},{"properties":{"city":"JESUP","lon":-81.901954,"zip":31599.0,"facility":"JESUP-FSL","type":"Satellite Camp","population count":556.0,"id":"a63dmfv5n1w1","address":"2680 301 SOUTH","lat":31.564345,"state":"GA"},"type":"Feature","geometry":{"type":"Point","coordinates":[-81.901954,31.564345]}},{"properties":{"city":"ANTHONY","lon":-106.589827,"zip":79821.0,"facility":"LA TUNA FCI","type":"Federal Correctional Institution","population count":1110.0,"id":"a63dmfuwv7sk","address":"8500 DONIPHAN ROAD","lat":31.982227,"state":"TX"},"type":"Feature","geometry":{"type":"Point","coordinates":[-106.589827,31.982227]}},{"properties":{"city":"ANTHONY","lon":-106.589827,"zip":79821.0,"facility":"LA TUNA-CAMP","type":"Satellite Camp","population count":262.0,"id":"a63dmfizzeqq","address":"8500 DONIPHAN ROAD","lat":31.982227,"state":"TX"},"type":"Feature","geometry":{"type":"Point","coordinates":[-106.589827,31.982227]}},{"properties":{"city":"EL PASO","lon":-106.365165,"zip":79906.0,"facility":"LA TUNA-FSL (EL PASO)","type":"Satellite Camp","population count":291.0,"id":"a63dmfgk4jqk","address":"SSG SIMS ROAD, BLDG 11636","lat":31.841729,"state":"TX"},"type":"Feature","geometry":{"type":"Point","coordinates":[-106.365165,31.841729]}},{"properties":{"city":"LEAVENWORTH","lon":-94.935658,"zip":66048.0,"facility":"LEAVENWORTH USP","type":"U.S. Penitentiary","population count":1908.0,"id":"a63dmfolupy5","address":"1300 METROPOLITAN","lat":39.331045,"state":"KS"},"type":"Feature","geometry":{"type":"Point","coordinates":[-94.935658,39.331045]}},{"properties":{"city":"LEAVENWORTH","lon":-94.935658,"zip":66048.0,"facility":"LEAVENWORTH-CAMP","type":"Satellite Camp","population count":426.0,"id":"a63dmfifl0xv","address":"1300 METROPOLITAN","lat":39.331045,"state":"KS"},"type":"Feature","geometry":{"type":"Point","coordinates":[-94.935658,39.331045]}},{"properties":{"city":"","lon":-82.998961,"zip":24277.0,"facility":"LEE USP","type":"U.S. Penitentiary","population count":1507.0,"id":"a63dmfqbft65","address":"LEE COUNTY INDUSTRIAL PARK","lat":36.70405,"state":"VA"},"type":"Feature","geometry":{"type":"Point","coordinates":[-82.998961,36.70405]}},{"properties":{"city":"","lon":-82.998961,"zip":24277.0,"facility":"LEE USP-CAMP","type":"Satellite Camp","population count":103.0,"id":"a63dmfsglis2","address":"LEE COUNTY INDUSTRIAL PARK","lat":36.70405,"state":"VA"},"type":"Feature","geometry":{"type":"Point","coordinates":[-82.998961,36.70405]}},{"properties":{"city":"LEWISBURG","lon":-76.915003,"zip":17837.0,"facility":"LEWISBURG USP","type":"U.S. Penitentiary","population count":919.0,"id":"a63dmfngzmzk","address":"2400 ROBERT F. MILLER DRIVE","lat":40.987833,"state":"PA"},"type":"Feature","geometry":{"type":"Point","coordinates":[-76.915003,40.987833]}},{"properties":{"city":"LEWISBURG","lon":-76.915003,"zip":17837.0,"facility":"LEWISBURG-CAMP","type":"Satellite Camp","population count":541.0,"id":"a63dmfn1a160","address":"2400 ROBERT F. MILLER DRIVE","lat":40.987833,"state":"PA"},"type":"Feature","geometry":{"type":"Point","coordinates":[-76.915003,40.987833]}},{"properties":{"city":"LEXINGTON","lon":-84.560146,"zip":40511.0,"facility":"LEXINGTON FMC","type":"Federal Medical Center","population count":1535.0,"id":"a63dmfnb6euw","address":"3301 LEESTOWN ROAD","lat":38.105872,"state":"KY"},"type":"Feature","geometry":{"type":"Point","coordinates":[-84.560146,38.105872]}},{"properties":{"city":"LEXINGTON","lon":-84.560146,"zip":40511.0,"facility":"LEXINGTON-CAMP","type":"Satellite Camp","population count":269.0,"id":"a63dmfmq3oon","address":"3301 LEESTOWN ROAD","lat":38.105872,"state":"KY"},"type":"Feature","geometry":{"type":"Point","coordinates":[-84.560146,38.105872]}},{"properties":{"city":"LOMPOC","lon":-120.505594,"zip":93436.0,"facility":"LOMPOC FCI","type":"Federal Correctional Institution","population count":1448.0,"id":"a63dmfrco73w","address":"3901 KLEIN BLVD","lat":34.676562,"state":"CA"},"type":"Feature","geometry":{"type":"Point","coordinates":[-120.505594,34.676562]}},{"properties":{"city":"LOMPOC","lon":-120.505594,"zip":93436.0,"facility":"LOMPOC USP","type":"U.S. Penitentiary","population count":1617.0,"id":"a63dmfv49pmr","address":"3901 KLEIN BLVD","lat":34.676562,"state":"CA"},"type":"Feature","geometry":{"type":"Point","coordinates":[-120.505594,34.676562]}},{"properties":{"city":"LOMPOC","lon":-120.505594,"zip":93436.0,"facility":"LOMPOC USP-CAMP","type":"Satellite Camp","population count":529.0,"id":"a63dmfgv1n8m","address":"3901 KLEIN BLVD","lat":34.676562,"state":"CA"},"type":"Feature","geometry":{"type":"Point","coordinates":[-120.505594,34.676562]}},{"properties":{"city":"LORETTO","lon":-78.560555,"zip":15940.0,"facility":"LORETTO FCI","type":"Federal Correctional Institution","population count":1293.0,"id":"a63dmfnette7","address":"RURAL ROUTE 276","lat":40.446676,"state":"PA"},"type":"Feature","geometry":{"type":"Point","coordinates":[-78.560555,40.446676]}},{"properties":{"city":"LORETTO","lon":-78.560555,"zip":15940.0,"facility":"LORETTO-CAMP","type":"Satellite Camp","population count":146.0,"id":"a63dmfgp6tla","address":"RURAL ROUTE 276","lat":40.446676,"state":"PA"},"type":"Feature","geometry":{"type":"Point","coordinates":[-78.560555,40.446676]}},{"properties":{"city":"LOS ANGELES","lon":-118.238477,"zip":90012.0,"facility":"LOS ANGELES MDC","type":"Metropolitan Detention Center","population count":1023.0,"id":"a63dmfli4jrs","address":"535 N ALAMEDA STREET","lat":34.053591,"state":"CA"},"type":"Feature","geometry":{"type":"Point","coordinates":[-118.238477,34.053591]}},{"properties":{"city":"MANCHESTER","lon":-83.789136,"zip":40962.0,"facility":"MANCHESTER FCI","type":"Federal Correctional Institution","population count":1253.0,"id":"a63dmfs5fuwg","address":"805 FOX HOLLOW ROAD","lat":37.179211,"state":"KY"},"type":"Feature","geometry":{"type":"Point","coordinates":[-83.789136,37.179211]}},{"properties":{"city":"MANCHESTER","lon":-83.789136,"zip":40962.0,"facility":"MANCHESTER-CAMP","type":"Satellite Camp","population count":331.0,"id":"a63dmfimcpge","address":"805 FOX HOLLOW ROAD","lat":37.179211,"state":"KY"},"type":"Feature","geometry":{"type":"Point","coordinates":[-83.789136,37.179211]}},{"properties":{"city":"MARIANNA","lon":-85.191726,"zip":32446.0,"facility":"MARIANNA FCI","type":"Federal Correctional Institution","population count":1149.0,"id":"a63dmfudz6jo","address":"3625 FCI ROAD","lat":30.834595,"state":"FL"},"type":"Feature","geometry":{"type":"Point","coordinates":[-85.191726,30.834595]}},{"properties":{"city":"MARIANNA","lon":-85.191726,"zip":32446.0,"facility":"MARIANNA-CAMP","type":"Satellite Camp","population count":273.0,"id":"a63dmft05pis","address":"3625 FCI ROAD","lat":30.834595,"state":"FL"},"type":"Feature","geometry":{"type":"Point","coordinates":[-85.191726,30.834595]}},{"properties":{"city":"MARION","lon":-88.984383,"zip":62959.0,"facility":"MARION USP","type":"U.S. Penitentiary","population count":946.0,"id":"a63dmfqgw28n","address":"4500 PRISON ROAD","lat":37.662973,"state":"IL"},"type":"Feature","geometry":{"type":"Point","coordinates":[-88.984383,37.662973]}},{"properties":{"city":"MARION","lon":-88.984383,"zip":62959.0,"facility":"MARION-CAMP","type":"Satellite Camp","population count":278.0,"id":"a63dmfwgz35x","address":"4500 PRISON ROAD","lat":37.662973,"state":"IL"},"type":"Feature","geometry":{"type":"Point","coordinates":[-88.984383,37.662973]}},{"properties":{"city":"PINE KNOT","lon":-84.388813,"zip":42635.0,"facility":"MCCREARY USP","type":"U.S. Penitentiary","population count":1588.0,"id":"a63dmfq7jjkn","address":"330 FEDERAL WAY","lat":36.687831,"state":"KY"},"type":"Feature","geometry":{"type":"Point","coordinates":[-84.388813,36.687831]}},{"properties":{"city":"PINE KNOT","lon":-84.388813,"zip":42635.0,"facility":"MCCREARY-CAMP","type":"Satellite Camp","population count":128.0,"id":"a63dmfq0c7wf","address":"330 FEDERAL WAY","lat":36.687831,"state":"KY"},"type":"Feature","geometry":{"type":"Point","coordinates":[-84.388813,36.687831]}},{"properties":{"city":"LEWIS RUN","lon":-78.685132,"zip":16738.0,"facility":"MCKEAN FCI","type":"Federal Correctional Institution","population count":1292.0,"id":"a63dmfw76sio","address":"RT 59 &amp; BIG SHANTY RD","lat":41.797758,"state":"PA"},"type":"Feature","geometry":{"type":"Point","coordinates":[-78.685132,41.797758]}},{"properties":{"city":"LEWIS RUN","lon":-78.685132,"zip":16738.0,"facility":"MCKEAN-CAMP","type":"Satellite Camp","population count":256.0,"id":"a63dmfl7oqug","address":"RT 59 &amp; BIG SHANTY RD","lat":41.797758,"state":"PA"},"type":"Feature","geometry":{"type":"Point","coordinates":[-78.685132,41.797758]}},{"properties":{"city":"MCRAE","lon":-82.871649,"zip":31055.0,"facility":"MCRAE CI","type":"Private Correctional Institution","population count":1732.0,"id":"a63dmfqr3qh1","address":"1000 JIM HAMMOCK DRIVE","lat":32.050277,"state":"GA"},"type":"Feature","geometry":{"type":"Point","coordinates":[-82.871649,32.050277]}},{"properties":{"city":"MEMPHIS","lon":-89.866996,"zip":38134.0,"facility":"MEMPHIS FCI","type":"Federal Correctional Institution","population count":1381.0,"id":"a63dmfuuvep3","address":"1101 JOHN A DENIE ROAD","lat":35.155733,"state":"TN"},"type":"Feature","geometry":{"type":"Point","coordinates":[-89.866996,35.155733]}},{"properties":{"city":"MEMPHIS","lon":-89.866996,"zip":38134.0,"facility":"MEMPHIS-CAMP","type":"Satellite Camp","population count":289.0,"id":"a63dmfib3r0l","address":"1101 JOHN A DENIE ROAD","lat":35.155733,"state":"TN"},"type":"Feature","geometry":{"type":"Point","coordinates":[-89.866996,35.155733]}},{"properties":{"city":"MIAMI","lon":-80.410834,"zip":33177.0,"facility":"MIAMI FCI","type":"Federal Correctional Institution","population count":1127.0,"id":"a63dmfn4hn6b","address":"15801 S.W. 137TH AVENUE","lat":25.618282,"state":"FL"},"type":"Feature","geometry":{"type":"Point","coordinates":[-80.410834,25.618282]}},{"properties":{"city":"MIAMI","lon":-80.410834,"zip":33177.0,"facility":"MIAMI FCI-CAMP","type":"Satellite Camp","population count":400.0,"id":"a63dmfjp9gem","address":"15801 S.W. 137TH AVENUE","lat":25.618282,"state":"FL"},"type":"Feature","geometry":{"type":"Point","coordinates":[-80.410834,25.618282]}},{"properties":{"city":"MIAMI","lon":-80.19352,"zip":33132.0,"facility":"MIAMI FDC","type":"Federal Detention Center","population count":1747.0,"id":"a63dmfvrz5gf","address":"33 NE 4TH STREET","lat":25.778369,"state":"FL"},"type":"Feature","geometry":{"type":"Point","coordinates":[-80.19352,25.778369]}},{"properties":{"city":"MILAN","lon":-83.668308,"zip":48160.0,"facility":"MILAN FCI","type":"Federal Correctional Institution","population count":1546.0,"id":"a63dmfjg30wd","address":"E. ARKONA ROAD","lat":42.094652,"state":"MI"},"type":"Feature","geometry":{"type":"Point","coordinates":[-83.668308,42.094652]}},{"properties":{"city":"MONTGOMERY","lon":-86.359685,"zip":36112.0,"facility":"MONTGOMERY FPC","type":"Federal Prison Camp","population count":920.0,"id":"a63dmfor8n0y","address":"MAXWELL AIR FORCE BASE","lat":32.395676,"state":"AL"},"type":"Feature","geometry":{"type":"Point","coordinates":[-86.359685,32.395676]}},{"properties":{"city":"MORGANTOWN","lon":-79.960708,"zip":26501.0,"facility":"MORGANTOWN FCI","type":"Federal Correctional Institution","population count":1063.0,"id":"a63dmfo04zk2","address":"446 GREENBAG ROAD, ROUTE 857","lat":39.605565,"state":"WV"},"type":"Feature","geometry":{"type":"Point","coordinates":[-79.960708,39.605565]}},{"properties":{"city":"PHILIPSBURG","lon":-78.242216,"zip":16866.0,"facility":"MOSHANNON VALLEY CI","type":"Private Correctional Institution","population count":1486.0,"id":"a63dmfhah6ob","address":"555 CORNELL DRIVE","lat":40.921595,"state":"PA"},"type":"Feature","geometry":{"type":"Point","coordinates":[-78.242216,40.921595]}},{"properties":{"city":"YOUNGSTOWN","lon":-80.632483,"zip":44501.0,"facility":"NE OHIO CORR CTR CI","type":"Private Correctional Institution","population count":1491.0,"id":"a63dmfgsn9sp","address":"2240 HUBBARD RD.","lat":41.131575,"state":"OH"},"type":"Feature","geometry":{"type":"Point","coordinates":[-80.632483,41.131575]}},{"properties":{"city":"NEW YORK","lon":-74.001443,"zip":10007.0,"facility":"NEW YORK MCC","type":"Metropolitan Correctional Center","population count":776.0,"id":"a63dmfwhze4w","address":"150 PARK ROW","lat":40.713002,"state":"NY"},"type":"Feature","geometry":{"type":"Point","coordinates":[-74.001443,40.713002]}},{"properties":{"city":"OAKDALE","lon":-92.640449,"zip":71463.0,"facility":"OAKDALE FCI","type":"Federal Correctional Institution","population count":1304.0,"id":"a63dmfkbfu0n","address":"1507 EAST WHATLEY ROAD","lat":30.828519,"state":"LA"},"type":"Feature","geometry":{"type":"Point","coordinates":[-92.640449,30.828519]}},{"properties":{"city":"OAKDALE","lon":-92.640449,"zip":71463.0,"facility":"OAKDALE FDC","type":"Federal Detention Center","population count":931.0,"id":"a63dmfl4itc8","address":"2105 EAST WHATLEY ROAD","lat":30.828519,"state":"LA"},"type":"Feature","geometry":{"type":"Point","coordinates":[-92.640449,30.828519]}},{"properties":{"city":"OAKDALE","lon":-92.640449,"zip":71463.0,"facility":"OAKDALE FDC-CAMP","type":"Satellite Camp","population count":146.0,"id":"a63dmfk8dk9o","address":"2105 EAST WHATLEY ROAD","lat":30.828519,"state":"LA"},"type":"Feature","geometry":{"type":"Point","coordinates":[-92.640449,30.828519]}},{"properties":{"city":"OKLAHOMA CITY","lon":-97.617837,"zip":73169.0,"facility":"OKLAHOMA CITY FTC","type":"Federal Transfer Center","population count":1444.0,"id":"a63dmfv8bg1t","address":"7410 S. MACARTHUR BLVD","lat":35.392399,"state":"OK"},"type":"Feature","geometry":{"type":"Point","coordinates":[-97.617837,35.392399]}},{"properties":{"city":"OTISVILLE","lon":-74.527029,"zip":10963.0,"facility":"OTISVILLE FCI","type":"Federal Correctional Institution","population count":1105.0,"id":"a63dmfvuluhc","address":"TWO MILE DRIVE","lat":41.496878,"state":"NY"},"type":"Feature","geometry":{"type":"Point","coordinates":[-74.527029,41.496878]}},{"properties":{"city":"OTISVILLE","lon":-74.527029,"zip":10963.0,"facility":"OTISVILLE-CAMP","type":"Satellite Camp","population count":122.0,"id":"a63dmflmyvuv","address":"TWO MILE DRIVE","lat":41.496878,"state":"NY"},"type":"Feature","geometry":{"type":"Point","coordinates":[-74.527029,41.496878]}},{"properties":{"city":"OXFORD","lon":-89.649635,"zip":53952.0,"facility":"OXFORD FCI","type":"Federal Correctional Institution","population count":1128.0,"id":"a63dmfq7mair","address":"COUNTY ROAD G &amp; ELK AVENUE","lat":43.865488,"state":"WI"},"type":"Feature","geometry":{"type":"Point","coordinates":[-89.649635,43.865488]}},{"properties":{"city":"OXFORD","lon":-89.649635,"zip":53952.0,"facility":"OXFORD-CAMP","type":"Satellite Camp","population count":173.0,"id":"a63dmfji3js8","address":"COUNTY ROAD G &amp; ELK AVENUE","lat":43.865488,"state":"WI"},"type":"Feature","geometry":{"type":"Point","coordinates":[-89.649635,43.865488]}},{"properties":{"city":"PEKIN","lon":-89.659317,"zip":61555.0,"facility":"PEKIN FCI","type":"Federal Correctional Institution","population count":1218.0,"id":"a63dmfp7j4cw","address":"2600 S. SECOND ST.","lat":40.535976,"state":"IL"},"type":"Feature","geometry":{"type":"Point","coordinates":[-89.659317,40.535976]}},{"properties":{"city":"PEKIN","lon":-89.659317,"zip":61555.0,"facility":"PEKIN-CAMP","type":"Satellite Camp","population count":306.0,"id":"a63dmfgwsxwt","address":"2600 S. SECOND ST.","lat":40.535976,"state":"IL"},"type":"Feature","geometry":{"type":"Point","coordinates":[-89.659317,40.535976]}},{"properties":{"city":"PENSACOLA","lon":-87.341523,"zip":32509.0,"facility":"PENSACOLA FPC","type":"Federal Prison Camp","population count":740.0,"id":"a63dmflivbwv","address":"110 RABY AVE","lat":30.462801,"state":"FL"},"type":"Feature","geometry":{"type":"Point","coordinates":[-87.341523,30.462801]}},{"properties":{"city":"HOPEWELL","lon":-77.346741,"zip":23860.0,"facility":"PETERSBURG FCI","type":"Federal Correctional Institution","population count":1291.0,"id":"a63dmfv6i0si","address":"1100 RIVER ROAD","lat":37.304205,"state":"VA"},"type":"Feature","geometry":{"type":"Point","coordinates":[-77.346741,37.304205]}},{"properties":{"city":"HOPEWELL","lon":-77.346741,"zip":23860.0,"facility":"PETERSBURG FCI-CAMP","type":"Satellite Camp","population count":312.0,"id":"a63dmfm193eg","address":"1100 RIVER ROAD","lat":37.304205,"state":"VA"},"type":"Feature","geometry":{"type":"Point","coordinates":[-77.346741,37.304205]}},{"properties":{"city":"HOPEWELL","lon":-77.346741,"zip":23860.0,"facility":"PETERSBURG MED FCI","type":"Federal Correctional Institution","population count":1964.0,"id":"a63dmfphahio","address":"1060 RIVER ROAD","lat":37.304205,"state":"VA"},"type":"Feature","geometry":{"type":"Point","coordinates":[-77.346741,37.304205]}},{"properties":{"city":"PHILADELPHIA","lon":-75.151191,"zip":19106.0,"facility":"PHILADELPHIA FDC","type":"Federal Detention Center","population count":1155.0,"id":"a63dmfoxba9j","address":"700 ARCH STREET","lat":39.953148,"state":"PA"},"type":"Feature","geometry":{"type":"Point","coordinates":[-75.151191,39.953148]}},{"properties":{"city":"PHOENIX","lon":-112.168527,"zip":85086.0,"facility":"PHOENIX FCI","type":"Federal Correctional Institution","population count":990.0,"id":"a63dmfnourc1","address":"37900 N 45TH AVE","lat":33.834346,"state":"AZ"},"type":"Feature","geometry":{"type":"Point","coordinates":[-112.168527,33.834346]}},{"properties":{"city":"PHOENIX","lon":-112.168527,"zip":85086.0,"facility":"PHOENIX-CAMP","type":"Satellite Camp","population count":295.0,"id":"a63dmfqmsp9v","address":"37900 N 45TH AVE","lat":33.834346,"state":"AZ"},"type":"Feature","geometry":{"type":"Point","coordinates":[-112.168527,33.834346]}},{"properties":{"city":"POLLOCK","lon":-92.437182,"zip":71467.0,"facility":"POLLOCK MED FCI","type":"Federal Correctional Institution","population count":296.0,"id":"a63dmfrf64da","address":"1000 AIRBASE ROAD","lat":31.466053,"state":"LA"},"type":"Feature","geometry":{"type":"Point","coordinates":[-92.437182,31.466053]}},{"properties":{"city":"POLLOCK","lon":-92.446237,"zip":71467.0,"facility":"POLLOCK USP","type":"U.S. Penitentiary","population count":1361.0,"id":"a63dmfwky8vt","address":"1000 AIRBASE ROAD","lat":31.46685,"state":"LA"},"type":"Feature","geometry":{"type":"Point","coordinates":[-92.446237,31.46685]}},{"properties":{"city":"POLLOCK","lon":-92.446237,"zip":71467.0,"facility":"POLLOCK-CAMP","type":"Satellite Camp","population count":232.0,"id":"a63dmfjm0x2s","address":"1000 AIRBASE ROAD","lat":31.46685,"state":"LA"},"type":"Feature","geometry":{"type":"Point","coordinates":[-92.446237,31.46685]}},{"properties":{"city":"RAY BROOK","lon":-74.092937,"zip":12977.0,"facility":"RAY BROOK FCI","type":"Federal Correctional Institution","population count":1230.0,"id":"a63dmfg976tb","address":"128 RAY BROOK ROAD","lat":44.290375,"state":"NY"},"type":"Feature","geometry":{"type":"Point","coordinates":[-74.092937,44.290375]}},{"properties":{"city":"PECOS","lon":-103.538675,"zip":79772.0,"facility":"REEVES CI","type":"Private Correctional Institution","population count":1676.0,"id":"a63dmfkbkayh","address":"98 WEST COUNTY ROAD","lat":31.394262,"state":"TX"},"type":"Feature","geometry":{"type":"Point","coordinates":[-103.538675,31.394262]}},{"properties":{"city":"PECOS","lon":-103.538675,"zip":79772.0,"facility":"REEVES DC","type":"Private Detention Center","population count":1329.0,"id":"a63dmfhy7rzk","address":"98 WEST COUNTY ROAD","lat":31.394262,"state":"TX"},"type":"Feature","geometry":{"type":"Point","coordinates":[-103.538675,31.394262]}},{"properties":{"city":"WINTON","lon":-76.959626,"zip":27986.0,"facility":"RIVERS CI","type":"Private Correctional Institution","population count":1353.0,"id":"a63dmfhciev4","address":"145 PARKER`S FISHERY RD","lat":36.405171,"state":"NC"},"type":"Feature","geometry":{"type":"Point","coordinates":[-76.959626,36.405171]}},{"properties":{"city":"ROCHESTER","lon":-92.436383,"zip":55904.0,"facility":"ROCHESTER FMC","type":"Federal Medical Center","population count":1011.0,"id":"a63dmfvfycsn","address":"2110 EAST CENTER STREET","lat":44.024342,"state":"MN"},"type":"Feature","geometry":{"type":"Point","coordinates":[-92.436383,44.024342]}},{"properties":{"city":"SAFFORD","lon":-109.724066,"zip":85546.0,"facility":"SAFFORD FCI","type":"Federal Correctional Institution","population count":1201.0,"id":"a63dmftf33e5","address":"1529 WEST HIGHWAY 366","lat":32.716893,"state":"AZ"},"type":"Feature","geometry":{"type":"Point","coordinates":[-109.724066,32.716893]}},{"properties":{"city":"SAN DIEGO","lon":-117.16601,"zip":92101.0,"facility":"SAN DIEGO MCC","type":"Metropolitan Correctional Center","population count":1114.0,"id":"a63dmfnyqpvl","address":"808 UNION STREET","lat":32.713909,"state":"CA"},"type":"Feature","geometry":{"type":"Point","coordinates":[-117.16601,32.713909]}},{"properties":{"city":"SANDSTONE","lon":-92.854768,"zip":55072.0,"facility":"SANDSTONE FCI","type":"Federal Correctional Institution","population count":1392.0,"id":"a63dmftd6q0z","address":"2300 COUNTY RD 29","lat":46.109559,"state":"MN"},"type":"Feature","geometry":{"type":"Point","coordinates":[-92.854768,46.109559]}},{"properties":{"city":"MINERSVILLE","lon":-76.344231,"zip":17954.0,"facility":"SCHUYLKILL FCI","type":"Federal Correctional Institution","population count":1316.0,"id":"a63dmfjzxh30","address":"INTERSTATE 81 &amp; 901 W","lat":40.732716,"state":"PA"},"type":"Feature","geometry":{"type":"Point","coordinates":[-76.344231,40.732716]}},{"properties":{"city":"MINERSVILLE","lon":-76.344231,"zip":17954.0,"facility":"SCHUYLKILL-CAMP","type":"Satellite Camp","population count":289.0,"id":"a63dmfrzi761","address":"INTERSTATE 81 &amp; 901 W","lat":40.732716,"state":"PA"},"type":"Feature","geometry":{"type":"Point","coordinates":[-76.344231,40.732716]}},{"properties":{"city":"SEAGOVILLE","lon":-96.568022,"zip":75159.0,"facility":"SEAGOVILLE FCI","type":"Federal Correctional Institution","population count":1795.0,"id":"a63dmfktjmj7","address":"2113 NORTH HWY 175","lat":32.654955,"state":"TX"},"type":"Feature","geometry":{"type":"Point","coordinates":[-96.568022,32.654955]}},{"properties":{"city":"SEAGOVILLE","lon":-96.568022,"zip":75159.0,"facility":"SEAGOVILLE-CAMP","type":"Satellite Camp","population count":162.0,"id":"a63dmfvoq4xz","address":"2113 NORTH HWY 175","lat":32.654955,"state":"TX"},"type":"Feature","geometry":{"type":"Point","coordinates":[-96.568022,32.654955]}},{"properties":{"city":"SEATTLE","lon":-122.301495,"zip":98198.0,"facility":"SEATAC FDC","type":"Federal Detention Center","population count":923.0,"id":"a63dmfta2fjb","address":"2425 SOUTH 200TH STREET","lat":47.421922,"state":"WA"},"type":"Feature","geometry":{"type":"Point","coordinates":[-122.301495,47.421922]}},{"properties":{"city":"SHERIDAN","lon":-123.381833,"zip":97378.0,"facility":"SHERIDAN FCI","type":"Federal Correctional Institution","population count":1332.0,"id":"a63dmfndxsu4","address":"27072 BALLSTON ROAD","lat":45.083923,"state":"OR"},"type":"Feature","geometry":{"type":"Point","coordinates":[-123.381833,45.083923]}},{"properties":{"city":"SHERIDAN","lon":-123.381833,"zip":97378.0,"facility":"SHERIDAN-CAMP","type":"Satellite Camp","population count":475.0,"id":"a63dmfku14fc","address":"27072 BALLSTON ROAD","lat":45.083923,"state":"OR"},"type":"Feature","geometry":{"type":"Point","coordinates":[-123.381833,45.083923]}},{"properties":{"city":"SPRINGFIELD","lon":-93.324675,"zip":65807.0,"facility":"SPRINGFIELD USMCFP","type":"Medical Center for Federal Prisoners","population count":1192.0,"id":"a63dmfs4ywqq","address":"1900 W. SUNSHINE ST","lat":37.177727,"state":"MO"},"type":"Feature","geometry":{"type":"Point","coordinates":[-93.324675,37.177727]}},{"properties":{"city":"TAFT","lon":-119.385724,"zip":93268.0,"facility":"TAFT CI","type":"Private Correctional Institution","population count":1842.0,"id":"a63dmfucshv0","address":"1500 CADET ROAD","lat":35.111814,"state":"CA"},"type":"Feature","geometry":{"type":"Point","coordinates":[-119.385724,35.111814]}},{"properties":{"city":"TAFT","lon":-119.385724,"zip":93268.0,"facility":"TAFT-CAMP","type":"Satellite Camp","population count":500.0,"id":"a63dmfnt8szv","address":"1500 CADET ROAD","lat":35.111814,"state":"CA"},"type":"Feature","geometry":{"type":"Point","coordinates":[-119.385724,35.111814]}},{"properties":{"city":"TALLADEGA","lon":-86.1401,"zip":35160.0,"facility":"TALLADEGA FCI","type":"Federal Correctional Institution","population count":889.0,"id":"a63dmfhs18xz","address":"565 EAST RENFROE ROAD","lat":33.420692,"state":"AL"},"type":"Feature","geometry":{"type":"Point","coordinates":[-86.1401,33.420692]}},{"properties":{"city":"TALLADEGA","lon":-86.1401,"zip":35160.0,"facility":"TALLADEGA-CAMP","type":"Satellite Camp","population count":369.0,"id":"a63dmfmz5378","address":"565 EAST RENFROE ROAD","lat":33.420692,"state":"AL"},"type":"Feature","geometry":{"type":"Point","coordinates":[-86.1401,33.420692]}},{"properties":{"city":"TALLAHASSEE","lon":-84.222519,"zip":32301.0,"facility":"TALLAHASSEE FCI","type":"Federal Correctional Institution","population count":1186.0,"id":"a63dmfla52r6","address":"501 CAPITAL CIRCLE, NE","lat":30.443793,"state":"FL"},"type":"Feature","geometry":{"type":"Point","coordinates":[-84.222519,30.443793]}},{"properties":{"city":"SAN PEDRO","lon":-118.267135,"zip":90731.0,"facility":"TERMINAL ISLAND FCI","type":"Federal Correctional Institution","population count":1052.0,"id":"a63dmflnobd3","address":"1299 SEASIDE AVENUE","lat":33.726703,"state":"CA"},"type":"Feature","geometry":{"type":"Point","coordinates":[-118.267135,33.726703]}},{"properties":{"city":"TERRE HAUTE","lon":-87.451298,"zip":47808.0,"facility":"TERRE HAUTE FCI","type":"Federal Correctional Institution","population count":1255.0,"id":"a63dmfk27xx1","address":"4200 BUREAU ROAD NORTH","lat":39.416673,"state":"IN"},"type":"Feature","geometry":{"type":"Point","coordinates":[-87.451298,39.416673]}},{"properties":{"city":"TERRE HAUTE","lon":-87.451298,"zip":47808.0,"facility":"TERRE HAUTE FCI-CAMP","type":"Satellite Camp","population count":461.0,"id":"a63dmfin0qb5","address":"4200 BUREAU ROAD NORTH","lat":39.416673,"state":"IN"},"type":"Feature","geometry":{"type":"Point","coordinates":[-87.451298,39.416673]}},{"properties":{"city":"TERRE HAUTE","lon":-87.451298,"zip":47802.0,"facility":"TERRE HAUTE USP","type":"U.S. Penitentiary","population count":1703.0,"id":"a63dmfgy0sxb","address":"4700 BUREAU ROAD SOUTH","lat":39.416673,"state":"IN"},"type":"Feature","geometry":{"type":"Point","coordinates":[-87.451298,39.416673]}},{"properties":{"city":"TEXARKANA","lon":-94.089136,"zip":75501.0,"facility":"TEXARKANA FCI","type":"Federal Correctional Institution","population count":1375.0,"id":"a63dmfivid0h","address":"4001 LEOPARD DRIVE","lat":33.377265,"state":"TX"},"type":"Feature","geometry":{"type":"Point","coordinates":[-94.089136,33.377265]}},{"properties":{"city":"TEXARKANA","lon":-94.089136,"zip":75501.0,"facility":"TEXARKANA-CAMP","type":"Satellite Camp","population count":340.0,"id":"a63dmflt6sxw","address":"4001 LEOPARD DRIVE","lat":33.377265,"state":"TX"},"type":"Feature","geometry":{"type":"Point","coordinates":[-94.089136,33.377265]}},{"properties":{"city":"THREE RIVERS","lon":-98.324669,"zip":78071.0,"facility":"THREE RIVERS FCI","type":"Federal Correctional Institution","population count":953.0,"id":"a63dmfvbge0z","address":"US HIGHWAY 72 WEST","lat":28.444396,"state":"TX"},"type":"Feature","geometry":{"type":"Point","coordinates":[-98.324669,28.444396]}},{"properties":{"city":"THREE RIVERS","lon":-98.324669,"zip":78071.0,"facility":"THREE RIVERS-CAMP","type":"Satellite Camp","population count":321.0,"id":"a63dmfi3katx","address":"US HIGHWAY 72 WEST","lat":28.444396,"state":"TX"},"type":"Feature","geometry":{"type":"Point","coordinates":[-98.324669,28.444396]}},{"properties":{"city":"TUCSON","lon":-110.856333,"zip":85706.0,"facility":"TUCSON FCI","type":"Federal Correctional Institution","population count":746.0,"id":"a63dmfvcvc3b","address":"8901 S. WILMOT ROAD","lat":32.089977,"state":"AZ"},"type":"Feature","geometry":{"type":"Point","coordinates":[-110.856333,32.089977]}},{"properties":{"city":"TUCSON","lon":-110.866838,"zip":85706.0,"facility":"TUCSON USP","type":"U.S. Penitentiary","population count":925.0,"id":"a63dmfs6g7bp","address":"9300 SOUTH WILMOT ROAD","lat":32.083737,"state":"AZ"},"type":"Feature","geometry":{"type":"Point","coordinates":[-110.866838,32.083737]}},{"properties":{"city":"TUCSON","lon":-110.866838,"zip":85706.0,"facility":"TUCSON-CAMP","type":"Satellite Camp","population count":124.0,"id":"a63dmfvmrezv","address":"9300 SOUTH WILMOT ROAD","lat":32.083737,"state":"AZ"},"type":"Feature","geometry":{"type":"Point","coordinates":[-110.866838,32.083737]}},{"properties":{"city":"VICTORVILLE","lon":-117.364686,"zip":92394.0,"facility":"VICTORVILLE MED I FCI","type":"Federal Correctional Institution","population count":1332.0,"id":"a63dmfqqvl3l","address":"13777 AIR EXPRESSWAY BLVD","lat":34.565687,"state":"CA"},"type":"Feature","geometry":{"type":"Point","coordinates":[-117.364686,34.565687]}},{"properties":{"city":"VICTORVILLE","lon":-117.364686,"zip":92394.0,"facility":"VICTORVILLE MED II FCI","type":"Federal Correctional Institution","population count":1299.0,"id":"a63dmfn83mk6","address":"13777 AIR EXPRESSWAY BLVD","lat":34.565687,"state":"CA"},"type":"Feature","geometry":{"type":"Point","coordinates":[-117.364686,34.565687]}},{"properties":{"city":"VICTORVILLE","lon":-117.364686,"zip":92394.0,"facility":"VICTORVILLE MED II-CAMP","type":"Satellite Camp","population count":251.0,"id":"a63dmfj1szjo","address":"13777 AIR EXPRESSWAY BLVD","lat":34.565687,"state":"CA"},"type":"Feature","geometry":{"type":"Point","coordinates":[-117.364686,34.565687]}},{"properties":{"city":"VICTORVILLE","lon":-117.364686,"zip":92394.0,"facility":"VICTORVILLE USP","type":"U.S. Penitentiary","population count":1503.0,"id":"a63dmfmrz8fd","address":"13777 AIR EXPRESSWAY BLVD","lat":34.565687,"state":"CA"},"type":"Feature","geometry":{"type":"Point","coordinates":[-117.364686,34.565687]}},{"properties":{"city":"WASECA","lon":-93.517205,"zip":56093.0,"facility":"WASECA FCI","type":"Federal Correctional Institution","population count":726.0,"id":"a63dmfs7jw9q","address":"1000 UNIVERSITY DR, SW","lat":44.070234,"state":"MN"},"type":"Feature","geometry":{"type":"Point","coordinates":[-93.517205,44.070234]}},{"properties":{"city":"SALTERS","lon":-79.879038,"zip":29590.0,"facility":"WILLIAMSBURG FCI","type":"Federal Correctional Institution","population count":1740.0,"id":"a63dmfw77f13","address":"8301 HIGHWAY 521","lat":33.587354,"state":"SC"},"type":"Feature","geometry":{"type":"Point","coordinates":[-79.879038,33.587354]}},{"properties":{"city":"SALTERS","lon":-79.879038,"zip":29590.0,"facility":"WILLIAMSBURG-CAMP","type":"Satellite Camp","population count":115.0,"id":"a63dmfrq0t9t","address":"8301 HIGHWAY 521","lat":33.587354,"state":"SC"},"type":"Feature","geometry":{"type":"Point","coordinates":[-79.879038,33.587354]}},{"properties":{"city":"YANKTON","lon":-97.390599,"zip":57078.0,"facility":"YANKTON FPC","type":"Federal Prison Camp","population count":793.0,"id":"a63dmfo66hmh","address":"1016 DOUGLAS AVENUE","lat":42.87942,"state":"SD"},"type":"Feature","geometry":{"type":"Point","coordinates":[-97.390599,42.87942]}},{"properties":{"city":"YAZOO CITY","lon":-90.431951,"zip":39194.0,"facility":"YAZOO CITY FCI","type":"Federal Correctional Institution","population count":1962.0,"id":"a63dmfqnffec","address":"2225 HALEY BARBOUR PARKWAY","lat":32.888063,"state":"MS"},"type":"Feature","geometry":{"type":"Point","coordinates":[-90.431951,32.888063]}},{"properties":{"city":"YAZOO CITY","lon":-90.431951,"zip":39194.0,"facility":"YAZOO CITY MED FCI","type":"Federal Correctional Institution","population count":1518.0,"id":"a63dmfk3c8im","address":"2225 HALEY BARBOUR PARKWAY","lat":32.888063,"state":"MS"},"type":"Feature","geometry":{"type":"Point","coordinates":[-90.431951,32.888063]}},{"properties":{"city":"YAZOO CITY","lon":-90.431951,"zip":39194.0,"facility":"YAZOO-CAMP","type":"Satellite Camp","population count":146.0,"id":"a63dmfm5md8l","address":"2225 HALEY BARBOUR PARKWAY","lat":32.888063,"state":"MS"},"type":"Feature","geometry":{"type":"Point","coordinates":[-90.431951,32.888063]}}],"is_temporal":false,"author":{"url":"http://www.bop.gov/locations/weekly_report.jsp ","metadata":"","contact_name":"","contact_address":"","source":"bop.gov, Bureau of Prisons ","contact_phone":""},"source":"http://www.bop.gov/locations/weekly_report.jsp ","pagination":{"sort":null,"start":0,"total":194,"limit":1000000},"state":"complete","tags":"corrections,federal,prison","published":"2009-06-25T12:00:00Z","id":13824}