{"type":"FeatureCollection","data_type":"Dataset","url_type":null,"permissions":[{"permissions":{"download":true,"view":true},"group_id":"everyone"}],"classification":null,"title":"Future Roundtables","count":68,"stream_id":138287,"contributor":{"url":"http://geocommons.com/users/30149","name":"hfernandes"},"data_attributes":null,"calculation_params":null,"icon_link":null,"link":"http://geocommons.com/overlays/138287.json","extent":[-157.858,18.4663,-66.1057,55.4007],"geometry_types":["point"],"unique_name":null,"name":"Future Roundtables","feature_count":68,"description":"","next_feature":null,"is_raster":false,"short_classification":"Y","stats":{"date":{"max":"2011/08/30 00:00:00 -0400","variance":827861770114.135,"mean":"2011/08/10 14:28:14 -0400","stdev":909869.095042872,"min":"2011/07/27 00:00:00 -0400","median":"2011/08/09 00:00:00 -0400"}},"features":[{"properties":{"city":"Atlanta","date":{"end_time":"2011/07/29 00:00:00 -0400","original":"7/28/2011","granularity":"day","time":"2011/07/28 00:00:00 -0400"},"country":"USA","geo_score":0.857,"id":"a659pc46dhjd","geo_precision":"city","state":"GA"},"type":"Feature","geometry":{"type":"Point","coordinates":[-84.387982,33.748995]}},{"properties":{"city":"Denver","date":{"end_time":"2011/07/28 00:00:00 -0400","original":"7/27/2011","granularity":"day","time":"2011/07/27 00:00:00 -0400"},"country":"USA","geo_score":0.857,"id":"a659pc8v3zrf","geo_precision":"city","state":"CO"},"type":"Feature","geometry":{"type":"Point","coordinates":[-104.984703,39.739154]}},{"properties":{"city":"New York","date":{"end_time":"2011/07/28 00:00:00 -0400","original":"7/27/2011","granularity":"day","time":"2011/07/27 00:00:00 -0400"},"country":"USA","geo_score":0.857,"id":"a659pc0lf0mg","geo_precision":"city","state":"NY"},"type":"Feature","geometry":{"type":"Point","coordinates":[-74.005973,40.714269]}},{"properties":{"city":"Williamsport","date":{"end_time":"2011/07/29 00:00:00 -0400","original":"7/28/2011","granularity":"day","time":"2011/07/28 00:00:00 -0400"},"country":"USA","geo_score":0.857,"id":"a659pcdiwquh","geo_precision":"city","state":"PA"},"type":"Feature","geometry":{"type":"Point","coordinates":[-76.958314,41.266716]}},{"properties":{"city":"West Palm Beach","date":{"end_time":"2011/07/29 00:00:00 -0400","original":"7/28/2011","granularity":"day","time":"2011/07/28 00:00:00 -0400"},"country":"USA","geo_score":0.762,"id":"a659pc6zqzfz","geo_precision":"city","state":"FL"},"type":"Feature","geometry":{"type":"Point","coordinates":[-80.035596,26.778118]}},{"properties":{"city":"Boston","date":{"end_time":"2011/07/29 00:00:00 -0400","original":"7/28/2011","granularity":"day","time":"2011/07/28 00:00:00 -0400"},"country":"USA","geo_score":0.857,"id":"a659pcdl66k6","geo_precision":"city","state":"MA"},"type":"Feature","geometry":{"type":"Point","coordinates":[-71.059773,42.358431]}},{"properties":{"city":"Lancaster","date":{"end_time":"2011/07/29 00:00:00 -0400","original":"7/28/2011","granularity":"day","time":"2011/07/28 00:00:00 -0400"},"country":"USA","geo_score":0.762,"id":"a659pc1mvq1f","geo_precision":"city","state":"PA"},"type":"Feature","geometry":{"type":"Point","coordinates":[-76.658856,39.960376]}},{"properties":{"city":"Albuquerque","date":{"end_time":"2011/07/29 00:00:00 -0400","original":"7/28/2011","granularity":"day","time":"2011/07/28 00:00:00 -0400"},"country":"USA","geo_score":0.857,"id":"a659pc8l9lot","geo_precision":"city","state":"NM"},"type":"Feature","geometry":{"type":"Point","coordinates":[-106.651137,35.084491]}},{"properties":{"city":"Cleveland","date":{"end_time":"2011/07/30 00:00:00 -0400","original":"7/29/2011","granularity":"day","time":"2011/07/29 00:00:00 -0400"},"country":"USA","geo_score":0.857,"id":"a659pc3lydfa","geo_precision":"city","state":"OH"},"type":"Feature","geometry":{"type":"Point","coordinates":[-81.695409,41.499495]}},{"properties":{"city":"El Paso","date":{"end_time":"2011/07/31 00:00:00 -0400","original":"7/30/2011","granularity":"day","time":"2011/07/30 00:00:00 -0400"},"country":"USA","geo_score":0.857,"id":"a659pbzixpr0","geo_precision":"city","state":"TX"},"type":"Feature","geometry":{"type":"Point","coordinates":[-106.486931,31.75872]}},{"properties":{"city":"Honolulu","date":{"end_time":"2011/08/02 00:00:00 -0400","original":"8/1/2011","granularity":"day","time":"2011/08/01 00:00:00 -0400"},"country":"USA","geo_score":0.857,"id":"a659pcb0fbmf","geo_precision":"city","state":"HI"},"type":"Feature","geometry":{"type":"Point","coordinates":[-157.858333,21.306944]}},{"properties":{"city":"Martinville","date":{"end_time":"2011/08/02 00:00:00 -0400","original":"8/1/2011","granularity":"day","time":"2011/08/01 00:00:00 -0400"},"country":"USA","geo_score":0.0,"id":"a659pc9u5pvl","geo_precision":"unmatched","state":"VA"},"type":"Feature","geometry":null},{"properties":{"city":"Traverse","date":{"end_time":"2011/08/02 00:00:00 -0400","original":"8/1/2011","granularity":"day","time":"2011/08/01 00:00:00 -0400"},"country":"USA","geo_score":0.818,"id":"a659pc8pi2z7","geo_precision":"city","state":"MI"},"type":"Feature","geometry":{"type":"Point","coordinates":[-88.234001,47.194369]}},{"properties":{"city":"Austin","date":{"end_time":"2011/08/02 00:00:00 -0400","original":"8/1/2011","granularity":"day","time":"2011/08/01 00:00:00 -0400"},"country":"USA","geo_score":0.857,"id":"a659pcb4smvf","geo_precision":"city","state":"TX"},"type":"Feature","geometry":{"type":"Point","coordinates":[-97.743061,30.267153]}},{"properties":{"city":"Charleston","date":{"end_time":"2011/08/02 00:00:00 -0400","original":"8/1/2011","granularity":"day","time":"2011/08/01 00:00:00 -0400"},"country":"USA","geo_score":0.857,"id":"a659pbzjkeyr","geo_precision":"city","state":"WV"},"type":"Feature","geometry":{"type":"Point","coordinates":[-81.632624,38.34982]}},{"properties":{"city":"Exeter","date":{"end_time":"2011/08/02 00:00:00 -0400","original":"8/1/2011","granularity":"day","time":"2011/08/01 00:00:00 -0400"},"country":"USA","geo_score":0.857,"id":"a659pc90ayri","geo_precision":"city","state":"NH"},"type":"Feature","geometry":{"type":"Point","coordinates":[-70.922262,42.951274]}},{"properties":{"city":"Bar Harbour","date":{"end_time":"2011/08/03 00:00:00 -0400","original":"8/2/2011","granularity":"day","time":"2011/08/02 00:00:00 -0400"},"country":"USA","geo_score":0.843,"id":"a659pc00nuf6","geo_precision":"city","state":"ME"},"type":"Feature","geometry":{"type":"Point","coordinates":[-68.305513,44.362323]}},{"properties":{"city":"Savannah","date":{"end_time":"2011/08/03 00:00:00 -0400","original":"8/2/2011","granularity":"day","time":"2011/08/02 00:00:00 -0400"},"country":"USA","geo_score":0.857,"id":"a659pc30zero","geo_precision":"city","state":"GA"},"type":"Feature","geometry":{"type":"Point","coordinates":[-81.099834,32.083541]}},{"properties":{"city":"Morgantown","date":{"end_time":"2011/08/03 00:00:00 -0400","original":"8/2/2011","granularity":"day","time":"2011/08/02 00:00:00 -0400"},"country":"USA","geo_score":0.857,"id":"a659pcdazqfi","geo_precision":"city","state":"WV"},"type":"Feature","geometry":{"type":"Point","coordinates":[-79.983141,39.609911]}},{"properties":{"city":"Dana Point","date":{"end_time":"2011/08/03 00:00:00 -0400","original":"8/2/2011","granularity":"day","time":"2011/08/02 00:00:00 -0400"},"country":"USA","geo_score":0.762,"id":"a659pcbsfryc","geo_precision":"city","state":"CA"},"type":"Feature","geometry":{"type":"Point","coordinates":[-123.386711,40.944025]}},{"properties":{"city":"Tacoma","date":{"end_time":"2011/08/03 00:00:00 -0400","original":"8/2/2011","granularity":"day","time":"2011/08/02 00:00:00 -0400"},"country":"USA","geo_score":0.857,"id":"a659pcc650cy","geo_precision":"city","state":"WA"},"type":"Feature","geometry":{"type":"Point","coordinates":[-122.444291,47.252877]}},{"properties":{"city":"San Diego","date":{"end_time":"2011/08/04 00:00:00 -0400","original":"8/3/2011","granularity":"day","time":"2011/08/03 00:00:00 -0400"},"country":"USA","geo_score":0.857,"id":"a659pc21s3ta","geo_precision":"city","state":"CA"},"type":"Feature","geometry":{"type":"Point","coordinates":[-117.157255,32.715329]}},{"properties":{"city":"Elma","date":{"end_time":"2011/08/04 00:00:00 -0400","original":"8/3/2011","granularity":"day","time":"2011/08/03 00:00:00 -0400"},"country":"USA","geo_score":0.857,"id":"a659pcaqj52i","geo_precision":"city","state":"WA"},"type":"Feature","geometry":{"type":"Point","coordinates":[-123.736287,47.16]}},{"properties":{"city":"Elma","date":{"end_time":"2011/08/04 00:00:00 -0400","original":"8/3/2011","granularity":"day","time":"2011/08/03 00:00:00 -0400"},"country":"USA","geo_score":0.857,"id":"a659pca5egf6","geo_precision":"city","state":"WA"},"type":"Feature","geometry":{"type":"Point","coordinates":[-123.736287,47.16]}},{"properties":{"city":"Stowe","date":{"end_time":"2011/08/04 00:00:00 -0400","original":"8/3/2011","granularity":"day","time":"2011/08/03 00:00:00 -0400"},"country":"USA","geo_score":0.857,"id":"a659pc0xpb33","geo_precision":"city","state":"VT"},"type":"Feature","geometry":{"type":"Point","coordinates":[-72.660043,44.535179]}},{"properties":{"city":"Morristown","date":{"end_time":"2011/08/05 00:00:00 -0400","original":"8/4/2011","granularity":"day","time":"2011/08/04 00:00:00 -0400"},"country":"USA","geo_score":0.857,"id":"a659pc8tahrm","geo_precision":"city","state":"TN"},"type":"Feature","geometry":{"type":"Point","coordinates":[-83.261343,36.188826]}},{"properties":{"city":"Philadelphia","date":{"end_time":"2011/08/05 00:00:00 -0400","original":"8/4/2011","granularity":"day","time":"2011/08/04 00:00:00 -0400"},"country":"USA","geo_score":0.857,"id":"a659pc08v4ic","geo_precision":"city","state":"PA"},"type":"Feature","geometry":{"type":"Point","coordinates":[-75.163789,39.952335]}},{"properties":{"city":"San Francisco","date":{"end_time":"2011/08/05 00:00:00 -0400","original":"8/4/2011","granularity":"day","time":"2011/08/04 00:00:00 -0400"},"country":"USA","geo_score":0.857,"id":"a659pc03uzm9","geo_precision":"city","state":"CA"},"type":"Feature","geometry":{"type":"Point","coordinates":[-122.419416,37.77493]}},{"properties":{"city":"Knoxville","date":{"end_time":"2011/08/05 00:00:00 -0400","original":"8/4/2011","granularity":"day","time":"2011/08/04 00:00:00 -0400"},"country":"USA","geo_score":0.794,"id":"a659pc4pow0f","geo_precision":"city","state":"TN"},"type":"Feature","geometry":{"type":"Point","coordinates":[-86.784443,36.16589]}},{"properties":{"city":"Ketchikan","date":{"end_time":"2011/08/06 00:00:00 -0400","original":"8/5/2011","granularity":"day","time":"2011/08/05 00:00:00 -0400"},"country":"USA","geo_score":0.857,"id":"a659pcf5zrde","geo_precision":"city","state":"AK"},"type":"Feature","geometry":{"type":"Point","coordinates":[-131.67409,55.400674]}},{"properties":{"city":"Toronto","date":{"end_time":"2011/08/06 00:00:00 -0400","original":"8/5/2011","granularity":"day","time":"2011/08/05 00:00:00 -0400"},"country":"USA","geo_score":0.0,"id":"a659pcbus9ch","geo_precision":"unmatched","state":"CA"},"type":"Feature","geometry":null},{"properties":{"city":"Cincinatti","date":{"end_time":"2011/08/08 00:00:00 -0400","original":"8/7/2011","granularity":"day","time":"2011/08/07 00:00:00 -0400"},"country":"USA","geo_score":0.829,"id":"a659pcckgesv","geo_precision":"city","state":"OH"},"type":"Feature","geometry":{"type":"Point","coordinates":[-84.456886,39.162004]}},{"properties":{"city":"Kansas City","date":{"end_time":"2011/08/08 00:00:00 -0400","original":"8/7/2011","granularity":"day","time":"2011/08/07 00:00:00 -0400"},"country":"USA","geo_score":0.857,"id":"a659pcbe7avt","geo_precision":"city","state":"MO"},"type":"Feature","geometry":{"type":"Point","coordinates":[-94.598583,39.102404]}},{"properties":{"city":"Renick","date":{"end_time":"2011/08/09 00:00:00 -0400","original":"8/8/2011","granularity":"day","time":"2011/08/08 00:00:00 -0400"},"country":"USA","geo_score":0.857,"id":"a659pc8ybmzn","geo_precision":"city","state":"WV"},"type":"Feature","geometry":{"type":"Point","coordinates":[-80.426874,37.975595]}},{"properties":{"city":"Ames","date":{"end_time":"2011/08/10 00:00:00 -0400","original":"8/9/2011","granularity":"day","time":"2011/08/09 00:00:00 -0400"},"country":"USA","geo_score":0.857,"id":"a659pc83rm6i","geo_precision":"city","state":"IA"},"type":"Feature","geometry":{"type":"Point","coordinates":[-93.600254,42.037879]}},{"properties":{"city":"Sacramento","date":{"end_time":"2011/08/10 00:00:00 -0400","original":"8/9/2011","granularity":"day","time":"2011/08/09 00:00:00 -0400"},"country":"USA","geo_score":0.857,"id":"a659pc32vhte","geo_precision":"city","state":"CA"},"type":"Feature","geometry":{"type":"Point","coordinates":[-121.4944,38.581572]}},{"properties":{"city":"Boise","date":{"end_time":"2011/08/11 00:00:00 -0400","original":"8/10/2011","granularity":"day","time":"2011/08/10 00:00:00 -0400"},"country":"USA","geo_score":0.857,"id":"a659pccdjrm7","geo_precision":"city","state":"ID"},"type":"Feature","geometry":{"type":"Point","coordinates":[-116.203451,43.6135]}},{"properties":{"city":"Boise","date":{"end_time":"2011/08/11 00:00:00 -0400","original":"8/10/2011","granularity":"day","time":"2011/08/10 00:00:00 -0400"},"country":"USA","geo_score":0.857,"id":"a659pc7owzye","geo_precision":"city","state":"ID"},"type":"Feature","geometry":{"type":"Point","coordinates":[-116.203451,43.6135]}},{"properties":{"city":"Park City","date":{"end_time":"2011/08/12 00:00:00 -0400","original":"8/11/2011","granularity":"day","time":"2011/08/11 00:00:00 -0400"},"country":"USA","geo_score":0.857,"id":"a659pc9zvbyd","geo_precision":"city","state":"UT"},"type":"Feature","geometry":{"type":"Point","coordinates":[-111.448892,40.71188]}},{"properties":{"city":"Albuquerque","date":{"end_time":"2011/08/15 00:00:00 -0400","original":"8/14/2011","granularity":"day","time":"2011/08/14 00:00:00 -0400"},"country":"USA","geo_score":0.857,"id":"a659pcdpa812","geo_precision":"city","state":"NM"},"type":"Feature","geometry":{"type":"Point","coordinates":[-106.651137,35.084491]}},{"properties":{"city":"Seattle","date":{"end_time":"2011/08/16 00:00:00 -0400","original":"8/15/2011","granularity":"day","time":"2011/08/15 00:00:00 -0400"},"country":"USA","geo_score":0.857,"id":"a659pc4xd9ke","geo_precision":"city","state":"WA"},"type":"Feature","geometry":{"type":"Point","coordinates":[-122.332071,47.60621]}},{"properties":{"city":"Cary","date":{"end_time":"2011/08/16 00:00:00 -0400","original":"8/15/2011","granularity":"day","time":"2011/08/15 00:00:00 -0400"},"country":"USA","geo_score":0.821,"id":"a659pcccrjyl","geo_precision":"city","state":"NC"},"type":"Feature","geometry":{"type":"Point","coordinates":[-79.220017,36.211527]}},{"properties":{"city":"Cary","date":{"end_time":"2011/08/16 00:00:00 -0400","original":"8/15/2011","granularity":"day","time":"2011/08/15 00:00:00 -0400"},"country":"USA","geo_score":0.821,"id":"a659pc8vgjq1","geo_precision":"city","state":"NC"},"type":"Feature","geometry":{"type":"Point","coordinates":[-79.220017,36.211527]}},{"properties":{"city":"New Orleans","date":{"end_time":"2011/08/16 00:00:00 -0400","original":"8/15/2011","granularity":"day","time":"2011/08/15 00:00:00 -0400"},"country":"USA","geo_score":0.857,"id":"a659pc2toj6i","geo_precision":"city","state":"LA"},"type":"Feature","geometry":{"type":"Point","coordinates":[-89.930956,30.068812]}},{"properties":{"city":"New Orleans","date":{"end_time":"2011/08/17 00:00:00 -0400","original":"8/16/2011","granularity":"day","time":"2011/08/16 00:00:00 -0400"},"country":"USA","geo_score":0.857,"id":"a659pc2lfjpy","geo_precision":"city","state":"LA"},"type":"Feature","geometry":{"type":"Point","coordinates":[-89.930956,30.068812]}},{"properties":{"city":"Huntsville","date":{"end_time":"2011/08/17 00:00:00 -0400","original":"8/16/2011","granularity":"day","time":"2011/08/16 00:00:00 -0400"},"country":"USA","geo_score":0.857,"id":"a659pc1krxee","geo_precision":"city","state":"AL"},"type":"Feature","geometry":{"type":"Point","coordinates":[-86.556439,34.718428]}},{"properties":{"city":"Asheville","date":{"end_time":"2011/08/17 00:00:00 -0400","original":"8/16/2011","granularity":"day","time":"2011/08/16 00:00:00 -0400"},"country":"USA","geo_score":0.857,"id":"a659pbzc6sw4","geo_precision":"city","state":"NC"},"type":"Feature","geometry":{"type":"Point","coordinates":[-82.554015,35.600945]}},{"properties":{"city":"Honolulu","date":{"end_time":"2011/08/18 00:00:00 -0400","original":"8/17/2011","granularity":"day","time":"2011/08/17 00:00:00 -0400"},"country":"USA","geo_score":0.857,"id":"a659pc4i1tlg","geo_precision":"city","state":"HI"},"type":"Feature","geometry":{"type":"Point","coordinates":[-157.858333,21.306944]}},{"properties":{"city":"Rapid City","date":{"end_time":"2011/08/20 00:00:00 -0400","original":"8/19/2011","granularity":"day","time":"2011/08/19 00:00:00 -0400"},"country":"USA","geo_score":0.857,"id":"a659pc9v6z4j","geo_precision":"city","state":"SD"},"type":"Feature","geometry":{"type":"Point","coordinates":[-103.231015,44.080543]}},{"properties":{"city":"San Diego","date":{"end_time":"2011/08/23 00:00:00 -0400","original":"8/22/2011","granularity":"day","time":"2011/08/22 00:00:00 -0400"},"country":"USA","geo_score":0.857,"id":"a659pcclnmp4","geo_precision":"city","state":"CA"},"type":"Feature","geometry":{"type":"Point","coordinates":[-117.157255,32.715329]}},{"properties":{"city":"San Francisco","date":{"end_time":"2011/08/23 00:00:00 -0400","original":"8/22/2011","granularity":"day","time":"2011/08/22 00:00:00 -0400"},"country":"USA","geo_score":0.857,"id":"a659pc4e00zs","geo_precision":"city","state":"CA"},"type":"Feature","geometry":{"type":"Point","coordinates":[-122.419416,37.77493]}},{"properties":{"city":"San Francisco","date":{"end_time":"2011/08/23 00:00:00 -0400","original":"8/22/2011","granularity":"day","time":"2011/08/22 00:00:00 -0400"},"country":"USA","geo_score":0.857,"id":"a659pceapqik","geo_precision":"city","state":"CA"},"type":"Feature","geometry":{"type":"Point","coordinates":[-122.419416,37.77493]}},{"properties":{"city":"Boston","date":{"end_time":"2011/08/23 00:00:00 -0400","original":"8/22/2011","granularity":"day","time":"2011/08/22 00:00:00 -0400"},"country":"USA","geo_score":0.857,"id":"a659pc729w28","geo_precision":"city","state":"MA"},"type":"Feature","geometry":{"type":"Point","coordinates":[-71.059773,42.358431]}},{"properties":{"city":"Cincinatti","date":{"end_time":"2011/08/23 00:00:00 -0400","original":"8/22/2011","granularity":"day","time":"2011/08/22 00:00:00 -0400"},"country":"USA","geo_score":0.829,"id":"a659pc90bduk","geo_precision":"city","state":"OH"},"type":"Feature","geometry":{"type":"Point","coordinates":[-84.456886,39.162004]}},{"properties":{"city":"Fort Worth","date":{"end_time":"2011/08/23 00:00:00 -0400","original":"8/22/2011","granularity":"day","time":"2011/08/22 00:00:00 -0400"},"country":"USA","geo_score":0.746,"id":"a659pc83vr1q","geo_precision":"city","state":"TX"},"type":"Feature","geometry":{"type":"Point","coordinates":[-95.262161,31.108239]}},{"properties":{"city":"Fort Knox","date":{"end_time":"2011/08/23 00:00:00 -0400","original":"8/22/2011","granularity":"day","time":"2011/08/22 00:00:00 -0400"},"country":"USA","geo_score":0.732,"id":"a659pc8jf2wa","geo_precision":"city","state":"KY"},"type":"Feature","geometry":{"type":"Point","coordinates":[-83.219065,36.848701]}},{"properties":{"city":"Charlotte","date":{"end_time":"2011/08/23 00:00:00 -0400","original":"8/22/2011","granularity":"day","time":"2011/08/22 00:00:00 -0400"},"country":"USA","geo_score":0.857,"id":"a659pccfvzdl","geo_precision":"city","state":"NC"},"type":"Feature","geometry":{"type":"Point","coordinates":[-80.843127,35.227087]}},{"properties":{"city":"Omaha","date":{"end_time":"2011/08/24 00:00:00 -0400","original":"8/23/2011","granularity":"day","time":"2011/08/23 00:00:00 -0400"},"country":"USA","geo_score":0.857,"id":"a659pc4y75xi","geo_precision":"city","state":"NE"},"type":"Feature","geometry":{"type":"Point","coordinates":[-95.937792,41.25861]}},{"properties":{"city":"Clemson","date":{"end_time":"2011/08/24 00:00:00 -0400","original":"8/23/2011","granularity":"day","time":"2011/08/23 00:00:00 -0400"},"country":"USA","geo_score":0.857,"id":"a659pc8sa03n","geo_precision":"city","state":"SC"},"type":"Feature","geometry":{"type":"Point","coordinates":[-82.802154,34.75974]}},{"properties":{"city":"Sioux Falls","date":{"end_time":"2011/08/25 00:00:00 -0400","original":"8/24/2011","granularity":"day","time":"2011/08/24 00:00:00 -0400"},"country":"USA","geo_score":0.857,"id":"a659pcf60qj2","geo_precision":"city","state":"SD"},"type":"Feature","geometry":{"type":"Point","coordinates":[-96.730328,43.546642]}},{"properties":{"city":"Knoxville","date":{"end_time":"2011/08/25 00:00:00 -0400","original":"8/24/2011","granularity":"day","time":"2011/08/24 00:00:00 -0400"},"country":"USA","geo_score":0.794,"id":"a659pc6bte4g","geo_precision":"city","state":"TN"},"type":"Feature","geometry":{"type":"Point","coordinates":[-86.784443,36.16589]}},{"properties":{"city":"Minneapolis","date":{"end_time":"2011/08/26 00:00:00 -0400","original":"8/25/2011","granularity":"day","time":"2011/08/25 00:00:00 -0400"},"country":"USA","geo_score":0.857,"id":"a659pcdfctik","geo_precision":"city","state":"MN"},"type":"Feature","geometry":{"type":"Point","coordinates":[-93.263836,44.979965]}},{"properties":{"city":"Saint Louis","date":{"end_time":"2011/08/27 00:00:00 -0400","original":"8/26/2011","granularity":"day","time":"2011/08/26 00:00:00 -0400"},"country":"USA","geo_score":0.857,"id":"a659pcdg0har","geo_precision":"city","state":"MO"},"type":"Feature","geometry":{"type":"Point","coordinates":[-90.197889,38.627273]}},{"properties":{"city":"Chicago","date":{"end_time":"2011/08/29 00:00:00 -0400","original":"8/28/2011","granularity":"day","time":"2011/08/28 00:00:00 -0400"},"country":"USA","geo_score":0.714,"id":"a659pc1y84mp","geo_precision":"city","state":"IL"},"type":"Feature","geometry":{"type":"Point","coordinates":[-87.650052,41.850033]}},{"properties":{"city":"Biloxi","date":{"end_time":"2011/08/30 00:00:00 -0400","original":"8/29/2011","granularity":"day","time":"2011/08/29 00:00:00 -0400"},"country":"USA","geo_score":0.857,"id":"a659pcd8z5el","geo_precision":"city","state":"MS"},"type":"Feature","geometry":{"type":"Point","coordinates":[-88.978634,30.432454]}},{"properties":{"city":"San Francisco","date":{"end_time":"2011/08/30 00:00:00 -0400","original":"8/29/2011","granularity":"day","time":"2011/08/29 00:00:00 -0400"},"country":"USA","geo_score":0.857,"id":"a659pbzuzbe6","geo_precision":"city","state":"CA"},"type":"Feature","geometry":{"type":"Point","coordinates":[-122.419416,37.77493]}},{"properties":{"city":"San Juan","date":{"end_time":"2011/08/31 00:00:00 -0400","original":"8/30/2011","granularity":"day","time":"2011/08/30 00:00:00 -0400"},"country":"USA","geo_score":0.857,"id":"a659pc0x1ujw","geo_precision":"city","state":"Puerto Rico"},"type":"Feature","geometry":{"type":"Point","coordinates":[-66.105722,18.466334]}},{"properties":{"city":"Minneapolis","date":{"end_time":"2011/08/31 00:00:00 -0400","original":"8/30/2011","granularity":"day","time":"2011/08/30 00:00:00 -0400"},"country":"USA","geo_score":0.857,"id":"a659pc17yak9","geo_precision":"city","state":"MN"},"type":"Feature","geometry":{"type":"Point","coordinates":[-93.263836,44.979965]}}],"is_temporal":true,"author":{"url":"","metadata":"","contact_name":"","contact_address":"","source":"","contact_phone":""},"source":"","pagination":{"sort":null,"start":0,"total":68,"limit":1000000},"state":"complete","tags":"","published":"2014-08-13T09:00:00-04:00","id":138287}