{"type":"FeatureCollection","data_type":"Dataset","url_type":null,"permissions":[{"permissions":{"download":true,"view":true},"group_id":"everyone"}],"classification":null,"title":"Champaign School Districts Demographic","count":160,"stream_id":138352,"contributor":{"url":"http://geocommons.com/users/10041","name":"pamelagdempsey"},"data_attributes":null,"calculation_params":null,"icon_link":null,"link":"http://geocommons.com/overlays/138352.json","extent":[-88.472,39.9232,-87.9742,40.3709],"geometry_types":["point"],"unique_name":null,"name":"Champaign School Districts Demographic","feature_count":160,"description":"A look at demographics over time among Champaign schools, Champaign, Ill. ","next_feature":null,"is_raster":false,"short_classification":"Y","stats":{"black":{"max":38.1,"mean":10.366875,"variance":193.904870676101,"stdev":13.9249729147349,"min":0.0,"median":1.2},"white":{"max":99.4,"mean":82.266875,"variance":362.309398977987,"stdev":19.0344266784683,"min":41.8,"median":95.1},"date":{"max":"2010/08/01 00:00:00 -0400","mean":"2005/03/07 17:36:00 -0500","variance":1.20661757012432e+16,"stdev":109846145.5912,"min":"1999/08/01 00:00:00 -0400","median":"2005/08/01 00:00:00 -0400"},"native":{"max":0.7,"mean":0.12625,"variance":0.0228286163522013,"stdev":0.151091417202306,"min":0.0,"median":0.1},"year":{"max":2010,"mean":2004.6,"variance":12.1157232704403,"stdev":3.48076475367702,"min":1999,"median":2005},"asian":{"max":9.9,"mean":1.7525,"variance":6.02993081761006,"stdev":2.45559174489777,"min":0.0,"median":0.7},"hispanic":{"max":27.7,"mean":3.955,"variance":36.864251572327,"stdev":6.0715938247158,"min":0.0,"median":1.4}},"features":[{"properties":{"city":"Champaign","black":30.9,"white":62.8,"date":{"end_time":"1999/08/02 00:00:00 -0400","original":"Aug 1, 1999","granularity":"day","time":"1999/08/01 00:00:00 -0400"},"district":"Champaign CUSD 4","geo_score":0.736,"native":0.2,"zip code":"61820","multi racial":"-","year":1999,"asian":4.7,"id":"a636txum51cw","geo_precision":"zip","sate":"IL","hispanic":1.4},"type":"Feature","geometry":{"type":"Point","coordinates":[-88.235605,40.142532]}},{"properties":{"city":"Champaign","black":31.2,"white":61.5,"date":{"end_time":"2000/08/02 00:00:00 -0400","original":"Aug 1, 2000","granularity":"day","time":"2000/08/01 00:00:00 -0400"},"district":"Champaign CUSD 4","geo_score":0.736,"native":0.2,"zip code":"61820","multi racial":"-","year":2000,"asian":5.2,"id":"a636txpxzdh0","geo_precision":"zip","sate":"IL","hispanic":1.9},"type":"Feature","geometry":{"type":"Point","coordinates":[-88.235605,40.142532]}},{"properties":{"city":"Champaign","black":31.8,"white":59.9,"date":{"end_time":"2001/08/02 00:00:00 -0400","original":"Aug 1, 2001","granularity":"day","time":"2001/08/01 00:00:00 -0400"},"district":"Champaign CUSD 4","geo_score":0.736,"native":0.2,"zip code":"61820","multi racial":"-","year":2001,"asian":5.7,"id":"a636txouye71","geo_precision":"zip","sate":"IL","hispanic":2.4},"type":"Feature","geometry":{"type":"Point","coordinates":[-88.235605,40.142532]}},{"properties":{"city":"Champaign","black":30.9,"white":60.7,"date":{"end_time":"2002/08/02 00:00:00 -0400","original":"Aug 1, 2002","granularity":"day","time":"2002/08/01 00:00:00 -0400"},"district":"Champaign CUSD 4","geo_score":0.736,"native":0.1,"zip code":"61820","multi racial":"-","year":2002,"asian":5.5,"id":"a636txqur2tk","geo_precision":"zip","sate":"IL","hispanic":2.8},"type":"Feature","geometry":{"type":"Point","coordinates":[-88.235605,40.142532]}},{"properties":{"city":"Champaign","black":31.7,"white":59.0,"date":{"end_time":"2003/08/02 00:00:00 -0400","original":"Aug 1, 2003","granularity":"day","time":"2003/08/01 00:00:00 -0400"},"district":"Champaign CUSD 4","geo_score":0.736,"native":0.2,"zip code":"61820","multi racial":"-","year":2003,"asian":6.0,"id":"a636txpezit3","geo_precision":"zip","sate":"IL","hispanic":3.1},"type":"Feature","geometry":{"type":"Point","coordinates":[-88.235605,40.142532]}},{"properties":{"city":"Champaign","black":34.8,"white":53.3,"date":{"end_time":"2004/08/02 00:00:00 -0400","original":"Aug 1, 2004","granularity":"day","time":"2004/08/01 00:00:00 -0400"},"district":"Champaign CUSD 4","geo_score":0.736,"native":0.3,"zip code":"61820","multi racial":"-","year":2004,"asian":7.3,"id":"a636txkk7me5","geo_precision":"zip","sate":"IL","hispanic":4.3},"type":"Feature","geometry":{"type":"Point","coordinates":[-88.235605,40.142532]}},{"properties":{"city":"Champaign","black":34.6,"white":51.9,"date":{"end_time":"2005/08/02 00:00:00 -0400","original":"Aug 1, 2005","granularity":"day","time":"2005/08/01 00:00:00 -0400"},"district":"Champaign CUSD 4","geo_score":0.736,"native":0.4,"zip code":"61820","multi racial":"0","year":2005,"asian":8.4,"id":"a636txrzyrh5","geo_precision":"zip","sate":"IL","hispanic":4.7},"type":"Feature","geometry":{"type":"Point","coordinates":[-88.235605,40.142532]}},{"properties":{"city":"Champaign","black":35.9,"white":49.6,"date":{"end_time":"2006/08/02 00:00:00 -0400","original":"Aug 1, 2006","granularity":"day","time":"2006/08/01 00:00:00 -0400"},"district":"Champaign CUSD 4","geo_score":0.736,"native":0.4,"zip code":"61820","multi racial":"0","year":2006,"asian":8.9,"id":"a636txhpfaf8","geo_precision":"zip","sate":"IL","hispanic":5.2},"type":"Feature","geometry":{"type":"Point","coordinates":[-88.235605,40.142532]}},{"properties":{"city":"Champaign","black":36.6,"white":47.9,"date":{"end_time":"2007/08/02 00:00:00 -0400","original":"Aug 1, 2007","granularity":"day","time":"2007/08/01 00:00:00 -0400"},"district":"Champaign CUSD 4","geo_score":0.736,"native":0.4,"zip code":"61820","multi racial":"0","year":2007,"asian":9.3,"id":"a636txv606pf","geo_precision":"zip","sate":"IL","hispanic":5.7},"type":"Feature","geometry":{"type":"Point","coordinates":[-88.235605,40.142532]}},{"properties":{"city":"Champaign","black":36.9,"white":46.8,"date":{"end_time":"2008/08/02 00:00:00 -0400","original":"Aug 1, 2008","granularity":"day","time":"2008/08/01 00:00:00 -0400"},"district":"Champaign CUSD 4","geo_score":0.736,"native":0.3,"zip code":"61820","multi racial":"0","year":2008,"asian":9.6,"id":"a636txk81fkf","geo_precision":"zip","sate":"IL","hispanic":6.3},"type":"Feature","geometry":{"type":"Point","coordinates":[-88.235605,40.142532]}},{"properties":{"city":"Champaign","black":37.3,"white":45.7,"date":{"end_time":"2009/08/02 00:00:00 -0400","original":"Aug 1, 2009","granularity":"day","time":"2009/08/01 00:00:00 -0400"},"district":"Champaign CUSD 4","geo_score":0.736,"native":0.3,"zip code":"61820","multi racial":"0.1","year":2009,"asian":9.8,"id":"a636txwxnp19","geo_precision":"zip","sate":"IL","hispanic":6.8},"type":"Feature","geometry":{"type":"Point","coordinates":[-88.235605,40.142532]}},{"properties":{"city":"Champaign","black":38.1,"white":44.3,"date":{"end_time":"2010/08/02 00:00:00 -0400","original":"Aug 1, 2010","granularity":"day","time":"2010/08/01 00:00:00 -0400"},"district":"Champaign CUSD 4","geo_score":0.736,"native":0.3,"zip code":"61820","multi racial":"0","year":2010,"asian":9.9,"id":"a636txiy6zeg","geo_precision":"zip","sate":"IL","hispanic":7.3},"type":"Feature","geometry":{"type":"Point","coordinates":[-88.235605,40.142532]}},{"properties":{"city":"Fisher","black":0.3,"white":98.2,"date":{"end_time":"1999/08/02 00:00:00 -0400","original":"Aug 1, 1999","granularity":"day","time":"1999/08/01 00:00:00 -0400"},"district":"Fisher CUSD 1","geo_score":0.738,"native":0.0,"zip code":"61843","multi racial":"-","year":1999,"asian":0.0,"id":"a636txsp6yc2","geo_precision":"zip","sate":"IL","hispanic":1.5},"type":"Feature","geometry":{"type":"Point","coordinates":[-88.472004,40.295867]}},{"properties":{"city":"Fisher","black":0.7,"white":97.8,"date":{"end_time":"2000/08/02 00:00:00 -0400","original":"Aug 1, 2000","granularity":"day","time":"2000/08/01 00:00:00 -0400"},"district":"Fisher CUSD 1","geo_score":0.738,"native":0.0,"zip code":"61843","multi racial":"-","year":2000,"asian":0.0,"id":"a636txkzeqrh","geo_precision":"zip","sate":"IL","hispanic":1.5},"type":"Feature","geometry":{"type":"Point","coordinates":[-88.472004,40.295867]}},{"properties":{"city":"Fisher","black":0.3,"white":98.6,"date":{"end_time":"2001/08/02 00:00:00 -0400","original":"Aug 1, 2001","granularity":"day","time":"2001/08/01 00:00:00 -0400"},"district":"Fisher CUSD 1","geo_score":0.738,"native":0.0,"zip code":"61843","multi racial":"-","year":2001,"asian":0.0,"id":"a636txh12bm9","geo_precision":"zip","sate":"IL","hispanic":1.0},"type":"Feature","geometry":{"type":"Point","coordinates":[-88.472004,40.295867]}},{"properties":{"city":"Fisher","black":0.8,"white":98.0,"date":{"end_time":"2002/08/02 00:00:00 -0400","original":"Aug 1, 2002","granularity":"day","time":"2002/08/01 00:00:00 -0400"},"district":"Fisher CUSD 1","geo_score":0.738,"native":0.0,"zip code":"61843","multi racial":"-","year":2002,"asian":0.2,"id":"a636txpv14u9","geo_precision":"zip","sate":"IL","hispanic":1.0},"type":"Feature","geometry":{"type":"Point","coordinates":[-88.472004,40.295867]}},{"properties":{"city":"Fisher","black":0.5,"white":99.0,"date":{"end_time":"2003/08/02 00:00:00 -0400","original":"Aug 1, 2003","granularity":"day","time":"2003/08/01 00:00:00 -0400"},"district":"Fisher CUSD 1","geo_score":0.738,"native":0.0,"zip code":"61843","multi racial":"-","year":2003,"asian":0.2,"id":"a636txh44odt","geo_precision":"zip","sate":"IL","hispanic":0.3},"type":"Feature","geometry":{"type":"Point","coordinates":[-88.472004,40.295867]}},{"properties":{"city":"Fisher","black":0.6,"white":97.7,"date":{"end_time":"2004/08/02 00:00:00 -0400","original":"Aug 1, 2004","granularity":"day","time":"2004/08/01 00:00:00 -0400"},"district":"Fisher CUSD 1","geo_score":0.738,"native":0.0,"zip code":"61843","multi racial":"-","year":2004,"asian":0.2,"id":"a636txwcccqx","geo_precision":"zip","sate":"IL","hispanic":1.4},"type":"Feature","geometry":{"type":"Point","coordinates":[-88.472004,40.295867]}},{"properties":{"city":"Fisher","black":0.8,"white":96.9,"date":{"end_time":"2005/08/02 00:00:00 -0400","original":"Aug 1, 2005","granularity":"day","time":"2005/08/01 00:00:00 -0400"},"district":"Fisher CUSD 1","geo_score":0.738,"native":0.2,"zip code":"61843","multi racial":"0.2","year":2005,"asian":0.2,"id":"a636txtxuux4","geo_precision":"zip","sate":"IL","hispanic":1.8},"type":"Feature","geometry":{"type":"Point","coordinates":[-88.472004,40.295867]}},{"properties":{"city":"Fisher","black":0.2,"white":96.2,"date":{"end_time":"2006/08/02 00:00:00 -0400","original":"Aug 1, 2006","granularity":"day","time":"2006/08/01 00:00:00 -0400"},"district":"Fisher CUSD 1","geo_score":0.738,"native":0.2,"zip code":"61843","multi racial":"0.5","year":2006,"asian":1.2,"id":"a636txunjd7z","geo_precision":"zip","sate":"IL","hispanic":1.8},"type":"Feature","geometry":{"type":"Point","coordinates":[-88.472004,40.295867]}},{"properties":{"city":"Fisher","black":0.6,"white":95.2,"date":{"end_time":"2007/08/02 00:00:00 -0400","original":"Aug 1, 2007","granularity":"day","time":"2007/08/01 00:00:00 -0400"},"district":"Fisher CUSD 1","geo_score":0.738,"native":0.3,"zip code":"61843","multi racial":"0.9","year":2007,"asian":0.9,"id":"a636txoauu35","geo_precision":"zip","sate":"IL","hispanic":2.0},"type":"Feature","geometry":{"type":"Point","coordinates":[-88.472004,40.295867]}},{"properties":{"city":"Fisher","black":0.2,"white":95.4,"date":{"end_time":"2008/08/02 00:00:00 -0400","original":"Aug 1, 2008","granularity":"day","time":"2008/08/01 00:00:00 -0400"},"district":"Fisher CUSD 1","geo_score":0.738,"native":0.3,"zip code":"61843","multi racial":"1.1","year":2008,"asian":0.9,"id":"a636txrpb2sk","geo_precision":"zip","sate":"IL","hispanic":2.1},"type":"Feature","geometry":{"type":"Point","coordinates":[-88.472004,40.295867]}},{"properties":{"city":"Fisher","black":0.2,"white":96.2,"date":{"end_time":"2009/08/02 00:00:00 -0400","original":"Aug 1, 2009","granularity":"day","time":"2009/08/01 00:00:00 -0400"},"district":"Fisher CUSD 1","geo_score":0.738,"native":0.3,"zip code":"61843","multi racial":"1.6","year":2009,"asian":0.6,"id":"a636txsp0vqc","geo_precision":"zip","sate":"IL","hispanic":1.1},"type":"Feature","geometry":{"type":"Point","coordinates":[-88.472004,40.295867]}},{"properties":{"city":"Fisher","black":0.3,"white":94.2,"date":{"end_time":"2010/08/02 00:00:00 -0400","original":"Aug 1, 2010","granularity":"day","time":"2010/08/01 00:00:00 -0400"},"district":"Fisher CUSD 1","geo_score":0.738,"native":0.3,"zip code":"61843","multi racial":"2.7","year":2010,"asian":1.2,"id":"a636txhk14d1","geo_precision":"zip","sate":"IL","hispanic":1.3},"type":"Feature","geometry":{"type":"Point","coordinates":[-88.472004,40.295867]}},{"properties":{"city":"Gifford","black":0.5,"white":99.1,"date":{"end_time":"1999/08/02 00:00:00 -0400","original":"Aug 1, 1999","granularity":"day","time":"1999/08/01 00:00:00 -0400"},"district":"Gifford CCSD 188","geo_score":0.857,"native":0.0,"zip code":"61847","multi racial":"-","year":1999,"asian":0.5,"id":"a636txr8gv28","geo_precision":"zip","sate":"IL","hispanic":0.0},"type":"Feature","geometry":{"type":"Point","coordinates":[-88.011017,40.278553]}},{"properties":{"city":"Gifford","black":0.5,"white":99.0,"date":{"end_time":"2000/08/02 00:00:00 -0400","original":"Aug 1, 2000","granularity":"day","time":"2000/08/01 00:00:00 -0400"},"district":"Gifford CCSD 188","geo_score":0.857,"native":0.0,"zip code":"61847","multi racial":"-","year":2000,"asian":0.5,"id":"a636txs7griw","geo_precision":"zip","sate":"IL","hispanic":0.0},"type":"Feature","geometry":{"type":"Point","coordinates":[-88.011017,40.278553]}},{"properties":{"city":"Gifford","black":0.5,"white":99.0,"date":{"end_time":"2001/08/02 00:00:00 -0400","original":"Aug 1, 2001","granularity":"day","time":"2001/08/01 00:00:00 -0400"},"district":"Gifford CCSD 188","geo_score":0.857,"native":0.0,"zip code":"61847","multi racial":"-","year":2001,"asian":0.5,"id":"a636txw5d5yz","geo_precision":"zip","sate":"IL","hispanic":0.0},"type":"Feature","geometry":{"type":"Point","coordinates":[-88.011017,40.278553]}},{"properties":{"city":"Gifford","black":1.0,"white":97.6,"date":{"end_time":"2002/08/02 00:00:00 -0400","original":"Aug 1, 2002","granularity":"day","time":"2002/08/01 00:00:00 -0400"},"district":"Gifford CCSD 188","geo_score":0.857,"native":0.0,"zip code":"61847","multi racial":"-","year":2002,"asian":0.5,"id":"a636txwtrv8v","geo_precision":"zip","sate":"IL","hispanic":1.0},"type":"Feature","geometry":{"type":"Point","coordinates":[-88.011017,40.278553]}},{"properties":{"city":"Gifford","black":1.0,"white":98.1,"date":{"end_time":"2003/08/02 00:00:00 -0400","original":"Aug 1, 2003","granularity":"day","time":"2003/08/01 00:00:00 -0400"},"district":"Gifford CCSD 188","geo_score":0.857,"native":0.0,"zip code":"61847","multi racial":"-","year":2003,"asian":0.5,"id":"a636txj1i1y9","geo_precision":"zip","sate":"IL","hispanic":0.5},"type":"Feature","geometry":{"type":"Point","coordinates":[-88.011017,40.278553]}},{"properties":{"city":"Gifford","black":1.0,"white":97.5,"date":{"end_time":"2004/08/02 00:00:00 -0400","original":"Aug 1, 2004","granularity":"day","time":"2004/08/01 00:00:00 -0400"},"district":"Gifford CCSD 188","geo_score":0.857,"native":0.0,"zip code":"61847","multi racial":"-","year":2004,"asian":1.0,"id":"a636txkbp85x","geo_precision":"zip","sate":"IL","hispanic":0.5},"type":"Feature","geometry":{"type":"Point","coordinates":[-88.011017,40.278553]}},{"properties":{"city":"Gifford","black":0.5,"white":98.0,"date":{"end_time":"2005/08/02 00:00:00 -0400","original":"Aug 1, 2005","granularity":"day","time":"2005/08/01 00:00:00 -0400"},"district":"Gifford CCSD 188","geo_score":0.857,"native":0.0,"zip code":"61847","multi racial":"0","year":2005,"asian":0.5,"id":"a636txudf3ef","geo_precision":"zip","sate":"IL","hispanic":1.0},"type":"Feature","geometry":{"type":"Point","coordinates":[-88.011017,40.278553]}},{"properties":{"city":"Gifford","black":0.0,"white":97.0,"date":{"end_time":"2006/08/02 00:00:00 -0400","original":"Aug 1, 2006","granularity":"day","time":"2006/08/01 00:00:00 -0400"},"district":"Gifford CCSD 188","geo_score":0.857,"native":0.0,"zip code":"61847","multi racial":"2.5","year":2006,"asian":0.5,"id":"a636txx92sme","geo_precision":"zip","sate":"IL","hispanic":0.0},"type":"Feature","geometry":{"type":"Point","coordinates":[-88.011017,40.278553]}},{"properties":{"city":"Gifford","black":0.0,"white":94.6,"date":{"end_time":"2007/08/02 00:00:00 -0400","original":"Aug 1, 2007","granularity":"day","time":"2007/08/01 00:00:00 -0400"},"district":"Gifford CCSD 188","geo_score":0.857,"native":0.0,"zip code":"61847","multi racial":"3.9","year":2007,"asian":0.5,"id":"a636txt25rge","geo_precision":"zip","sate":"IL","hispanic":1.0},"type":"Feature","geometry":{"type":"Point","coordinates":[-88.011017,40.278553]}},{"properties":{"city":"Gifford","black":0.0,"white":95.4,"date":{"end_time":"2008/08/02 00:00:00 -0400","original":"Aug 1, 2008","granularity":"day","time":"2008/08/01 00:00:00 -0400"},"district":"Gifford CCSD 188","geo_score":0.857,"native":0.5,"zip code":"61847","multi racial":"3.2","year":2008,"asian":0.0,"id":"a636txtiyga3","geo_precision":"zip","sate":"IL","hispanic":0.9},"type":"Feature","geometry":{"type":"Point","coordinates":[-88.011017,40.278553]}},{"properties":{"city":"Gifford","black":0.0,"white":95.1,"date":{"end_time":"2009/08/02 00:00:00 -0400","original":"Aug 1, 2009","granularity":"day","time":"2009/08/01 00:00:00 -0400"},"district":"Gifford CCSD 188","geo_score":0.857,"native":0.0,"zip code":"61847","multi racial":"3.4","year":2009,"asian":0.5,"id":"a636txl5ivh2","geo_precision":"zip","sate":"IL","hispanic":1.0},"type":"Feature","geometry":{"type":"Point","coordinates":[-88.011017,40.278553]}},{"properties":{"city":"Gifford","black":0.0,"white":93.8,"date":{"end_time":"2010/08/02 00:00:00 -0400","original":"Aug 1, 2010","granularity":"day","time":"2010/08/01 00:00:00 -0400"},"district":"Gifford CCSD 188","geo_score":0.857,"native":0.0,"zip code":"61847","multi racial":"2.6","year":2010,"asian":0.5,"id":"a636txnuq2yl","geo_precision":"zip","sate":"IL","hispanic":3.1},"type":"Feature","geometry":{"type":"Point","coordinates":[-88.011017,40.278553]}},{"properties":{"city":"Broadlands","black":0.3,"white":98.5,"date":{"end_time":"1999/08/02 00:00:00 -0400","original":"Aug 1, 1999","granularity":"day","time":"1999/08/01 00:00:00 -0400"},"district":"Heritage CUSD 8","geo_score":0.857,"native":0.0,"zip code":"61816","multi racial":"-","year":1999,"asian":1.0,"id":"a636txgs83j4","geo_precision":"zip","sate":"IL","hispanic":0.2},"type":"Feature","geometry":{"type":"Point","coordinates":[-87.992677,39.923208]}},{"properties":{"city":"Broadlands","black":0.4,"white":98.4,"date":{"end_time":"2000/08/02 00:00:00 -0400","original":"Aug 1, 2000","granularity":"day","time":"2000/08/01 00:00:00 -0400"},"district":"Heritage CUSD 8","geo_score":0.857,"native":0.0,"zip code":"61816","multi racial":"-","year":2000,"asian":1.1,"id":"a636txni9g8g","geo_precision":"zip","sate":"IL","hispanic":0.2},"type":"Feature","geometry":{"type":"Point","coordinates":[-87.992677,39.923208]}},{"properties":{"city":"Broadlands","black":0.4,"white":98.8,"date":{"end_time":"2001/08/02 00:00:00 -0400","original":"Aug 1, 2001","granularity":"day","time":"2001/08/01 00:00:00 -0400"},"district":"Heritage CUSD 8","geo_score":0.857,"native":0.0,"zip code":"61816","multi racial":"-","year":2001,"asian":0.7,"id":"a636txucsqmc","geo_precision":"zip","sate":"IL","hispanic":0.2},"type":"Feature","geometry":{"type":"Point","coordinates":[-87.992677,39.923208]}},{"properties":{"city":"Broadlands","black":0.5,"white":98.6,"date":{"end_time":"2002/08/02 00:00:00 -0400","original":"Aug 1, 2002","granularity":"day","time":"2002/08/01 00:00:00 -0400"},"district":"Heritage CUSD 8","geo_score":0.857,"native":0.0,"zip code":"61816","multi racial":"-","year":2002,"asian":0.7,"id":"a636txqo6c2r","geo_precision":"zip","sate":"IL","hispanic":0.2},"type":"Feature","geometry":{"type":"Point","coordinates":[-87.992677,39.923208]}},{"properties":{"city":"Broadlands","black":0.4,"white":99.3,"date":{"end_time":"2003/08/02 00:00:00 -0400","original":"Aug 1, 2003","granularity":"day","time":"2003/08/01 00:00:00 -0400"},"district":"Heritage CUSD 8","geo_score":0.857,"native":0.0,"zip code":"61816","multi racial":"-","year":2003,"asian":0.4,"id":"a636txj6bw1x","geo_precision":"zip","sate":"IL","hispanic":0.0},"type":"Feature","geometry":{"type":"Point","coordinates":[-87.992677,39.923208]}},{"properties":{"city":"Broadlands","black":0.4,"white":98.7,"date":{"end_time":"2004/08/02 00:00:00 -0400","original":"Aug 1, 2004","granularity":"day","time":"2004/08/01 00:00:00 -0400"},"district":"Heritage CUSD 8","geo_score":0.857,"native":0.0,"zip code":"61816","multi racial":"-","year":2004,"asian":0.5,"id":"a636txmcffi0","geo_precision":"zip","sate":"IL","hispanic":0.4},"type":"Feature","geometry":{"type":"Point","coordinates":[-87.992677,39.923208]}},{"properties":{"city":"Broadlands","black":0.7,"white":98.3,"date":{"end_time":"2005/08/02 00:00:00 -0400","original":"Aug 1, 2005","granularity":"day","time":"2005/08/01 00:00:00 -0400"},"district":"Heritage CUSD 8","geo_score":0.857,"native":0.0,"zip code":"61816","multi racial":"0","year":2005,"asian":0.5,"id":"a636txklw2ww","geo_precision":"zip","sate":"IL","hispanic":0.5},"type":"Feature","geometry":{"type":"Point","coordinates":[-87.992677,39.923208]}},{"properties":{"city":"Broadlands","black":0.4,"white":97.3,"date":{"end_time":"2006/08/02 00:00:00 -0400","original":"Aug 1, 2006","granularity":"day","time":"2006/08/01 00:00:00 -0400"},"district":"Heritage CUSD 8","geo_score":0.857,"native":0.0,"zip code":"61816","multi racial":"1.8","year":2006,"asian":0.2,"id":"a636txv4tvk6","geo_precision":"zip","sate":"IL","hispanic":0.4},"type":"Feature","geometry":{"type":"Point","coordinates":[-87.992677,39.923208]}},{"properties":{"city":"Broadlands","black":0.5,"white":97.4,"date":{"end_time":"2007/08/02 00:00:00 -0400","original":"Aug 1, 2007","granularity":"day","time":"2007/08/01 00:00:00 -0400"},"district":"Heritage CUSD 8","geo_score":0.857,"native":0.0,"zip code":"61816","multi racial":"1.9","year":2007,"asian":0.0,"id":"a636txtwxcnt","geo_precision":"zip","sate":"IL","hispanic":0.2},"type":"Feature","geometry":{"type":"Point","coordinates":[-87.992677,39.923208]}},{"properties":{"city":"Broadlands","black":0.2,"white":97.5,"date":{"end_time":"2008/08/02 00:00:00 -0400","original":"Aug 1, 2008","granularity":"day","time":"2008/08/01 00:00:00 -0400"},"district":"Heritage CUSD 8","geo_score":0.857,"native":0.0,"zip code":"61816","multi racial":"1.8","year":2008,"asian":0.4,"id":"a636txpe9v16","geo_precision":"zip","sate":"IL","hispanic":0.2},"type":"Feature","geometry":{"type":"Point","coordinates":[-87.992677,39.923208]}},{"properties":{"city":"Broadlands","black":0.7,"white":96.4,"date":{"end_time":"2009/08/02 00:00:00 -0400","original":"Aug 1, 2009","granularity":"day","time":"2009/08/01 00:00:00 -0400"},"district":"Heritage CUSD 8","geo_score":0.857,"native":0.0,"zip code":"61816","multi racial":"2.4","year":2009,"asian":0.2,"id":"a636txt3zu8b","geo_precision":"zip","sate":"IL","hispanic":0.2},"type":"Feature","geometry":{"type":"Point","coordinates":[-87.992677,39.923208]}},{"properties":{"city":"Broadlands","black":0.8,"white":95.9,"date":{"end_time":"2010/08/02 00:00:00 -0400","original":"Aug 1, 2010","granularity":"day","time":"2010/08/01 00:00:00 -0400"},"district":"Heritage CUSD 8","geo_score":0.857,"native":0.0,"zip code":"61816","multi racial":"2.6","year":2010,"asian":0.0,"id":"a636txkty917","geo_precision":"zip","sate":"IL","hispanic":0.8},"type":"Feature","geometry":{"type":"Point","coordinates":[-87.992677,39.923208]}},{"properties":{"city":"Ludlow","black":9.6,"white":82.5,"date":{"end_time":"1999/08/02 00:00:00 -0400","original":"Aug 1, 1999","granularity":"day","time":"1999/08/01 00:00:00 -0400"},"district":"Ludlow CCSD 142","geo_score":0.857,"native":0.0,"zip code":"60949","multi racial":"-","year":1999,"asian":0.0,"id":"a636txpgxv7o","geo_precision":"zip","sate":"IL","hispanic":7.9},"type":"Feature","geometry":{"type":"Point","coordinates":[-88.152546,40.370897]}},{"properties":{"city":"Ludlow","black":9.6,"white":73.9,"date":{"end_time":"2000/08/02 00:00:00 -0400","original":"Aug 1, 2000","granularity":"day","time":"2000/08/01 00:00:00 -0400"},"district":"Ludlow CCSD 142","geo_score":0.857,"native":0.0,"zip code":"60949","multi racial":"-","year":2000,"asian":0.0,"id":"a636txm7krey","geo_precision":"zip","sate":"IL","hispanic":16.5},"type":"Feature","geometry":{"type":"Point","coordinates":[-88.152546,40.370897]}},{"properties":{"city":"Ludlow","black":15.0,"white":60.1,"date":{"end_time":"2001/08/02 00:00:00 -0400","original":"Aug 1, 2001","granularity":"day","time":"2001/08/01 00:00:00 -0400"},"district":"Ludlow CCSD 142","geo_score":0.857,"native":0.0,"zip code":"60949","multi racial":"-","year":2001,"asian":0.7,"id":"a636txpqqv5v","geo_precision":"zip","sate":"IL","hispanic":24.2},"type":"Feature","geometry":{"type":"Point","coordinates":[-88.152546,40.370897]}},{"properties":{"city":"Ludlow","black":11.8,"white":77.5,"date":{"end_time":"2002/08/02 00:00:00 -0400","original":"Aug 1, 2002","granularity":"day","time":"2002/08/01 00:00:00 -0400"},"district":"Ludlow CCSD 142","geo_score":0.857,"native":0.0,"zip code":"60949","multi racial":"-","year":2002,"asian":0.0,"id":"a636txjwnyln","geo_precision":"zip","sate":"IL","hispanic":10.8},"type":"Feature","geometry":{"type":"Point","coordinates":[-88.152546,40.370897]}},{"properties":{"city":"Ludlow","black":13.4,"white":71.4,"date":{"end_time":"2003/08/02 00:00:00 -0400","original":"Aug 1, 2003","granularity":"day","time":"2003/08/01 00:00:00 -0400"},"district":"Ludlow CCSD 142","geo_score":0.857,"native":0.0,"zip code":"60949","multi racial":"-","year":2003,"asian":0.0,"id":"a636txhuqr1s","geo_precision":"zip","sate":"IL","hispanic":15.2},"type":"Feature","geometry":{"type":"Point","coordinates":[-88.152546,40.370897]}},{"properties":{"city":"Ludlow","black":4.5,"white":71.4,"date":{"end_time":"2004/08/02 00:00:00 -0400","original":"Aug 1, 2004","granularity":"day","time":"2004/08/01 00:00:00 -0400"},"district":"Ludlow CCSD 142","geo_score":0.857,"native":0.0,"zip code":"60949","multi racial":"-","year":2004,"asian":0.9,"id":"a636txmt6v8y","geo_precision":"zip","sate":"IL","hispanic":23.2},"type":"Feature","geometry":{"type":"Point","coordinates":[-88.152546,40.370897]}},{"properties":{"city":"Ludlow","black":5.2,"white":70.8,"date":{"end_time":"2005/08/02 00:00:00 -0400","original":"Aug 1, 2005","granularity":"day","time":"2005/08/01 00:00:00 -0400"},"district":"Ludlow CCSD 142","geo_score":0.857,"native":0.0,"zip code":"60949","multi racial":"0","year":2005,"asian":1.0,"id":"a636txpymtcn","geo_precision":"zip","sate":"IL","hispanic":22.9},"type":"Feature","geometry":{"type":"Point","coordinates":[-88.152546,40.370897]}},{"properties":{"city":"Ludlow","black":2.0,"white":68.4,"date":{"end_time":"2006/08/02 00:00:00 -0400","original":"Aug 1, 2006","granularity":"day","time":"2006/08/01 00:00:00 -0400"},"district":"Ludlow CCSD 142","geo_score":0.857,"native":0.0,"zip code":"60949","multi racial":"4.1","year":2006,"asian":0.0,"id":"a636txqrpgz3","geo_precision":"zip","sate":"IL","hispanic":25.5},"type":"Feature","geometry":{"type":"Point","coordinates":[-88.152546,40.370897]}},{"properties":{"city":"Ludlow","black":0.0,"white":69.6,"date":{"end_time":"2007/08/02 00:00:00 -0400","original":"Aug 1, 2007","granularity":"day","time":"2007/08/01 00:00:00 -0400"},"district":"Ludlow CCSD 142","geo_score":0.857,"native":0.0,"zip code":"60949","multi racial":"2.9","year":2007,"asian":0.0,"id":"a636txtft7ir","geo_precision":"zip","sate":"IL","hispanic":27.5},"type":"Feature","geometry":{"type":"Point","coordinates":[-88.152546,40.370897]}},{"properties":{"city":"Ludlow","black":0.0,"white":71.8,"date":{"end_time":"2008/08/02 00:00:00 -0400","original":"Aug 1, 2008","granularity":"day","time":"2008/08/01 00:00:00 -0400"},"district":"Ludlow CCSD 142","geo_score":0.857,"native":0.0,"zip code":"60949","multi racial":"4.9","year":2008,"asian":0.0,"id":"a636txtg3dln","geo_precision":"zip","sate":"IL","hispanic":23.3},"type":"Feature","geometry":{"type":"Point","coordinates":[-88.152546,40.370897]}},{"properties":{"city":"Ludlow","black":1.2,"white":68.7,"date":{"end_time":"2009/08/02 00:00:00 -0400","original":"Aug 1, 2009","granularity":"day","time":"2009/08/01 00:00:00 -0400"},"district":"Ludlow CCSD 142","geo_score":0.857,"native":0.0,"zip code":"60949","multi racial":"2.4","year":2009,"asian":0.0,"id":"a636txmsw9tj","geo_precision":"zip","sate":"IL","hispanic":27.7},"type":"Feature","geometry":{"type":"Point","coordinates":[-88.152546,40.370897]}},{"properties":{"city":"Ludlow","black":2.4,"white":75.3,"date":{"end_time":"2010/08/02 00:00:00 -0400","original":"Aug 1, 2010","granularity":"day","time":"2010/08/01 00:00:00 -0400"},"district":"Ludlow CCSD 142","geo_score":0.857,"native":0.0,"zip code":"60949","multi racial":"4.7","year":2010,"asian":1.2,"id":"a636txq66jw1","geo_precision":"zip","sate":"IL","hispanic":16.5},"type":"Feature","geometry":{"type":"Point","coordinates":[-88.152546,40.370897]}},{"properties":{"city":"Mahomet","black":0.7,"white":97.9,"date":{"end_time":"1999/08/02 00:00:00 -0400","original":"Aug 1, 1999","granularity":"day","time":"1999/08/01 00:00:00 -0400"},"district":"Mahomet-Seymour CUSD 3","geo_score":0.857,"native":0.0,"zip code":"61853","multi racial":"-","year":1999,"asian":0.7,"id":"a636txsixxfq","geo_precision":"zip","sate":"IL","hispanic":0.7},"type":"Feature","geometry":{"type":"Point","coordinates":[-88.20431,40.111848]}},{"properties":{"city":"Mahomet","black":0.7,"white":97.9,"date":{"end_time":"2000/08/02 00:00:00 -0400","original":"Aug 1, 2000","granularity":"day","time":"2000/08/01 00:00:00 -0400"},"district":"Mahomet-Seymour CUSD 3","geo_score":0.857,"native":0.0,"zip code":"61853","multi racial":"-","year":2000,"asian":0.8,"id":"a636txvwzfll","geo_precision":"zip","sate":"IL","hispanic":0.5},"type":"Feature","geometry":{"type":"Point","coordinates":[-88.20431,40.111848]}},{"properties":{"city":"Mahomet","black":0.9,"white":97.4,"date":{"end_time":"2001/08/02 00:00:00 -0400","original":"Aug 1, 2001","granularity":"day","time":"2001/08/01 00:00:00 -0400"},"district":"Mahomet-Seymour CUSD 3","geo_score":0.857,"native":0.2,"zip code":"61853","multi racial":"-","year":2001,"asian":0.7,"id":"a636txqq70rj","geo_precision":"zip","sate":"IL","hispanic":0.8},"type":"Feature","geometry":{"type":"Point","coordinates":[-88.20431,40.111848]}},{"properties":{"city":"Mahomet","black":0.9,"white":97.2,"date":{"end_time":"2002/08/02 00:00:00 -0400","original":"Aug 1, 2002","granularity":"day","time":"2002/08/01 00:00:00 -0400"},"district":"Mahomet-Seymour CUSD 3","geo_score":0.857,"native":0.2,"zip code":"61853","multi racial":"-","year":2002,"asian":0.8,"id":"a636txnurzc0","geo_precision":"zip","sate":"IL","hispanic":0.9},"type":"Feature","geometry":{"type":"Point","coordinates":[-88.20431,40.111848]}},{"properties":{"city":"Mahomet","black":0.8,"white":97.0,"date":{"end_time":"2003/08/02 00:00:00 -0400","original":"Aug 1, 2003","granularity":"day","time":"2003/08/01 00:00:00 -0400"},"district":"Mahomet-Seymour CUSD 3","geo_score":0.857,"native":0.4,"zip code":"61853","multi racial":"-","year":2003,"asian":1.0,"id":"a636txl2y73u","geo_precision":"zip","sate":"IL","hispanic":0.8},"type":"Feature","geometry":{"type":"Point","coordinates":[-88.20431,40.111848]}},{"properties":{"city":"Mahomet","black":0.6,"white":97.0,"date":{"end_time":"2004/08/02 00:00:00 -0400","original":"Aug 1, 2004","granularity":"day","time":"2004/08/01 00:00:00 -0400"},"district":"Mahomet-Seymour CUSD 3","geo_score":0.857,"native":0.2,"zip code":"61853","multi racial":"-","year":2004,"asian":1.0,"id":"a636txlh1xux","geo_precision":"zip","sate":"IL","hispanic":1.2},"type":"Feature","geometry":{"type":"Point","coordinates":[-88.20431,40.111848]}},{"properties":{"city":"Mahomet","black":0.4,"white":96.1,"date":{"end_time":"2005/08/02 00:00:00 -0400","original":"Aug 1, 2005","granularity":"day","time":"2005/08/01 00:00:00 -0400"},"district":"Mahomet-Seymour CUSD 3","geo_score":0.857,"native":0.3,"zip code":"61853","multi racial":"1.3","year":2005,"asian":0.7,"id":"a636txrbt1xr","geo_precision":"zip","sate":"IL","hispanic":1.2},"type":"Feature","geometry":{"type":"Point","coordinates":[-88.20431,40.111848]}},{"properties":{"city":"Mahomet","black":0.5,"white":95.7,"date":{"end_time":"2006/08/02 00:00:00 -0400","original":"Aug 1, 2006","granularity":"day","time":"2006/08/01 00:00:00 -0400"},"district":"Mahomet-Seymour CUSD 3","geo_score":0.857,"native":0.1,"zip code":"61853","multi racial":"1.5","year":2006,"asian":0.6,"id":"a636txlrx6pz","geo_precision":"zip","sate":"IL","hispanic":1.5},"type":"Feature","geometry":{"type":"Point","coordinates":[-88.20431,40.111848]}},{"properties":{"city":"Mahomet","black":0.3,"white":95.6,"date":{"end_time":"2007/08/02 00:00:00 -0400","original":"Aug 1, 2007","granularity":"day","time":"2007/08/01 00:00:00 -0400"},"district":"Mahomet-Seymour CUSD 3","geo_score":0.857,"native":0.3,"zip code":"61853","multi racial":"1.6","year":2007,"asian":0.9,"id":"a636txx07qux","geo_precision":"zip","sate":"IL","hispanic":1.4},"type":"Feature","geometry":{"type":"Point","coordinates":[-88.20431,40.111848]}},{"properties":{"city":"Mahomet","black":0.3,"white":94.2,"date":{"end_time":"2008/08/02 00:00:00 -0400","original":"Aug 1, 2008","granularity":"day","time":"2008/08/01 00:00:00 -0400"},"district":"Mahomet-Seymour CUSD 3","geo_score":0.857,"native":0.3,"zip code":"61853","multi racial":"2.6","year":2008,"asian":1.5,"id":"a636txrze68k","geo_precision":"zip","sate":"IL","hispanic":1.2},"type":"Feature","geometry":{"type":"Point","coordinates":[-88.20431,40.111848]}},{"properties":{"city":"Mahomet","black":0.3,"white":93.8,"date":{"end_time":"2009/08/02 00:00:00 -0400","original":"Aug 1, 2009","granularity":"day","time":"2009/08/01 00:00:00 -0400"},"district":"Mahomet-Seymour CUSD 3","geo_score":0.857,"native":0.2,"zip code":"61853","multi racial":"3","year":2009,"asian":1.6,"id":"a636txtwlnwf","geo_precision":"zip","sate":"IL","hispanic":1.1},"type":"Feature","geometry":{"type":"Point","coordinates":[-88.20431,40.111848]}},{"properties":{"city":"Mahomet","black":0.4,"white":93.7,"date":{"end_time":"2010/08/02 00:00:00 -0400","original":"Aug 1, 2010","granularity":"day","time":"2010/08/01 00:00:00 -0400"},"district":"Mahomet-Seymour CUSD 3","geo_score":0.857,"native":0.2,"zip code":"61853","multi racial":"3","year":2010,"asian":1.5,"id":"a636txqq1trq","geo_precision":"zip","sate":"IL","hispanic":1.2},"type":"Feature","geometry":{"type":"Point","coordinates":[-88.20431,40.111848]}},{"properties":{"city":"Royal","black":0.0,"white":98.9,"date":{"end_time":"2007/08/02 00:00:00 -0400","original":"Aug 1, 2007","granularity":"day","time":"2007/08/01 00:00:00 -0400"},"district":"Prairieview-Ogden CCSD 197","geo_score":0.857,"native":0.0,"zip code":"61871","multi racial":"0.8","year":2007,"asian":0.0,"id":"a636txvl3wbt","geo_precision":"zip","sate":"IL","hispanic":0.4},"type":"Feature","geometry":{"type":"Point","coordinates":[-87.974197,40.192376]}},{"properties":{"city":"Royal","black":0.0,"white":98.5,"date":{"end_time":"2008/08/02 00:00:00 -0400","original":"Aug 1, 2008","granularity":"day","time":"2008/08/01 00:00:00 -0400"},"district":"Prairieview-Ogden CCSD 197","geo_score":0.857,"native":0.0,"zip code":"61871","multi racial":"0.4","year":2008,"asian":0.4,"id":"a636txj3ks89","geo_precision":"zip","sate":"IL","hispanic":0.8},"type":"Feature","geometry":{"type":"Point","coordinates":[-87.974197,40.192376]}},{"properties":{"city":"Royal","black":0.0,"white":98.0,"date":{"end_time":"2009/08/02 00:00:00 -0400","original":"Aug 1, 2009","granularity":"day","time":"2009/08/01 00:00:00 -0400"},"district":"Prairieview-Ogden CCSD 197","geo_score":0.857,"native":0.0,"zip code":"61871","multi racial":"0.8","year":2009,"asian":0.4,"id":"a636txm9ee2i","geo_precision":"zip","sate":"IL","hispanic":0.8},"type":"Feature","geometry":{"type":"Point","coordinates":[-87.974197,40.192376]}},{"properties":{"city":"Royal","black":0.0,"white":97.6,"date":{"end_time":"2010/08/02 00:00:00 -0400","original":"Aug 1, 2010","granularity":"day","time":"2010/08/01 00:00:00 -0400"},"district":"Prairieview-Ogden CCSD 197","geo_score":0.857,"native":0.0,"zip code":"61871","multi racial":"1.2","year":2010,"asian":0.8,"id":"a636txhwbgaj","geo_precision":"zip","sate":"IL","hispanic":0.4},"type":"Feature","geometry":{"type":"Point","coordinates":[-87.974197,40.192376]}},{"properties":{"city":"Rantoul","black":29.5,"white":66.7,"date":{"end_time":"1999/08/02 00:00:00 -0400","original":"Aug 1, 1999","granularity":"day","time":"1999/08/01 00:00:00 -0400"},"district":"Rantoul City SD 137","geo_score":0.73,"native":0.1,"zip code":"61866","multi racial":"-","year":1999,"asian":0.7,"id":"a636txncz6zs","geo_precision":"zip","sate":"IL","hispanic":3.0},"type":"Feature","geometry":{"type":"Point","coordinates":[-88.233105,40.318922]}},{"properties":{"city":"Rantoul","black":31.0,"white":65.4,"date":{"end_time":"2000/08/02 00:00:00 -0400","original":"Aug 1, 2000","granularity":"day","time":"2000/08/01 00:00:00 -0400"},"district":"Rantoul City SD 137","geo_score":0.73,"native":0.0,"zip code":"61866","multi racial":"-","year":2000,"asian":0.9,"id":"a636txr2irwf","geo_precision":"zip","sate":"IL","hispanic":2.7},"type":"Feature","geometry":{"type":"Point","coordinates":[-88.233105,40.318922]}},{"properties":{"city":"Rantoul","black":34.8,"white":60.8,"date":{"end_time":"2001/08/02 00:00:00 -0400","original":"Aug 1, 2001","granularity":"day","time":"2001/08/01 00:00:00 -0400"},"district":"Rantoul City SD 137","geo_score":0.73,"native":0.1,"zip code":"61866","multi racial":"-","year":2001,"asian":1.3,"id":"a636txwrh4ic","geo_precision":"zip","sate":"IL","hispanic":3.0},"type":"Feature","geometry":{"type":"Point","coordinates":[-88.233105,40.318922]}},{"properties":{"city":"Rantoul","black":35.6,"white":59.9,"date":{"end_time":"2002/08/02 00:00:00 -0400","original":"Aug 1, 2002","granularity":"day","time":"2002/08/01 00:00:00 -0400"},"district":"Rantoul City SD 137","geo_score":0.73,"native":0.2,"zip code":"61866","multi racial":"-","year":2002,"asian":1.4,"id":"a636txnhpjkr","geo_precision":"zip","sate":"IL","hispanic":2.9},"type":"Feature","geometry":{"type":"Point","coordinates":[-88.233105,40.318922]}},{"properties":{"city":"Rantoul","black":36.0,"white":57.1,"date":{"end_time":"2003/08/02 00:00:00 -0400","original":"Aug 1, 2003","granularity":"day","time":"2003/08/01 00:00:00 -0400"},"district":"Rantoul City SD 137","geo_score":0.73,"native":0.1,"zip code":"61866","multi racial":"-","year":2003,"asian":1.6,"id":"a636txovcusd","geo_precision":"zip","sate":"IL","hispanic":5.2},"type":"Feature","geometry":{"type":"Point","coordinates":[-88.233105,40.318922]}},{"properties":{"city":"Rantoul","black":35.4,"white":55.6,"date":{"end_time":"2004/08/02 00:00:00 -0400","original":"Aug 1, 2004","granularity":"day","time":"2004/08/01 00:00:00 -0400"},"district":"Rantoul City SD 137","geo_score":0.73,"native":0.2,"zip code":"61866","multi racial":"-","year":2004,"asian":2.0,"id":"a636txsyzbby","geo_precision":"zip","sate":"IL","hispanic":6.9},"type":"Feature","geometry":{"type":"Point","coordinates":[-88.233105,40.318922]}},{"properties":{"city":"Rantoul","black":32.7,"white":52.9,"date":{"end_time":"2005/08/02 00:00:00 -0400","original":"Aug 1, 2005","granularity":"day","time":"2005/08/01 00:00:00 -0400"},"district":"Rantoul City SD 137","geo_score":0.73,"native":0.1,"zip code":"61866","multi racial":"4.5","year":2005,"asian":2.0,"id":"a636txomwmm4","geo_precision":"zip","sate":"IL","hispanic":7.8},"type":"Feature","geometry":{"type":"Point","coordinates":[-88.233105,40.318922]}},{"properties":{"city":"Rantoul","black":34.3,"white":50.4,"date":{"end_time":"2006/08/02 00:00:00 -0400","original":"Aug 1, 2006","granularity":"day","time":"2006/08/01 00:00:00 -0400"},"district":"Rantoul City SD 137","geo_score":0.73,"native":0.1,"zip code":"61866","multi racial":"5.7","year":2006,"asian":1.5,"id":"a636txv9rhco","geo_precision":"zip","sate":"IL","hispanic":8.1},"type":"Feature","geometry":{"type":"Point","coordinates":[-88.233105,40.318922]}},{"properties":{"city":"Rantoul","black":36.9,"white":46.4,"date":{"end_time":"2007/08/02 00:00:00 -0400","original":"Aug 1, 2007","granularity":"day","time":"2007/08/01 00:00:00 -0400"},"district":"Rantoul City SD 137","geo_score":0.73,"native":0.1,"zip code":"61866","multi racial":"5.4","year":2007,"asian":1.7,"id":"a636txoxxcr7","geo_precision":"zip","sate":"IL","hispanic":9.5},"type":"Feature","geometry":{"type":"Point","coordinates":[-88.233105,40.318922]}},{"properties":{"city":"Rantoul","black":35.5,"white":45.0,"date":{"end_time":"2008/08/02 00:00:00 -0400","original":"Aug 1, 2008","granularity":"day","time":"2008/08/01 00:00:00 -0400"},"district":"Rantoul City SD 137","geo_score":0.73,"native":0.0,"zip code":"61866","multi racial":"6","year":2008,"asian":1.6,"id":"a636txi8wf4u","geo_precision":"zip","sate":"IL","hispanic":11.9},"type":"Feature","geometry":{"type":"Point","coordinates":[-88.233105,40.318922]}},{"properties":{"city":"Rantoul","black":35.3,"white":43.7,"date":{"end_time":"2009/08/02 00:00:00 -0400","original":"Aug 1, 2009","granularity":"day","time":"2009/08/01 00:00:00 -0400"},"district":"Rantoul City SD 137","geo_score":0.73,"native":0.1,"zip code":"61866","multi racial":"6.1","year":2009,"asian":2.2,"id":"a636txw3dykm","geo_precision":"zip","sate":"IL","hispanic":12.5},"type":"Feature","geometry":{"type":"Point","coordinates":[-88.233105,40.318922]}},{"properties":{"city":"Rantoul","black":35.0,"white":41.8,"date":{"end_time":"2010/08/02 00:00:00 -0400","original":"Aug 1, 2010","granularity":"day","time":"2010/08/01 00:00:00 -0400"},"district":"Rantoul City SD 137","geo_score":0.73,"native":0.1,"zip code":"61866","multi racial":"7.7","year":2010,"asian":1.9,"id":"a636txn7mbyd","geo_precision":"zip","sate":"IL","hispanic":13.6},"type":"Feature","geometry":{"type":"Point","coordinates":[-88.233105,40.318922]}},{"properties":{"city":"Rantoul","black":16.8,"white":79.7,"date":{"end_time":"1999/08/02 00:00:00 -0400","original":"Aug 1, 1999","granularity":"day","time":"1999/08/01 00:00:00 -0400"},"district":"Rantoul Township HSD 193","geo_score":0.73,"native":0.0,"zip code":"61866","multi racial":"-","year":1999,"asian":1.5,"id":"a636txjgn9br","geo_precision":"zip","sate":"IL","hispanic":2.0},"type":"Feature","geometry":{"type":"Point","coordinates":[-88.233105,40.318922]}},{"properties":{"city":"Rantoul","black":17.9,"white":78.1,"date":{"end_time":"2000/08/02 00:00:00 -0400","original":"Aug 1, 2000","granularity":"day","time":"2000/08/01 00:00:00 -0400"},"district":"Rantoul Township HSD 193","geo_score":0.73,"native":0.0,"zip code":"61866","multi racial":"-","year":2000,"asian":2.2,"id":"a636txj22fhb","geo_precision":"zip","sate":"IL","hispanic":1.8},"type":"Feature","geometry":{"type":"Point","coordinates":[-88.233105,40.318922]}},{"properties":{"city":"Rantoul","black":17.7,"white":75.5,"date":{"end_time":"2001/08/02 00:00:00 -0400","original":"Aug 1, 2001","granularity":"day","time":"2001/08/01 00:00:00 -0400"},"district":"Rantoul Township HSD 193","geo_score":0.73,"native":0.0,"zip code":"61866","multi racial":"-","year":2001,"asian":3.7,"id":"a636txk5gg7b","geo_precision":"zip","sate":"IL","hispanic":3.1},"type":"Feature","geometry":{"type":"Point","coordinates":[-88.233105,40.318922]}},{"properties":{"city":"Rantoul","black":18.3,"white":75.9,"date":{"end_time":"2002/08/02 00:00:00 -0400","original":"Aug 1, 2002","granularity":"day","time":"2002/08/01 00:00:00 -0400"},"district":"Rantoul Township HSD 193","geo_score":0.73,"native":0.0,"zip code":"61866","multi racial":"-","year":2002,"asian":3.8,"id":"a636txnjavut","geo_precision":"zip","sate":"IL","hispanic":2.1},"type":"Feature","geometry":{"type":"Point","coordinates":[-88.233105,40.318922]}},{"properties":{"city":"Rantoul","black":19.4,"white":73.1,"date":{"end_time":"2003/08/02 00:00:00 -0400","original":"Aug 1, 2003","granularity":"day","time":"2003/08/01 00:00:00 -0400"},"district":"Rantoul Township HSD 193","geo_score":0.73,"native":0.0,"zip code":"61866","multi racial":"-","year":2003,"asian":4.2,"id":"a636txrpyuzb","geo_precision":"zip","sate":"IL","hispanic":3.3},"type":"Feature","geometry":{"type":"Point","coordinates":[-88.233105,40.318922]}},{"properties":{"city":"Rantoul","black":21.9,"white":70.3,"date":{"end_time":"2004/08/02 00:00:00 -0400","original":"Aug 1, 2004","granularity":"day","time":"2004/08/01 00:00:00 -0400"},"district":"Rantoul Township HSD 193","geo_score":0.73,"native":0.0,"zip code":"61866","multi racial":"-","year":2004,"asian":4.7,"id":"a636txx4qkp5","geo_precision":"zip","sate":"IL","hispanic":3.1},"type":"Feature","geometry":{"type":"Point","coordinates":[-88.233105,40.318922]}},{"properties":{"city":"Rantoul","black":20.7,"white":68.3,"date":{"end_time":"2005/08/02 00:00:00 -0400","original":"Aug 1, 2005","granularity":"day","time":"2005/08/01 00:00:00 -0400"},"district":"Rantoul Township HSD 193","geo_score":0.73,"native":0.1,"zip code":"61866","multi racial":"2.8","year":2005,"asian":3.6,"id":"a636txl2bosq","geo_precision":"zip","sate":"IL","hispanic":4.5},"type":"Feature","geometry":{"type":"Point","coordinates":[-88.233105,40.318922]}},{"properties":{"city":"Rantoul","black":20.6,"white":65.4,"date":{"end_time":"2006/08/02 00:00:00 -0400","original":"Aug 1, 2006","granularity":"day","time":"2006/08/01 00:00:00 -0400"},"district":"Rantoul Township HSD 193","geo_score":0.73,"native":0.1,"zip code":"61866","multi racial":"4.2","year":2006,"asian":3.2,"id":"a636txl6lj9n","geo_precision":"zip","sate":"IL","hispanic":6.5},"type":"Feature","geometry":{"type":"Point","coordinates":[-88.233105,40.318922]}},{"properties":{"city":"Rantoul","black":21.3,"white":65.0,"date":{"end_time":"2007/08/02 00:00:00 -0400","original":"Aug 1, 2007","granularity":"day","time":"2007/08/01 00:00:00 -0400"},"district":"Rantoul Township HSD 193","geo_score":0.73,"native":0.3,"zip code":"61866","multi racial":"4.8","year":2007,"asian":2.5,"id":"a636txqzobqy","geo_precision":"zip","sate":"IL","hispanic":6.1},"type":"Feature","geometry":{"type":"Point","coordinates":[-88.233105,40.318922]}},{"properties":{"city":"Rantoul","black":23.0,"white":62.9,"date":{"end_time":"2008/08/02 00:00:00 -0400","original":"Aug 1, 2008","granularity":"day","time":"2008/08/01 00:00:00 -0400"},"district":"Rantoul Township HSD 193","geo_score":0.73,"native":0.3,"zip code":"61866","multi racial":"5.1","year":2008,"asian":1.8,"id":"a636txmnpz63","geo_precision":"zip","sate":"IL","hispanic":7.0},"type":"Feature","geometry":{"type":"Point","coordinates":[-88.233105,40.318922]}},{"properties":{"city":"Rantoul","black":25.5,"white":57.9,"date":{"end_time":"2009/08/02 00:00:00 -0400","original":"Aug 1, 2009","granularity":"day","time":"2009/08/01 00:00:00 -0400"},"district":"Rantoul Township HSD 193","geo_score":0.73,"native":0.1,"zip code":"61866","multi racial":"8","year":2009,"asian":0.9,"id":"a636txnpiyfm","geo_precision":"zip","sate":"IL","hispanic":7.6},"type":"Feature","geometry":{"type":"Point","coordinates":[-88.233105,40.318922]}},{"properties":{"city":"Rantoul","black":29.1,"white":54.9,"date":{"end_time":"2010/08/02 00:00:00 -0400","original":"Aug 1, 2010","granularity":"day","time":"2010/08/01 00:00:00 -0400"},"district":"Rantoul Township HSD 193","geo_score":0.73,"native":0.1,"zip code":"61866","multi racial":"6.2","year":2010,"asian":1.6,"id":"a636txo94spb","geo_precision":"zip","sate":"IL","hispanic":8.0},"type":"Feature","geometry":{"type":"Point","coordinates":[-88.233105,40.318922]}},{"properties":{"city":"Saint Joseph","black":0.6,"white":99.4,"date":{"end_time":"1999/08/02 00:00:00 -0400","original":"Aug 1, 1999","granularity":"day","time":"1999/08/01 00:00:00 -0400"},"district":"St. Joseph CCSD 169","geo_score":0.857,"native":0.0,"zip code":"61873","multi racial":"-","year":1999,"asian":0.0,"id":"a636txuvlev4","geo_precision":"zip","sate":"IL","hispanic":0.0},"type":"Feature","geometry":{"type":"Point","coordinates":[-88.072851,40.144962]}},{"properties":{"city":"Saint Joseph","black":0.4,"white":98.7,"date":{"end_time":"2000/08/02 00:00:00 -0400","original":"Aug 1, 2000","granularity":"day","time":"2000/08/01 00:00:00 -0400"},"district":"St. Joseph CCSD 169","geo_score":0.857,"native":0.0,"zip code":"61873","multi racial":"-","year":2000,"asian":0.3,"id":"a636txgtr12c","geo_precision":"zip","sate":"IL","hispanic":0.6},"type":"Feature","geometry":{"type":"Point","coordinates":[-88.072851,40.144962]}},{"properties":{"city":"Saint Joseph","black":0.4,"white":98.1,"date":{"end_time":"2001/08/02 00:00:00 -0400","original":"Aug 1, 2001","granularity":"day","time":"2001/08/01 00:00:00 -0400"},"district":"St. Joseph CCSD 169","geo_score":0.857,"native":0.3,"zip code":"61873","multi racial":"-","year":2001,"asian":0.4,"id":"a636txj3f3zy","geo_precision":"zip","sate":"IL","hispanic":0.7},"type":"Feature","geometry":{"type":"Point","coordinates":[-88.072851,40.144962]}},{"properties":{"city":"Saint Joseph","black":1.2,"white":97.7,"date":{"end_time":"2002/08/02 00:00:00 -0400","original":"Aug 1, 2002","granularity":"day","time":"2002/08/01 00:00:00 -0400"},"district":"St. Joseph CCSD 169","geo_score":0.857,"native":0.0,"zip code":"61873","multi racial":"-","year":2002,"asian":0.6,"id":"a636txri7k3e","geo_precision":"zip","sate":"IL","hispanic":0.6},"type":"Feature","geometry":{"type":"Point","coordinates":[-88.072851,40.144962]}},{"properties":{"city":"Saint Joseph","black":1.7,"white":97.4,"date":{"end_time":"2003/08/02 00:00:00 -0400","original":"Aug 1, 2003","granularity":"day","time":"2003/08/01 00:00:00 -0400"},"district":"St. Joseph CCSD 169","geo_score":0.857,"native":0.3,"zip code":"61873","multi racial":"-","year":2003,"asian":0.1,"id":"a636txlug3ur","geo_precision":"zip","sate":"IL","hispanic":0.4},"type":"Feature","geometry":{"type":"Point","coordinates":[-88.072851,40.144962]}},{"properties":{"city":"Saint Joseph","black":1.2,"white":98.1,"date":{"end_time":"2004/08/02 00:00:00 -0400","original":"Aug 1, 2004","granularity":"day","time":"2004/08/01 00:00:00 -0400"},"district":"St. Joseph CCSD 169","geo_score":0.857,"native":0.3,"zip code":"61873","multi racial":"-","year":2004,"asian":0.0,"id":"a636txjjf75o","geo_precision":"zip","sate":"IL","hispanic":0.4},"type":"Feature","geometry":{"type":"Point","coordinates":[-88.072851,40.144962]}},{"properties":{"city":"Saint Joseph","black":1.9,"white":97.3,"date":{"end_time":"2005/08/02 00:00:00 -0400","original":"Aug 1, 2005","granularity":"day","time":"2005/08/01 00:00:00 -0400"},"district":"St. Joseph CCSD 169","geo_score":0.857,"native":0.1,"zip code":"61873","multi racial":"0","year":2005,"asian":0.0,"id":"a636txmyoxc5","geo_precision":"zip","sate":"IL","hispanic":0.7},"type":"Feature","geometry":{"type":"Point","coordinates":[-88.072851,40.144962]}},{"properties":{"city":"Saint Joseph","black":1.6,"white":97.2,"date":{"end_time":"2006/08/02 00:00:00 -0400","original":"Aug 1, 2006","granularity":"day","time":"2006/08/01 00:00:00 -0400"},"district":"St. Joseph CCSD 169","geo_score":0.857,"native":0.0,"zip code":"61873","multi racial":"0","year":2006,"asian":0.3,"id":"a636txpiydxm","geo_precision":"zip","sate":"IL","hispanic":0.9},"type":"Feature","geometry":{"type":"Point","coordinates":[-88.072851,40.144962]}},{"properties":{"city":"Saint Joseph","black":2.1,"white":96.7,"date":{"end_time":"2007/08/02 00:00:00 -0400","original":"Aug 1, 2007","granularity":"day","time":"2007/08/01 00:00:00 -0400"},"district":"St. Joseph CCSD 169","geo_score":0.857,"native":0.0,"zip code":"61873","multi racial":"0","year":2007,"asian":0.4,"id":"a636txnyfoig","geo_precision":"zip","sate":"IL","hispanic":0.8},"type":"Feature","geometry":{"type":"Point","coordinates":[-88.072851,40.144962]}},{"properties":{"city":"Saint Joseph","black":1.9,"white":96.3,"date":{"end_time":"2008/08/02 00:00:00 -0400","original":"Aug 1, 2008","granularity":"day","time":"2008/08/01 00:00:00 -0400"},"district":"St. Joseph CCSD 169","geo_score":0.857,"native":0.0,"zip code":"61873","multi racial":"0","year":2008,"asian":0.5,"id":"a636txri538r","geo_precision":"zip","sate":"IL","hispanic":1.3},"type":"Feature","geometry":{"type":"Point","coordinates":[-88.072851,40.144962]}},{"properties":{"city":"Saint Joseph","black":1.7,"white":96.2,"date":{"end_time":"2009/08/02 00:00:00 -0400","original":"Aug 1, 2009","granularity":"day","time":"2009/08/01 00:00:00 -0400"},"district":"St. Joseph CCSD 169","geo_score":0.857,"native":0.1,"zip code":"61873","multi racial":"0","year":2009,"asian":0.4,"id":"a636txtr7trf","geo_precision":"zip","sate":"IL","hispanic":1.5},"type":"Feature","geometry":{"type":"Point","coordinates":[-88.072851,40.144962]}},{"properties":{"city":"Saint Joseph","black":1.2,"white":95.6,"date":{"end_time":"2010/08/02 00:00:00 -0400","original":"Aug 1, 2010","granularity":"day","time":"2010/08/01 00:00:00 -0400"},"district":"St. Joseph CCSD 169","geo_score":0.857,"native":0.5,"zip code":"61873","multi racial":"0.5","year":2010,"asian":0.9,"id":"a636txn4czes","geo_precision":"zip","sate":"IL","hispanic":1.2},"type":"Feature","geometry":{"type":"Point","coordinates":[-88.072851,40.144962]}},{"properties":{"city":"Saint Joseph","black":0.2,"white":99.4,"date":{"end_time":"1999/08/02 00:00:00 -0400","original":"Aug 1, 1999","granularity":"day","time":"1999/08/01 00:00:00 -0400"},"district":"St. Joseph Ogden CHSD 305","geo_score":0.727,"native":0.0,"zip code":"61859","multi racial":"-","year":1999,"asian":0.2,"id":"a636txrvvun1","geo_precision":"zip","sate":"IL","hispanic":0.2},"type":"Feature","geometry":{"type":"Point","coordinates":[-88.105359,40.069274]}},{"properties":{"city":"Saint Joseph","black":0.2,"white":99.1,"date":{"end_time":"2000/08/02 00:00:00 -0400","original":"Aug 1, 2000","granularity":"day","time":"2000/08/01 00:00:00 -0400"},"district":"St. Joseph Ogden CHSD 305","geo_score":0.727,"native":0.0,"zip code":"61859","multi racial":"-","year":2000,"asian":0.2,"id":"a636txngry48","geo_precision":"zip","sate":"IL","hispanic":0.4},"type":"Feature","geometry":{"type":"Point","coordinates":[-88.105359,40.069274]}},{"properties":{"city":"Saint Joseph","black":0.4,"white":98.7,"date":{"end_time":"2001/08/02 00:00:00 -0400","original":"Aug 1, 2001","granularity":"day","time":"2001/08/01 00:00:00 -0400"},"district":"St. Joseph Ogden CHSD 305","geo_score":0.727,"native":0.0,"zip code":"61859","multi racial":"-","year":2001,"asian":0.2,"id":"a636txs6nf9q","geo_precision":"zip","sate":"IL","hispanic":0.6},"type":"Feature","geometry":{"type":"Point","coordinates":[-88.105359,40.069274]}},{"properties":{"city":"Saint Joseph","black":0.7,"white":98.7,"date":{"end_time":"2002/08/02 00:00:00 -0400","original":"Aug 1, 2002","granularity":"day","time":"2002/08/01 00:00:00 -0400"},"district":"St. Joseph Ogden CHSD 305","geo_score":0.727,"native":0.0,"zip code":"61859","multi racial":"-","year":2002,"asian":0.2,"id":"a636txopox6l","geo_precision":"zip","sate":"IL","hispanic":0.4},"type":"Feature","geometry":{"type":"Point","coordinates":[-88.105359,40.069274]}},{"properties":{"city":"Saint Joseph","black":0.4,"white":99.1,"date":{"end_time":"2003/08/02 00:00:00 -0400","original":"Aug 1, 2003","granularity":"day","time":"2003/08/01 00:00:00 -0400"},"district":"St. Joseph Ogden CHSD 305","geo_score":0.727,"native":0.0,"zip code":"61859","multi racial":"-","year":2003,"asian":0.4,"id":"a636txm7hgnf","geo_precision":"zip","sate":"IL","hispanic":0.0},"type":"Feature","geometry":{"type":"Point","coordinates":[-88.105359,40.069274]}},{"properties":{"city":"Saint Joseph","black":0.4,"white":99.1,"date":{"end_time":"2004/08/02 00:00:00 -0400","original":"Aug 1, 2004","granularity":"day","time":"2004/08/01 00:00:00 -0400"},"district":"St. Joseph Ogden CHSD 305","geo_score":0.727,"native":0.0,"zip code":"61859","multi racial":"-","year":2004,"asian":0.4,"id":"a636txscqykn","geo_precision":"zip","sate":"IL","hispanic":0.0},"type":"Feature","geometry":{"type":"Point","coordinates":[-88.105359,40.069274]}},{"properties":{"city":"Saint Joseph","black":0.0,"white":98.9,"date":{"end_time":"2005/08/02 00:00:00 -0400","original":"Aug 1, 2005","granularity":"day","time":"2005/08/01 00:00:00 -0400"},"district":"St. Joseph Ogden CHSD 305","geo_score":0.727,"native":0.0,"zip code":"61859","multi racial":"0.4","year":2005,"asian":0.6,"id":"a636txszmmib","geo_precision":"zip","sate":"IL","hispanic":0.0},"type":"Feature","geometry":{"type":"Point","coordinates":[-88.105359,40.069274]}},{"properties":{"city":"Saint Joseph","black":0.2,"white":97.7,"date":{"end_time":"2006/08/02 00:00:00 -0400","original":"Aug 1, 2006","granularity":"day","time":"2006/08/01 00:00:00 -0400"},"district":"St. Joseph Ogden CHSD 305","geo_score":0.727,"native":0.0,"zip code":"61859","multi racial":"1.7","year":2006,"asian":0.0,"id":"a636txno8y0p","geo_precision":"zip","sate":"IL","hispanic":0.4},"type":"Feature","geometry":{"type":"Point","coordinates":[-88.105359,40.069274]}},{"properties":{"city":"Saint Joseph","black":0.2,"white":97.0,"date":{"end_time":"2007/08/02 00:00:00 -0400","original":"Aug 1, 2007","granularity":"day","time":"2007/08/01 00:00:00 -0400"},"district":"St. Joseph Ogden CHSD 305","geo_score":0.727,"native":0.2,"zip code":"61859","multi racial":"1.1","year":2007,"asian":0.0,"id":"a636txww58l8","geo_precision":"zip","sate":"IL","hispanic":1.5},"type":"Feature","geometry":{"type":"Point","coordinates":[-88.105359,40.069274]}},{"properties":{"city":"Saint Joseph","black":0.2,"white":98.2,"date":{"end_time":"2008/08/02 00:00:00 -0400","original":"Aug 1, 2008","granularity":"day","time":"2008/08/01 00:00:00 -0400"},"district":"St. Joseph Ogden CHSD 305","geo_score":0.727,"native":0.2,"zip code":"61859","multi racial":"0.4","year":2008,"asian":0.0,"id":"a636txpgps8y","geo_precision":"zip","sate":"IL","hispanic":0.9},"type":"Feature","geometry":{"type":"Point","coordinates":[-88.105359,40.069274]}},{"properties":{"city":"Saint Joseph","black":0.4,"white":97.5,"date":{"end_time":"2009/08/02 00:00:00 -0400","original":"Aug 1, 2009","granularity":"day","time":"2009/08/01 00:00:00 -0400"},"district":"St. Joseph Ogden CHSD 305","geo_score":0.727,"native":0.7,"zip code":"61859","multi racial":"0.2","year":2009,"asian":0.0,"id":"a636txvs2a26","geo_precision":"zip","sate":"IL","hispanic":1.1},"type":"Feature","geometry":{"type":"Point","coordinates":[-88.105359,40.069274]}},{"properties":{"city":"Saint Joseph","black":0.2,"white":98.0,"date":{"end_time":"2010/08/02 00:00:00 -0400","original":"Aug 1, 2010","granularity":"day","time":"2010/08/01 00:00:00 -0400"},"district":"St. Joseph Ogden CHSD 305","geo_score":0.727,"native":0.4,"zip code":"61859","multi racial":"0.4","year":2010,"asian":0.0,"id":"a636txuh8ovm","geo_precision":"zip","sate":"IL","hispanic":0.9},"type":"Feature","geometry":{"type":"Point","coordinates":[-88.105359,40.069274]}},{"properties":{"city":"Thomasboro","black":9.4,"white":87.6,"date":{"end_time":"1999/08/02 00:00:00 -0400","original":"Aug 1, 1999","granularity":"day","time":"1999/08/01 00:00:00 -0400"},"district":"Thomasboro CCSD 130","geo_score":0.714,"native":0.0,"zip code":"61878","multi racial":"-","year":1999,"asian":1.5,"id":"a636txkf81xz","geo_precision":"zip","sate":"IL","hispanic":1.5},"type":"Feature","geometry":{"type":"Point","coordinates":[-88.059206,40.239479]}},{"properties":{"city":"Thomasboro","black":5.5,"white":91.2,"date":{"end_time":"2000/08/02 00:00:00 -0400","original":"Aug 1, 2000","granularity":"day","time":"2000/08/01 00:00:00 -0400"},"district":"Thomasboro CCSD 130","geo_score":0.714,"native":0.0,"zip code":"61878","multi racial":"-","year":2000,"asian":0.4,"id":"a636txr7bfx8","geo_precision":"zip","sate":"IL","hispanic":2.9},"type":"Feature","geometry":{"type":"Point","coordinates":[-88.059206,40.239479]}},{"properties":{"city":"Thomasboro","black":5.5,"white":92.2,"date":{"end_time":"2001/08/02 00:00:00 -0400","original":"Aug 1, 2001","granularity":"day","time":"2001/08/01 00:00:00 -0400"},"district":"Thomasboro CCSD 130","geo_score":0.714,"native":0.0,"zip code":"61878","multi racial":"-","year":2001,"asian":0.9,"id":"a636txwrorsi","geo_precision":"zip","sate":"IL","hispanic":1.4},"type":"Feature","geometry":{"type":"Point","coordinates":[-88.059206,40.239479]}},{"properties":{"city":"Thomasboro","black":5.3,"white":90.3,"date":{"end_time":"2002/08/02 00:00:00 -0400","original":"Aug 1, 2002","granularity":"day","time":"2002/08/01 00:00:00 -0400"},"district":"Thomasboro CCSD 130","geo_score":0.714,"native":0.4,"zip code":"61878","multi racial":"-","year":2002,"asian":0.4,"id":"a636txtxdr2j","geo_precision":"zip","sate":"IL","hispanic":3.5},"type":"Feature","geometry":{"type":"Point","coordinates":[-88.059206,40.239479]}},{"properties":{"city":"Thomasboro","black":6.4,"white":89.6,"date":{"end_time":"2003/08/02 00:00:00 -0400","original":"Aug 1, 2003","granularity":"day","time":"2003/08/01 00:00:00 -0400"},"district":"Thomasboro CCSD 130","geo_score":0.714,"native":0.5,"zip code":"61878","multi racial":"-","year":2003,"asian":1.5,"id":"a636txl569tw","geo_precision":"zip","sate":"IL","hispanic":2.0},"type":"Feature","geometry":{"type":"Point","coordinates":[-88.059206,40.239479]}},{"properties":{"city":"Thomasboro","black":7.6,"white":88.2,"date":{"end_time":"2004/08/02 00:00:00 -0400","original":"Aug 1, 2004","granularity":"day","time":"2004/08/01 00:00:00 -0400"},"district":"Thomasboro CCSD 130","geo_score":0.714,"native":0.5,"zip code":"61878","multi racial":"-","year":2004,"asian":0.5,"id":"a636txq4erl2","geo_precision":"zip","sate":"IL","hispanic":3.3},"type":"Feature","geometry":{"type":"Point","coordinates":[-88.059206,40.239479]}},{"properties":{"city":"Thomasboro","black":3.6,"white":90.1,"date":{"end_time":"2005/08/02 00:00:00 -0400","original":"Aug 1, 2005","granularity":"day","time":"2005/08/01 00:00:00 -0400"},"district":"Thomasboro CCSD 130","geo_score":0.714,"native":0.0,"zip code":"61878","multi racial":"4.2","year":2005,"asian":1.0,"id":"a636txq4vpjd","geo_precision":"zip","sate":"IL","hispanic":1.0},"type":"Feature","geometry":{"type":"Point","coordinates":[-88.059206,40.239479]}},{"properties":{"city":"Thomasboro","black":4.9,"white":82.7,"date":{"end_time":"2006/08/02 00:00:00 -0400","original":"Aug 1, 2006","granularity":"day","time":"2006/08/01 00:00:00 -0400"},"district":"Thomasboro CCSD 130","geo_score":0.714,"native":0.0,"zip code":"61878","multi racial":"9.2","year":2006,"asian":0.5,"id":"a636txs7gcmn","geo_precision":"zip","sate":"IL","hispanic":2.7},"type":"Feature","geometry":{"type":"Point","coordinates":[-88.059206,40.239479]}},{"properties":{"city":"Thomasboro","black":3.3,"white":82.6,"date":{"end_time":"2007/08/02 00:00:00 -0400","original":"Aug 1, 2007","granularity":"day","time":"2007/08/01 00:00:00 -0400"},"district":"Thomasboro CCSD 130","geo_score":0.714,"native":0.0,"zip code":"61878","multi racial":"12","year":2007,"asian":0.5,"id":"a636txn75rab","geo_precision":"zip","sate":"IL","hispanic":1.6},"type":"Feature","geometry":{"type":"Point","coordinates":[-88.059206,40.239479]}},{"properties":{"city":"Thomasboro","black":2.1,"white":71.4,"date":{"end_time":"2008/08/02 00:00:00 -0400","original":"Aug 1, 2008","granularity":"day","time":"2008/08/01 00:00:00 -0400"},"district":"Thomasboro CCSD 130","geo_score":0.714,"native":0.0,"zip code":"61878","multi racial":"10.4","year":2008,"asian":0.0,"id":"a636txj8agsg","geo_precision":"zip","sate":"IL","hispanic":16.1},"type":"Feature","geometry":{"type":"Point","coordinates":[-88.059206,40.239479]}},{"properties":{"city":"Thomasboro","black":3.2,"white":65.4,"date":{"end_time":"2009/08/02 00:00:00 -0400","original":"Aug 1, 2009","granularity":"day","time":"2009/08/01 00:00:00 -0400"},"district":"Thomasboro CCSD 130","geo_score":0.714,"native":0.0,"zip code":"61878","multi racial":"6.5","year":2009,"asian":0.5,"id":"a636txo9u1cz","geo_precision":"zip","sate":"IL","hispanic":24.3},"type":"Feature","geometry":{"type":"Point","coordinates":[-88.059206,40.239479]}},{"properties":{"city":"Thomasboro","black":1.0,"white":71.1,"date":{"end_time":"2010/08/02 00:00:00 -0400","original":"Aug 1, 2010","granularity":"day","time":"2010/08/01 00:00:00 -0400"},"district":"Thomasboro CCSD 130","geo_score":0.714,"native":0.0,"zip code":"61878","multi racial":"7","year":2010,"asian":1.0,"id":"a636txma70vq","geo_precision":"zip","sate":"IL","hispanic":19.9},"type":"Feature","geometry":{"type":"Point","coordinates":[-88.059206,40.239479]}},{"properties":{"city":"Tolono","black":0.4,"white":98.8,"date":{"end_time":"1999/08/02 00:00:00 -0400","original":"Aug 1, 1999","granularity":"day","time":"1999/08/01 00:00:00 -0400"},"district":"Tolono CUSD 7","geo_score":0.857,"native":0.1,"zip code":"61880","multi racial":"-","year":1999,"asian":0.4,"id":"a636txsg3xaj","geo_precision":"zip","sate":"IL","hispanic":0.4},"type":"Feature","geometry":{"type":"Point","coordinates":[-88.174757,40.03821]}},{"properties":{"city":"Tolono","black":0.9,"white":98.9,"date":{"end_time":"2000/08/02 00:00:00 -0400","original":"Aug 1, 2000","granularity":"day","time":"2000/08/01 00:00:00 -0400"},"district":"Tolono CUSD 7","geo_score":0.857,"native":0.0,"zip code":"61880","multi racial":"-","year":2000,"asian":0.1,"id":"a636txkorw3q","geo_precision":"zip","sate":"IL","hispanic":0.1},"type":"Feature","geometry":{"type":"Point","coordinates":[-88.174757,40.03821]}},{"properties":{"city":"Tolono","black":0.7,"white":98.5,"date":{"end_time":"2001/08/02 00:00:00 -0400","original":"Aug 1, 2001","granularity":"day","time":"2001/08/01 00:00:00 -0400"},"district":"Tolono CUSD 7","geo_score":0.857,"native":0.2,"zip code":"61880","multi racial":"-","year":2001,"asian":0.5,"id":"a636txnh7p8w","geo_precision":"zip","sate":"IL","hispanic":0.1},"type":"Feature","geometry":{"type":"Point","coordinates":[-88.174757,40.03821]}},{"properties":{"city":"Tolono","black":1.6,"white":97.4,"date":{"end_time":"2002/08/02 00:00:00 -0400","original":"Aug 1, 2002","granularity":"day","time":"2002/08/01 00:00:00 -0400"},"district":"Tolono CUSD 7","geo_score":0.857,"native":0.2,"zip code":"61880","multi racial":"-","year":2002,"asian":0.7,"id":"a636txu4v9eo","geo_precision":"zip","sate":"IL","hispanic":0.2},"type":"Feature","geometry":{"type":"Point","coordinates":[-88.174757,40.03821]}},{"properties":{"city":"Tolono","black":1.8,"white":96.6,"date":{"end_time":"2003/08/02 00:00:00 -0400","original":"Aug 1, 2003","granularity":"day","time":"2003/08/01 00:00:00 -0400"},"district":"Tolono CUSD 7","geo_score":0.857,"native":0.3,"zip code":"61880","multi racial":"-","year":2003,"asian":1.0,"id":"a636txl8ayx0","geo_precision":"zip","sate":"IL","hispanic":0.3},"type":"Feature","geometry":{"type":"Point","coordinates":[-88.174757,40.03821]}},{"properties":{"city":"Tolono","black":2.3,"white":96.2,"date":{"end_time":"2004/08/02 00:00:00 -0400","original":"Aug 1, 2004","granularity":"day","time":"2004/08/01 00:00:00 -0400"},"district":"Tolono CUSD 7","geo_score":0.857,"native":0.3,"zip code":"61880","multi racial":"-","year":2004,"asian":0.9,"id":"a636txlg1ve1","geo_precision":"zip","sate":"IL","hispanic":0.3},"type":"Feature","geometry":{"type":"Point","coordinates":[-88.174757,40.03821]}},{"properties":{"city":"Tolono","black":1.5,"white":96.4,"date":{"end_time":"2005/08/02 00:00:00 -0400","original":"Aug 1, 2005","granularity":"day","time":"2005/08/01 00:00:00 -0400"},"district":"Tolono CUSD 7","geo_score":0.857,"native":0.1,"zip code":"61880","multi racial":"1.3","year":2005,"asian":0.6,"id":"a636txs1moo5","geo_precision":"zip","sate":"IL","hispanic":0.1},"type":"Feature","geometry":{"type":"Point","coordinates":[-88.174757,40.03821]}},{"properties":{"city":"Tolono","black":1.7,"white":95.4,"date":{"end_time":"2006/08/02 00:00:00 -0400","original":"Aug 1, 2006","granularity":"day","time":"2006/08/01 00:00:00 -0400"},"district":"Tolono CUSD 7","geo_score":0.857,"native":0.3,"zip code":"61880","multi racial":"1.3","year":2006,"asian":1.0,"id":"a636txh8bmqb","geo_precision":"zip","sate":"IL","hispanic":0.3},"type":"Feature","geometry":{"type":"Point","coordinates":[-88.174757,40.03821]}},{"properties":{"city":"Tolono","black":0.6,"white":95.2,"date":{"end_time":"2007/08/02 00:00:00 -0400","original":"Aug 1, 2007","granularity":"day","time":"2007/08/01 00:00:00 -0400"},"district":"Tolono CUSD 7","geo_score":0.857,"native":0.3,"zip code":"61880","multi racial":"2.5","year":2007,"asian":1.0,"id":"a636txiipsep","geo_precision":"zip","sate":"IL","hispanic":0.5},"type":"Feature","geometry":{"type":"Point","coordinates":[-88.174757,40.03821]}},{"properties":{"city":"Tolono","black":0.6,"white":95.4,"date":{"end_time":"2008/08/02 00:00:00 -0400","original":"Aug 1, 2008","granularity":"day","time":"2008/08/01 00:00:00 -0400"},"district":"Tolono CUSD 7","geo_score":0.857,"native":0.2,"zip code":"61880","multi racial":"2.3","year":2008,"asian":0.7,"id":"a636txplg86k","geo_precision":"zip","sate":"IL","hispanic":0.7},"type":"Feature","geometry":{"type":"Point","coordinates":[-88.174757,40.03821]}},{"properties":{"city":"Tolono","black":0.9,"white":94.6,"date":{"end_time":"2009/08/02 00:00:00 -0400","original":"Aug 1, 2009","granularity":"day","time":"2009/08/01 00:00:00 -0400"},"district":"Tolono CUSD 7","geo_score":0.857,"native":0.3,"zip code":"61880","multi racial":"2.7","year":2009,"asian":1.0,"id":"a636txj58szv","geo_precision":"zip","sate":"IL","hispanic":0.4},"type":"Feature","geometry":{"type":"Point","coordinates":[-88.174757,40.03821]}},{"properties":{"city":"Tolono","black":0.9,"white":94.5,"date":{"end_time":"2010/08/02 00:00:00 -0400","original":"Aug 1, 2010","granularity":"day","time":"2010/08/01 00:00:00 -0400"},"district":"Tolono CUSD 7","geo_score":0.857,"native":0.3,"zip code":"61880","multi racial":"3.1","year":2010,"asian":0.8,"id":"a636txh064az","geo_precision":"zip","sate":"IL","hispanic":0.3},"type":"Feature","geometry":{"type":"Point","coordinates":[-88.174757,40.03821]}},{"properties":{"city":"Urbana","black":28.2,"white":62.2,"date":{"end_time":"1999/08/02 00:00:00 -0400","original":"Aug 1, 1999","granularity":"day","time":"1999/08/01 00:00:00 -0400"},"district":"Urbana SD 116","geo_score":0.714,"native":0.3,"zip code":"61801","multi racial":"-","year":1999,"asian":7.2,"id":"a636txnk0itz","geo_precision":"zip","sate":"IL","hispanic":2.2},"type":"Feature","geometry":{"type":"Point","coordinates":[-88.11032,40.113367]}},{"properties":{"city":"Urbana","black":29.6,"white":59.9,"date":{"end_time":"2000/08/02 00:00:00 -0400","original":"Aug 1, 2000","granularity":"day","time":"2000/08/01 00:00:00 -0400"},"district":"Urbana SD 116","geo_score":0.714,"native":0.3,"zip code":"61801","multi racial":"-","year":2000,"asian":7.6,"id":"a636txqqhzwl","geo_precision":"zip","sate":"IL","hispanic":2.5},"type":"Feature","geometry":{"type":"Point","coordinates":[-88.11032,40.113367]}},{"properties":{"city":"Urbana","black":30.7,"white":59.3,"date":{"end_time":"2001/08/02 00:00:00 -0400","original":"Aug 1, 2001","granularity":"day","time":"2001/08/01 00:00:00 -0400"},"district":"Urbana SD 116","geo_score":0.714,"native":0.3,"zip code":"61801","multi racial":"-","year":2001,"asian":7.3,"id":"a636txlvxedq","geo_precision":"zip","sate":"IL","hispanic":2.5},"type":"Feature","geometry":{"type":"Point","coordinates":[-88.11032,40.113367]}},{"properties":{"city":"Urbana","black":32.7,"white":56.8,"date":{"end_time":"2002/08/02 00:00:00 -0400","original":"Aug 1, 2002","granularity":"day","time":"2002/08/01 00:00:00 -0400"},"district":"Urbana SD 116","geo_score":0.714,"native":0.2,"zip code":"61801","multi racial":"-","year":2002,"asian":7.3,"id":"a636txlaxi38","geo_precision":"zip","sate":"IL","hispanic":3.0},"type":"Feature","geometry":{"type":"Point","coordinates":[-88.11032,40.113367]}},{"properties":{"city":"Urbana","black":33.3,"white":55.4,"date":{"end_time":"2003/08/02 00:00:00 -0400","original":"Aug 1, 2003","granularity":"day","time":"2003/08/01 00:00:00 -0400"},"district":"Urbana SD 116","geo_score":0.714,"native":0.2,"zip code":"61801","multi racial":"-","year":2003,"asian":7.9,"id":"a636txx9d3r6","geo_precision":"zip","sate":"IL","hispanic":3.2},"type":"Feature","geometry":{"type":"Point","coordinates":[-88.11032,40.113367]}},{"properties":{"city":"Urbana","black":36.5,"white":52.4,"date":{"end_time":"2004/08/02 00:00:00 -0400","original":"Aug 1, 2004","granularity":"day","time":"2004/08/01 00:00:00 -0400"},"district":"Urbana SD 116","geo_score":0.714,"native":0.2,"zip code":"61801","multi racial":"-","year":2004,"asian":6.6,"id":"a636txibvszg","geo_precision":"zip","sate":"IL","hispanic":4.3},"type":"Feature","geometry":{"type":"Point","coordinates":[-88.11032,40.113367]}},{"properties":{"city":"Urbana","black":33.3,"white":50.1,"date":{"end_time":"2005/08/02 00:00:00 -0400","original":"Aug 1, 2005","granularity":"day","time":"2005/08/01 00:00:00 -0400"},"district":"Urbana SD 116","geo_score":0.714,"native":0.2,"zip code":"61801","multi racial":"6","year":2005,"asian":6.1,"id":"a636txk6b0l8","geo_precision":"zip","sate":"IL","hispanic":4.3},"type":"Feature","geometry":{"type":"Point","coordinates":[-88.11032,40.113367]}},{"properties":{"city":"Urbana","black":33.6,"white":49.6,"date":{"end_time":"2006/08/02 00:00:00 -0400","original":"Aug 1, 2006","granularity":"day","time":"2006/08/01 00:00:00 -0400"},"district":"Urbana SD 116","geo_score":0.714,"native":0.3,"zip code":"61801","multi racial":"6.3","year":2006,"asian":5.7,"id":"a636txp3bdwp","geo_precision":"zip","sate":"IL","hispanic":4.5},"type":"Feature","geometry":{"type":"Point","coordinates":[-88.11032,40.113367]}},{"properties":{"city":"Urbana","black":35.1,"white":48.1,"date":{"end_time":"2007/08/02 00:00:00 -0400","original":"Aug 1, 2007","granularity":"day","time":"2007/08/01 00:00:00 -0400"},"district":"Urbana SD 116","geo_score":0.714,"native":0.3,"zip code":"61801","multi racial":"5.3","year":2007,"asian":5.7,"id":"a636txty9afk","geo_precision":"zip","sate":"IL","hispanic":5.6},"type":"Feature","geometry":{"type":"Point","coordinates":[-88.11032,40.113367]}},{"properties":{"city":"Urbana","black":33.8,"white":45.4,"date":{"end_time":"2008/08/02 00:00:00 -0400","original":"Aug 1, 2008","granularity":"day","time":"2008/08/01 00:00:00 -0400"},"district":"Urbana SD 116","geo_score":0.714,"native":0.4,"zip code":"61801","multi racial":"7.9","year":2008,"asian":6.2,"id":"a636txqzpi0i","geo_precision":"zip","sate":"IL","hispanic":6.3},"type":"Feature","geometry":{"type":"Point","coordinates":[-88.11032,40.113367]}},{"properties":{"city":"Urbana","black":34.4,"white":43.6,"date":{"end_time":"2009/08/02 00:00:00 -0400","original":"Aug 1, 2009","granularity":"day","time":"2009/08/01 00:00:00 -0400"},"district":"Urbana SD 116","geo_score":0.714,"native":0.2,"zip code":"61801","multi racial":"8.6","year":2009,"asian":5.9,"id":"a636txlw339a","geo_precision":"zip","sate":"IL","hispanic":7.3},"type":"Feature","geometry":{"type":"Point","coordinates":[-88.11032,40.113367]}},{"properties":{"city":"Urbana","black":33.8,"white":42.8,"date":{"end_time":"2010/08/02 00:00:00 -0400","original":"Aug 1, 2010","granularity":"day","time":"2010/08/01 00:00:00 -0400"},"district":"Urbana SD 116","geo_score":0.714,"native":0.2,"zip code":"61801","multi racial":"8.9","year":2010,"asian":6.1,"id":"a636txv9srtj","geo_precision":"zip","sate":"IL","hispanic":8.2},"type":"Feature","geometry":{"type":"Point","coordinates":[-88.11032,40.113367]}}],"is_temporal":true,"author":{"url":"http://www.isbe.state.il.us/","metadata":"","contact_name":"Pamela G. Dempsey","contact_address":"www.cu-citizenaccess.org\r\npamelagdempsey@gmail.com","source":"Illinois State Board of Education","contact_phone":"(217) 244-8861"},"source":"http://www.isbe.state.il.us/","pagination":{"sort":null,"start":0,"total":160,"limit":1000000},"state":"complete","tags":"champaign,demographics,schools","published":"2011-07-25T20:13:30Z","id":138352}