{"type":"FeatureCollection","data_type":"Dataset","url_type":null,"permissions":[{"permissions":{"download":true,"view":true},"group_id":"everyone"}],"classification":null,"title":"Closing OH post offices","count":120,"stream_id":138827,"contributor":{"url":"http://geocommons.com/users/28523","name":"kellyametz"},"data_attributes":null,"calculation_params":null,"icon_link":null,"link":"http://geocommons.com/overlays/138827.json","extent":[-84.7857,38.5367,-80.5978,41.7189],"geometry_types":["point"],"unique_name":null,"name":"Closing OH post offices","feature_count":120,"description":"The United Postal Service is evaluating USPS branches across the country and may set up &quot;village post offices.&quot;","next_feature":null,"is_raster":false,"short_classification":"Y","stats":{},"features":[{"properties":{"city":"CINCINNATI","name":"COLLEGE HL","geo_score":0.739,"zip code":"45224","id":"a66wivsoa19i","geo_precision":"zip"},"type":"Feature","geometry":{"type":"Point","coordinates":[-84.523833,39.212003]}},{"properties":{"city":"CLEVELAND","name":"PEARLBROOK","geo_score":0.857,"zip code":"44109","id":"a66wiw3b91zy","geo_precision":"zip"},"type":"Feature","geometry":{"type":"Point","coordinates":[-81.698483,41.445963]}},{"properties":{"city":"CLEVELAND","name":"PURITAS PARK","geo_score":0.73,"zip code":"44135","id":"a66wiw44zuyy","geo_precision":"zip"},"type":"Feature","geometry":{"type":"Point","coordinates":[-81.850414,41.420327]}},{"properties":{"city":"CLEVELAND","name":"COLLINWOOD","geo_score":0.757,"zip code":"44110","id":"a66wivrl3roi","geo_precision":"zip"},"type":"Feature","geometry":{"type":"Point","coordinates":[-81.56929,41.558384]}},{"properties":{"city":"CLEVELAND","name":"CRANWOOD","geo_score":0.75,"zip code":"44128","id":"a66wiw00zp3m","geo_precision":"zip"},"type":"Feature","geometry":{"type":"Point","coordinates":[-81.525677,41.434776]}},{"properties":{"city":"CLEVELAND","name":"EAST CLEVELAND","geo_score":0.813,"zip code":"44112","id":"a66wiw5g3k3v","geo_precision":"zip"},"type":"Feature","geometry":{"type":"Point","coordinates":[-81.579014,41.533107]}},{"properties":{"city":"CLEVELAND","name":"ERIEVIEW","geo_score":0.857,"zip code":"44199","id":"a66wiw7fj7my","geo_precision":"zip"},"type":"Feature","geometry":{"type":"Point","coordinates":[-81.672797,41.685744]}},{"properties":{"city":"EUCLID","name":"EUCLID","geo_score":0.857,"zip code":"44117","id":"a66wiw1pkrcl","geo_precision":"zip"},"type":"Feature","geometry":{"type":"Point","coordinates":[-81.526142,41.566834]}},{"properties":{"city":"CLEVELAND","name":"GLENVILLE BRATENAHL","geo_score":0.746,"zip code":"44108","id":"a66wiw0riyf7","geo_precision":"zip"},"type":"Feature","geometry":{"type":"Point","coordinates":[-81.626238,41.54255]}},{"properties":{"city":"CLEVELAND","name":"NEWBURG","geo_score":0.724,"zip code":"44105","id":"a66wivx4191a","geo_precision":"zip"},"type":"Feature","geometry":{"type":"Point","coordinates":[-81.663462,41.450052]}},{"properties":{"city":"CLEVELAND","name":"PUBLIC SQUARE","geo_score":0.857,"zip code":"44114","id":"a66wivzrm99e","geo_precision":"zip"},"type":"Feature","geometry":{"type":"Point","coordinates":[-81.677302,41.5145]}},{"properties":{"city":"CLEVELAND","name":"TOWER CITY RETAIL","geo_score":0.857,"zip code":"44113","id":"a66wivr9usxd","geo_precision":"zip"},"type":"Feature","geometry":{"type":"Point","coordinates":[-81.64297,41.473782]}},{"properties":{"city":"CLEVELAND","name":"UNIVERSITY CENTER","geo_score":0.857,"zip code":"44106","id":"a66wivu8fpzt","geo_precision":"zip"},"type":"Feature","geometry":{"type":"Point","coordinates":[-81.602799,41.504751]}},{"properties":{"city":"COLUMBUS","name":"LIVINGSTON","geo_score":0.738,"zip code":"43227","id":"a66wiw04jqzv","geo_precision":"zip"},"type":"Feature","geometry":{"type":"Point","coordinates":[-82.916846,39.917842]}},{"properties":{"city":"AKRON","name":"KENMORE","geo_score":0.735,"zip code":"44314","id":"a66wiw3f9e7o","geo_precision":"zip"},"type":"Feature","geometry":{"type":"Point","coordinates":[-81.560675,41.044778]}},{"properties":{"city":"NORTON","name":"NORTON","geo_score":0.74,"zip code":"44203","id":"a66wivvtylbr","geo_precision":"zip"},"type":"Feature","geometry":{"type":"Point","coordinates":[-81.687905,41.02561]}},{"properties":{"city":"AKRON","name":"SOUTH ARLINGTON","geo_score":0.857,"zip code":"44306","id":"a66wivuz3609","geo_precision":"zip"},"type":"Feature","geometry":{"type":"Point","coordinates":[-81.479986,41.041805]}},{"properties":{"city":"COLUMBUS","name":"CHRISTOPHER COLUMBUS","geo_score":0.857,"zip code":"43215","id":"a66wiw684k5r","geo_precision":"zip"},"type":"Feature","geometry":{"type":"Point","coordinates":[-82.877131,39.891745]}},{"properties":{"city":"IRWIN","name":"IRWIN","geo_score":0.714,"zip code":"43029","id":"a66wiw1gpme8","geo_precision":"zip"},"type":"Feature","geometry":{"type":"Point","coordinates":[-83.454922,40.078116]}},{"properties":{"city":"MAGNETIC SPRINGS","name":"MAGNETIC SPRINGS","geo_score":0.857,"zip code":"43036","id":"a66wiw2ee4ly","geo_precision":"zip"},"type":"Feature","geometry":{"type":"Point","coordinates":[-83.263418,40.352835]}},{"properties":{"city":"COLUMBUS","name":"SOUTH COLUMBUS","geo_score":0.735,"zip code":"43207","id":"a66wivs3wh2t","geo_precision":"zip"},"type":"Feature","geometry":{"type":"Point","coordinates":[-82.94907,39.888953]}},{"properties":{"city":"SOUTH SOLON","name":"SOUTH SOLON","geo_score":0.857,"zip code":"43153","id":"a66wivx1fbdx","geo_precision":"zip"},"type":"Feature","geometry":{"type":"Point","coordinates":[-83.531355,39.748496]}},{"properties":{"city":"UNIONVILLE CENTER","name":"UNIONVILLE CENTER","geo_score":0.857,"zip code":"43077","id":"a66wiw3zueno","geo_precision":"zip"},"type":"Feature","geometry":{"type":"Point","coordinates":[-83.30822,40.124392]}},{"properties":{"city":"COLUMBUS","name":"UNIVERSITY FINANCE","geo_score":0.857,"zip code":"43210","id":"a66wivx16m98","geo_precision":"zip"},"type":"Feature","geometry":{"type":"Point","coordinates":[-82.832558,39.914038]}},{"properties":{"city":"CANTON","name":"NE WATERWORKS","geo_score":0.857,"zip code":"44705","id":"a66wivsl8xht","geo_precision":"zip"},"type":"Feature","geometry":{"type":"Point","coordinates":[-81.330583,40.830092]}},{"properties":{"city":"AKRON","name":"NORTH HILL","geo_score":0.857,"zip code":"44310","id":"a66wiw4n7i79","geo_precision":"zip"},"type":"Feature","geometry":{"type":"Point","coordinates":[-81.498182,41.105505]}},{"properties":{"city":"YOUNGSTOWN","name":"NORTH SIDE","geo_score":0.743,"zip code":"44504","id":"a66wivtfo555","geo_precision":"zip"},"type":"Feature","geometry":{"type":"Point","coordinates":[-80.646742,41.118114]}},{"properties":{"city":"WAYLAND","name":"WAYLAND","geo_score":0.857,"zip code":"44285","id":"a66wiw2pyzar","geo_precision":"zip"},"type":"Feature","geometry":{"type":"Point","coordinates":[-81.070017,41.159706]}},{"properties":{"city":"AUGUSTA","name":"AUGUSTA","geo_score":0.857,"zip code":"44607","id":"a66wivryqjs6","geo_precision":"zip"},"type":"Feature","geometry":{"type":"Point","coordinates":[-81.02187,40.686028]}},{"properties":{"city":"BANNOCK","name":"BANNOCK","geo_score":0.857,"zip code":"43972","id":"a66wiw6gye34","geo_precision":"zip"},"type":"Feature","geometry":{"type":"Point","coordinates":[-80.975639,40.103155]}},{"properties":{"city":"BRINKHAVEN","name":"BRINKHAVEN","geo_score":0.743,"zip code":"43006","id":"a66wivsaw3yz","geo_precision":"zip"},"type":"Feature","geometry":{"type":"Point","coordinates":[-82.19134,40.469198]}},{"properties":{"city":"CARBON HILL","name":"CARBON HILL","geo_score":0.857,"zip code":"43111","id":"a66wivzzq31a","geo_precision":"zip"},"type":"Feature","geometry":{"type":"Point","coordinates":[-82.242899,39.504455]}},{"properties":{"city":"DEERSVILLE","name":"DEERSVILLE","geo_score":0.857,"zip code":"44693","id":"a66wiw6h2z35","geo_precision":"zip"},"type":"Feature","geometry":{"type":"Point","coordinates":[-81.183933,40.294686]}},{"properties":{"city":"FAIRPOINT","name":"FAIRPOINT","geo_score":0.857,"zip code":"43927","id":"a66wivx344ck","geo_precision":"zip"},"type":"Feature","geometry":{"type":"Point","coordinates":[-80.938031,40.12245]}},{"properties":{"city":"GLENCOE","name":"GLENCOE","geo_score":0.857,"zip code":"43928","id":"a66wiw2bqf8q","geo_precision":"zip"},"type":"Feature","geometry":{"type":"Point","coordinates":[-80.899286,40.010896]}},{"properties":{"city":"HAYDENVILLE","name":"HAYDENVILLE","geo_score":0.857,"zip code":"43127","id":"a66wivr9wadg","geo_precision":"zip"},"type":"Feature","geometry":{"type":"Point","coordinates":[-82.328099,39.476564]}},{"properties":{"city":"JACKSONVILLE","name":"JACKSONVILLE","geo_score":0.857,"zip code":"45740","id":"a66wivzlz0h1","geo_precision":"zip"},"type":"Feature","geometry":{"type":"Point","coordinates":[-82.073188,39.461905]}},{"properties":{"city":"LEESVILLE","name":"LEESVILLE","geo_score":0.857,"zip code":"44639","id":"a66wiw2vwwrw","geo_precision":"zip"},"type":"Feature","geometry":{"type":"Point","coordinates":[-81.243498,40.547688]}},{"properties":{"city":"MURRAY CITY","name":"MURRAY CITY","geo_score":0.714,"zip code":"43144","id":"a66wiw5j695f","geo_precision":"zip"},"type":"Feature","geometry":{"type":"Point","coordinates":[-82.170703,39.520903]}},{"properties":{"city":"NEW ATHENS","name":"NEW ATHENS","geo_score":0.857,"zip code":"43981","id":"a66wiw617ynw","geo_precision":"zip"},"type":"Feature","geometry":{"type":"Point","coordinates":[-80.995856,40.183933]}},{"properties":{"city":"PIEDMONT","name":"PIEDMONT","geo_score":0.732,"zip code":"43983","id":"a66wivvhphze","geo_precision":"zip"},"type":"Feature","geometry":{"type":"Point","coordinates":[-81.243719,40.171735]}},{"properties":{"city":"SOMERDALE","name":"SOMERDALE","geo_score":0.857,"zip code":"44678","id":"a66wivxsbmd3","geo_precision":"zip"},"type":"Feature","geometry":{"type":"Point","coordinates":[-81.352352,40.56488]}},{"properties":{"city":"TRINWAY","name":"TRINWAY","geo_score":0.857,"zip code":"43842","id":"a66wivwtg38i","geo_precision":"zip"},"type":"Feature","geometry":{"type":"Point","coordinates":[-81.995016,40.143323]}},{"properties":{"city":"ZALESKI","name":"ZALESKI","geo_score":0.857,"zip code":"45698","id":"a66wivx3xf9q","geo_precision":"zip"},"type":"Feature","geometry":{"type":"Point","coordinates":[-82.397708,39.283031]}},{"properties":{"city":"CHILO","name":"CHILO","geo_score":0.857,"zip code":"45112","id":"a66wivs1x69v","geo_precision":"zip"},"type":"Feature","geometry":{"type":"Point","coordinates":[-84.138221,38.792553]}},{"properties":{"city":"DECATUR","name":"DECATUR","geo_score":0.857,"zip code":"45115","id":"a66wivz01k9f","geo_precision":"zip"},"type":"Feature","geometry":{"type":"Point","coordinates":[-83.699476,38.823707]}},{"properties":{"city":"LYNX","name":"LYNX","geo_score":0.857,"zip code":"45650","id":"a66wiw39z2it","geo_precision":"zip"},"type":"Feature","geometry":{"type":"Point","coordinates":[-83.42617,38.73906]}},{"properties":{"city":"NEVILLE","name":"NEVILLE","geo_score":0.857,"zip code":"45156","id":"a66wiw7ii4ud","geo_precision":"zip"},"type":"Feature","geometry":{"type":"Point","coordinates":[-84.204877,38.815645]}},{"properties":{"city":"RARDEN","name":"RARDEN","geo_score":0.738,"zip code":"45671","id":"a66wivzv6w5t","geo_precision":"zip"},"type":"Feature","geometry":{"type":"Point","coordinates":[-83.233518,38.99896]}},{"properties":{"city":"STOUT","name":"STOUT","geo_score":0.732,"zip code":"45684","id":"a66wiw4rg4pu","geo_precision":"zip"},"type":"Feature","geometry":{"type":"Point","coordinates":[-83.315463,38.71563]}},{"properties":{"city":"LEES CREEK","name":"LEES CREEK","geo_score":0.857,"zip code":"45138","id":"a66wivtpet4o","geo_precision":"zip"},"type":"Feature","geometry":{"type":"Point","coordinates":[-83.647583,39.416747]}},{"properties":{"city":"DAYTON","name":"PAUL LAURENCE DUNBAR","geo_score":0.857,"zip code":"45417","id":"a66wivsthfzv","geo_precision":"zip"},"type":"Feature","geometry":{"type":"Point","coordinates":[-84.245841,39.75344]}},{"properties":{"city":"REESVILLE","name":"REESVILLE","geo_score":0.857,"zip code":"45166","id":"a66wiw0pj3sn","geo_precision":"zip"},"type":"Feature","geometry":{"type":"Point","coordinates":[-83.677197,39.480543]}},{"properties":{"city":"DAYTON","name":"TROTWOOD","geo_score":0.768,"zip code":"45426","id":"a66wiw3xqryf","geo_precision":"zip"},"type":"Feature","geometry":{"type":"Point","coordinates":[-84.311611,39.78089]}},{"properties":{"city":"DAYTON","name":"VETERANS ADMIN FINANCE","geo_score":0.857,"zip code":"45428","id":"a66wivtvah4w","geo_precision":"zip"},"type":"Feature","geometry":{"type":"Point","coordinates":[-84.259292,39.746656]}},{"properties":{"city":"BENTON RIDGE","name":"BENTON RIDGE","geo_score":0.857,"zip code":"45816","id":"a66wiw579ubw","geo_precision":"zip"},"type":"Feature","geometry":{"type":"Point","coordinates":[-83.793147,41.003087]}},{"properties":{"city":"CABLE","name":"CABLE","geo_score":0.743,"zip code":"43009","id":"a66wivyeeszz","geo_precision":"zip"},"type":"Feature","geometry":{"type":"Point","coordinates":[-83.619095,40.191724]}},{"properties":{"city":"DOLA","name":"DOLA","geo_score":0.857,"zip code":"45835","id":"a66wiw644snm","geo_precision":"zip"},"type":"Feature","geometry":{"type":"Point","coordinates":[-83.702404,40.761389]}},{"properties":{"city":"LEWISTOWN","name":"LEWISTOWN","geo_score":0.727,"zip code":"43333","id":"a66wiw2zyqvm","geo_precision":"zip"},"type":"Feature","geometry":{"type":"Point","coordinates":[-83.945495,40.417272]}},{"properties":{"city":"MC GUFFEY","name":"MC GUFFEY","geo_score":0.857,"zip code":"45859","id":"a66wivv3cxp5","geo_precision":"zip"},"type":"Feature","geometry":{"type":"Point","coordinates":[-83.811072,40.689897]}},{"properties":{"city":"MOUNT CORY","name":"MOUNT CORY","geo_score":0.857,"zip code":"45868","id":"a66wiw48r6jq","geo_precision":"zip"},"type":"Feature","geometry":{"type":"Point","coordinates":[-83.842293,40.970761]}},{"properties":{"city":"NEW BLOOMINGTON","name":"NEW BLOOMINGTON","geo_score":0.857,"zip code":"43341","id":"a66wiw15fs59","geo_precision":"zip"},"type":"Feature","geometry":{"type":"Point","coordinates":[-83.308663,40.599228]}},{"properties":{"city":"NEW HAMPSHIRE","name":"NEW HAMPSHIRE","geo_score":0.857,"zip code":"45870","id":"a66wivuxttap","geo_precision":"zip"},"type":"Feature","geometry":{"type":"Point","coordinates":[-83.950093,40.549772]}},{"properties":{"city":"PEMBERTON","name":"PEMBERTON","geo_score":0.857,"zip code":"45353","id":"a66wiw36vf3u","geo_precision":"zip"},"type":"Feature","geometry":{"type":"Point","coordinates":[-84.032272,40.29522]}},{"properties":{"city":"SAINT JOHNS","name":"SAINT JOHNS","geo_score":0.743,"zip code":"45884","id":"a66wiw0rqy0x","geo_precision":"zip"},"type":"Feature","geometry":{"type":"Point","coordinates":[-84.043833,40.519493]}},{"properties":{"city":"BURGOON","name":"BURGOON","geo_score":0.857,"zip code":"43407","id":"a66wivsswtol","geo_precision":"zip"},"type":"Feature","geometry":{"type":"Point","coordinates":[-83.244604,41.278621]}},{"properties":{"city":"CHATFIELD","name":"CHATFIELD","geo_score":0.857,"zip code":"44825","id":"a66wivr7yunm","geo_precision":"zip"},"type":"Feature","geometry":{"type":"Point","coordinates":[-82.936698,40.965022]}},{"properties":{"city":"COLTON","name":"COLTON","geo_score":0.857,"zip code":"43510","id":"a66wiw70uj28","geo_precision":"zip"},"type":"Feature","geometry":{"type":"Point","coordinates":[-84.013674,41.419878]}},{"properties":{"city":"ELGIN","name":"ELGIN","geo_score":0.857,"zip code":"45838","id":"a66wivun96jp","geo_precision":"zip"},"type":"Feature","geometry":{"type":"Point","coordinates":[-84.485028,40.735491]}},{"properties":{"city":"FARMER","name":"FARMER","geo_score":0.857,"zip code":"43520","id":"a66wiw0xceu6","geo_precision":"zip"},"type":"Feature","geometry":{"type":"Point","coordinates":[-84.631322,41.39066]}},{"properties":{"city":"FLAT ROCK","name":"FLAT ROCK","geo_score":0.857,"zip code":"44828","id":"a66wiw0dxyu1","geo_precision":"zip"},"type":"Feature","geometry":{"type":"Point","coordinates":[-82.859705,41.23707]}},{"properties":{"city":"HARPSTER","name":"HARPSTER","geo_score":0.724,"zip code":"43323","id":"a66wivromjlr","geo_precision":"zip"},"type":"Feature","geometry":{"type":"Point","coordinates":[-83.215195,40.738668]}},{"properties":{"city":"HAVILAND","name":"HAVILAND","geo_score":0.732,"zip code":"45851","id":"a66wiw5veqv1","geo_precision":"zip"},"type":"Feature","geometry":{"type":"Point","coordinates":[-84.669679,41.019216]}},{"properties":{"city":"HOYTVILLE","name":"HOYTVILLE","geo_score":0.857,"zip code":"43529","id":"a66wiw6u6lgn","geo_precision":"zip"},"type":"Feature","geometry":{"type":"Point","coordinates":[-83.784704,41.187234]}},{"properties":{"city":"KUNKLE","name":"KUNKLE","geo_score":0.857,"zip code":"43531","id":"a66wivzxl5wf","geo_precision":"zip"},"type":"Feature","geometry":{"type":"Point","coordinates":[-84.502598,41.634007]}},{"properties":{"city":"LATTY","name":"LATTY","geo_score":0.73,"zip code":"45855","id":"a66wiw2q4dau","geo_precision":"zip"},"type":"Feature","geometry":{"type":"Point","coordinates":[-84.535229,41.089771]}},{"properties":{"city":"MARK CENTER","name":"MARK CENTER","geo_score":0.857,"zip code":"43536","id":"a66wivub9yen","geo_precision":"zip"},"type":"Feature","geometry":{"type":"Point","coordinates":[-84.640393,41.31085]}},{"properties":{"city":"SCOTT","name":"SCOTT","geo_score":0.746,"zip code":"45886","id":"a66wivu9ihrj","geo_precision":"zip"},"type":"Feature","geometry":{"type":"Point","coordinates":[-84.51662,40.407547]}},{"properties":{"city":"SULPHUR SPRINGS","name":"SULPHUR SPRINGS","geo_score":0.857,"zip code":"44881","id":"a66wiw4u6src","geo_precision":"zip"},"type":"Feature","geometry":{"type":"Point","coordinates":[-82.875027,40.868645]}},{"properties":{"city":"WEST MILLGROVE","name":"WEST MILLGROVE","geo_score":0.857,"zip code":"43467","id":"a66wiw5nzjk1","geo_precision":"zip"},"type":"Feature","geometry":{"type":"Point","coordinates":[-83.489583,41.24264]}},{"properties":{"city":"WREN","name":"WREN","geo_score":0.857,"zip code":"45899","id":"a66wivsfo4ge","geo_precision":"zip"},"type":"Feature","geometry":{"type":"Point","coordinates":[-84.785735,40.794002]}},{"properties":{"city":"ALLEDONIA","name":"ALLEDONIA","geo_score":0.857,"zip code":"43902","id":"a66wivvnw1r3","geo_precision":"zip"},"type":"Feature","geometry":{"type":"Point","coordinates":[-80.980056,39.894917]}},{"properties":{"city":"AVA","name":"AVA","geo_score":0.857,"zip code":"43711","id":"a66wiw76faye","geo_precision":"zip"},"type":"Feature","geometry":{"type":"Point","coordinates":[-81.554854,39.827556]}},{"properties":{"city":"BARTON","name":"BARTON","geo_score":0.857,"zip code":"43905","id":"a66wiw3ej2tb","geo_precision":"zip"},"type":"Feature","geometry":{"type":"Point","coordinates":[-80.84441,40.107367]}},{"properties":{"city":"BLAINE","name":"BLAINE","geo_score":0.857,"zip code":"43909","id":"a66wivxt7pz8","geo_precision":"zip"},"type":"Feature","geometry":{"type":"Point","coordinates":[-80.817605,40.070102]}},{"properties":{"city":"EAST LIVERPOOL","name":"CALCUTTA","geo_score":0.747,"zip code":"43920","id":"a66wiw4ui148","geo_precision":"zip"},"type":"Feature","geometry":{"type":"Point","coordinates":[-80.597849,40.645897]}},{"properties":{"city":"CAMERON","name":"CAMERON","geo_score":0.857,"zip code":"43914","id":"a66wivrryv4w","geo_precision":"zip"},"type":"Feature","geometry":{"type":"Point","coordinates":[-80.945431,39.768729]}},{"properties":{"city":"CUTLER","name":"CUTLER","geo_score":0.786,"zip code":"45724","id":"a66wiw53gxdl","geo_precision":"zip"},"type":"Feature","geometry":{"type":"Point","coordinates":[-81.758466,39.354797]}},{"properties":{"city":"EMPIRE","name":"EMPIRE","geo_score":0.857,"zip code":"43926","id":"a66wivyjpuq3","geo_precision":"zip"},"type":"Feature","geometry":{"type":"Point","coordinates":[-80.624051,40.509225]}},{"properties":{"city":"HAVERHILL","name":"HAVERHILL","geo_score":0.857,"zip code":"45636","id":"a66wivvockng","geo_precision":"zip"},"type":"Feature","geometry":{"type":"Point","coordinates":[-82.828817,38.592446]}},{"properties":{"city":"LAFFERTY","name":"LAFFERTY","geo_score":0.857,"zip code":"43951","id":"a66wiw4izczz","geo_precision":"zip"},"type":"Feature","geometry":{"type":"Point","coordinates":[-81.010169,40.11098]}},{"properties":{"city":"LONG BOTTOM","name":"LONG BOTTOM","geo_score":0.743,"zip code":"45743","id":"a66wivwbovjh","geo_precision":"zip"},"type":"Feature","geometry":{"type":"Point","coordinates":[-81.863191,39.098133]}},{"properties":{"city":"PORTLAND","name":"PORTLAND","geo_score":0.732,"zip code":"45770","id":"a66wivzpjsi0","geo_precision":"zip"},"type":"Feature","geometry":{"type":"Point","coordinates":[-81.839856,38.993691]}},{"properties":{"city":"ROCK CAMP","name":"ROCK CAMP","geo_score":0.857,"zip code":"45675","id":"a66wiw5j0amr","geo_precision":"zip"},"type":"Feature","geometry":{"type":"Point","coordinates":[-82.532715,38.536685]}},{"properties":{"city":"SCIOTO FURNACE","name":"SCIOTO FURNACE","geo_score":0.857,"zip code":"45677","id":"a66wivzdpurx","geo_precision":"zip"},"type":"Feature","geometry":{"type":"Point","coordinates":[-82.755455,38.794115]}},{"properties":{"city":"SCOTTOWN","name":"SCOTTOWN","geo_score":0.714,"zip code":"45678","id":"a66wivyxvkvo","geo_precision":"zip"},"type":"Feature","geometry":{"type":"Point","coordinates":[-82.405432,38.61647]}},{"properties":{"city":"STEWART","name":"STEWART","geo_score":0.743,"zip code":"45778","id":"a66wiw4lgm44","geo_precision":"zip"},"type":"Feature","geometry":{"type":"Point","coordinates":[-81.940972,39.333963]}},{"properties":{"city":"SUMMITVILLE","name":"SUMMITVILLE","geo_score":0.857,"zip code":"43962","id":"a66wiw6ifmkb","geo_precision":"zip"},"type":"Feature","geometry":{"type":"Point","coordinates":[-80.881583,40.679456]}},{"properties":{"city":"WARNOCK","name":"WARNOCK","geo_score":0.857,"zip code":"43967","id":"a66wivw3jcai","geo_precision":"zip"},"type":"Feature","geometry":{"type":"Point","coordinates":[-80.916901,40.020007]}},{"properties":{"city":"WATERLOO","name":"WATERLOO","geo_score":0.73,"zip code":"45688","id":"a66wivw1bikj","geo_precision":"zip"},"type":"Feature","geometry":{"type":"Point","coordinates":[-82.520714,38.692579]}},{"properties":{"city":"WILLOW WOOD","name":"WILLOW WOOD","geo_score":0.757,"zip code":"45696","id":"a66wiw3ig580","geo_precision":"zip"},"type":"Feature","geometry":{"type":"Point","coordinates":[-82.457378,38.621747]}},{"properties":{"city":"WOLF RUN","name":"WOLF RUN","geo_score":0.857,"zip code":"43970","id":"a66wiw6jdsit","geo_precision":"zip"},"type":"Feature","geometry":{"type":"Point","coordinates":[-80.889206,40.46947]}},{"properties":{"city":"BOWERSVILLE","name":"BOWERSVILLE","geo_score":0.857,"zip code":"45307","id":"a66wiw28tkb8","geo_precision":"zip"},"type":"Feature","geometry":{"type":"Point","coordinates":[-83.715323,39.575597]}},{"properties":{"city":"MILLEDGEVILLE","name":"MILLEDGEVILLE","geo_score":0.857,"zip code":"43142","id":"a66wivszce8b","geo_precision":"zip"},"type":"Feature","geometry":{"type":"Point","coordinates":[-83.583292,39.588319]}},{"properties":{"city":"THURSTON","name":"THURSTON","geo_score":0.857,"zip code":"43157","id":"a66wiw55sc3m","geo_precision":"zip"},"type":"Feature","geometry":{"type":"Point","coordinates":[-82.560131,39.842263]}},{"properties":{"city":"COLUMBUS","name":"WHITEHALL","geo_score":0.725,"zip code":"43213","id":"a66wiw75yup5","geo_precision":"zip"},"type":"Feature","geometry":{"type":"Point","coordinates":[-82.842954,39.987842]}},{"properties":{"city":"COLUMBUS","name":"WHITEHALL FINANCE UNIT","geo_score":0.725,"zip code":"43213","id":"a66wiw3by9e1","geo_precision":"zip"},"type":"Feature","geometry":{"type":"Point","coordinates":[-82.842954,39.987842]}},{"properties":{"city":"DAYTON","name":"WPAFB UNIT 3","geo_score":0.735,"zip code":"45433","id":"a66wiw2wwh8k","geo_precision":"zip"},"type":"Feature","geometry":{"type":"Point","coordinates":[-84.057308,39.811129]}},{"properties":{"city":"DAYTON","name":"WRIGHT PATTERSON","geo_score":0.735,"zip code":"45433","id":"a66wivtyss0y","geo_precision":"zip"},"type":"Feature","geometry":{"type":"Point","coordinates":[-84.057308,39.811129]}},{"properties":{"city":"DAYTON","name":"NORTH DAYTON","geo_score":0.732,"zip code":"45404","id":"a66wiw5gy9i4","geo_precision":"zip"},"type":"Feature","geometry":{"type":"Point","coordinates":[-84.142994,39.793392]}},{"properties":{"city":"PALESTINE","name":"PALESTINE","geo_score":0.857,"zip code":"45352","id":"a66wivylc466","geo_precision":"zip"},"type":"Feature","geometry":{"type":"Point","coordinates":[-84.745706,40.050323]}},{"properties":{"city":"POTSDAM","name":"POTSDAM","geo_score":0.857,"zip code":"45361","id":"a66wivxl5mhf","geo_precision":"zip"},"type":"Feature","geometry":{"type":"Point","coordinates":[-84.414484,39.963492]}},{"properties":{"city":"CLAY CENTER","name":"CLAY CENTER","geo_score":0.857,"zip code":"43408","id":"a66wivtv26qs","geo_precision":"zip"},"type":"Feature","geometry":{"type":"Point","coordinates":[-83.363224,41.568599]}},{"properties":{"city":"ISLE SAINT GEORGE","name":"ISLE SAINT GEORGE","geo_score":0.857,"zip code":"43436","id":"a66wiw4ng44g","geo_precision":"zip"},"type":"Feature","geometry":{"type":"Point","coordinates":[-82.822697,41.715332]}},{"properties":{"city":"TOLEDO","name":"MANHATTAN","geo_score":0.857,"zip code":"43608","id":"a66wiw6krow8","geo_precision":"zip"},"type":"Feature","geometry":{"type":"Point","coordinates":[-83.531983,41.681648]}},{"properties":{"city":"TOLEDO","name":"MIDTOWN TOLEDO","geo_score":0.857,"zip code":"43607","id":"a66wiw232bqc","geo_precision":"zip"},"type":"Feature","geometry":{"type":"Point","coordinates":[-83.606785,41.647399]}},{"properties":{"city":"TOLEDO","name":"OLD WEST END STATION","geo_score":0.857,"zip code":"43620","id":"a66wiw22g2g2","geo_precision":"zip"},"type":"Feature","geometry":{"type":"Point","coordinates":[-83.553933,41.664849]}},{"properties":{"city":"TOLEDO","name":"POINT PLACE STATION","geo_score":0.743,"zip code":"43611","id":"a66wivundjrp","geo_precision":"zip"},"type":"Feature","geometry":{"type":"Point","coordinates":[-83.479378,41.718937]}},{"properties":{"city":"ROCKY RIDGE","name":"ROCKY RIDGE","geo_score":0.857,"zip code":"43458","id":"a66wivtugmd6","geo_precision":"zip"},"type":"Feature","geometry":{"type":"Point","coordinates":[-83.21276,41.530157]}},{"properties":{"city":"TOLEDO","name":"STA A","geo_score":0.857,"zip code":"43605","id":"a66wivs2cv66","geo_precision":"zip"},"type":"Feature","geometry":{"type":"Point","coordinates":[-83.508482,41.652548]}}],"is_temporal":false,"author":{"url":"","metadata":"","contact_name":"","contact_address":"","source":"","contact_phone":""},"source":"","pagination":{"sort":null,"start":0,"total":120,"limit":1000000},"state":"complete","tags":"","published":"2011-07-26T16:00:00Z","id":138827}