{"type":"FeatureCollection","data_type":"Dataset","url_type":null,"permissions":[{"permissions":{"download":true,"view":true},"group_id":"everyone"}],"classification":null,"title":"Saudi Arabia Events","count":290,"stream_id":139455,"contributor":{"url":"http://geocommons.com/users/25224","name":"mfain"},"data_attributes":null,"calculation_params":null,"icon_link":null,"link":"http://geocommons.com/overlays/139455.json","extent":[36.5731,16.8892,50.2083,30.985],"geometry_types":["point"],"unique_name":null,"name":"Saudi Arabia Events","feature_count":290,"description":"This map presents the events that occurred in Saudi Arabia. ","next_feature":null,"is_raster":false,"short_classification":"Y","stats":{"cdeaths":{"max":40,"variance":24.1955882352941,"mean":1.06617647058824,"stdev":4.91890112070715,"min":0,"median":0},"date":{"max":"2011/06/07 00:00:00 -0400","variance":4.95081311661915e+15,"mean":"2005/05/29 22:21:27 -0400","stdev":70362014.7282548,"min":"1995/11/13 00:00:00 -0500","median":"2005/03/21 00:00:00 -0500"},"cinjuries":{"max":275,"variance":1201.46213377557,"mean":6.74074074074074,"stdev":34.6621138099737,"min":0,"median":0},"gdeaths":{"max":19,"variance":2.9683036179752,"mean":0.410071942446043,"stdev":1.72287655331866,"min":0,"median":0},"deaths":{"max":352,"variance":886.564463705309,"mean":4.92307692307692,"stdev":29.7752323870916,"min":0,"median":0},"ginjuries":{"max":240,"variance":422.338342636323,"mean":2.62773722627737,"stdev":20.5508720651052,"min":0,"median":0},"injuries":{"max":515,"variance":2521.71866074263,"mean":9.41304347826087,"stdev":50.2167169450835,"min":0,"median":0}},"features":[{"properties":{"targettype2":"other","city":"Unknown","cdeaths":17,"region":"Middle East","itype":"Armed Assault","date":{"end_time":"2003/11/08 00:01:00 -0500","original":"11/8/2003 0:00","granularity":"min","time":"2003/11/08 00:00:00 -0500"},"targettype":"Individual","country":"Saudi Arabia","cinjuries":120,"gdeaths":0,"targetstatus":"OTHER","id":"0","deaths":17,"group":"Al Qaeda Organization in the Arabian Peninsula (AQAP) - Saudi Arabia/Yemen","ginjuries":0,"injuries":120,"state":"Unknown"},"type":"Feature","geometry":null},{"properties":{"targettype2":"media/journalist/tv","city":"Riyadh","cdeaths":1,"region":"Middle East","itype":"Armed Assault","date":{"end_time":"2004/06/06 00:01:00 -0400","original":"6/6/2004 0:00","granularity":"min","time":"2004/06/06 00:00:00 -0400"},"targettype":"Individual","country":"Saudi Arabia","cinjuries":1,"gdeaths":null,"targetstatus":"OTHER","id":"1","deaths":1,"group":"Al Qaeda Organization in the Arabian Peninsula (AQAP) - Saudi Arabia/Yemen","ginjuries":null,"injuries":1,"state":"Ar Riyad (Riyadh)"},"type":"Feature","geometry":{"type":"Point","coordinates":[46.7728,24.6408]}},{"properties":{"targettype2":"military personnel","city":"Riyadh","cdeaths":0,"region":"Middle East","itype":"Armed Assault","date":{"end_time":"2004/06/02 00:01:00 -0400","original":"6/2/2004 0:00","granularity":"min","time":"2004/06/02 00:00:00 -0400"},"targettype":"Individual","country":"Saudi Arabia","cinjuries":0,"gdeaths":0,"targetstatus":"MILITARY","id":"2","deaths":0,"group":"Al Qaeda Organization in the Arabian Peninsula (AQAP) - Saudi Arabia/Yemen","ginjuries":1,"injuries":1,"state":"Ar Riyad (Riyadh)"},"type":"Feature","geometry":{"type":"Point","coordinates":[46.7728,24.6408]}},{"properties":{"targettype2":"other","city":"Jeddah","cdeaths":1,"region":"Middle East","itype":"Armed Assault","date":{"end_time":"2004/09/01 00:01:00 -0400","original":"9/1/2004 0:00","granularity":"min","time":"2004/09/01 00:00:00 -0400"},"targettype":"Individual","country":"Saudi Arabia","cinjuries":null,"gdeaths":0,"targetstatus":"OTHER","id":"3","deaths":1,"group":"Al Qaeda Organization in the Arabian Peninsula (AQAP) - Saudi Arabia/Yemen","ginjuries":null,"injuries":null,"state":"Mekkah"},"type":"Feature","geometry":{"type":"Point","coordinates":[39.2192,21.5169]}},{"properties":{"targettype2":"military personnel","city":"Riyadh","cdeaths":0,"region":"Middle East","itype":"Armed Assault","date":{"end_time":"2005/04/04 00:01:00 -0400","original":"4/4/2005 0:00","granularity":"min","time":"2005/04/04 00:00:00 -0400"},"targettype":"Individual","country":"Saudi Arabia","cinjuries":0,"gdeaths":0,"targetstatus":"MILITARY","id":"4","deaths":8,"group":"Al Qaeda Organization in the Arabian Peninsula (AQAP) - Saudi Arabia/Yemen","ginjuries":0,"injuries":1,"state":"Ar Riyad (Riyadh)"},"type":"Feature","geometry":{"type":"Point","coordinates":[46.7728,24.6408]}},{"properties":{"targettype2":"law enforcement personnel","city":"Al Baradah","cdeaths":0,"region":"Middle East","itype":"Armed Assault","date":{"end_time":"2004/11/03 00:01:00 -0500","original":"11/3/2004 0:00","granularity":"min","time":"2004/11/03 00:00:00 -0500"},"targettype":"Individual","country":"Saudi Arabia","cinjuries":0,"gdeaths":0,"targetstatus":"LAW ENFORCEMENT /PUBLIC SECURITY","id":"5","deaths":0,"group":"Al Qaeda Organization in the Arabian Peninsula (AQAP) - Saudi Arabia/Yemen","ginjuries":2,"injuries":2,"state":"Al Qasim"},"type":"Feature","geometry":{"type":"Point","coordinates":[39.6061,24.0439]}},{"properties":{"targettype2":"other","city":"Yanbu","cdeaths":6,"region":"Middle East","itype":"Armed Assault","date":{"end_time":"2004/05/01 00:01:00 -0400","original":"5/1/2004 0:00","granularity":"min","time":"2004/05/01 00:00:00 -0400"},"targettype":"Individual","country":"Saudi Arabia","cinjuries":25,"gdeaths":1,"targetstatus":"OTHER","id":"6","deaths":11,"group":"Al Qaeda Organization in the Arabian Peninsula (AQAP) - Saudi Arabia/Yemen","ginjuries":0,"injuries":25,"state":"Al Madinah"},"type":"Feature","geometry":{"type":"Point","coordinates":[38.0486,24.0853]}},{"properties":{"targettype2":"government/politician","city":"Jeddah","cdeaths":0,"region":"Middle East","itype":"Armed Assault","date":{"end_time":"2004/12/06 00:01:00 -0500","original":"12/6/2004 0:00","granularity":"min","time":"2004/12/06 00:00:00 -0500"},"targettype":"Building","country":"Saudi Arabia","cinjuries":0,"gdeaths":4,"targetstatus":"DIPLOMATIC/GOVERNMENT","id":"7","deaths":4,"group":"Al Qaeda Organization in the Arabian Peninsula (AQAP) - Saudi Arabia/Yemen","ginjuries":2,"injuries":2,"state":"Mekkah"},"type":"Feature","geometry":{"type":"Point","coordinates":[39.2192,21.5169]}},{"properties":{"targettype2":"commercial/business","city":"Khobar","cdeaths":22,"region":"Middle East","itype":"Armed Assault","date":{"end_time":"2004/05/29 00:01:00 -0400","original":"5/29/2004 0:00","granularity":"min","time":"2004/05/29 00:00:00 -0400"},"targettype":"Building","country":"Saudi Arabia","cinjuries":0,"gdeaths":0,"targetstatus":"OTHER","id":"8","deaths":22,"group":"Al Qaeda Organization in the Arabian Peninsula (AQAP) - Saudi Arabia/Yemen","ginjuries":0,"injuries":1,"state":"Ash Sharqiyah"},"type":"Feature","geometry":{"type":"Point","coordinates":[50.2083,26.2794]}},{"properties":{"targettype2":"other","city":"Riyadh","cdeaths":1,"region":"Middle East","itype":"Armed Assault","date":{"end_time":"2004/06/12 00:01:00 -0400","original":"6/12/2004 0:00","granularity":"min","time":"2004/06/12 00:00:00 -0400"},"targettype":"Individual","country":"Saudi Arabia","cinjuries":0,"gdeaths":0,"targetstatus":"OTHER","id":"9","deaths":1,"group":"Al Qaeda Organization in the Arabian Peninsula (AQAP) - Saudi Arabia/Yemen","ginjuries":0,"injuries":0,"state":"Ar Riyad (Riyadh)"},"type":"Feature","geometry":{"type":"Point","coordinates":[46.7728,24.6408]}},{"properties":{"targettype2":"law enforcement personnel","city":"Jeddah","cdeaths":0,"region":"Middle East","itype":"Armed Assault","date":{"end_time":"2007/04/14 00:01:00 -0400","original":"4/14/2007 0:00","granularity":"min","time":"2007/04/14 00:00:00 -0400"},"targettype":"Individual","country":"Saudi Arabia","cinjuries":0,"gdeaths":0,"targetstatus":"LAW ENFORCEMENT /PUBLIC SECURITY","id":"10","deaths":0,"group":null,"ginjuries":0,"injuries":0,"state":"Mekkah"},"type":"Feature","geometry":{"type":"Point","coordinates":[39.2192,21.5169]}},{"properties":{"targettype2":"military personnel","city":"Saqqam","cdeaths":null,"region":"Middle East","itype":"Armed Assault","date":{"end_time":"2005/05/24 00:01:00 -0400","original":"5/24/2005 0:00","granularity":"min","time":"2005/05/24 00:00:00 -0400"},"targettype":"Individual","country":"Saudi Arabia","cinjuries":null,"gdeaths":null,"targetstatus":"MILITARY","id":"11","deaths":null,"group":null,"ginjuries":null,"injuries":null,"state":"Najran"},"type":"Feature","geometry":{"type":"Point","coordinates":[43.117802,24.74262]}},{"properties":{"targettype2":"law enforcement personnel","city":"Riyadh","cdeaths":null,"region":"Middle East","itype":"Armed Assault","date":{"end_time":"2005/06/01 00:01:00 -0400","original":"6/1/2005 0:00","granularity":"min","time":"2005/06/01 00:00:00 -0400"},"targettype":"Individual","country":"Saudi Arabia","cinjuries":0,"gdeaths":null,"targetstatus":"LAW ENFORCEMENT /PUBLIC SECURITY","id":"12","deaths":null,"group":null,"ginjuries":2,"injuries":2,"state":"Ar Riyad (Riyadh)"},"type":"Feature","geometry":{"type":"Point","coordinates":[46.7728,24.6408]}},{"properties":{"targettype2":"other","city":"Jeddah","cdeaths":null,"region":"Middle East","itype":"Armed Assault","date":{"end_time":"2004/08/30 00:01:00 -0400","original":"8/30/2004 0:00","granularity":"min","time":"2004/08/30 00:00:00 -0400"},"targettype":"Individual","country":"Saudi Arabia","cinjuries":null,"gdeaths":null,"targetstatus":"OTHER","id":"13","deaths":null,"group":null,"ginjuries":null,"injuries":null,"state":"Mekkah"},"type":"Feature","geometry":{"type":"Point","coordinates":[39.2192,21.5169]}},{"properties":{"targettype2":"law enforcement personnel","city":"Al Baradah","cdeaths":null,"region":"Middle East","itype":"Armed Assault","date":{"end_time":"2004/09/02 00:01:00 -0400","original":"9/2/2004 0:00","granularity":"min","time":"2004/09/02 00:00:00 -0400"},"targettype":"Individual","country":"Saudi Arabia","cinjuries":null,"gdeaths":1,"targetstatus":"LAW ENFORCEMENT /PUBLIC SECURITY","id":"14","deaths":1,"group":null,"ginjuries":3,"injuries":3,"state":"Al Qasim"},"type":"Feature","geometry":{"type":"Point","coordinates":[39.6061,24.0439]}},{"properties":{"targettype2":"law enforcement personnel","city":"Riyadh","cdeaths":null,"region":"Middle East","itype":"Armed Assault","date":{"end_time":"2004/03/15 00:01:00 -0500","original":"3/15/2004 0:00","granularity":"min","time":"2004/03/15 00:00:00 -0500"},"targettype":"Individual","country":"Saudi Arabia","cinjuries":null,"gdeaths":null,"targetstatus":"LAW ENFORCEMENT /PUBLIC SECURITY","id":"15","deaths":null,"group":null,"ginjuries":null,"injuries":null,"state":"Ar Riyad (Riyadh)"},"type":"Feature","geometry":{"type":"Point","coordinates":[46.7728,24.6408]}},{"properties":{"targettype2":"law enforcement personnel","city":"Mecca","cdeaths":0,"region":"Middle East","itype":"Armed Assault","date":{"end_time":"2005/06/18 00:01:00 -0400","original":"6/18/2005 0:00","granularity":"min","time":"2005/06/18 00:00:00 -0400"},"targettype":"Individual","country":"Saudi Arabia","cinjuries":null,"gdeaths":1,"targetstatus":"LAW ENFORCEMENT /PUBLIC SECURITY","id":"16","deaths":1,"group":null,"ginjuries":null,"injuries":null,"state":"Mekkah"},"type":"Feature","geometry":{"type":"Point","coordinates":[39.8378,21.4256]}},{"properties":{"targettype2":"law enforcement personnel","city":"Riyadh","cdeaths":0,"region":"Middle East","itype":"Armed Assault","date":{"end_time":"2004/05/31 00:01:00 -0400","original":"5/31/2004 0:00","granularity":"min","time":"2004/05/31 00:00:00 -0400"},"targettype":"Individual","country":"Saudi Arabia","cinjuries":0,"gdeaths":1,"targetstatus":"LAW ENFORCEMENT /PUBLIC SECURITY","id":"17","deaths":1,"group":null,"ginjuries":1,"injuries":1,"state":"Ar Riyad (Riyadh)"},"type":"Feature","geometry":{"type":"Point","coordinates":[46.7728,24.6408]}},{"properties":{"targettype2":"law enforcement personnel","city":"Al Baradah","cdeaths":0,"region":"Middle East","itype":"Armed Assault","date":{"end_time":"2004/09/06 00:01:00 -0400","original":"9/6/2004 0:00","granularity":"min","time":"2004/09/06 00:00:00 -0400"},"targettype":"Individual","country":"Saudi Arabia","cinjuries":null,"gdeaths":3,"targetstatus":"LAW ENFORCEMENT /PUBLIC SECURITY","id":"18","deaths":3,"group":null,"ginjuries":null,"injuries":null,"state":"Al Qasim"},"type":"Feature","geometry":{"type":"Point","coordinates":[39.6061,24.0439]}},{"properties":{"targettype2":"law enforcement personnel","city":"Riyadh","cdeaths":0,"region":"Middle East","itype":"Armed Assault","date":{"end_time":"2004/04/12 00:01:00 -0400","original":"4/12/2004 0:00","granularity":"min","time":"2004/04/12 00:00:00 -0400"},"targettype":"Individual","country":"Saudi Arabia","cinjuries":0,"gdeaths":1,"targetstatus":"LAW ENFORCEMENT /PUBLIC SECURITY","id":"19","deaths":2,"group":null,"ginjuries":4,"injuries":4,"state":"Ar Riyad (Riyadh)"},"type":"Feature","geometry":{"type":"Point","coordinates":[46.7728,24.6408]}},{"properties":{"targettype2":"military personnel","city":"Jeddah","cdeaths":null,"region":"Middle East","itype":"Armed Assault","date":{"end_time":"2004/11/09 00:01:00 -0500","original":"11/9/2004 0:00","granularity":"min","time":"2004/11/09 00:00:00 -0500"},"targettype":"Individual","country":"Saudi Arabia","cinjuries":0,"gdeaths":null,"targetstatus":"MILITARY","id":"20","deaths":null,"group":null,"ginjuries":2,"injuries":2,"state":"Mekkah"},"type":"Feature","geometry":{"type":"Point","coordinates":[39.2192,21.5169]}},{"properties":{"targettype2":"law enforcement personnel","city":"Unknown","cdeaths":null,"region":"Middle East","itype":"Armed Assault","date":{"end_time":"2003/06/28 00:01:00 -0400","original":"6/28/2003 0:00","granularity":"min","time":"2003/06/28 00:00:00 -0400"},"targettype":"Individual","country":"Saudi Arabia","cinjuries":0,"gdeaths":null,"targetstatus":"LAW ENFORCEMENT /PUBLIC SECURITY","id":"21","deaths":null,"group":null,"ginjuries":1,"injuries":1,"state":"Unknown"},"type":"Feature","geometry":null},{"properties":{"targettype2":"military personnel","city":"Riyadh","cdeaths":0,"region":"Middle East","itype":"Armed Assault","date":{"end_time":"2004/10/12 00:01:00 -0400","original":"10/12/2004 0:00","granularity":"min","time":"2004/10/12 00:00:00 -0400"},"targettype":"Individual","country":"Saudi Arabia","cinjuries":null,"gdeaths":0,"targetstatus":"MILITARY","id":"22","deaths":0,"group":null,"ginjuries":null,"injuries":null,"state":"Ar Riyad (Riyadh)"},"type":"Feature","geometry":{"type":"Point","coordinates":[46.7728,24.6408]}},{"properties":{"targettype2":"law enforcement personnel","city":"Unknown","cdeaths":null,"region":"Middle East","itype":"Armed Assault","date":{"end_time":"2008/03/06 00:01:00 -0500","original":"3/6/2008 0:00","granularity":"min","time":"2008/03/06 00:00:00 -0500"},"targettype":"Individual","country":"Saudi Arabia","cinjuries":null,"gdeaths":null,"targetstatus":"LAW ENFORCEMENT /PUBLIC SECURITY","id":"23","deaths":null,"group":null,"ginjuries":null,"injuries":null,"state":"Najran"},"type":"Feature","geometry":null},{"properties":{"targettype2":"military personnel","city":"Riyadh","cdeaths":null,"region":"Middle East","itype":"Armed Assault","date":{"end_time":"2004/06/02 00:01:00 -0400","original":"6/2/2004 0:00","granularity":"min","time":"2004/06/02 00:00:00 -0400"},"targettype":"Individual","country":"Saudi Arabia","cinjuries":null,"gdeaths":null,"targetstatus":"MILITARY","id":"24","deaths":null,"group":null,"ginjuries":null,"injuries":null,"state":"Ar Riyad (Riyadh)"},"type":"Feature","geometry":{"type":"Point","coordinates":[46.7728,24.6408]}},{"properties":{"targettype2":"car","city":"Jubail","cdeaths":0,"region":"Middle East","itype":"Armed Assault","date":{"end_time":"2009/05/27 00:01:00 -0400","original":"5/27/2009 0:00","granularity":"min","time":"2009/05/27 00:00:00 -0400"},"targettype":"Vehicle","country":"Saudi Arabia","cinjuries":0,"gdeaths":0,"targetstatus":"OTHER","id":"25","deaths":0,"group":null,"ginjuries":0,"injuries":0,"state":"Ash Sharqiyah"},"type":"Feature","geometry":{"type":"Point","coordinates":[49.6614,27.0472]}},{"properties":{"targettype2":"military personnel","city":"Unknown","cdeaths":null,"region":"Middle East","itype":"Armed Assault","date":{"end_time":"2003/10/08 00:01:00 -0400","original":"10/8/2003 0:00","granularity":"min","time":"2003/10/08 00:00:00 -0400"},"targettype":"Individual","country":"Saudi Arabia","cinjuries":0,"gdeaths":null,"targetstatus":"MILITARY","id":"26","deaths":null,"group":null,"ginjuries":2,"injuries":2,"state":"Al Qasim"},"type":"Feature","geometry":null},{"properties":{"targettype2":"law enforcement personnel","city":"Mecca","cdeaths":0,"region":"Middle East","itype":"Armed Assault","date":{"end_time":"2006/11/17 00:01:00 -0500","original":"11/17/2006 0:00","granularity":"min","time":"2006/11/17 00:00:00 -0500"},"targettype":"Individual","country":"Saudi Arabia","cinjuries":0,"gdeaths":0,"targetstatus":"LAW ENFORCEMENT /PUBLIC SECURITY","id":"27","deaths":0,"group":null,"ginjuries":2,"injuries":2,"state":"Mekkah"},"type":"Feature","geometry":{"type":"Point","coordinates":[39.8378,21.4256]}},{"properties":{"targettype2":"law enforcement building","city":"Jeddah","cdeaths":0,"region":"Middle East","itype":"Armed Assault","date":{"end_time":"2006/12/07 00:01:00 -0500","original":"12/7/2006 0:00","granularity":"min","time":"2006/12/07 00:00:00 -0500"},"targettype":"Building","country":"Saudi Arabia","cinjuries":0,"gdeaths":2,"targetstatus":"LAW ENFORCEMENT /PUBLIC SECURITY","id":"28","deaths":2,"group":null,"ginjuries":0,"injuries":0,"state":"Mekkah"},"type":"Feature","geometry":{"type":"Point","coordinates":[39.2192,21.5169]}},{"properties":{"targettype2":"apartment/residence","city":"Medina","cdeaths":0,"region":"Middle East","itype":"Armed Assault","date":{"end_time":"2007/04/06 00:01:00 -0400","original":"4/6/2007 0:00","granularity":"min","time":"2007/04/06 00:00:00 -0400"},"targettype":"Building","country":"Saudi Arabia","cinjuries":0,"gdeaths":1,"targetstatus":"OTHER","id":"29","deaths":2,"group":null,"ginjuries":2,"injuries":2,"state":"Al Madinah"},"type":"Feature","geometry":{"type":"Point","coordinates":[39.6142,24.4686]}},{"properties":{"targettype2":"other","city":"Jubail","cdeaths":0,"region":"Middle East","itype":"Armed Assault","date":{"end_time":"2006/11/20 00:01:00 -0500","original":"11/20/2006 0:00","granularity":"min","time":"2006/11/20 00:00:00 -0500"},"targettype":"Individual","country":"Saudi Arabia","cinjuries":1,"gdeaths":0,"targetstatus":"OTHER","id":"30","deaths":0,"group":null,"ginjuries":0,"injuries":1,"state":"Ash Sharqiyah"},"type":"Feature","geometry":{"type":"Point","coordinates":[49.6614,27.0472]}},{"properties":{"targettype2":"law enforcement personnel","city":"Jeddah","cdeaths":0,"region":"Middle East","itype":"Armed Assault","date":{"end_time":"2006/12/07 00:01:00 -0500","original":"12/7/2006 0:00","granularity":"min","time":"2006/12/07 00:00:00 -0500"},"targettype":"Individual","country":"Saudi Arabia","cinjuries":0,"gdeaths":0,"targetstatus":"LAW ENFORCEMENT /PUBLIC SECURITY","id":"31","deaths":0,"group":null,"ginjuries":0,"injuries":0,"state":"Mekkah"},"type":"Feature","geometry":{"type":"Point","coordinates":[39.2192,21.5169]}},{"properties":{"targettype2":"other","city":"Unknown","cdeaths":0,"region":"Middle East","itype":"Armed Assault","date":{"end_time":"2009/10/23 00:01:00 -0400","original":"10/23/2009 0:00","granularity":"min","time":"2009/10/23 00:00:00 -0400"},"targettype":"Individual","country":"Saudi Arabia","cinjuries":0,"gdeaths":0,"targetstatus":"OTHER","id":"32","deaths":0,"group":null,"ginjuries":0,"injuries":0,"state":"Najran"},"type":"Feature","geometry":null},{"properties":{"targettype2":"other","city":"Tabuk","cdeaths":4,"region":"Middle East","itype":"Armed Assault","date":{"end_time":"2007/02/26 00:01:00 -0500","original":"2/26/2007 0:00","granularity":"min","time":"2007/02/26 00:00:00 -0500"},"targettype":"Individual","country":"Saudi Arabia","cinjuries":0,"gdeaths":0,"targetstatus":"OTHER","id":"33","deaths":4,"group":null,"ginjuries":0,"injuries":0,"state":"Tabuk"},"type":"Feature","geometry":{"type":"Point","coordinates":[36.5731,28.3859]}},{"properties":{"targettype2":"other","city":"Jeddah","cdeaths":null,"region":"Middle East","itype":"Armed Assault","date":{"end_time":"2005/09/19 00:01:00 -0400","original":"9/19/2005 0:00","granularity":"min","time":"2005/09/19 00:00:00 -0400"},"targettype":"Individual","country":"Saudi Arabia","cinjuries":1,"gdeaths":null,"targetstatus":"OTHER","id":"34","deaths":null,"group":null,"ginjuries":0,"injuries":1,"state":"Mekkah"},"type":"Feature","geometry":{"type":"Point","coordinates":[39.2192,21.5169]}},{"properties":{"targettype2":"bus","city":null,"cdeaths":0,"region":"Middle East","itype":"Armed Assault","date":{"end_time":"2009/05/27 00:01:00 -0400","original":"5/27/2009 0:00","granularity":"min","time":"2009/05/27 00:00:00 -0400"},"targettype":"Vehicle","country":"Saudi Arabia","cinjuries":0,"gdeaths":0,"targetstatus":"OTHER","id":"35","deaths":0,"group":null,"ginjuries":0,"injuries":0,"state":"Ash Sharqiyah"},"type":"Feature","geometry":null},{"properties":{"targettype2":"law enforcement personnel","city":"Unknown","cdeaths":0,"region":"Middle East","itype":"Armed Assault","date":{"end_time":"2011/06/07 00:01:00 -0400","original":"6/7/2011 0:00","granularity":"min","time":"2011/06/07 00:00:00 -0400"},"targettype":"Individual","country":"Saudi Arabia","cinjuries":0,"gdeaths":2,"targetstatus":"LAW ENFORCEMENT /PUBLIC SECURITY","id":"36","deaths":2,"group":null,"ginjuries":1,"injuries":0,"state":"Najran"},"type":"Feature","geometry":null},{"properties":{"targettype2":"government/politician","city":"Jeddah","cdeaths":null,"region":"Middle East","itype":"Armed Assault","date":{"end_time":"2006/05/13 00:01:00 -0400","original":"5/13/2006 0:00","granularity":"min","time":"2006/05/13 00:00:00 -0400"},"targettype":"Building","country":"Saudi Arabia","cinjuries":0,"gdeaths":null,"targetstatus":"DIPLOMATIC/GOVERNMENT","id":"37","deaths":null,"group":null,"ginjuries":1,"injuries":1,"state":"Mekkah"},"type":"Feature","geometry":{"type":"Point","coordinates":[39.2192,21.5169]}},{"properties":{"targettype2":"law enforcement personnel","city":"Unknown","cdeaths":0,"region":"Middle East","itype":"Armed Assault","date":{"end_time":"2007/02/13 00:01:00 -0500","original":"2/13/2007 0:00","granularity":"min","time":"2007/02/13 00:00:00 -0500"},"targettype":"Individual","country":"Saudi Arabia","cinjuries":2,"gdeaths":0,"targetstatus":"LAW ENFORCEMENT /PUBLIC SECURITY","id":"38","deaths":0,"group":null,"ginjuries":0,"injuries":3,"state":"Tabuk"},"type":"Feature","geometry":null},{"properties":{"targettype2":"law enforcement personnel","city":"Jizan","cdeaths":0,"region":"Middle East","itype":"Armed Assault","date":{"end_time":"2009/10/14 14:37:00 -0400","original":"10/14/2009 14:36","granularity":"min","time":"2009/10/14 14:36:00 -0400"},"targettype":"Individual","country":"Saudi Arabia","cinjuries":0,"gdeaths":1,"targetstatus":"MILITARY","id":"39","deaths":3,"group":null,"ginjuries":1,"injuries":1,"state":"Jizan (Qizan)"},"type":"Feature","geometry":{"type":"Point","coordinates":[42.5511,16.8892]}},{"properties":{"targettype2":"law enforcement personnel","city":"Riyadh","cdeaths":0,"region":"Middle East","itype":"Armed Assault","date":{"end_time":"2004/04/12 00:01:00 -0400","original":"4/12/2004 0:00","granularity":"min","time":"2004/04/12 00:00:00 -0400"},"targettype":"Individual","country":"Saudi Arabia","cinjuries":0,"gdeaths":1,"targetstatus":"LAW ENFORCEMENT /PUBLIC SECURITY","id":"40","deaths":1,"group":null,"ginjuries":1,"injuries":1,"state":"Ar Riyad (Riyadh)"},"type":"Feature","geometry":{"type":"Point","coordinates":[46.7728,24.6408]}},{"properties":{"targettype2":"law enforcement personnel","city":"Unknown","cdeaths":null,"region":"Middle East","itype":"Armed Assault","date":{"end_time":"2005/04/18 00:01:00 -0400","original":"4/18/2005 0:00","granularity":"min","time":"2005/04/18 00:00:00 -0400"},"targettype":"Individual","country":"Saudi Arabia","cinjuries":null,"gdeaths":null,"targetstatus":"LAW ENFORCEMENT /PUBLIC SECURITY","id":"41","deaths":null,"group":null,"ginjuries":null,"injuries":null,"state":"Unknown"},"type":"Feature","geometry":null},{"properties":{"targettype2":"military personnel","city":"Jizan","cdeaths":0,"region":"Middle East","itype":"Armed Assault","date":{"end_time":"2009/11/03 14:37:00 -0500","original":"11/3/2009 14:36","granularity":"min","time":"2009/11/03 14:36:00 -0500"},"targettype":"Individual","country":"Saudi Arabia","cinjuries":0,"gdeaths":1,"targetstatus":"MILITARY","id":"42","deaths":1,"group":null,"ginjuries":11,"injuries":11,"state":"Jizan (Qizan)"},"type":"Feature","geometry":{"type":"Point","coordinates":[42.5511,16.8892]}},{"properties":{"targettype2":"law enforcement building","city":"Samakh","cdeaths":0,"region":null,"itype":"Armed Assault","date":{"end_time":"2009/09/02 00:01:00 -0400","original":"9/2/2009 0:00","granularity":"min","time":"2009/09/02 00:00:00 -0400"},"targettype":"Building","country":"Saudi Arabia","cinjuries":0,"gdeaths":0,"targetstatus":"LAW ENFORCEMENT /PUBLIC SECURITY","id":"43","deaths":0,"group":null,"ginjuries":2,"injuries":2,"state":"Asir"},"type":"Feature","geometry":null},{"properties":{"targettype2":"government/politician","city":"Riyadh","cdeaths":6,"region":"Middle East","itype":"Bombing","date":{"end_time":"2004/04/21 00:01:00 -0400","original":"4/21/2004 0:00","granularity":"min","time":"2004/04/21 00:00:00 -0400"},"targettype":"Building","country":"Saudi Arabia","cinjuries":148,"gdeaths":2,"targetstatus":"LAW ENFORCEMENT /PUBLIC SECURITY","id":"44","deaths":9,"group":"Al Qaeda Organization in the Arabian Peninsula (AQAP) - Saudi Arabia/Yemen","ginjuries":0,"injuries":148,"state":"Ar Riyad (Riyadh)"},"type":"Feature","geometry":{"type":"Point","coordinates":[46.7728,24.6408]}},{"properties":{"targettype2":"electricity lines","city":"Riyadh","cdeaths":0,"region":"Middle East","itype":"Bombing","date":{"end_time":"2004/01/04 00:01:00 -0500","original":"1/4/2004 0:00","granularity":"min","time":"2004/01/04 00:00:00 -0500"},"targettype":"Non-Building Infrastructure","country":"Saudi Arabia","cinjuries":0,"gdeaths":0,"targetstatus":"DIPLOMATIC/GOVERNMENT","id":"45","deaths":0,"group":"Al Qaeda Organization in the Arabian Peninsula (AQAP) - Saudi Arabia/Yemen","ginjuries":0,"injuries":0,"state":"Ar Riyad (Riyadh)"},"type":"Feature","geometry":{"type":"Point","coordinates":[46.7728,24.6408]}},{"properties":{"targettype2":"government/politician","city":"Riyadh","cdeaths":0,"region":"Middle East","itype":"Bombing","date":{"end_time":"2004/12/29 00:01:00 -0500","original":"12/29/2004 0:00","granularity":"min","time":"2004/12/29 00:00:00 -0500"},"targettype":"Building","country":"Saudi Arabia","cinjuries":12,"gdeaths":0,"targetstatus":"DIPLOMATIC/GOVERNMENT","id":"46","deaths":2,"group":"Al Qaeda Organization in the Arabian Peninsula (AQAP) - Saudi Arabia/Yemen","ginjuries":0,"injuries":12,"state":"Ar Riyad (Riyadh)"},"type":"Feature","geometry":{"type":"Point","coordinates":[46.7728,24.6408]}},{"properties":{"targettype2":"apartment/residence","city":"Riyadh","cdeaths":18,"region":"Middle East","itype":"Bombing","date":{"end_time":"2003/11/09 00:01:00 -0500","original":"11/9/2003 0:00","granularity":"min","time":"2003/11/09 00:00:00 -0500"},"targettype":"Building","country":"Saudi Arabia","cinjuries":120,"gdeaths":0,"targetstatus":"DIPLOMATIC/GOVERNMENT","id":"47","deaths":20,"group":"Al Qaeda Organization in the Arabian Peninsula (AQAP) - Saudi Arabia/Yemen","ginjuries":0,"injuries":120,"state":"Ar Riyad (Riyadh)"},"type":"Feature","geometry":{"type":"Point","coordinates":[46.7728,24.6408]}},{"properties":{"targettype2":"government personnel","city":"Jeddah","cdeaths":0,"region":"Middle East","itype":"Bombing","date":{"end_time":"2009/08/28 00:01:00 -0400","original":"8/28/2009 0:00","granularity":"min","time":"2009/08/28 00:00:00 -0400"},"targettype":"Individual","country":"Saudi Arabia","cinjuries":0,"gdeaths":0,"targetstatus":"DIPLOMATIC/GOVERNMENT","id":"48","deaths":1,"group":"Al Qaeda Organization in the Arabian Peninsula (AQAP) - Saudi Arabia/Yemen","ginjuries":1,"injuries":1,"state":"Mekkah"},"type":"Feature","geometry":{"type":"Point","coordinates":[39.2192,21.5169]}},{"properties":{"targettype2":"pipelines (gas, oil)","city":"Abqaiq","cdeaths":0,"region":"Middle East","itype":"Bombing","date":{"end_time":"2006/02/24 00:01:00 -0500","original":"2/24/2006 0:00","granularity":"min","time":"2006/02/24 00:00:00 -0500"},"targettype":"Non-Building Infrastructure","country":"Saudi Arabia","cinjuries":0,"gdeaths":2,"targetstatus":"OTHER","id":"49","deaths":4,"group":"Al Qaeda Organization in the Arabian Peninsula (AQAP) - Saudi Arabia/Yemen","ginjuries":0,"injuries":0,"state":"Ash Sharqiyah"},"type":"Feature","geometry":{"type":"Point","coordinates":[49.6683,25.9356]}},{"properties":{"targettype2":"apartment/residence","city":"Riyadh","cdeaths":25,"region":"Middle East","itype":"Bombing","date":{"end_time":"2003/05/12 00:01:00 -0400","original":"5/12/2003 0:00","granularity":"min","time":"2003/05/12 00:00:00 -0400"},"targettype":"Building","country":"Saudi Arabia","cinjuries":200,"gdeaths":0,"targetstatus":"DIPLOMATIC/GOVERNMENT","id":"50","deaths":34,"group":"Al Qaeda Organization in the Arabian Peninsula (AQAP) - Saudi Arabia/Yemen","ginjuries":0,"injuries":200,"state":"Ar Riyad (Riyadh)"},"type":"Feature","geometry":{"type":"Point","coordinates":[46.7728,24.6408]}},{"properties":{"targettype2":"military personnel","city":"Khobar","cdeaths":0,"region":"Middle East","itype":"Bombing","date":{"end_time":"1996/06/25 00:01:00 -0400","original":"6/25/1996 0:00","granularity":"min","time":"1996/06/25 00:00:00 -0400"},"targettype":"Individual","country":"Saudi Arabia","cinjuries":275,"gdeaths":19,"targetstatus":"MILITARY","id":"51","deaths":19,"group":"Hizballah (Party Of God) - Lebanon &amp; Syria","ginjuries":240,"injuries":515,"state":"Ash Sharqiyah"},"type":"Feature","geometry":{"type":"Point","coordinates":[50.2083,26.2794]}},{"properties":{"targettype2":"government personnel","city":"Riyadh","cdeaths":40,"region":"Middle East","itype":"Bombing","date":{"end_time":"1995/11/13 00:01:00 -0500","original":"11/13/1995 0:00","granularity":"min","time":"1995/11/13 00:00:00 -0500"},"targettype":"Individual","country":"Saudi Arabia","cinjuries":0,"gdeaths":0,"targetstatus":"DIPLOMATIC/GOVERNMENT","id":"52","deaths":40,"group":"Unknown","ginjuries":0,"injuries":0,"state":"Ar Riyad (Riyadh)"},"type":"Feature","geometry":{"type":"Point","coordinates":[46.7728,24.6408]}},{"properties":{"targettype2":null,"city":"Unknown","cdeaths":null,"region":"Middle East","itype":"Communication","date":{"end_time":"2004/02/24 00:01:00 -0500","original":"2/24/2004 0:00","granularity":"min","time":"2004/02/24 00:00:00 -0500"},"targettype":null,"country":"Saudi Arabia","cinjuries":null,"gdeaths":null,"targetstatus":null,"id":"53","deaths":null,"group":"Al Qaeda Organization in the Arabian Peninsula (AQAP) - Saudi Arabia/Yemen","ginjuries":null,"injuries":null,"state":"Unknown"},"type":"Feature","geometry":null},{"properties":{"targettype2":null,"city":"Jeddah","cdeaths":null,"region":"Middle East","itype":"Communication","date":{"end_time":"2004/12/06 00:01:00 -0500","original":"12/6/2004 0:00","granularity":"min","time":"2004/12/06 00:00:00 -0500"},"targettype":null,"country":"Saudi Arabia","cinjuries":null,"gdeaths":null,"targetstatus":null,"id":"54","deaths":null,"group":"Al Qaeda Organization in the Arabian Peninsula (AQAP) - Saudi Arabia/Yemen","ginjuries":null,"injuries":null,"state":"Mekkah"},"type":"Feature","geometry":{"type":"Point","coordinates":[39.2192,21.5169]}},{"properties":{"targettype2":null,"city":"Unknown","cdeaths":null,"region":"Middle East","itype":"Communication","date":{"end_time":"2004/05/06 00:01:00 -0400","original":"5/6/2004 0:00","granularity":"min","time":"2004/05/06 00:00:00 -0400"},"targettype":null,"country":"Saudi Arabia","cinjuries":null,"gdeaths":null,"targetstatus":null,"id":"55","deaths":null,"group":"Al Qaeda Organization in the Arabian Peninsula (AQAP) - Saudi Arabia/Yemen","ginjuries":null,"injuries":null,"state":"Unknown"},"type":"Feature","geometry":null},{"properties":{"targettype2":null,"city":"Unknown","cdeaths":null,"region":"Middle East","itype":"Communication","date":{"end_time":"2003/10/17 00:01:00 -0400","original":"10/17/2003 0:00","granularity":"min","time":"2003/10/17 00:00:00 -0400"},"targettype":null,"country":"Saudi Arabia","cinjuries":null,"gdeaths":null,"targetstatus":null,"id":"56","deaths":null,"group":"Al Qaeda Organization in the Arabian Peninsula (AQAP) - Saudi Arabia/Yemen","ginjuries":null,"injuries":null,"state":"Unknown"},"type":"Feature","geometry":null},{"properties":{"targettype2":null,"city":"Unknown","cdeaths":0,"region":"Middle East","itype":"Communication","date":{"end_time":"2010/08/10 00:01:00 -0400","original":"8/10/2010 0:00","granularity":"min","time":"2010/08/10 00:00:00 -0400"},"targettype":null,"country":"Saudi Arabia","cinjuries":0,"gdeaths":0,"targetstatus":null,"id":"57","deaths":0,"group":"Al Qaeda Organization in the Arabian Peninsula (AQAP) - Saudi Arabia/Yemen","ginjuries":0,"injuries":0,"state":"Unknown"},"type":"Feature","geometry":null},{"properties":{"targettype2":null,"city":null,"cdeaths":0,"region":"Middle East","itype":"Communication","date":{"end_time":"2009/04/16 00:01:00 -0400","original":"4/16/2009 0:00","granularity":"min","time":"2009/04/16 00:00:00 -0400"},"targettype":null,"country":"Saudi Arabia","cinjuries":0,"gdeaths":0,"targetstatus":null,"id":"58","deaths":0,"group":"Al Qaeda Organization in the Arabian Peninsula (AQAP) - Saudi Arabia/Yemen","ginjuries":0,"injuries":0,"state":null},"type":"Feature","geometry":null},{"properties":{"targettype2":null,"city":"Unknown","cdeaths":null,"region":"Middle East","itype":"Communication","date":{"end_time":"2004/12/06 00:01:00 -0500","original":"12/6/2004 0:00","granularity":"min","time":"2004/12/06 00:00:00 -0500"},"targettype":null,"country":"Saudi Arabia","cinjuries":null,"gdeaths":null,"targetstatus":null,"id":"59","deaths":null,"group":"Al Qaeda Organization in the Arabian Peninsula (AQAP) - Saudi Arabia/Yemen","ginjuries":null,"injuries":null,"state":"Unknown"},"type":"Feature","geometry":null},{"properties":{"targettype2":null,"city":"Unknown","cdeaths":null,"region":"Middle East","itype":"Communication","date":{"end_time":"2004/12/19 00:01:00 -0500","original":"12/19/2004 0:00","granularity":"min","time":"2004/12/19 00:00:00 -0500"},"targettype":null,"country":"Saudi Arabia","cinjuries":null,"gdeaths":null,"targetstatus":null,"id":"60","deaths":null,"group":"Al Qaeda Organization in the Arabian Peninsula (AQAP) - Saudi Arabia/Yemen","ginjuries":null,"injuries":null,"state":"Unknown"},"type":"Feature","geometry":null},{"properties":{"targettype2":null,"city":"Unknown","cdeaths":null,"region":"Middle East","itype":"Communication","date":{"end_time":"2005/06/15 00:01:00 -0400","original":"6/15/2005 0:00","granularity":"min","time":"2005/06/15 00:00:00 -0400"},"targettype":null,"country":"Saudi Arabia","cinjuries":null,"gdeaths":null,"targetstatus":null,"id":"61","deaths":null,"group":"Al Qaeda Organization in the Arabian Peninsula (AQAP) - Saudi Arabia/Yemen","ginjuries":null,"injuries":null,"state":"Unknown"},"type":"Feature","geometry":null},{"properties":{"targettype2":null,"city":"Unknown","cdeaths":null,"region":"Middle East","itype":"Communication","date":{"end_time":"2005/03/17 00:01:00 -0500","original":"3/17/2005 0:00","granularity":"min","time":"2005/03/17 00:00:00 -0500"},"targettype":null,"country":"Saudi Arabia","cinjuries":null,"gdeaths":null,"targetstatus":null,"id":"62","deaths":null,"group":"Al Qaeda Organization in the Arabian Peninsula (AQAP) - Saudi Arabia/Yemen","ginjuries":null,"injuries":null,"state":"Unknown"},"type":"Feature","geometry":null},{"properties":{"targettype2":null,"city":null,"cdeaths":0,"region":"Middle East","itype":"Communication","date":{"end_time":"2004/05/23 00:01:00 -0400","original":"5/23/2004 0:00","granularity":"min","time":"2004/05/23 00:00:00 -0400"},"targettype":null,"country":"Saudi Arabia","cinjuries":0,"gdeaths":0,"targetstatus":null,"id":"63","deaths":0,"group":"Al Qaeda Organization in the Arabian Peninsula (AQAP) - Saudi Arabia/Yemen","ginjuries":0,"injuries":0,"state":null},"type":"Feature","geometry":null},{"properties":{"targettype2":null,"city":"Unknown","cdeaths":0,"region":"Middle East","itype":"Communication","date":{"end_time":"2005/01/04 00:01:00 -0500","original":"1/4/2005 0:00","granularity":"min","time":"2005/01/04 00:00:00 -0500"},"targettype":null,"country":"Saudi Arabia","cinjuries":0,"gdeaths":0,"targetstatus":null,"id":"64","deaths":0,"group":"Al Qaeda Organization in the Arabian Peninsula (AQAP) - Saudi Arabia/Yemen","ginjuries":0,"injuries":0,"state":"Unknown"},"type":"Feature","geometry":null},{"properties":{"targettype2":null,"city":"Unknown","cdeaths":null,"region":"Middle East","itype":"Communication","date":{"end_time":"2004/05/30 00:01:00 -0400","original":"5/30/2004 0:00","granularity":"min","time":"2004/05/30 00:00:00 -0400"},"targettype":null,"country":"Saudi Arabia","cinjuries":null,"gdeaths":null,"targetstatus":null,"id":"65","deaths":null,"group":"Al Qaeda Organization in the Arabian Peninsula (AQAP) - Saudi Arabia/Yemen","ginjuries":null,"injuries":null,"state":"Unknown"},"type":"Feature","geometry":null},{"properties":{"targettype2":null,"city":"Unknown","cdeaths":0,"region":"Middle East","itype":"Communication","date":{"end_time":"2006/05/02 00:01:00 -0400","original":"5/2/2006 0:00","granularity":"min","time":"2006/05/02 00:00:00 -0400"},"targettype":null,"country":"Saudi Arabia","cinjuries":0,"gdeaths":0,"targetstatus":null,"id":"66","deaths":0,"group":"Al Qaeda Organization in the Arabian Peninsula (AQAP) - Saudi Arabia/Yemen","ginjuries":0,"injuries":0,"state":"Unknown"},"type":"Feature","geometry":null},{"properties":{"targettype2":null,"city":"Mecca","cdeaths":0,"region":"Middle East","itype":"Communication","date":{"end_time":"2010/11/14 00:01:00 -0500","original":"11/14/2010 0:00","granularity":"min","time":"2010/11/14 00:00:00 -0500"},"targettype":null,"country":"Saudi Arabia","cinjuries":0,"gdeaths":0,"targetstatus":null,"id":"67","deaths":0,"group":"Al Qaeda Organization in the Arabian Peninsula (AQAP) - Saudi Arabia/Yemen","ginjuries":0,"injuries":0,"state":"Mekkah"},"type":"Feature","geometry":{"type":"Point","coordinates":[39.8378,21.4256]}},{"properties":{"targettype2":null,"city":"Unknown","cdeaths":0,"region":"Middle East","itype":"Communication","date":{"end_time":"2007/06/01 00:01:00 -0400","original":"6/1/2007 0:00","granularity":"min","time":"2007/06/01 00:00:00 -0400"},"targettype":null,"country":"Saudi Arabia","cinjuries":0,"gdeaths":0,"targetstatus":null,"id":"68","deaths":0,"group":"Al Qaeda Organization in the Arabian Peninsula (AQAP) - Saudi Arabia/Yemen","ginjuries":0,"injuries":0,"state":"Unknown"},"type":"Feature","geometry":null},{"properties":{"targettype2":null,"city":"Unknown","cdeaths":null,"region":"Middle East","itype":"Communication","date":{"end_time":"2004/06/06 00:01:00 -0400","original":"6/6/2004 0:00","granularity":"min","time":"2004/06/06 00:00:00 -0400"},"targettype":null,"country":"Saudi Arabia","cinjuries":null,"gdeaths":null,"targetstatus":null,"id":"69","deaths":null,"group":"Al Qaeda Organization in the Arabian Peninsula (AQAP) - Saudi Arabia/Yemen","ginjuries":null,"injuries":null,"state":"Unknown"},"type":"Feature","geometry":null},{"properties":{"targettype2":null,"city":"Unknown","cdeaths":0,"region":"Middle East","itype":"Communication","date":{"end_time":"2003/10/27 00:01:00 -0500","original":"10/27/2003 0:00","granularity":"min","time":"2003/10/27 00:00:00 -0500"},"targettype":null,"country":"Saudi Arabia","cinjuries":0,"gdeaths":0,"targetstatus":null,"id":"70","deaths":0,"group":"Al Qaeda Organization in the Arabian Peninsula (AQAP) - Saudi Arabia/Yemen","ginjuries":0,"injuries":0,"state":"Unknown"},"type":"Feature","geometry":null},{"properties":{"targettype2":null,"city":"Unknown","cdeaths":null,"region":"Middle East","itype":"Communication","date":{"end_time":"2005/03/21 00:01:00 -0500","original":"3/21/2005 0:00","granularity":"min","time":"2005/03/21 00:00:00 -0500"},"targettype":null,"country":"Saudi Arabia","cinjuries":null,"gdeaths":null,"targetstatus":null,"id":"71","deaths":null,"group":"Al Qaeda Organization in the Arabian Peninsula (AQAP) - Saudi Arabia/Yemen","ginjuries":null,"injuries":null,"state":"Unknown"},"type":"Feature","geometry":null},{"properties":{"targettype2":null,"city":"Unknown","cdeaths":0,"region":"Middle East","itype":"Communication","date":{"end_time":"2006/04/20 00:01:00 -0400","original":"4/20/2006 0:00","granularity":"min","time":"2006/04/20 00:00:00 -0400"},"targettype":null,"country":"Saudi Arabia","cinjuries":0,"gdeaths":0,"targetstatus":null,"id":"72","deaths":0,"group":"Al Qaeda Organization in the Arabian Peninsula (AQAP) - Saudi Arabia/Yemen","ginjuries":0,"injuries":0,"state":"Unknown"},"type":"Feature","geometry":null},{"properties":{"targettype2":null,"city":"Unknown","cdeaths":0,"region":"Middle East","itype":"Communication","date":{"end_time":"2006/02/24 00:01:00 -0500","original":"2/24/2006 0:00","granularity":"min","time":"2006/02/24 00:00:00 -0500"},"targettype":null,"country":"Saudi Arabia","cinjuries":0,"gdeaths":0,"targetstatus":null,"id":"73","deaths":0,"group":"Al Qaeda Organization in the Arabian Peninsula (AQAP) - Saudi Arabia/Yemen","ginjuries":0,"injuries":0,"state":"Unknown"},"type":"Feature","geometry":null},{"properties":{"targettype2":null,"city":null,"cdeaths":0,"region":"Middle East","itype":"Communication","date":{"end_time":"2007/02/09 00:01:00 -0500","original":"2/9/2007 0:00","granularity":"min","time":"2007/02/09 00:00:00 -0500"},"targettype":null,"country":"Saudi Arabia","cinjuries":0,"gdeaths":0,"targetstatus":null,"id":"74","deaths":0,"group":"Al Qaeda Organization in the Arabian Peninsula (AQAP) - Saudi Arabia/Yemen","ginjuries":0,"injuries":0,"state":null},"type":"Feature","geometry":null},{"properties":{"targettype2":null,"city":"Unknown","cdeaths":null,"region":"Middle East","itype":"Communication","date":{"end_time":"2007/01/16 00:01:00 -0500","original":"1/16/2007 0:00","granularity":"min","time":"2007/01/16 00:00:00 -0500"},"targettype":null,"country":"Saudi Arabia","cinjuries":null,"gdeaths":null,"targetstatus":null,"id":"75","deaths":null,"group":"Islamic Renewal Organization (Saudi Arabia)","ginjuries":null,"injuries":null,"state":"Unknown"},"type":"Feature","geometry":null},{"properties":{"targettype2":null,"city":"Jeddah","cdeaths":0,"region":"Middle East","itype":"Communication","date":{"end_time":"2007/11/12 00:01:00 -0500","original":"11/12/2007 0:00","granularity":"min","time":"2007/11/12 00:00:00 -0500"},"targettype":null,"country":"Saudi Arabia","cinjuries":0,"gdeaths":0,"targetstatus":null,"id":"76","deaths":0,"group":"Moro National Liberation Front (MNLF) - Philippines","ginjuries":0,"injuries":0,"state":"Mekkah"},"type":"Feature","geometry":{"type":"Point","coordinates":[39.2192,21.5169]}},{"properties":{"targettype2":null,"city":"Unknown","cdeaths":null,"region":"Middle East","itype":"Communication","date":{"end_time":"2005/02/11 00:01:00 -0500","original":"2/11/2005 0:00","granularity":"min","time":"2005/02/11 00:00:00 -0500"},"targettype":null,"country":"Saudi Arabia","cinjuries":null,"gdeaths":null,"targetstatus":null,"id":"77","deaths":null,"group":"Mujahideen Meeting Place webforum [www.mojahedun.com/vb]","ginjuries":null,"injuries":null,"state":"Unknown"},"type":"Feature","geometry":null},{"properties":{"targettype2":null,"city":"Unknown","cdeaths":null,"region":"Middle East","itype":"Communication","date":{"end_time":"2005/01/10 00:01:00 -0500","original":"1/10/2005 0:00","granularity":"min","time":"2005/01/10 00:00:00 -0500"},"targettype":null,"country":"Saudi Arabia","cinjuries":null,"gdeaths":null,"targetstatus":null,"id":"78","deaths":null,"group":"Usamah's Memo online forum [www.almjlah/vb]","ginjuries":null,"injuries":null,"state":"Unknown"},"type":"Feature","geometry":null},{"properties":{"targettype2":null,"city":"Unknown","cdeaths":null,"region":"Middle East","itype":"Communication","date":{"end_time":"2005/04/07 00:01:00 -0400","original":"4/7/2005 0:00","granularity":"min","time":"2005/04/07 00:00:00 -0400"},"targettype":null,"country":"Saudi Arabia","cinjuries":null,"gdeaths":null,"targetstatus":null,"id":"79","deaths":null,"group":null,"ginjuries":null,"injuries":null,"state":"Unknown"},"type":"Feature","geometry":null},{"properties":{"targettype2":null,"city":"Unknown","cdeaths":null,"region":"Middle East","itype":"Communication","date":{"end_time":"2003/06/12 00:01:00 -0400","original":"6/12/2003 0:00","granularity":"min","time":"2003/06/12 00:00:00 -0400"},"targettype":null,"country":"Saudi Arabia","cinjuries":null,"gdeaths":null,"targetstatus":null,"id":"80","deaths":null,"group":null,"ginjuries":null,"injuries":null,"state":"Unknown"},"type":"Feature","geometry":null},{"properties":{"targettype2":null,"city":"Riyadh","cdeaths":0,"region":"Middle East","itype":"Communication","date":{"end_time":"2010/02/12 00:01:00 -0500","original":"2/12/2010 0:00","granularity":"min","time":"2010/02/12 00:00:00 -0500"},"targettype":null,"country":"Saudi Arabia","cinjuries":0,"gdeaths":0,"targetstatus":null,"id":"81","deaths":0,"group":null,"ginjuries":0,"injuries":0,"state":"Ar Riyad (Riyadh)"},"type":"Feature","geometry":{"type":"Point","coordinates":[46.7728,24.6408]}},{"properties":{"targettype2":null,"city":"Unknown","cdeaths":null,"region":"Middle East","itype":"Communication","date":{"end_time":"2005/12/11 00:01:00 -0500","original":"12/11/2005 0:00","granularity":"min","time":"2005/12/11 00:00:00 -0500"},"targettype":null,"country":"Saudi Arabia","cinjuries":null,"gdeaths":null,"targetstatus":null,"id":"82","deaths":null,"group":null,"ginjuries":null,"injuries":null,"state":"Unknown"},"type":"Feature","geometry":null},{"properties":{"targettype2":null,"city":"Unknown","cdeaths":null,"region":"Middle East","itype":"Communication","date":{"end_time":"2005/09/26 00:01:00 -0400","original":"9/26/2005 0:00","granularity":"min","time":"2005/09/26 00:00:00 -0400"},"targettype":null,"country":"Saudi Arabia","cinjuries":null,"gdeaths":null,"targetstatus":null,"id":"83","deaths":null,"group":null,"ginjuries":null,"injuries":null,"state":"Unknown"},"type":"Feature","geometry":null},{"properties":{"targettype2":null,"city":"Riyadh","cdeaths":null,"region":"Middle East","itype":"Criminal Court Proceeding","date":{"end_time":"2005/01/28 00:01:00 -0500","original":"1/28/2005 0:00","granularity":"min","time":"2005/01/28 00:00:00 -0500"},"targettype":null,"country":"Saudi Arabia","cinjuries":null,"gdeaths":null,"targetstatus":null,"id":"84","deaths":null,"group":"Al Qaeda Organization in the Arabian Peninsula (AQAP) - Saudi Arabia/Yemen","ginjuries":null,"injuries":null,"state":"Ar Riyad (Riyadh)"},"type":"Feature","geometry":{"type":"Point","coordinates":[46.7728,24.6408]}},{"properties":{"targettype2":null,"city":"Riyadh","cdeaths":null,"region":"Middle East","itype":"Criminal Court Proceeding","date":{"end_time":"2005/02/21 00:01:00 -0500","original":"2/21/2005 0:00","granularity":"min","time":"2005/02/21 00:00:00 -0500"},"targettype":null,"country":"Saudi Arabia","cinjuries":null,"gdeaths":null,"targetstatus":null,"id":"85","deaths":null,"group":"Al Qaeda Organization in the Arabian Peninsula (AQAP) - Saudi Arabia/Yemen","ginjuries":null,"injuries":null,"state":"Ar Riyad (Riyadh)"},"type":"Feature","geometry":{"type":"Point","coordinates":[46.7728,24.6408]}},{"properties":{"targettype2":null,"city":"Unknown","cdeaths":null,"region":"Middle East","itype":"Criminal Court Proceeding","date":{"end_time":"2007/06/07 00:01:00 -0400","original":"6/7/2007 0:00","granularity":"min","time":"2007/06/07 00:00:00 -0400"},"targettype":null,"country":"Saudi Arabia","cinjuries":null,"gdeaths":null,"targetstatus":null,"id":"86","deaths":null,"group":"Al Qaeda Organization in the Arabian Peninsula (AQAP) - Saudi Arabia/Yemen","ginjuries":null,"injuries":null,"state":"Unknown"},"type":"Feature","geometry":null},{"properties":{"targettype2":null,"city":"Unknown","cdeaths":null,"region":"Middle East","itype":"Criminal Court Proceeding","date":{"end_time":"2009/07/08 00:01:00 -0400","original":"7/8/2009 0:00","granularity":"min","time":"2009/07/08 00:00:00 -0400"},"targettype":null,"country":"Saudi Arabia","cinjuries":null,"gdeaths":null,"targetstatus":null,"id":"87","deaths":null,"group":"Al Qaeda Organization in the Arabian Peninsula (AQAP) - Saudi Arabia/Yemen","ginjuries":null,"injuries":null,"state":"Unknown"},"type":"Feature","geometry":null},{"properties":{"targettype2":null,"city":"Riyadh","cdeaths":null,"region":"Middle East","itype":"Criminal Court Proceeding","date":{"end_time":"2004/01/12 00:01:00 -0500","original":"1/12/2004 0:00","granularity":"min","time":"2004/01/12 00:00:00 -0500"},"targettype":null,"country":"Saudi Arabia","cinjuries":null,"gdeaths":null,"targetstatus":null,"id":"88","deaths":null,"group":"Al Qaeda Organization in the Arabian Peninsula (AQAP) - Saudi Arabia/Yemen","ginjuries":null,"injuries":null,"state":"Ar Riyad (Riyadh)"},"type":"Feature","geometry":{"type":"Point","coordinates":[46.7728,24.6408]}},{"properties":{"targettype2":null,"city":"Unknown","cdeaths":null,"region":"Middle East","itype":"Criminal Court Proceeding","date":{"end_time":"2004/05/09 00:01:00 -0400","original":"5/9/2004 0:00","granularity":"min","time":"2004/05/09 00:00:00 -0400"},"targettype":null,"country":"Saudi Arabia","cinjuries":null,"gdeaths":null,"targetstatus":null,"id":"89","deaths":null,"group":null,"ginjuries":null,"injuries":null,"state":"Unknown"},"type":"Feature","geometry":null},{"properties":{"targettype2":null,"city":"Unknown","cdeaths":null,"region":"Middle East","itype":"Criminal Court Proceeding","date":{"end_time":"2006/04/27 00:01:00 -0400","original":"4/27/2006 0:00","granularity":"min","time":"2006/04/27 00:00:00 -0400"},"targettype":null,"country":"Saudi Arabia","cinjuries":null,"gdeaths":null,"targetstatus":null,"id":"90","deaths":null,"group":null,"ginjuries":null,"injuries":null,"state":"Unknown"},"type":"Feature","geometry":null},{"properties":{"targettype2":null,"city":"Riyadh","cdeaths":null,"region":"Middle East","itype":"Criminal Court Proceeding","date":{"end_time":"2006/12/02 00:01:00 -0500","original":"12/2/2006 0:00","granularity":"min","time":"2006/12/02 00:00:00 -0500"},"targettype":null,"country":"Saudi Arabia","cinjuries":null,"gdeaths":null,"targetstatus":null,"id":"91","deaths":null,"group":null,"ginjuries":null,"injuries":null,"state":"Ar Riyad (Riyadh)"},"type":"Feature","geometry":{"type":"Point","coordinates":[46.7728,24.6408]}},{"properties":{"targettype2":null,"city":"Al Dammam","cdeaths":null,"region":"Middle East","itype":"Criminal Court Proceeding","date":null,"targettype":null,"country":"Saudi Arabia","cinjuries":null,"gdeaths":null,"targetstatus":null,"id":"92","deaths":null,"group":null,"ginjuries":null,"injuries":null,"state":"Ash Sharqiyah"},"type":"Feature","geometry":{"type":"Point","coordinates":[50.1435,26.4221]}},{"properties":{"targettype2":null,"city":"Unknown","cdeaths":null,"region":"Middle East","itype":"Financing","date":null,"targettype":null,"country":"Saudi Arabia","cinjuries":null,"gdeaths":null,"targetstatus":null,"id":"93","deaths":null,"group":"Abu Sayyaf Group (ASG) - Philippines","ginjuries":null,"injuries":null,"state":"Unknown"},"type":"Feature","geometry":null},{"properties":{"targettype2":null,"city":"Unknown","cdeaths":null,"region":"Middle East","itype":"Financing","date":null,"targettype":null,"country":"Saudi Arabia","cinjuries":null,"gdeaths":null,"targetstatus":null,"id":"94","deaths":null,"group":"Abu Sayyaf Group (ASG) - Philippines","ginjuries":null,"injuries":null,"state":"Unknown"},"type":"Feature","geometry":null},{"properties":{"targettype2":null,"city":"Unknown","cdeaths":null,"region":"Middle East","itype":"Financing","date":null,"targettype":null,"country":"Saudi Arabia","cinjuries":null,"gdeaths":null,"targetstatus":null,"id":"95","deaths":null,"group":"Abu Sayyaf Group (ASG) - Philippines","ginjuries":null,"injuries":null,"state":"Unknown"},"type":"Feature","geometry":null},{"properties":{"targettype2":null,"city":"Riyadh","cdeaths":null,"region":"Middle East","itype":"Financing","date":{"end_time":"2005/08/07 00:01:00 -0400","original":"8/7/2005 0:00","granularity":"min","time":"2005/08/07 00:00:00 -0400"},"targettype":null,"country":"Saudi Arabia","cinjuries":null,"gdeaths":null,"targetstatus":null,"id":"96","deaths":null,"group":"Al Qaeda (Afghanistan)","ginjuries":null,"injuries":null,"state":"Ar Riyad (Riyadh)"},"type":"Feature","geometry":{"type":"Point","coordinates":[46.7728,24.6408]}},{"properties":{"targettype2":null,"city":"Unknown","cdeaths":null,"region":"Middle East","itype":"Financing","date":{"end_time":"1998/02/01 00:01:00 -0500","original":"2/1/1998 0:00","granularity":"min","time":"1998/02/01 00:00:00 -0500"},"targettype":null,"country":"Saudi Arabia","cinjuries":null,"gdeaths":null,"targetstatus":null,"id":"97","deaths":null,"group":"Al Qaeda (Afghanistan)","ginjuries":null,"injuries":null,"state":"Unknown"},"type":"Feature","geometry":null},{"properties":{"targettype2":null,"city":"Unknown","cdeaths":null,"region":"Middle East","itype":"Financing","date":null,"targettype":null,"country":"Saudi Arabia","cinjuries":null,"gdeaths":null,"targetstatus":null,"id":"98","deaths":null,"group":"Al Qaeda (Afghanistan)","ginjuries":null,"injuries":null,"state":"Unknown"},"type":"Feature","geometry":null},{"properties":{"targettype2":null,"city":"Unknown","cdeaths":null,"region":"Middle East","itype":"Financing","date":null,"targettype":null,"country":"Saudi Arabia","cinjuries":null,"gdeaths":null,"targetstatus":null,"id":"99","deaths":null,"group":"Hamas (Islamic Resistance Movement) - Palestine &amp; Israel","ginjuries":null,"injuries":null,"state":"Unknown"},"type":"Feature","geometry":null},{"properties":{"targettype2":null,"city":"Unknown","cdeaths":null,"region":"Middle East","itype":"Financing","date":{"end_time":"2006/07/01 00:01:00 -0400","original":"7/1/2006 0:00","granularity":"min","time":"2006/07/01 00:00:00 -0400"},"targettype":null,"country":"Saudi Arabia","cinjuries":null,"gdeaths":null,"targetstatus":null,"id":"100","deaths":null,"group":"Lashkar-e-Tayyiba (LeT) - Pakistan &amp; India","ginjuries":null,"injuries":null,"state":"Unknown"},"type":"Feature","geometry":null},{"properties":{"targettype2":null,"city":"Unknown","cdeaths":null,"region":"Middle East","itype":"Financing","date":{"end_time":"2004/10/19 00:01:00 -0400","original":"10/19/2004 0:00","granularity":"min","time":"2004/10/19 00:00:00 -0400"},"targettype":null,"country":"Saudi Arabia","cinjuries":null,"gdeaths":null,"targetstatus":null,"id":"101","deaths":null,"group":"Taliban (Afghanistan)","ginjuries":null,"injuries":null,"state":"Unknown"},"type":"Feature","geometry":null},{"properties":{"targettype2":null,"city":"Unknown","cdeaths":null,"region":"Middle East","itype":"Financing","date":null,"targettype":null,"country":"Saudi Arabia","cinjuries":null,"gdeaths":null,"targetstatus":null,"id":"102","deaths":null,"group":null,"ginjuries":null,"injuries":null,"state":"Unknown"},"type":"Feature","geometry":null},{"properties":{"targettype2":"other","city":"Medina","cdeaths":0,"region":"Middle East","itype":"Hijacking","date":{"end_time":"2001/03/15 00:01:00 -0500","original":"3/15/2001 0:00","granularity":"min","time":"2001/03/15 00:00:00 -0500"},"targettype":"Individual","country":"Saudi Arabia","cinjuries":0,"gdeaths":0,"targetstatus":"OTHER","id":"103","deaths":0,"group":null,"ginjuries":0,"injuries":0,"state":"Al Madinah"},"type":"Feature","geometry":{"type":"Point","coordinates":[39.6142,24.4686]}},{"properties":{"targettype2":null,"city":"Riyadh","cdeaths":0,"region":"Middle East","itype":"Hostage Taking/Kidnapping","date":{"end_time":"2004/06/12 00:01:00 -0400","original":"6/12/2004 0:00","granularity":"min","time":"2004/06/12 00:00:00 -0400"},"targettype":null,"country":"Saudi Arabia","cinjuries":0,"gdeaths":0,"targetstatus":null,"id":"104","deaths":0,"group":"Al Qaeda Organization in the Arabian Peninsula (AQAP) - Saudi Arabia/Yemen","ginjuries":0,"injuries":0,"state":"Ar Riyad (Riyadh)"},"type":"Feature","geometry":{"type":"Point","coordinates":[46.7728,24.6408]}},{"properties":{"targettype2":null,"city":"Jizan","cdeaths":null,"region":"Middle East","itype":"Hostage Taking/Kidnapping","date":{"end_time":"2003/09/22 00:01:00 -0400","original":"9/22/2003 0:00","granularity":"min","time":"2003/09/22 00:00:00 -0400"},"targettype":null,"country":"Saudi Arabia","cinjuries":null,"gdeaths":null,"targetstatus":null,"id":"105","deaths":null,"group":null,"ginjuries":null,"injuries":null,"state":"Jizan (Qizan)"},"type":"Feature","geometry":{"type":"Point","coordinates":[42.5511,16.8892]}},{"properties":{"targettype2":null,"city":"Riyadh","cdeaths":0,"region":"Middle East","itype":"Military Operation","date":{"end_time":"2005/04/04 00:01:00 -0400","original":"4/4/2005 0:00","granularity":"min","time":"2005/04/04 00:00:00 -0400"},"targettype":null,"country":"Saudi Arabia","cinjuries":0,"gdeaths":0,"targetstatus":null,"id":"106","deaths":8,"group":"Al Qaeda Organization in the Arabian Peninsula (AQAP) - Saudi Arabia/Yemen","ginjuries":0,"injuries":1,"state":"Ar Riyad (Riyadh)"},"type":"Feature","geometry":{"type":"Point","coordinates":[46.7728,24.6408]}},{"properties":{"targettype2":null,"city":"Riyadh","cdeaths":0,"region":"Middle East","itype":"Military Operation","date":{"end_time":"2005/04/06 00:01:00 -0400","original":"4/6/2005 0:00","granularity":"min","time":"2005/04/06 00:00:00 -0400"},"targettype":null,"country":"Saudi Arabia","cinjuries":0,"gdeaths":0,"targetstatus":null,"id":"107","deaths":1,"group":"Al Qaeda Organization in the Arabian Peninsula (AQAP) - Saudi Arabia/Yemen","ginjuries":0,"injuries":1,"state":"Ar Riyad (Riyadh)"},"type":"Feature","geometry":{"type":"Point","coordinates":[46.7728,24.6408]}},{"properties":{"targettype2":null,"city":"Riyadh","cdeaths":null,"region":"Middle East","itype":"Military Operation","date":{"end_time":"2004/04/25 00:01:00 -0400","original":"4/25/2004 0:00","granularity":"min","time":"2004/04/25 00:00:00 -0400"},"targettype":null,"country":"Saudi Arabia","cinjuries":null,"gdeaths":null,"targetstatus":null,"id":"108","deaths":null,"group":"Al Qaeda Organization in the Arabian Peninsula (AQAP) - Saudi Arabia/Yemen","ginjuries":null,"injuries":null,"state":"Ar Riyad (Riyadh)"},"type":"Feature","geometry":{"type":"Point","coordinates":[46.7728,24.6408]}},{"properties":{"targettype2":null,"city":"Riyadh","cdeaths":null,"region":"Middle East","itype":"Military Operation","date":{"end_time":"2005/04/12 00:01:00 -0400","original":"4/12/2005 0:00","granularity":"min","time":"2005/04/12 00:00:00 -0400"},"targettype":null,"country":"Saudi Arabia","cinjuries":null,"gdeaths":null,"targetstatus":null,"id":"109","deaths":null,"group":"Al Qaeda Organization in the Arabian Peninsula (AQAP) - Saudi Arabia/Yemen","ginjuries":null,"injuries":null,"state":"Ar Riyad (Riyadh)"},"type":"Feature","geometry":{"type":"Point","coordinates":[46.7728,24.6408]}},{"properties":{"targettype2":null,"city":"Unknown","cdeaths":null,"region":"Middle East","itype":"Military Operation","date":{"end_time":"2005/04/26 00:01:00 -0400","original":"4/26/2005 0:00","granularity":"min","time":"2005/04/26 00:00:00 -0400"},"targettype":null,"country":"Saudi Arabia","cinjuries":null,"gdeaths":null,"targetstatus":null,"id":"110","deaths":null,"group":"Al Qaeda Organization in the Arabian Peninsula (AQAP) - Saudi Arabia/Yemen","ginjuries":null,"injuries":null,"state":"Unknown"},"type":"Feature","geometry":null},{"properties":{"targettype2":null,"city":"Riyadh","cdeaths":null,"region":"Middle East","itype":"Military Operation","date":{"end_time":"2005/06/16 00:01:00 -0400","original":"6/16/2005 0:00","granularity":"min","time":"2005/06/16 00:00:00 -0400"},"targettype":null,"country":"Saudi Arabia","cinjuries":null,"gdeaths":null,"targetstatus":null,"id":"111","deaths":null,"group":"Al Qaeda Organization in the Arabian Peninsula (AQAP) - Saudi Arabia/Yemen","ginjuries":null,"injuries":null,"state":"Ar Riyad (Riyadh)"},"type":"Feature","geometry":{"type":"Point","coordinates":[46.7728,24.6408]}},{"properties":{"targettype2":null,"city":"Jeddah","cdeaths":0,"region":"Middle East","itype":"Military Operation","date":{"end_time":"2004/12/06 00:01:00 -0500","original":"12/6/2004 0:00","granularity":"min","time":"2004/12/06 00:00:00 -0500"},"targettype":null,"country":"Saudi Arabia","cinjuries":0,"gdeaths":0,"targetstatus":null,"id":"112","deaths":3,"group":"Al Qaeda Organization in the Arabian Peninsula (AQAP) - Saudi Arabia/Yemen","ginjuries":0,"injuries":2,"state":"Mekkah"},"type":"Feature","geometry":{"type":"Point","coordinates":[39.2192,21.5169]}},{"properties":{"targettype2":null,"city":"Unknown","cdeaths":null,"region":"Middle East","itype":"Military Operation","date":{"end_time":"2003/09/09 00:01:00 -0400","original":"9/9/2003 0:00","granularity":"min","time":"2003/09/09 00:00:00 -0400"},"targettype":null,"country":"Saudi Arabia","cinjuries":null,"gdeaths":null,"targetstatus":null,"id":"113","deaths":null,"group":"Al Qaeda Organization in the Arabian Peninsula (AQAP) - Saudi Arabia/Yemen","ginjuries":null,"injuries":null,"state":"Unknown"},"type":"Feature","geometry":null},{"properties":{"targettype2":null,"city":"Unknown","cdeaths":null,"region":"Middle East","itype":"Military Operation","date":{"end_time":"2004/01/20 00:01:00 -0500","original":"1/20/2004 0:00","granularity":"min","time":"2004/01/20 00:00:00 -0500"},"targettype":null,"country":"Saudi Arabia","cinjuries":null,"gdeaths":null,"targetstatus":null,"id":"114","deaths":null,"group":"Al Qaeda Organization in the Arabian Peninsula (AQAP) - Saudi Arabia/Yemen","ginjuries":null,"injuries":null,"state":"Unknown"},"type":"Feature","geometry":null},{"properties":{"targettype2":null,"city":"Unknown","cdeaths":null,"region":"Middle East","itype":"Military Operation","date":{"end_time":"2004/04/29 00:01:00 -0400","original":"4/29/2004 0:00","granularity":"min","time":"2004/04/29 00:00:00 -0400"},"targettype":null,"country":"Saudi Arabia","cinjuries":null,"gdeaths":null,"targetstatus":null,"id":"115","deaths":null,"group":"Al Qaeda Organization in the Arabian Peninsula (AQAP) - Saudi Arabia/Yemen","ginjuries":null,"injuries":null,"state":"Ar Riyad (Riyadh)"},"type":"Feature","geometry":null},{"properties":{"targettype2":null,"city":"At Taif","cdeaths":0,"region":"Middle East","itype":"Military Operation","date":{"end_time":"2009/07/10 00:01:00 -0400","original":"7/10/2009 0:00","granularity":"min","time":"2009/07/10 00:00:00 -0400"},"targettype":null,"country":"Saudi Arabia","cinjuries":0,"gdeaths":0,"targetstatus":null,"id":"116","deaths":0,"group":"Al Qaeda Organization in the Arabian Peninsula (AQAP) - Saudi Arabia/Yemen","ginjuries":0,"injuries":0,"state":"Mekkah"},"type":"Feature","geometry":{"type":"Point","coordinates":[40.4158,21.2703]}},{"properties":{"targettype2":null,"city":"Riyadh","cdeaths":0,"region":"Middle East","itype":"Military Operation","date":{"end_time":"2005/04/04 00:01:00 -0400","original":"4/4/2005 0:00","granularity":"min","time":"2005/04/04 00:00:00 -0400"},"targettype":null,"country":"Saudi Arabia","cinjuries":null,"gdeaths":0,"targetstatus":null,"id":"117","deaths":9,"group":"Al Qaeda Organization in the Arabian Peninsula (AQAP) - Saudi Arabia/Yemen","ginjuries":null,"injuries":null,"state":"Ar Riyad (Riyadh)"},"type":"Feature","geometry":{"type":"Point","coordinates":[46.7728,24.6408]}},{"properties":{"targettype2":null,"city":"Riyadh","cdeaths":0,"region":"Middle East","itype":"Military Operation","date":{"end_time":"2005/04/04 00:01:00 -0400","original":"4/4/2005 0:00","granularity":"min","time":"2005/04/04 00:00:00 -0400"},"targettype":null,"country":"Saudi Arabia","cinjuries":0,"gdeaths":0,"targetstatus":null,"id":"118","deaths":8,"group":"Al Qaeda Organization in the Arabian Peninsula (AQAP) - Saudi Arabia/Yemen","ginjuries":15,"injuries":15,"state":"Ar Riyad (Riyadh)"},"type":"Feature","geometry":{"type":"Point","coordinates":[46.7728,24.6408]}},{"properties":{"targettype2":null,"city":"Al Baradah","cdeaths":0,"region":"Middle East","itype":"Military Operation","date":{"end_time":"2009/07/01 00:01:00 -0400","original":"7/1/2009 0:00","granularity":"min","time":"2009/07/01 00:00:00 -0400"},"targettype":null,"country":"Saudi Arabia","cinjuries":0,"gdeaths":0,"targetstatus":null,"id":"119","deaths":0,"group":"Al Qaeda Organization in the Arabian Peninsula (AQAP) - Saudi Arabia/Yemen","ginjuries":0,"injuries":0,"state":"Al Qasim"},"type":"Feature","geometry":{"type":"Point","coordinates":[39.6061,24.0439]}},{"properties":{"targettype2":null,"city":"Riyadh","cdeaths":0,"region":"Middle East","itype":"Military Operation","date":{"end_time":"2005/04/09 00:01:00 -0400","original":"4/9/2005 0:00","granularity":"min","time":"2005/04/09 00:00:00 -0400"},"targettype":null,"country":"Saudi Arabia","cinjuries":0,"gdeaths":0,"targetstatus":null,"id":"120","deaths":15,"group":"Al Qaeda Organization in the Arabian Peninsula (AQAP) - Saudi Arabia/Yemen","ginjuries":0,"injuries":5,"state":"Ar Riyad (Riyadh)"},"type":"Feature","geometry":{"type":"Point","coordinates":[46.7728,24.6408]}},{"properties":{"targettype2":null,"city":"Riyadh","cdeaths":0,"region":"Middle East","itype":"Military Operation","date":{"end_time":"2005/07/03 00:01:00 -0400","original":"7/3/2005 0:00","granularity":"min","time":"2005/07/03 00:00:00 -0400"},"targettype":null,"country":"Saudi Arabia","cinjuries":5,"gdeaths":0,"targetstatus":null,"id":"121","deaths":1,"group":"Al Qaeda Organization in the Arabian Peninsula (AQAP) - Saudi Arabia/Yemen","ginjuries":6,"injuries":11,"state":"Ar Riyad (Riyadh)"},"type":"Feature","geometry":{"type":"Point","coordinates":[46.7728,24.6408]}},{"properties":{"targettype2":null,"city":"Unknown","cdeaths":0,"region":"Middle East","itype":"Military Operation","date":{"end_time":"2007/04/28 00:01:00 -0400","original":"4/28/2007 0:00","granularity":"min","time":"2007/04/28 00:00:00 -0400"},"targettype":null,"country":"Saudi Arabia","cinjuries":0,"gdeaths":0,"targetstatus":null,"id":"122","deaths":0,"group":"Al Qaeda Organization in the Arabian Peninsula (AQAP) - Saudi Arabia/Yemen","ginjuries":0,"injuries":0,"state":"Unknown"},"type":"Feature","geometry":null},{"properties":{"targettype2":null,"city":"Al Qadisiyah","cdeaths":0,"region":"Middle East","itype":"Military Operation","date":{"end_time":"2004/11/16 00:01:00 -0500","original":"11/16/2004 0:00","granularity":"min","time":"2004/11/16 00:00:00 -0500"},"targettype":null,"country":"Saudi Arabia","cinjuries":0,"gdeaths":1,"targetstatus":null,"id":"123","deaths":1,"group":"Al Qaeda Organization in the Arabian Peninsula (AQAP) - Saudi Arabia/Yemen","ginjuries":8,"injuries":9,"state":"Al Qasim"},"type":"Feature","geometry":{"type":"Point","coordinates":[46.8283381,24.8262429]}},{"properties":{"targettype2":null,"city":"Khobar","cdeaths":0,"region":"Middle East","itype":"Military Operation","date":{"end_time":"2004/05/30 00:01:00 -0400","original":"5/30/2004 0:00","granularity":"min","time":"2004/05/30 00:00:00 -0400"},"targettype":null,"country":"Saudi Arabia","cinjuries":0,"gdeaths":0,"targetstatus":null,"id":"124","deaths":0,"group":"Al Qaeda Organization in the Arabian Peninsula (AQAP) - Saudi Arabia/Yemen","ginjuries":0,"injuries":1,"state":"Ash Sharqiyah"},"type":"Feature","geometry":{"type":"Point","coordinates":[50.2083,26.2794]}},{"properties":{"targettype2":null,"city":"Riyadh","cdeaths":0,"region":"Middle East","itype":"Military Operation","date":{"end_time":"2004/12/28 00:01:00 -0500","original":"12/28/2004 0:00","granularity":"min","time":"2004/12/28 00:00:00 -0500"},"targettype":null,"country":"Saudi Arabia","cinjuries":0,"gdeaths":0,"targetstatus":null,"id":"125","deaths":0,"group":"Al Qaeda Organization in the Arabian Peninsula (AQAP) - Saudi Arabia/Yemen","ginjuries":0,"injuries":0,"state":"Ar Riyad (Riyadh)"},"type":"Feature","geometry":{"type":"Point","coordinates":[46.7728,24.6408]}},{"properties":{"targettype2":null,"city":"Riyadh","cdeaths":0,"region":"Middle East","itype":"Military Operation","date":{"end_time":"2004/12/29 00:01:00 -0500","original":"12/29/2004 0:00","granularity":"min","time":"2004/12/29 00:00:00 -0500"},"targettype":null,"country":"Saudi Arabia","cinjuries":0,"gdeaths":0,"targetstatus":null,"id":"126","deaths":10,"group":"Al Qaeda Organization in the Arabian Peninsula (AQAP) - Saudi Arabia/Yemen","ginjuries":0,"injuries":0,"state":"Ar Riyad (Riyadh)"},"type":"Feature","geometry":{"type":"Point","coordinates":[46.7728,24.6408]}},{"properties":{"targettype2":null,"city":"Riyadh","cdeaths":0,"region":"Middle East","itype":"Military Operation","date":{"end_time":"2004/03/15 00:01:00 -0500","original":"3/15/2004 0:00","granularity":"min","time":"2004/03/15 00:00:00 -0500"},"targettype":null,"country":"Saudi Arabia","cinjuries":0,"gdeaths":0,"targetstatus":null,"id":"127","deaths":2,"group":"Al Qaeda Organization in the Arabian Peninsula (AQAP) - Saudi Arabia/Yemen","ginjuries":0,"injuries":0,"state":"Ar Riyad (Riyadh)"},"type":"Feature","geometry":{"type":"Point","coordinates":[46.7728,24.6408]}},{"properties":{"targettype2":null,"city":"Unknown","cdeaths":0,"region":"Middle East","itype":"Military Operation","date":{"end_time":"2003/05/18 00:01:00 -0400","original":"5/18/2003 0:00","granularity":"min","time":"2003/05/18 00:00:00 -0400"},"targettype":null,"country":"Saudi Arabia","cinjuries":0,"gdeaths":0,"targetstatus":null,"id":"128","deaths":0,"group":"Al Qaeda Organization in the Arabian Peninsula (AQAP) - Saudi Arabia/Yemen","ginjuries":0,"injuries":0,"state":"Unknown"},"type":"Feature","geometry":null},{"properties":{"targettype2":null,"city":"Jeddah","cdeaths":0,"region":"Middle East","itype":"Military Operation","date":{"end_time":"2004/11/27 00:01:00 -0500","original":"11/27/2004 0:00","granularity":"min","time":"2004/11/27 00:00:00 -0500"},"targettype":null,"country":"Saudi Arabia","cinjuries":0,"gdeaths":0,"targetstatus":null,"id":"129","deaths":1,"group":"Al Qaeda Organization in the Arabian Peninsula (AQAP) - Saudi Arabia/Yemen","ginjuries":0,"injuries":0,"state":"Mekkah"},"type":"Feature","geometry":{"type":"Point","coordinates":[39.2192,21.5169]}},{"properties":{"targettype2":null,"city":"Unknown","cdeaths":0,"region":"Middle East","itype":"Military Operation","date":{"end_time":"2003/11/26 00:01:00 -0500","original":"11/26/2003 0:00","granularity":"min","time":"2003/11/26 00:00:00 -0500"},"targettype":null,"country":"Saudi Arabia","cinjuries":0,"gdeaths":0,"targetstatus":null,"id":"130","deaths":0,"group":"Al Qaeda Organization in the Arabian Peninsula (AQAP) - Saudi Arabia/Yemen","ginjuries":0,"injuries":0,"state":"Unknown"},"type":"Feature","geometry":null},{"properties":{"targettype2":null,"city":"Al Baradah","cdeaths":0,"region":"Middle East","itype":"Military Operation","date":{"end_time":"2004/11/03 00:01:00 -0500","original":"11/3/2004 0:00","granularity":"min","time":"2004/11/03 00:00:00 -0500"},"targettype":null,"country":"Saudi Arabia","cinjuries":0,"gdeaths":0,"targetstatus":null,"id":"131","deaths":0,"group":"Al Qaeda Organization in the Arabian Peninsula (AQAP) - Saudi Arabia/Yemen","ginjuries":0,"injuries":0,"state":"Al Qasim"},"type":"Feature","geometry":{"type":"Point","coordinates":[39.6061,24.0439]}},{"properties":{"targettype2":null,"city":"Riyadh","cdeaths":0,"region":"Middle East","itype":"Military Operation","date":{"end_time":"2004/12/28 00:01:00 -0500","original":"12/28/2004 0:00","granularity":"min","time":"2004/12/28 00:00:00 -0500"},"targettype":null,"country":"Saudi Arabia","cinjuries":0,"gdeaths":0,"targetstatus":null,"id":"132","deaths":3,"group":"Al Qaeda Organization in the Arabian Peninsula (AQAP) - Saudi Arabia/Yemen","ginjuries":0,"injuries":0,"state":"Ar Riyad (Riyadh)"},"type":"Feature","geometry":{"type":"Point","coordinates":[46.7728,24.6408]}},{"properties":{"targettype2":null,"city":"Unknown","cdeaths":0,"region":"Middle East","itype":"Military Operation","date":{"end_time":"2007/12/03 00:01:00 -0500","original":"12/3/2007 0:00","granularity":"min","time":"2007/12/03 00:00:00 -0500"},"targettype":null,"country":"Saudi Arabia","cinjuries":0,"gdeaths":0,"targetstatus":null,"id":"133","deaths":0,"group":"Al Qaeda Organization in the Arabian Peninsula (AQAP) - Saudi Arabia/Yemen","ginjuries":0,"injuries":0,"state":"Unknown"},"type":"Feature","geometry":null},{"properties":{"targettype2":null,"city":"Riyadh","cdeaths":0,"region":"Middle East","itype":"Military Operation","date":{"end_time":"2009/11/02 00:01:00 -0500","original":"11/2/2009 0:00","granularity":"min","time":"2009/11/02 00:00:00 -0500"},"targettype":null,"country":"Saudi Arabia","cinjuries":0,"gdeaths":0,"targetstatus":null,"id":"134","deaths":0,"group":"Al Qaeda Organization in the Arabian Peninsula (AQAP) - Saudi Arabia/Yemen","ginjuries":0,"injuries":0,"state":"Ar Riyad (Riyadh)"},"type":"Feature","geometry":{"type":"Point","coordinates":[46.7728,24.6408]}},{"properties":{"targettype2":null,"city":"Unknown","cdeaths":0,"region":"Middle East","itype":"Military Operation","date":{"end_time":"2004/06/01 00:01:00 -0400","original":"6/1/2004 0:00","granularity":"min","time":"2004/06/01 00:00:00 -0400"},"targettype":null,"country":"Saudi Arabia","cinjuries":0,"gdeaths":0,"targetstatus":null,"id":"135","deaths":2,"group":"Al Qaeda Organization in the Arabian Peninsula (AQAP) - Saudi Arabia/Yemen","ginjuries":0,"injuries":2,"state":"Unknown"},"type":"Feature","geometry":null},{"properties":{"targettype2":null,"city":"Riyadh","cdeaths":0,"region":"Middle East","itype":"Military Operation","date":{"end_time":"2006/01/16 00:01:00 -0500","original":"1/16/2006 0:00","granularity":"min","time":"2006/01/16 00:00:00 -0500"},"targettype":null,"country":"Saudi Arabia","cinjuries":0,"gdeaths":0,"targetstatus":null,"id":"136","deaths":0,"group":"Al Qaeda Organization in the Arabian Peninsula (AQAP) - Saudi Arabia/Yemen","ginjuries":0,"injuries":0,"state":"Ar Riyad (Riyadh)"},"type":"Feature","geometry":{"type":"Point","coordinates":[46.7728,24.6408]}},{"properties":{"targettype2":null,"city":"Hafer Al Baten","cdeaths":null,"region":"Middle East","itype":"Military Operation","date":{"end_time":"2004/10/26 00:01:00 -0400","original":"10/26/2004 0:00","granularity":"min","time":"2004/10/26 00:00:00 -0400"},"targettype":null,"country":"Saudi Arabia","cinjuries":null,"gdeaths":null,"targetstatus":null,"id":"137","deaths":null,"group":null,"ginjuries":null,"injuries":null,"state":"Ash Sharqiyah"},"type":"Feature","geometry":{"type":"Point","coordinates":[45.9636,28.4342]}},{"properties":{"targettype2":null,"city":"Mecca","cdeaths":0,"region":"Middle East","itype":"Military Operation","date":{"end_time":"2005/04/21 00:01:00 -0400","original":"4/21/2005 0:00","granularity":"min","time":"2005/04/21 00:00:00 -0400"},"targettype":null,"country":"Saudi Arabia","cinjuries":null,"gdeaths":0,"targetstatus":null,"id":"138","deaths":2,"group":null,"ginjuries":null,"injuries":null,"state":"Mekkah"},"type":"Feature","geometry":{"type":"Point","coordinates":[39.8378,21.4256]}},{"properties":{"targettype2":null,"city":"Unknown","cdeaths":0,"region":"Middle East","itype":"Military Operation","date":{"end_time":"2007/05/27 00:01:00 -0400","original":"5/27/2007 0:00","granularity":"min","time":"2007/05/27 00:00:00 -0400"},"targettype":null,"country":"Saudi Arabia","cinjuries":0,"gdeaths":0,"targetstatus":null,"id":"139","deaths":0,"group":null,"ginjuries":0,"injuries":0,"state":"Unknown"},"type":"Feature","geometry":null},{"properties":{"targettype2":null,"city":"Jizan","cdeaths":null,"region":"Middle East","itype":"Military Operation","date":{"end_time":"2004/02/23 00:01:00 -0500","original":"2/23/2004 0:00","granularity":"min","time":"2004/02/23 00:00:00 -0500"},"targettype":null,"country":"Saudi Arabia","cinjuries":null,"gdeaths":null,"targetstatus":null,"id":"140","deaths":null,"group":null,"ginjuries":null,"injuries":null,"state":"Jizan (Qizan)"},"type":"Feature","geometry":{"type":"Point","coordinates":[42.5511,16.8892]}},{"properties":{"targettype2":null,"city":"Unknown","cdeaths":null,"region":"Middle East","itype":"Military Operation","date":{"end_time":"2005/06/10 00:01:00 -0400","original":"6/10/2005 0:00","granularity":"min","time":"2005/06/10 00:00:00 -0400"},"targettype":null,"country":"Saudi Arabia","cinjuries":null,"gdeaths":null,"targetstatus":null,"id":"141","deaths":null,"group":null,"ginjuries":null,"injuries":null,"state":"Asir"},"type":"Feature","geometry":null},{"properties":{"targettype2":null,"city":"Unknown","cdeaths":null,"region":"Middle East","itype":"Military Operation","date":{"end_time":"2003/10/08 00:01:00 -0400","original":"10/8/2003 0:00","granularity":"min","time":"2003/10/08 00:00:00 -0400"},"targettype":null,"country":"Saudi Arabia","cinjuries":0,"gdeaths":null,"targetstatus":null,"id":"142","deaths":null,"group":null,"ginjuries":0,"injuries":0,"state":"Al Qasim"},"type":"Feature","geometry":null},{"properties":{"targettype2":null,"city":"Riyadh","cdeaths":0,"region":"Middle East","itype":"Military Operation","date":{"end_time":"2004/04/05 00:01:00 -0400","original":"4/5/2004 0:00","granularity":"min","time":"2004/04/05 00:00:00 -0400"},"targettype":null,"country":"Saudi Arabia","cinjuries":0,"gdeaths":0,"targetstatus":null,"id":"143","deaths":1,"group":null,"ginjuries":0,"injuries":1,"state":"Ar Riyad (Riyadh)"},"type":"Feature","geometry":{"type":"Point","coordinates":[46.7728,24.6408]}},{"properties":{"targettype2":null,"city":"Riyadh","cdeaths":0,"region":"Middle East","itype":"Military Operation","date":{"end_time":"2004/10/12 00:01:00 -0400","original":"10/12/2004 0:00","granularity":"min","time":"2004/10/12 00:00:00 -0400"},"targettype":null,"country":"Saudi Arabia","cinjuries":0,"gdeaths":0,"targetstatus":null,"id":"144","deaths":3,"group":null,"ginjuries":7,"injuries":7,"state":"Ar Riyad (Riyadh)"},"type":"Feature","geometry":{"type":"Point","coordinates":[46.7728,24.6408]}},{"properties":{"targettype2":null,"city":"Riyadh","cdeaths":0,"region":"Middle East","itype":"Military Operation","date":{"end_time":"2004/03/15 00:01:00 -0500","original":"3/15/2004 0:00","granularity":"min","time":"2004/03/15 00:00:00 -0500"},"targettype":null,"country":"Saudi Arabia","cinjuries":null,"gdeaths":0,"targetstatus":null,"id":"145","deaths":2,"group":null,"ginjuries":null,"injuries":null,"state":"Ar Riyad (Riyadh)"},"type":"Feature","geometry":{"type":"Point","coordinates":[46.7728,24.6408]}},{"properties":{"targettype2":null,"city":"Unknown","cdeaths":null,"region":"Middle East","itype":"Military Operation","date":{"end_time":"2003/10/05 00:01:00 -0400","original":"10/5/2003 0:00","granularity":"min","time":"2003/10/05 00:00:00 -0400"},"targettype":null,"country":"Saudi Arabia","cinjuries":null,"gdeaths":null,"targetstatus":null,"id":"146","deaths":null,"group":null,"ginjuries":null,"injuries":null,"state":"Unknown"},"type":"Feature","geometry":null},{"properties":{"targettype2":null,"city":"Riyadh","cdeaths":null,"region":"Middle East","itype":"Military Operation","date":{"end_time":"2004/02/14 00:01:00 -0500","original":"2/14/2004 0:00","granularity":"min","time":"2004/02/14 00:00:00 -0500"},"targettype":null,"country":"Saudi Arabia","cinjuries":null,"gdeaths":null,"targetstatus":null,"id":"147","deaths":null,"group":null,"ginjuries":null,"injuries":null,"state":"Ar Riyad (Riyadh)"},"type":"Feature","geometry":{"type":"Point","coordinates":[46.7728,24.6408]}},{"properties":{"targettype2":null,"city":"Unknown","cdeaths":0,"region":"Middle East","itype":"Military Operation","date":{"end_time":"2008/03/23 00:01:00 -0400","original":"3/23/2008 0:00","granularity":"min","time":"2008/03/23 00:00:00 -0400"},"targettype":null,"country":"Saudi Arabia","cinjuries":0,"gdeaths":0,"targetstatus":null,"id":"148","deaths":0,"group":null,"ginjuries":0,"injuries":0,"state":"Unknown"},"type":"Feature","geometry":null},{"properties":{"targettype2":null,"city":"Jeddah","cdeaths":0,"region":"Middle East","itype":"Military Operation","date":{"end_time":"2004/11/09 00:01:00 -0500","original":"11/9/2004 0:00","granularity":"min","time":"2004/11/09 00:00:00 -0500"},"targettype":null,"country":"Saudi Arabia","cinjuries":0,"gdeaths":0,"targetstatus":null,"id":"149","deaths":1,"group":null,"ginjuries":0,"injuries":1,"state":"Mekkah"},"type":"Feature","geometry":{"type":"Point","coordinates":[39.2192,21.5169]}},{"properties":{"targettype2":null,"city":"Medina","cdeaths":null,"region":"Middle East","itype":"Military Operation","date":{"end_time":"2007/04/06 00:01:00 -0400","original":"4/6/2007 0:00","granularity":"min","time":"2007/04/06 00:00:00 -0400"},"targettype":null,"country":"Saudi Arabia","cinjuries":null,"gdeaths":null,"targetstatus":null,"id":"150","deaths":null,"group":null,"ginjuries":null,"injuries":null,"state":"Al Madinah"},"type":"Feature","geometry":{"type":"Point","coordinates":[39.6142,24.4686]}},{"properties":{"targettype2":null,"city":"Jeddah","cdeaths":0,"region":"Middle East","itype":"Military Operation","date":{"end_time":"2004/11/09 00:01:00 -0500","original":"11/9/2004 0:00","granularity":"min","time":"2004/11/09 00:00:00 -0500"},"targettype":null,"country":"Saudi Arabia","cinjuries":0,"gdeaths":0,"targetstatus":null,"id":"151","deaths":1,"group":null,"ginjuries":2,"injuries":2,"state":"Mekkah"},"type":"Feature","geometry":{"type":"Point","coordinates":[39.2192,21.5169]}},{"properties":{"targettype2":null,"city":"Medina","cdeaths":0,"region":"Middle East","itype":"Military Operation","date":{"end_time":"2006/11/19 00:01:00 -0500","original":"11/19/2006 0:00","granularity":"min","time":"2006/11/19 00:00:00 -0500"},"targettype":null,"country":"Saudi Arabia","cinjuries":0,"gdeaths":0,"targetstatus":null,"id":"152","deaths":0,"group":null,"ginjuries":0,"injuries":0,"state":"Al Madinah"},"type":"Feature","geometry":{"type":"Point","coordinates":[39.6142,24.4686]}},{"properties":{"targettype2":null,"city":"Jeddah","cdeaths":null,"region":"Middle East","itype":"Military Operation","date":{"end_time":"2005/12/18 00:01:00 -0500","original":"12/18/2005 0:00","granularity":"min","time":"2005/12/18 00:00:00 -0500"},"targettype":null,"country":"Saudi Arabia","cinjuries":null,"gdeaths":null,"targetstatus":null,"id":"153","deaths":null,"group":null,"ginjuries":null,"injuries":null,"state":"Mekkah"},"type":"Feature","geometry":{"type":"Point","coordinates":[39.2192,21.5169]}},{"properties":{"targettype2":null,"city":"Riyadh","cdeaths":0,"region":"Middle East","itype":"Military Operation","date":{"end_time":"2007/02/24 00:01:00 -0500","original":"2/24/2007 0:00","granularity":"min","time":"2007/02/24 00:00:00 -0500"},"targettype":null,"country":"Saudi Arabia","cinjuries":0,"gdeaths":0,"targetstatus":null,"id":"154","deaths":0,"group":null,"ginjuries":0,"injuries":0,"state":"Ar Riyad (Riyadh)"},"type":"Feature","geometry":{"type":"Point","coordinates":[46.7728,24.6408]}},{"properties":{"targettype2":null,"city":"Riyadh","cdeaths":null,"region":"Middle East","itype":"Police Operation","date":{"end_time":"2004/06/30 00:01:00 -0400","original":"6/30/2004 0:00","granularity":"min","time":"2004/06/30 00:00:00 -0400"},"targettype":null,"country":"Saudi Arabia","cinjuries":null,"gdeaths":1,"targetstatus":null,"id":"155","deaths":2,"group":"Al Qaeda Organization in the Arabian Peninsula (AQAP) - Saudi Arabia/Yemen","ginjuries":null,"injuries":null,"state":"Ar Riyad (Riyadh)"},"type":"Feature","geometry":{"type":"Point","coordinates":[46.7728,24.6408]}},{"properties":{"targettype2":null,"city":"Medina","cdeaths":0,"region":"Middle East","itype":"Police Operation","date":{"end_time":"2003/06/09 00:01:00 -0400","original":"6/9/2003 0:00","granularity":"min","time":"2003/06/09 00:00:00 -0400"},"targettype":null,"country":"Saudi Arabia","cinjuries":0,"gdeaths":0,"targetstatus":null,"id":"156","deaths":0,"group":"Al Qaeda Organization in the Arabian Peninsula (AQAP) - Saudi Arabia/Yemen","ginjuries":0,"injuries":0,"state":"Al Madinah"},"type":"Feature","geometry":{"type":"Point","coordinates":[39.6142,24.4686]}},{"properties":{"targettype2":null,"city":"Braida","cdeaths":null,"region":"Middle East","itype":"Police Operation","date":{"end_time":"2004/05/24 00:01:00 -0400","original":"5/24/2004 0:00","granularity":"min","time":"2004/05/24 00:00:00 -0400"},"targettype":null,"country":"Saudi Arabia","cinjuries":null,"gdeaths":null,"targetstatus":null,"id":"157","deaths":null,"group":"Al Qaeda Organization in the Arabian Peninsula (AQAP) - Saudi Arabia/Yemen","ginjuries":null,"injuries":null,"state":"Ar Riyad (Riyadh)"},"type":"Feature","geometry":null},{"properties":{"targettype2":null,"city":"Riyadh","cdeaths":null,"region":"Middle East","itype":"Police Operation","date":{"end_time":"2005/03/18 00:01:00 -0500","original":"3/18/2005 0:00","granularity":"min","time":"2005/03/18 00:00:00 -0500"},"targettype":null,"country":"Saudi Arabia","cinjuries":null,"gdeaths":null,"targetstatus":null,"id":"158","deaths":null,"group":"Al Qaeda Organization in the Arabian Peninsula (AQAP) - Saudi Arabia/Yemen","ginjuries":null,"injuries":null,"state":"Ar Riyad (Riyadh)"},"type":"Feature","geometry":{"type":"Point","coordinates":[46.7728,24.6408]}},{"properties":{"targettype2":null,"city":"Riyadh","cdeaths":null,"region":"Middle East","itype":"Police Operation","date":{"end_time":"2004/07/21 00:01:00 -0400","original":"7/21/2004 0:00","granularity":"min","time":"2004/07/21 00:00:00 -0400"},"targettype":null,"country":"Saudi Arabia","cinjuries":null,"gdeaths":null,"targetstatus":null,"id":"159","deaths":2,"group":"Al Qaeda Organization in the Arabian Peninsula (AQAP) - Saudi Arabia/Yemen","ginjuries":3,"injuries":6,"state":"Ar Riyad (Riyadh)"},"type":"Feature","geometry":{"type":"Point","coordinates":[46.7728,24.6408]}},{"properties":{"targettype2":null,"city":"Riyadh","cdeaths":0,"region":"Middle East","itype":"Police Operation","date":{"end_time":"2005/05/09 00:01:00 -0400","original":"5/9/2005 0:00","granularity":"min","time":"2005/05/09 00:00:00 -0400"},"targettype":null,"country":"Saudi Arabia","cinjuries":0,"gdeaths":0,"targetstatus":null,"id":"160","deaths":0,"group":"Al Qaeda Organization in the Arabian Peninsula (AQAP) - Saudi Arabia/Yemen","ginjuries":0,"injuries":1,"state":"Ar Riyad (Riyadh)"},"type":"Feature","geometry":{"type":"Point","coordinates":[46.7728,24.6408]}},{"properties":{"targettype2":null,"city":"Unknown","cdeaths":null,"region":"Middle East","itype":"Police Operation","date":{"end_time":"2004/05/25 00:01:00 -0400","original":"5/25/2004 0:00","granularity":"min","time":"2004/05/25 00:00:00 -0400"},"targettype":null,"country":"Saudi Arabia","cinjuries":null,"gdeaths":null,"targetstatus":null,"id":"161","deaths":null,"group":"Al Qaeda Organization in the Arabian Peninsula (AQAP) - Saudi Arabia/Yemen","ginjuries":null,"injuries":null,"state":"Al Qasim"},"type":"Feature","geometry":null},{"properties":{"targettype2":null,"city":"Unknown","cdeaths":null,"region":"Middle East","itype":"Police Operation","date":{"end_time":"2005/06/16 00:01:00 -0400","original":"6/16/2005 0:00","granularity":"min","time":"2005/06/16 00:00:00 -0400"},"targettype":null,"country":"Saudi Arabia","cinjuries":null,"gdeaths":null,"targetstatus":null,"id":"162","deaths":null,"group":"Al Qaeda Organization in the Arabian Peninsula (AQAP) - Saudi Arabia/Yemen","ginjuries":null,"injuries":null,"state":"Unknown"},"type":"Feature","geometry":null},{"properties":{"targettype2":null,"city":"Unknown","cdeaths":0,"region":"Middle East","itype":"Police Operation","date":{"end_time":"2006/12/02 00:01:00 -0500","original":"12/2/2006 0:00","granularity":"min","time":"2006/12/02 00:00:00 -0500"},"targettype":null,"country":"Saudi Arabia","cinjuries":0,"gdeaths":0,"targetstatus":null,"id":"163","deaths":0,"group":"Al Qaeda Organization in the Arabian Peninsula (AQAP) - Saudi Arabia/Yemen","ginjuries":0,"injuries":0,"state":"Unknown"},"type":"Feature","geometry":null},{"properties":{"targettype2":null,"city":"Riyadh","cdeaths":null,"region":"Middle East","itype":"Police Operation","date":{"end_time":"2004/04/12 00:01:00 -0400","original":"4/12/2004 0:00","granularity":"min","time":"2004/04/12 00:00:00 -0400"},"targettype":null,"country":"Saudi Arabia","cinjuries":null,"gdeaths":1,"targetstatus":null,"id":"164","deaths":4,"group":"Al Qaeda Organization in the Arabian Peninsula (AQAP) - Saudi Arabia/Yemen","ginjuries":null,"injuries":null,"state":"Ar Riyad (Riyadh)"},"type":"Feature","geometry":{"type":"Point","coordinates":[46.7728,24.6408]}},{"properties":{"targettype2":null,"city":"Riyadh","cdeaths":null,"region":"Middle East","itype":"Police Operation","date":{"end_time":"2004/04/21 00:01:00 -0400","original":"4/21/2004 0:00","granularity":"min","time":"2004/04/21 00:00:00 -0400"},"targettype":null,"country":"Saudi Arabia","cinjuries":null,"gdeaths":null,"targetstatus":null,"id":"165","deaths":null,"group":"Al Qaeda Organization in the Arabian Peninsula (AQAP) - Saudi Arabia/Yemen","ginjuries":null,"injuries":null,"state":"Ar Riyad (Riyadh)"},"type":"Feature","geometry":{"type":"Point","coordinates":[46.7728,24.6408]}},{"properties":{"targettype2":null,"city":"Riyadh","cdeaths":null,"region":"Middle East","itype":"Police Operation","date":{"end_time":"2004/04/19 00:01:00 -0400","original":"4/19/2004 0:00","granularity":"min","time":"2004/04/19 00:00:00 -0400"},"targettype":null,"country":"Saudi Arabia","cinjuries":null,"gdeaths":null,"targetstatus":null,"id":"166","deaths":null,"group":"Al Qaeda Organization in the Arabian Peninsula (AQAP) - Saudi Arabia/Yemen","ginjuries":null,"injuries":null,"state":"Ar Riyad (Riyadh)"},"type":"Feature","geometry":{"type":"Point","coordinates":[46.7728,24.6408]}},{"properties":{"targettype2":null,"city":"Abha","cdeaths":null,"region":"Middle East","itype":"Police Operation","date":{"end_time":"2004/08/05 00:01:00 -0400","original":"8/5/2004 0:00","granularity":"min","time":"2004/08/05 00:00:00 -0400"},"targettype":null,"country":"Saudi Arabia","cinjuries":null,"gdeaths":null,"targetstatus":null,"id":"167","deaths":null,"group":"Al Qaeda Organization in the Arabian Peninsula (AQAP) - Saudi Arabia/Yemen","ginjuries":null,"injuries":null,"state":"Asir"},"type":"Feature","geometry":{"type":"Point","coordinates":[42.5053,18.2164]}},{"properties":{"targettype2":null,"city":"Mecca","cdeaths":0,"region":"Middle East","itype":"Police Operation","date":{"end_time":"2008/03/03 00:01:00 -0500","original":"3/3/2008 0:00","granularity":"min","time":"2008/03/03 00:00:00 -0500"},"targettype":null,"country":"Saudi Arabia","cinjuries":0,"gdeaths":0,"targetstatus":null,"id":"168","deaths":0,"group":"Al Qaeda Organization in the Arabian Peninsula (AQAP) - Saudi Arabia/Yemen","ginjuries":0,"injuries":0,"state":"Mekkah"},"type":"Feature","geometry":{"type":"Point","coordinates":[39.8378,21.4256]}},{"properties":{"targettype2":null,"city":"Jizan","cdeaths":0,"region":"Middle East","itype":"Police Operation","date":{"end_time":"2003/09/23 00:01:00 -0400","original":"9/23/2003 0:00","granularity":"min","time":"2003/09/23 00:00:00 -0400"},"targettype":null,"country":"Saudi Arabia","cinjuries":null,"gdeaths":0,"targetstatus":null,"id":"169","deaths":3,"group":"Al Qaeda Organization in the Arabian Peninsula (AQAP) - Saudi Arabia/Yemen","ginjuries":null,"injuries":null,"state":"Jizan (Qizan)"},"type":"Feature","geometry":{"type":"Point","coordinates":[42.5511,16.8892]}},{"properties":{"targettype2":null,"city":"Unknown","cdeaths":null,"region":"Middle East","itype":"Police Operation","date":null,"targettype":null,"country":"Saudi Arabia","cinjuries":null,"gdeaths":null,"targetstatus":null,"id":"170","deaths":null,"group":"Al Qaeda Organization in the Arabian Peninsula (AQAP) - Saudi Arabia/Yemen","ginjuries":null,"injuries":null,"state":"Unknown"},"type":"Feature","geometry":null},{"properties":{"targettype2":null,"city":null,"cdeaths":0,"region":"Middle East","itype":"Police Operation","date":{"end_time":"2009/04/08 00:01:00 -0400","original":"4/8/2009 0:00","granularity":"min","time":"2009/04/08 00:00:00 -0400"},"targettype":null,"country":"Saudi Arabia","cinjuries":0,"gdeaths":0,"targetstatus":null,"id":"171","deaths":0,"group":"Al Qaeda Organization in the Arabian Peninsula (AQAP) - Saudi Arabia/Yemen","ginjuries":0,"injuries":0,"state":null},"type":"Feature","geometry":null},{"properties":{"targettype2":null,"city":"Unknown","cdeaths":null,"region":"Middle East","itype":"Police Operation","date":{"end_time":"2003/06/01 00:01:00 -0400","original":"6/1/2003 0:00","granularity":"min","time":"2003/06/01 00:00:00 -0400"},"targettype":null,"country":"Saudi Arabia","cinjuries":null,"gdeaths":null,"targetstatus":null,"id":"172","deaths":null,"group":"Al Qaeda Organization in the Arabian Peninsula (AQAP) - Saudi Arabia/Yemen","ginjuries":null,"injuries":null,"state":"Unknown"},"type":"Feature","geometry":null},{"properties":{"targettype2":null,"city":"Al Baradah","cdeaths":0,"region":"Middle East","itype":"Police Operation","date":{"end_time":"2009/07/01 00:01:00 -0400","original":"7/1/2009 0:00","granularity":"min","time":"2009/07/01 00:00:00 -0400"},"targettype":null,"country":"Saudi Arabia","cinjuries":0,"gdeaths":0,"targetstatus":null,"id":"173","deaths":0,"group":"Al Qaeda Group of Jihad in the Country of Two Rivers (Iraq)","ginjuries":0,"injuries":0,"state":"Al Qasim"},"type":"Feature","geometry":{"type":"Point","coordinates":[39.6061,24.0439]}},{"properties":{"targettype2":null,"city":"Medina","cdeaths":null,"region":"Middle East","itype":"Police Operation","date":{"end_time":"2007/02/01 00:01:00 -0500","original":"2/1/2007 0:00","granularity":"min","time":"2007/02/01 00:00:00 -0500"},"targettype":null,"country":"Saudi Arabia","cinjuries":null,"gdeaths":null,"targetstatus":null,"id":"174","deaths":null,"group":"Al Qaeda Group of Jihad in the Country of Two Rivers (Iraq)","ginjuries":null,"injuries":null,"state":"Al Madinah"},"type":"Feature","geometry":{"type":"Point","coordinates":[39.6142,24.4686]}},{"properties":{"targettype2":null,"city":"Riyadh","cdeaths":0,"region":"Middle East","itype":"Police Operation","date":{"end_time":"2005/03/09 00:01:00 -0500","original":"3/9/2005 0:00","granularity":"min","time":"2005/03/09 00:00:00 -0500"},"targettype":null,"country":"Saudi Arabia","cinjuries":0,"gdeaths":0,"targetstatus":null,"id":"175","deaths":0,"group":"Al Qaeda Organization in the Arabian Peninsula (AQAP) - Saudi Arabia/Yemen","ginjuries":0,"injuries":0,"state":"Ar Riyad (Riyadh)"},"type":"Feature","geometry":{"type":"Point","coordinates":[46.7728,24.6408]}},{"properties":{"targettype2":null,"city":"Jeddah","cdeaths":2,"region":"Middle East","itype":"Police Operation","date":{"end_time":"2005/03/13 00:01:00 -0500","original":"3/13/2005 0:00","granularity":"min","time":"2005/03/13 00:00:00 -0500"},"targettype":null,"country":"Saudi Arabia","cinjuries":0,"gdeaths":0,"targetstatus":null,"id":"176","deaths":3,"group":"Al Qaeda Organization in the Arabian Peninsula (AQAP) - Saudi Arabia/Yemen","ginjuries":5,"injuries":6,"state":"Mekkah"},"type":"Feature","geometry":{"type":"Point","coordinates":[39.2192,21.5169]}},{"properties":{"targettype2":null,"city":"Riyadh","cdeaths":0,"region":"Middle East","itype":"Police Operation","date":{"end_time":"2003/12/08 00:01:00 -0500","original":"12/8/2003 0:00","granularity":"min","time":"2003/12/08 00:00:00 -0500"},"targettype":null,"country":"Saudi Arabia","cinjuries":0,"gdeaths":0,"targetstatus":null,"id":"177","deaths":1,"group":"Al Qaeda Organization in the Arabian Peninsula (AQAP) - Saudi Arabia/Yemen","ginjuries":0,"injuries":0,"state":"Ar Riyad (Riyadh)"},"type":"Feature","geometry":{"type":"Point","coordinates":[46.7728,24.6408]}},{"properties":{"targettype2":null,"city":"Riyadh","cdeaths":null,"region":"Middle East","itype":"Police Operation","date":{"end_time":"2005/03/10 00:01:00 -0500","original":"3/10/2005 0:00","granularity":"min","time":"2005/03/10 00:00:00 -0500"},"targettype":null,"country":"Saudi Arabia","cinjuries":null,"gdeaths":null,"targetstatus":null,"id":"178","deaths":null,"group":"Al Qaeda Organization in the Arabian Peninsula (AQAP) - Saudi Arabia/Yemen","ginjuries":null,"injuries":null,"state":"Ar Riyad (Riyadh)"},"type":"Feature","geometry":{"type":"Point","coordinates":[46.7728,24.6408]}},{"properties":{"targettype2":null,"city":"Riyadh","cdeaths":null,"region":"Middle East","itype":"Police Operation","date":{"end_time":"2003/12/30 00:01:00 -0500","original":"12/30/2003 0:00","granularity":"min","time":"2003/12/30 00:00:00 -0500"},"targettype":null,"country":"Saudi Arabia","cinjuries":null,"gdeaths":null,"targetstatus":null,"id":"179","deaths":null,"group":"Al Qaeda Organization in the Arabian Peninsula (AQAP) - Saudi Arabia/Yemen","ginjuries":null,"injuries":null,"state":"Ar Riyad (Riyadh)"},"type":"Feature","geometry":{"type":"Point","coordinates":[46.7728,24.6408]}},{"properties":{"targettype2":null,"city":"Riyadh","cdeaths":0,"region":"Middle East","itype":"Police Operation","date":{"end_time":"2005/01/09 00:01:00 -0500","original":"1/9/2005 0:00","granularity":"min","time":"2005/01/09 00:00:00 -0500"},"targettype":null,"country":"Saudi Arabia","cinjuries":0,"gdeaths":0,"targetstatus":null,"id":"180","deaths":4,"group":"Al Qaeda Organization in the Arabian Peninsula (AQAP) - Saudi Arabia/Yemen","ginjuries":3,"injuries":3,"state":"Ar Riyad (Riyadh)"},"type":"Feature","geometry":{"type":"Point","coordinates":[46.7728,24.6408]}},{"properties":{"targettype2":null,"city":"Riyadh","cdeaths":0,"region":"Middle East","itype":"Police Operation","date":{"end_time":"2006/02/27 00:01:00 -0500","original":"2/27/2006 0:00","granularity":"min","time":"2006/02/27 00:00:00 -0500"},"targettype":null,"country":"Saudi Arabia","cinjuries":0,"gdeaths":0,"targetstatus":null,"id":"181","deaths":5,"group":"Al Qaeda Organization in the Arabian Peninsula (AQAP) - Saudi Arabia/Yemen","ginjuries":0,"injuries":0,"state":"Ar Riyad (Riyadh)"},"type":"Feature","geometry":{"type":"Point","coordinates":[46.7728,24.6408]}},{"properties":{"targettype2":null,"city":"Riyadh","cdeaths":null,"region":"Middle East","itype":"Police Operation","date":{"end_time":"2005/05/09 00:01:00 -0400","original":"5/9/2005 0:00","granularity":"min","time":"2005/05/09 00:00:00 -0400"},"targettype":null,"country":"Saudi Arabia","cinjuries":0,"gdeaths":null,"targetstatus":null,"id":"182","deaths":null,"group":"Al Qaeda Organization in the Arabian Peninsula (AQAP) - Saudi Arabia/Yemen","ginjuries":0,"injuries":1,"state":"Ar Riyad (Riyadh)"},"type":"Feature","geometry":{"type":"Point","coordinates":[46.7728,24.6408]}},{"properties":{"targettype2":null,"city":"Medina","cdeaths":0,"region":"Middle East","itype":"Police Operation","date":{"end_time":"2005/08/18 00:01:00 -0400","original":"8/18/2005 0:00","granularity":"min","time":"2005/08/18 00:00:00 -0400"},"targettype":null,"country":"Saudi Arabia","cinjuries":0,"gdeaths":1,"targetstatus":null,"id":"183","deaths":4,"group":"Al Qaeda Organization in the Arabian Peninsula (AQAP) - Saudi Arabia/Yemen","ginjuries":0,"injuries":0,"state":"Al Madinah"},"type":"Feature","geometry":{"type":"Point","coordinates":[39.6142,24.4686]}},{"properties":{"targettype2":null,"city":"Riyadh","cdeaths":0,"region":"Middle East","itype":"Police Operation","date":{"end_time":"2005/10/24 00:01:00 -0400","original":"10/24/2005 0:00","granularity":"min","time":"2005/10/24 00:00:00 -0400"},"targettype":null,"country":"Saudi Arabia","cinjuries":0,"gdeaths":0,"targetstatus":null,"id":"184","deaths":0,"group":"Al Qaeda Organization in the Arabian Peninsula (AQAP) - Saudi Arabia/Yemen","ginjuries":0,"injuries":0,"state":"Ar Riyad (Riyadh)"},"type":"Feature","geometry":{"type":"Point","coordinates":[46.7728,24.6408]}},{"properties":{"targettype2":null,"city":"Unknown","cdeaths":0,"region":"Middle East","itype":"Police Operation","date":{"end_time":"2006/04/01 00:01:00 -0500","original":"4/1/2006 0:00","granularity":"min","time":"2006/04/01 00:00:00 -0500"},"targettype":null,"country":"Saudi Arabia","cinjuries":0,"gdeaths":0,"targetstatus":null,"id":"185","deaths":0,"group":"Al Qaeda Organization in the Arabian Peninsula (AQAP) - Saudi Arabia/Yemen","ginjuries":0,"injuries":0,"state":"Unknown"},"type":"Feature","geometry":null},{"properties":{"targettype2":null,"city":"Unknown","cdeaths":null,"region":"Middle East","itype":"Police Operation","date":{"end_time":"1996/03/28 00:01:00 -0500","original":"3/28/1996 0:00","granularity":"min","time":"1996/03/28 00:00:00 -0500"},"targettype":null,"country":"Saudi Arabia","cinjuries":null,"gdeaths":null,"targetstatus":null,"id":"186","deaths":null,"group":"Hizballah (Party Of God) - Lebanon &amp; Syria","ginjuries":null,"injuries":null,"state":"Al Hudud ash Shamaliyah"},"type":"Feature","geometry":null},{"properties":{"targettype2":null,"city":"Jizan","cdeaths":0,"region":"Middle East","itype":"Police Operation","date":{"end_time":"2003/09/22 00:01:00 -0400","original":"9/22/2003 0:00","granularity":"min","time":"2003/09/22 00:00:00 -0400"},"targettype":null,"country":"Saudi Arabia","cinjuries":0,"gdeaths":1,"targetstatus":null,"id":"187","deaths":4,"group":null,"ginjuries":4,"injuries":6,"state":"Jizan (Qizan)"},"type":"Feature","geometry":{"type":"Point","coordinates":[42.5511,16.8892]}},{"properties":{"targettype2":null,"city":"Riyadh","cdeaths":0,"region":"Middle East","itype":"Police Operation","date":{"end_time":"2005/08/18 00:01:00 -0400","original":"8/18/2005 0:00","granularity":"min","time":"2005/08/18 00:00:00 -0400"},"targettype":null,"country":"Saudi Arabia","cinjuries":0,"gdeaths":0,"targetstatus":null,"id":"188","deaths":2,"group":null,"ginjuries":0,"injuries":1,"state":"Ar Riyad (Riyadh)"},"type":"Feature","geometry":{"type":"Point","coordinates":[46.7728,24.6408]}},{"properties":{"targettype2":null,"city":"Unknown","cdeaths":null,"region":"Middle East","itype":"Police Operation","date":{"end_time":"2005/08/18 00:01:00 -0400","original":"8/18/2005 0:00","granularity":"min","time":"2005/08/18 00:00:00 -0400"},"targettype":null,"country":"Saudi Arabia","cinjuries":null,"gdeaths":null,"targetstatus":null,"id":"189","deaths":null,"group":null,"ginjuries":null,"injuries":null,"state":"Unknown"},"type":"Feature","geometry":null},{"properties":{"targettype2":null,"city":"Riyadh","cdeaths":null,"region":"Middle East","itype":"Police Operation","date":{"end_time":"2004/02/17 00:01:00 -0500","original":"2/17/2004 0:00","granularity":"min","time":"2004/02/17 00:00:00 -0500"},"targettype":null,"country":"Saudi Arabia","cinjuries":null,"gdeaths":null,"targetstatus":null,"id":"190","deaths":null,"group":null,"ginjuries":null,"injuries":null,"state":"Ar Riyad (Riyadh)"},"type":"Feature","geometry":{"type":"Point","coordinates":[46.7728,24.6408]}},{"properties":{"targettype2":null,"city":"Al Kharj","cdeaths":null,"region":"Middle East","itype":"Police Operation","date":{"end_time":"2005/07/20 00:01:00 -0400","original":"7/20/2005 0:00","granularity":"min","time":"2005/07/20 00:00:00 -0400"},"targettype":null,"country":"Saudi Arabia","cinjuries":null,"gdeaths":null,"targetstatus":null,"id":"191","deaths":null,"group":null,"ginjuries":null,"injuries":null,"state":"Ar Riyad (Riyadh)"},"type":"Feature","geometry":{"type":"Point","coordinates":[47.305,24.1483]}},{"properties":{"targettype2":null,"city":"Jeddah","cdeaths":null,"region":"Middle East","itype":"Police Operation","date":{"end_time":"2006/05/13 00:01:00 -0400","original":"5/13/2006 0:00","granularity":"min","time":"2006/05/13 00:00:00 -0400"},"targettype":null,"country":"Saudi Arabia","cinjuries":null,"gdeaths":null,"targetstatus":null,"id":"192","deaths":null,"group":null,"ginjuries":null,"injuries":null,"state":"Mekkah"},"type":"Feature","geometry":{"type":"Point","coordinates":[39.2192,21.5169]}},{"properties":{"targettype2":null,"city":"Medina","cdeaths":null,"region":"Middle East","itype":"Police Operation","date":{"end_time":"2004/05/11 00:01:00 -0400","original":"5/11/2004 0:00","granularity":"min","time":"2004/05/11 00:00:00 -0400"},"targettype":null,"country":"Saudi Arabia","cinjuries":null,"gdeaths":null,"targetstatus":null,"id":"193","deaths":null,"group":null,"ginjuries":null,"injuries":null,"state":"Al Madinah"},"type":"Feature","geometry":{"type":"Point","coordinates":[39.6142,24.4686]}},{"properties":{"targettype2":null,"city":"Jeddah","cdeaths":null,"region":"Middle East","itype":"Police Operation","date":{"end_time":"2004/05/12 00:01:00 -0400","original":"5/12/2004 0:00","granularity":"min","time":"2004/05/12 00:00:00 -0400"},"targettype":null,"country":"Saudi Arabia","cinjuries":null,"gdeaths":null,"targetstatus":null,"id":"194","deaths":null,"group":null,"ginjuries":null,"injuries":null,"state":"Mekkah"},"type":"Feature","geometry":{"type":"Point","coordinates":[39.2192,21.5169]}},{"properties":{"targettype2":null,"city":"Unknown","cdeaths":null,"region":"Middle East","itype":"Police Operation","date":null,"targettype":null,"country":"Saudi Arabia","cinjuries":null,"gdeaths":null,"targetstatus":null,"id":"195","deaths":null,"group":null,"ginjuries":null,"injuries":null,"state":"Asir"},"type":"Feature","geometry":null},{"properties":{"targettype2":null,"city":"Unknown","cdeaths":null,"region":"Middle East","itype":"Police Operation","date":{"end_time":"2004/06/07 00:01:00 -0400","original":"6/7/2004 0:00","granularity":"min","time":"2004/06/07 00:00:00 -0400"},"targettype":null,"country":"Saudi Arabia","cinjuries":null,"gdeaths":null,"targetstatus":null,"id":"196","deaths":null,"group":null,"ginjuries":null,"injuries":null,"state":"Najran"},"type":"Feature","geometry":null},{"properties":{"targettype2":null,"city":"Unknown","cdeaths":null,"region":"Middle East","itype":"Police Operation","date":{"end_time":"2004/06/07 00:01:00 -0400","original":"6/7/2004 0:00","granularity":"min","time":"2004/06/07 00:00:00 -0400"},"targettype":null,"country":"Saudi Arabia","cinjuries":null,"gdeaths":null,"targetstatus":null,"id":"197","deaths":null,"group":null,"ginjuries":null,"injuries":null,"state":"Najran"},"type":"Feature","geometry":null},{"properties":{"targettype2":null,"city":"Al Baradah","cdeaths":null,"region":"Middle East","itype":"Police Operation","date":{"end_time":"2004/09/06 00:01:00 -0400","original":"9/6/2004 0:00","granularity":"min","time":"2004/09/06 00:00:00 -0400"},"targettype":null,"country":"Saudi Arabia","cinjuries":null,"gdeaths":null,"targetstatus":null,"id":"198","deaths":null,"group":null,"ginjuries":null,"injuries":null,"state":"Al Qasim"},"type":"Feature","geometry":{"type":"Point","coordinates":[39.6061,24.0439]}},{"properties":{"targettype2":null,"city":"Unknown","cdeaths":null,"region":"Middle East","itype":"Police Operation","date":{"end_time":"2003/07/01 00:01:00 -0400","original":"7/1/2003 0:00","granularity":"min","time":"2003/07/01 00:00:00 -0400"},"targettype":null,"country":"Saudi Arabia","cinjuries":0,"gdeaths":null,"targetstatus":null,"id":"199","deaths":null,"group":null,"ginjuries":11,"injuries":11,"state":"Asir"},"type":"Feature","geometry":null},{"properties":{"targettype2":null,"city":"Unknown","cdeaths":null,"region":"Middle East","itype":"Police Operation","date":{"end_time":"2004/11/25 00:01:00 -0500","original":"11/25/2004 0:00","granularity":"min","time":"2004/11/25 00:00:00 -0500"},"targettype":null,"country":"Saudi Arabia","cinjuries":null,"gdeaths":null,"targetstatus":null,"id":"200","deaths":null,"group":null,"ginjuries":null,"injuries":null,"state":"Unknown"},"type":"Feature","geometry":null},{"properties":{"targettype2":null,"city":"Jeddah","cdeaths":null,"region":"Middle East","itype":"Police Operation","date":{"end_time":"2005/04/20 00:01:00 -0400","original":"4/20/2005 0:00","granularity":"min","time":"2005/04/20 00:00:00 -0400"},"targettype":null,"country":"Saudi Arabia","cinjuries":null,"gdeaths":null,"targetstatus":null,"id":"201","deaths":null,"group":null,"ginjuries":null,"injuries":null,"state":"Mekkah"},"type":"Feature","geometry":{"type":"Point","coordinates":[39.2192,21.5169]}},{"properties":{"targettype2":null,"city":"Riyadh","cdeaths":null,"region":"Middle East","itype":"Police Operation","date":{"end_time":"2004/05/25 00:01:00 -0400","original":"5/25/2004 0:00","granularity":"min","time":"2004/05/25 00:00:00 -0400"},"targettype":null,"country":"Saudi Arabia","cinjuries":null,"gdeaths":null,"targetstatus":null,"id":"202","deaths":null,"group":null,"ginjuries":null,"injuries":null,"state":"Ar Riyad (Riyadh)"},"type":"Feature","geometry":{"type":"Point","coordinates":[46.7728,24.6408]}},{"properties":{"targettype2":null,"city":"Jeddah","cdeaths":null,"region":"Middle East","itype":"Police Operation","date":{"end_time":"2004/11/03 00:01:00 -0500","original":"11/3/2004 0:00","granularity":"min","time":"2004/11/03 00:00:00 -0500"},"targettype":null,"country":"Saudi Arabia","cinjuries":null,"gdeaths":null,"targetstatus":null,"id":"203","deaths":null,"group":null,"ginjuries":null,"injuries":null,"state":"Mekkah"},"type":"Feature","geometry":{"type":"Point","coordinates":[39.2192,21.5169]}},{"properties":{"targettype2":null,"city":"Mecca","cdeaths":null,"region":"Middle East","itype":"Police Operation","date":{"end_time":"2005/06/20 00:01:00 -0400","original":"6/20/2005 0:00","granularity":"min","time":"2005/06/20 00:00:00 -0400"},"targettype":null,"country":"Saudi Arabia","cinjuries":null,"gdeaths":null,"targetstatus":null,"id":"204","deaths":null,"group":null,"ginjuries":null,"injuries":null,"state":"Mekkah"},"type":"Feature","geometry":{"type":"Point","coordinates":[39.8378,21.4256]}},{"properties":{"targettype2":null,"city":"Unknown","cdeaths":null,"region":"Middle East","itype":"Police Operation","date":{"end_time":"2007/06/07 00:01:00 -0400","original":"6/7/2007 0:00","granularity":"min","time":"2007/06/07 00:00:00 -0400"},"targettype":null,"country":"Saudi Arabia","cinjuries":null,"gdeaths":null,"targetstatus":null,"id":"205","deaths":null,"group":null,"ginjuries":null,"injuries":null,"state":"Ash Sharqiyah"},"type":"Feature","geometry":null},{"properties":{"targettype2":null,"city":"Jizan","cdeaths":0,"region":"Middle East","itype":"Police Operation","date":{"end_time":"2009/10/14 00:01:00 -0400","original":"10/14/2009 0:00","granularity":"min","time":"2009/10/14 00:00:00 -0400"},"targettype":null,"country":"Saudi Arabia","cinjuries":0,"gdeaths":1,"targetstatus":null,"id":"206","deaths":3,"group":null,"ginjuries":1,"injuries":1,"state":"Jizan (Qizan)"},"type":"Feature","geometry":{"type":"Point","coordinates":[42.5511,16.8892]}},{"properties":{"targettype2":null,"city":"Al Baradah","cdeaths":null,"region":"Middle East","itype":"Police Operation","date":{"end_time":"2004/09/03 00:01:00 -0400","original":"9/3/2004 0:00","granularity":"min","time":"2004/09/03 00:00:00 -0400"},"targettype":null,"country":"Saudi Arabia","cinjuries":null,"gdeaths":null,"targetstatus":null,"id":"207","deaths":1,"group":null,"ginjuries":null,"injuries":null,"state":"Al Qasim"},"type":"Feature","geometry":{"type":"Point","coordinates":[39.6061,24.0439]}},{"properties":{"targettype2":null,"city":"Jeddah","cdeaths":0,"region":"Middle East","itype":"Police Operation","date":{"end_time":"2005/06/21 00:01:00 -0400","original":"6/21/2005 0:00","granularity":"min","time":"2005/06/21 00:00:00 -0400"},"targettype":null,"country":"Saudi Arabia","cinjuries":0,"gdeaths":0,"targetstatus":null,"id":"208","deaths":2,"group":null,"ginjuries":3,"injuries":3,"state":"Mekkah"},"type":"Feature","geometry":{"type":"Point","coordinates":[39.2192,21.5169]}},{"properties":{"targettype2":null,"city":"Jeddah","cdeaths":null,"region":"Middle East","itype":"Police Operation","date":{"end_time":"2005/09/19 00:01:00 -0400","original":"9/19/2005 0:00","granularity":"min","time":"2005/09/19 00:00:00 -0400"},"targettype":null,"country":"Saudi Arabia","cinjuries":null,"gdeaths":null,"targetstatus":null,"id":"209","deaths":null,"group":null,"ginjuries":null,"injuries":null,"state":"Mekkah"},"type":"Feature","geometry":{"type":"Point","coordinates":[39.2192,21.5169]}},{"properties":{"targettype2":null,"city":"Unknown","cdeaths":0,"region":"Middle East","itype":"Police Operation","date":{"end_time":"2006/10/28 00:01:00 -0400","original":"10/28/2006 0:00","granularity":"min","time":"2006/10/28 00:00:00 -0400"},"targettype":null,"country":"Saudi Arabia","cinjuries":0,"gdeaths":0,"targetstatus":null,"id":"210","deaths":0,"group":null,"ginjuries":0,"injuries":0,"state":"Unknown"},"type":"Feature","geometry":null},{"properties":{"targettype2":null,"city":"Jubail","cdeaths":0,"region":"Middle East","itype":"Police Operation","date":{"end_time":"2006/11/20 00:01:00 -0500","original":"11/20/2006 0:00","granularity":"min","time":"2006/11/20 00:00:00 -0500"},"targettype":null,"country":"Saudi Arabia","cinjuries":0,"gdeaths":0,"targetstatus":null,"id":"211","deaths":0,"group":null,"ginjuries":0,"injuries":0,"state":"Ash Sharqiyah"},"type":"Feature","geometry":{"type":"Point","coordinates":[49.6614,27.0472]}},{"properties":{"targettype2":null,"city":"Unknown","cdeaths":null,"region":"Middle East","itype":"Police Operation","date":{"end_time":"1996/04/06 00:01:00 -0500","original":"4/6/1996 0:00","granularity":"min","time":"1996/04/06 00:00:00 -0500"},"targettype":null,"country":"Saudi Arabia","cinjuries":null,"gdeaths":null,"targetstatus":null,"id":"212","deaths":null,"group":null,"ginjuries":null,"injuries":null,"state":"Unknown"},"type":"Feature","geometry":null},{"properties":{"targettype2":null,"city":"Yanbu","cdeaths":null,"region":"Middle East","itype":"Police Operation","date":{"end_time":"2004/03/31 00:01:00 -0500","original":"3/31/2004 0:00","granularity":"min","time":"2004/03/31 00:00:00 -0500"},"targettype":null,"country":"Saudi Arabia","cinjuries":null,"gdeaths":null,"targetstatus":null,"id":"213","deaths":null,"group":null,"ginjuries":null,"injuries":null,"state":"Al Madinah"},"type":"Feature","geometry":{"type":"Point","coordinates":[38.0486,24.0853]}},{"properties":{"targettype2":null,"city":"Unknown","cdeaths":null,"region":"Middle East","itype":"Police Operation","date":{"end_time":"2005/04/12 00:01:00 -0400","original":"4/12/2005 0:00","granularity":"min","time":"2005/04/12 00:00:00 -0400"},"targettype":null,"country":"Saudi Arabia","cinjuries":null,"gdeaths":null,"targetstatus":null,"id":"214","deaths":null,"group":null,"ginjuries":null,"injuries":null,"state":"Al Qasim"},"type":"Feature","geometry":null},{"properties":{"targettype2":null,"city":"Medina","cdeaths":0,"region":"Middle East","itype":"Police Operation","date":{"end_time":"2005/07/25 00:01:00 -0400","original":"7/25/2005 0:00","granularity":"min","time":"2005/07/25 00:00:00 -0400"},"targettype":null,"country":"Saudi Arabia","cinjuries":null,"gdeaths":0,"targetstatus":null,"id":"215","deaths":0,"group":null,"ginjuries":null,"injuries":null,"state":"Al Madinah"},"type":"Feature","geometry":{"type":"Point","coordinates":[39.6142,24.4686]}},{"properties":{"targettype2":null,"city":"Mecca","cdeaths":null,"region":"Middle East","itype":"Police Operation","date":{"end_time":"2005/02/08 00:01:00 -0500","original":"2/8/2005 0:00","granularity":"min","time":"2005/02/08 00:00:00 -0500"},"targettype":null,"country":"Saudi Arabia","cinjuries":null,"gdeaths":null,"targetstatus":null,"id":"216","deaths":null,"group":null,"ginjuries":null,"injuries":null,"state":"Mekkah"},"type":"Feature","geometry":{"type":"Point","coordinates":[39.8378,21.4256]}},{"properties":{"targettype2":null,"city":"Riyadh","cdeaths":null,"region":"Middle East","itype":"Police Operation","date":{"end_time":"2005/04/18 00:01:00 -0400","original":"4/18/2005 0:00","granularity":"min","time":"2005/04/18 00:00:00 -0400"},"targettype":null,"country":"Saudi Arabia","cinjuries":null,"gdeaths":null,"targetstatus":null,"id":"217","deaths":null,"group":null,"ginjuries":null,"injuries":null,"state":"Ar Riyad (Riyadh)"},"type":"Feature","geometry":{"type":"Point","coordinates":[46.7728,24.6408]}},{"properties":{"targettype2":null,"city":"Unknown","cdeaths":0,"region":"Middle East","itype":"Police Operation","date":null,"targettype":null,"country":"Saudi Arabia","cinjuries":0,"gdeaths":0,"targetstatus":null,"id":"218","deaths":0,"group":null,"ginjuries":0,"injuries":0,"state":"Unknown"},"type":"Feature","geometry":null},{"properties":{"targettype2":null,"city":"Unknown","cdeaths":0,"region":"Middle East","itype":"Police Operation","date":{"end_time":"2007/06/07 00:01:00 -0400","original":"6/7/2007 0:00","granularity":"min","time":"2007/06/07 00:00:00 -0400"},"targettype":null,"country":"Saudi Arabia","cinjuries":0,"gdeaths":0,"targetstatus":null,"id":"219","deaths":0,"group":null,"ginjuries":0,"injuries":0,"state":"Unknown"},"type":"Feature","geometry":null},{"properties":{"targettype2":null,"city":"Khudairah","cdeaths":0,"region":"Middle East","itype":"Police Operation","date":{"end_time":"2004/05/20 00:01:00 -0400","original":"5/20/2004 0:00","granularity":"min","time":"2004/05/20 00:00:00 -0400"},"targettype":null,"country":"Saudi Arabia","cinjuries":0,"gdeaths":1,"targetstatus":null,"id":"220","deaths":5,"group":null,"ginjuries":2,"injuries":3,"state":"Al Qasim"},"type":"Feature","geometry":{"type":"Point","coordinates":[44.0183,17.8347]}},{"properties":{"targettype2":null,"city":"Braida","cdeaths":0,"region":"Middle East","itype":"Police Operation","date":{"end_time":"2004/05/20 00:01:00 -0400","original":"5/20/2004 0:00","granularity":"min","time":"2004/05/20 00:00:00 -0400"},"targettype":null,"country":"Saudi Arabia","cinjuries":0,"gdeaths":2,"targetstatus":null,"id":"221","deaths":6,"group":null,"ginjuries":0,"injuries":1,"state":"Ar Riyad (Riyadh)"},"type":"Feature","geometry":null},{"properties":{"targettype2":null,"city":"Al Baradah","cdeaths":null,"region":"Middle East","itype":"Police Operation","date":{"end_time":"2004/09/02 00:01:00 -0400","original":"9/2/2004 0:00","granularity":"min","time":"2004/09/02 00:00:00 -0400"},"targettype":null,"country":"Saudi Arabia","cinjuries":null,"gdeaths":1,"targetstatus":null,"id":"222","deaths":1,"group":null,"ginjuries":3,"injuries":3,"state":"Al Qasim"},"type":"Feature","geometry":{"type":"Point","coordinates":[39.6061,24.0439]}},{"properties":{"targettype2":null,"city":"Riyadh","cdeaths":null,"region":"Middle East","itype":"Police Operation","date":{"end_time":"2004/01/18 00:01:00 -0500","original":"1/18/2004 0:00","granularity":"min","time":"2004/01/18 00:00:00 -0500"},"targettype":null,"country":"Saudi Arabia","cinjuries":null,"gdeaths":null,"targetstatus":null,"id":"223","deaths":null,"group":null,"ginjuries":null,"injuries":null,"state":"Ar Riyad (Riyadh)"},"type":"Feature","geometry":{"type":"Point","coordinates":[46.7728,24.6408]}},{"properties":{"targettype2":null,"city":"Al Zulfi","cdeaths":null,"region":"Middle East","itype":"Police Operation","date":{"end_time":"2005/10/30 00:01:00 -0400","original":"10/30/2005 0:00","granularity":"min","time":"2005/10/30 00:00:00 -0400"},"targettype":null,"country":"Saudi Arabia","cinjuries":null,"gdeaths":null,"targetstatus":null,"id":"224","deaths":null,"group":null,"ginjuries":null,"injuries":null,"state":"Ar Riyad (Riyadh)"},"type":"Feature","geometry":null},{"properties":{"targettype2":null,"city":"Unknown","cdeaths":0,"region":"Middle East","itype":"Police Operation","date":{"end_time":"2006/10/30 00:01:00 -0500","original":"10/30/2006 0:00","granularity":"min","time":"2006/10/30 00:00:00 -0500"},"targettype":null,"country":"Saudi Arabia","cinjuries":0,"gdeaths":0,"targetstatus":null,"id":"225","deaths":0,"group":null,"ginjuries":1,"injuries":1,"state":"Al Qasim"},"type":"Feature","geometry":null},{"properties":{"targettype2":null,"city":"Medina","cdeaths":null,"region":"Middle East","itype":"Police Operation","date":{"end_time":"2004/05/12 00:01:00 -0400","original":"5/12/2004 0:00","granularity":"min","time":"2004/05/12 00:00:00 -0400"},"targettype":null,"country":"Saudi Arabia","cinjuries":null,"gdeaths":null,"targetstatus":null,"id":"226","deaths":null,"group":null,"ginjuries":null,"injuries":null,"state":"Al Madinah"},"type":"Feature","geometry":{"type":"Point","coordinates":[39.6142,24.4686]}},{"properties":{"targettype2":null,"city":"At Taif","cdeaths":null,"region":"Middle East","itype":"Police Operation","date":{"end_time":"2004/08/20 00:01:00 -0400","original":"8/20/2004 0:00","granularity":"min","time":"2004/08/20 00:00:00 -0400"},"targettype":null,"country":"Saudi Arabia","cinjuries":null,"gdeaths":null,"targetstatus":null,"id":"227","deaths":null,"group":null,"ginjuries":null,"injuries":null,"state":"Mekkah"},"type":"Feature","geometry":{"type":"Point","coordinates":[40.4158,21.2703]}},{"properties":{"targettype2":null,"city":"Saqqam","cdeaths":null,"region":"Middle East","itype":"Police Operation","date":{"end_time":"2005/05/24 00:01:00 -0400","original":"5/24/2005 0:00","granularity":"min","time":"2005/05/24 00:00:00 -0400"},"targettype":null,"country":"Saudi Arabia","cinjuries":null,"gdeaths":null,"targetstatus":null,"id":"228","deaths":null,"group":null,"ginjuries":null,"injuries":null,"state":"Najran"},"type":"Feature","geometry":{"type":"Point","coordinates":[43.117802,24.74262]}},{"properties":{"targettype2":null,"city":"Arar","cdeaths":null,"region":"Middle East","itype":"Police Operation","date":{"end_time":"2005/07/10 00:01:00 -0400","original":"7/10/2005 0:00","granularity":"min","time":"2005/07/10 00:00:00 -0400"},"targettype":null,"country":"Saudi Arabia","cinjuries":null,"gdeaths":null,"targetstatus":null,"id":"229","deaths":null,"group":null,"ginjuries":null,"injuries":null,"state":"Al Hudud ash Shamaliyah"},"type":"Feature","geometry":{"type":"Point","coordinates":[41.0206,30.985]}},{"properties":{"targettype2":null,"city":"Medina","cdeaths":null,"region":"Middle East","itype":"Police Operation","date":{"end_time":"2005/11/01 00:01:00 -0500","original":"11/1/2005 0:00","granularity":"min","time":"2005/11/01 00:00:00 -0500"},"targettype":null,"country":"Saudi Arabia","cinjuries":null,"gdeaths":null,"targetstatus":null,"id":"230","deaths":null,"group":null,"ginjuries":null,"injuries":null,"state":"Al Madinah"},"type":"Feature","geometry":{"type":"Point","coordinates":[39.6142,24.4686]}},{"properties":{"targettype2":null,"city":"Al Baradah","cdeaths":0,"region":"Middle East","itype":"Police Operation","date":{"end_time":"2004/09/06 00:01:00 -0400","original":"9/6/2004 0:00","granularity":"min","time":"2004/09/06 00:00:00 -0400"},"targettype":null,"country":"Saudi Arabia","cinjuries":null,"gdeaths":3,"targetstatus":null,"id":"231","deaths":3,"group":null,"ginjuries":null,"injuries":null,"state":"Al Qasim"},"type":"Feature","geometry":{"type":"Point","coordinates":[39.6061,24.0439]}},{"properties":{"targettype2":null,"city":"Riyadh","cdeaths":0,"region":"Middle East","itype":"Police Operation","date":{"end_time":"2004/02/18 00:01:00 -0500","original":"2/18/2004 0:00","granularity":"min","time":"2004/02/18 00:00:00 -0500"},"targettype":null,"country":"Saudi Arabia","cinjuries":null,"gdeaths":0,"targetstatus":null,"id":"232","deaths":1,"group":null,"ginjuries":null,"injuries":null,"state":"Ar Riyad (Riyadh)"},"type":"Feature","geometry":{"type":"Point","coordinates":[46.7728,24.6408]}},{"properties":{"targettype2":null,"city":"Unknown","cdeaths":null,"region":"Middle East","itype":"Police Operation","date":{"end_time":"2005/07/25 00:01:00 -0400","original":"7/25/2005 0:00","granularity":"min","time":"2005/07/25 00:00:00 -0400"},"targettype":null,"country":"Saudi Arabia","cinjuries":null,"gdeaths":null,"targetstatus":null,"id":"233","deaths":null,"group":null,"ginjuries":null,"injuries":null,"state":"Najran"},"type":"Feature","geometry":null},{"properties":{"targettype2":null,"city":"Al Baradah","cdeaths":0,"region":"Middle East","itype":"Police Operation","date":{"end_time":"2006/11/08 00:01:00 -0500","original":"11/8/2006 0:00","granularity":"min","time":"2006/11/08 00:00:00 -0500"},"targettype":null,"country":"Saudi Arabia","cinjuries":0,"gdeaths":0,"targetstatus":null,"id":"234","deaths":0,"group":null,"ginjuries":0,"injuries":0,"state":"Al Qasim"},"type":"Feature","geometry":{"type":"Point","coordinates":[39.6061,24.0439]}},{"properties":{"targettype2":null,"city":"Saqqam","cdeaths":null,"region":"Middle East","itype":"Police Operation","date":{"end_time":"2006/05/01 00:01:00 -0400","original":"5/1/2006 0:00","granularity":"min","time":"2006/05/01 00:00:00 -0400"},"targettype":null,"country":"Saudi Arabia","cinjuries":null,"gdeaths":null,"targetstatus":null,"id":"235","deaths":null,"group":null,"ginjuries":null,"injuries":null,"state":"Najran"},"type":"Feature","geometry":{"type":"Point","coordinates":[43.117802,24.74262]}},{"properties":{"targettype2":null,"city":null,"cdeaths":0,"region":"Middle East","itype":"Police Operation","date":{"end_time":"2009/04/07 00:01:00 -0400","original":"4/7/2009 0:00","granularity":"min","time":"2009/04/07 00:00:00 -0400"},"targettype":null,"country":"Saudi Arabia","cinjuries":0,"gdeaths":0,"targetstatus":null,"id":"236","deaths":0,"group":null,"ginjuries":0,"injuries":0,"state":null},"type":"Feature","geometry":null},{"properties":{"targettype2":null,"city":"Riyadh","cdeaths":0,"region":"Middle East","itype":"Police Operation","date":{"end_time":"2004/04/12 00:01:00 -0400","original":"4/12/2004 0:00","granularity":"min","time":"2004/04/12 00:00:00 -0400"},"targettype":null,"country":"Saudi Arabia","cinjuries":0,"gdeaths":1,"targetstatus":null,"id":"237","deaths":2,"group":null,"ginjuries":4,"injuries":4,"state":"Ar Riyad (Riyadh)"},"type":"Feature","geometry":{"type":"Point","coordinates":[46.7728,24.6408]}},{"properties":{"targettype2":null,"city":"Unknown","cdeaths":0,"region":"Middle East","itype":"Police Operation","date":{"end_time":"2009/08/19 00:01:00 -0400","original":"8/19/2009 0:00","granularity":"min","time":"2009/08/19 00:00:00 -0400"},"targettype":null,"country":"Saudi Arabia","cinjuries":0,"gdeaths":0,"targetstatus":null,"id":"238","deaths":0,"group":null,"ginjuries":0,"injuries":0,"state":"Unknown"},"type":"Feature","geometry":null},{"properties":{"targettype2":null,"city":"Riyadh","cdeaths":null,"region":"Middle East","itype":"Police Operation","date":{"end_time":"2004/05/25 00:01:00 -0400","original":"5/25/2004 0:00","granularity":"min","time":"2004/05/25 00:00:00 -0400"},"targettype":null,"country":"Saudi Arabia","cinjuries":null,"gdeaths":null,"targetstatus":null,"id":"239","deaths":null,"group":null,"ginjuries":null,"injuries":null,"state":"Ar Riyad (Riyadh)"},"type":"Feature","geometry":{"type":"Point","coordinates":[46.7728,24.6408]}},{"properties":{"targettype2":null,"city":"Yanbu","cdeaths":null,"region":"Middle East","itype":"Police Operation","date":{"end_time":"2004/04/01 00:01:00 -0500","original":"4/1/2004 0:00","granularity":"min","time":"2004/04/01 00:00:00 -0500"},"targettype":null,"country":"Saudi Arabia","cinjuries":null,"gdeaths":null,"targetstatus":null,"id":"240","deaths":null,"group":null,"ginjuries":null,"injuries":null,"state":"Al Madinah"},"type":"Feature","geometry":{"type":"Point","coordinates":[38.0486,24.0853]}},{"properties":{"targettype2":null,"city":"Riyadh","cdeaths":null,"region":"Middle East","itype":"Police Operation","date":{"end_time":"2005/02/26 00:01:00 -0500","original":"2/26/2005 0:00","granularity":"min","time":"2005/02/26 00:00:00 -0500"},"targettype":null,"country":"Saudi Arabia","cinjuries":null,"gdeaths":null,"targetstatus":null,"id":"241","deaths":null,"group":null,"ginjuries":null,"injuries":null,"state":"Ar Riyad (Riyadh)"},"type":"Feature","geometry":{"type":"Point","coordinates":[46.7728,24.6408]}},{"properties":{"targettype2":null,"city":"Unknown","cdeaths":null,"region":"Middle East","itype":"Police Operation","date":{"end_time":"2007/04/14 00:01:00 -0400","original":"4/14/2007 0:00","granularity":"min","time":"2007/04/14 00:00:00 -0400"},"targettype":null,"country":"Saudi Arabia","cinjuries":null,"gdeaths":null,"targetstatus":null,"id":"242","deaths":null,"group":null,"ginjuries":null,"injuries":null,"state":"Al Qasim"},"type":"Feature","geometry":null},{"properties":{"targettype2":null,"city":"Unknown","cdeaths":null,"region":"Middle East","itype":"Police Operation","date":{"end_time":"2004/05/09 00:01:00 -0400","original":"5/9/2004 0:00","granularity":"min","time":"2004/05/09 00:00:00 -0400"},"targettype":null,"country":"Saudi Arabia","cinjuries":null,"gdeaths":null,"targetstatus":null,"id":"243","deaths":null,"group":null,"ginjuries":null,"injuries":null,"state":"Unknown"},"type":"Feature","geometry":null},{"properties":{"targettype2":null,"city":"Unknown","cdeaths":null,"region":"Middle East","itype":"Police Operation","date":null,"targettype":null,"country":"Saudi Arabia","cinjuries":null,"gdeaths":null,"targetstatus":null,"id":"244","deaths":null,"group":null,"ginjuries":null,"injuries":null,"state":"Unknown"},"type":"Feature","geometry":null},{"properties":{"targettype2":null,"city":"Riyadh","cdeaths":null,"region":"Middle East","itype":"Police Operation","date":{"end_time":"2004/02/15 00:01:00 -0500","original":"2/15/2004 0:00","granularity":"min","time":"2004/02/15 00:00:00 -0500"},"targettype":null,"country":"Saudi Arabia","cinjuries":null,"gdeaths":null,"targetstatus":null,"id":"245","deaths":null,"group":null,"ginjuries":null,"injuries":null,"state":"Ar Riyad (Riyadh)"},"type":"Feature","geometry":{"type":"Point","coordinates":[46.7728,24.6408]}},{"properties":{"targettype2":null,"city":"Unknown","cdeaths":null,"region":"Middle East","itype":"Police Operation","date":{"end_time":"2005/08/18 00:01:00 -0400","original":"8/18/2005 0:00","granularity":"min","time":"2005/08/18 00:00:00 -0400"},"targettype":null,"country":"Saudi Arabia","cinjuries":null,"gdeaths":null,"targetstatus":null,"id":"246","deaths":null,"group":null,"ginjuries":null,"injuries":null,"state":"Unknown"},"type":"Feature","geometry":null},{"properties":{"targettype2":null,"city":"At Taif","cdeaths":null,"region":"Middle East","itype":"Police Operation","date":{"end_time":"2005/06/27 00:01:00 -0400","original":"6/27/2005 0:00","granularity":"min","time":"2005/06/27 00:00:00 -0400"},"targettype":null,"country":"Saudi Arabia","cinjuries":null,"gdeaths":null,"targetstatus":null,"id":"247","deaths":null,"group":null,"ginjuries":null,"injuries":null,"state":"Mekkah"},"type":"Feature","geometry":{"type":"Point","coordinates":[40.4158,21.2703]}},{"properties":{"targettype2":null,"city":"Jeddah","cdeaths":0,"region":"Middle East","itype":"Police Operation","date":{"end_time":"2006/12/07 00:01:00 -0500","original":"12/7/2006 0:00","granularity":"min","time":"2006/12/07 00:00:00 -0500"},"targettype":null,"country":"Saudi Arabia","cinjuries":0,"gdeaths":0,"targetstatus":null,"id":"248","deaths":0,"group":null,"ginjuries":0,"injuries":0,"state":"Mekkah"},"type":"Feature","geometry":{"type":"Point","coordinates":[39.2192,21.5169]}},{"properties":{"targettype2":null,"city":"Unknown","cdeaths":null,"region":"Middle East","itype":"Police Operation","date":{"end_time":"2006/06/08 00:01:00 -0400","original":"6/8/2006 0:00","granularity":"min","time":"2006/06/08 00:00:00 -0400"},"targettype":null,"country":"Saudi Arabia","cinjuries":null,"gdeaths":null,"targetstatus":null,"id":"249","deaths":null,"group":null,"ginjuries":null,"injuries":null,"state":"Unknown"},"type":"Feature","geometry":null},{"properties":{"targettype2":null,"city":"Jizan","cdeaths":0,"region":"Middle East","itype":"Police Operation","date":{"end_time":"2007/12/02 00:01:00 -0500","original":"12/2/2007 0:00","granularity":"min","time":"2007/12/02 00:00:00 -0500"},"targettype":null,"country":"Saudi Arabia","cinjuries":0,"gdeaths":0,"targetstatus":null,"id":"250","deaths":0,"group":null,"ginjuries":0,"injuries":0,"state":"Jizan (Qizan)"},"type":"Feature","geometry":{"type":"Point","coordinates":[42.5511,16.8892]}},{"properties":{"targettype2":null,"city":"Jubail","cdeaths":null,"region":"Middle East","itype":"Police Operation","date":{"end_time":"2005/08/30 00:01:00 -0400","original":"8/30/2005 0:00","granularity":"min","time":"2005/08/30 00:00:00 -0400"},"targettype":null,"country":"Saudi Arabia","cinjuries":0,"gdeaths":null,"targetstatus":null,"id":"251","deaths":null,"group":null,"ginjuries":0,"injuries":1,"state":"Ash Sharqiyah"},"type":"Feature","geometry":{"type":"Point","coordinates":[49.6614,27.0472]}},{"properties":{"targettype2":null,"city":"Riyadh","cdeaths":null,"region":"Middle East","itype":"Police Operation","date":{"end_time":"2004/02/04 00:01:00 -0500","original":"2/4/2004 0:00","granularity":"min","time":"2004/02/04 00:00:00 -0500"},"targettype":null,"country":"Saudi Arabia","cinjuries":null,"gdeaths":null,"targetstatus":null,"id":"252","deaths":null,"group":null,"ginjuries":null,"injuries":null,"state":"Ar Riyad (Riyadh)"},"type":"Feature","geometry":{"type":"Point","coordinates":[46.7728,24.6408]}},{"properties":{"targettype2":null,"city":"Abha","cdeaths":null,"region":"Middle East","itype":"Police Operation","date":{"end_time":"2004/04/23 00:01:00 -0400","original":"4/23/2004 0:00","granularity":"min","time":"2004/04/23 00:00:00 -0400"},"targettype":null,"country":"Saudi Arabia","cinjuries":null,"gdeaths":null,"targetstatus":null,"id":"253","deaths":null,"group":null,"ginjuries":null,"injuries":null,"state":"Asir"},"type":"Feature","geometry":{"type":"Point","coordinates":[42.5053,18.2164]}},{"properties":{"targettype2":null,"city":"Unknown","cdeaths":0,"region":"Middle East","itype":"Police Operation","date":{"end_time":"2007/03/07 00:01:00 -0500","original":"3/7/2007 0:00","granularity":"min","time":"2007/03/07 00:00:00 -0500"},"targettype":null,"country":"Saudi Arabia","cinjuries":0,"gdeaths":0,"targetstatus":null,"id":"254","deaths":0,"group":null,"ginjuries":0,"injuries":0,"state":"Unknown"},"type":"Feature","geometry":null},{"properties":{"targettype2":null,"city":"Riyadh","cdeaths":0,"region":"Middle East","itype":"Police Operation","date":{"end_time":"2005/10/08 00:01:00 -0400","original":"10/8/2005 0:00","granularity":"min","time":"2005/10/08 00:00:00 -0400"},"targettype":null,"country":"Saudi Arabia","cinjuries":0,"gdeaths":0,"targetstatus":null,"id":"255","deaths":0,"group":null,"ginjuries":0,"injuries":0,"state":"Ar Riyad (Riyadh)"},"type":"Feature","geometry":{"type":"Point","coordinates":[46.7728,24.6408]}},{"properties":{"targettype2":null,"city":"Jeddah","cdeaths":0,"region":"Middle East","itype":"Police Operation","date":{"end_time":"2006/12/06 00:01:00 -0500","original":"12/6/2006 0:00","granularity":"min","time":"2006/12/06 00:00:00 -0500"},"targettype":null,"country":"Saudi Arabia","cinjuries":0,"gdeaths":0,"targetstatus":null,"id":"256","deaths":0,"group":null,"ginjuries":0,"injuries":0,"state":"Mekkah"},"type":"Feature","geometry":{"type":"Point","coordinates":[39.2192,21.5169]}},{"properties":{"targettype2":null,"city":"Jizan","cdeaths":null,"region":"Middle East","itype":"Police Operation","date":{"end_time":"2006/12/19 00:01:00 -0500","original":"12/19/2006 0:00","granularity":"min","time":"2006/12/19 00:00:00 -0500"},"targettype":null,"country":"Saudi Arabia","cinjuries":null,"gdeaths":null,"targetstatus":null,"id":"257","deaths":null,"group":null,"ginjuries":null,"injuries":null,"state":"Jizan (Qizan)"},"type":"Feature","geometry":{"type":"Point","coordinates":[42.5511,16.8892]}},{"properties":{"targettype2":null,"city":"Al Dammam","cdeaths":0,"region":"Middle East","itype":"Police Operation","date":{"end_time":"2006/07/23 00:01:00 -0400","original":"7/23/2006 0:00","granularity":"min","time":"2006/07/23 00:00:00 -0400"},"targettype":null,"country":"Saudi Arabia","cinjuries":0,"gdeaths":0,"targetstatus":null,"id":"258","deaths":0,"group":null,"ginjuries":0,"injuries":0,"state":"Ash Sharqiyah"},"type":"Feature","geometry":{"type":"Point","coordinates":[50.1435,26.4221]}},{"properties":{"targettype2":null,"city":"Riyadh","cdeaths":0,"region":"Middle East","itype":"Police Operation","date":{"end_time":"2007/11/29 00:01:00 -0500","original":"11/29/2007 0:00","granularity":"min","time":"2007/11/29 00:00:00 -0500"},"targettype":null,"country":"Saudi Arabia","cinjuries":0,"gdeaths":0,"targetstatus":null,"id":"259","deaths":0,"group":null,"ginjuries":0,"injuries":0,"state":"Ar Riyad (Riyadh)"},"type":"Feature","geometry":{"type":"Point","coordinates":[46.7728,24.6408]}},{"properties":{"targettype2":null,"city":"Riyadh","cdeaths":null,"region":"Middle East","itype":"Police Operation","date":{"end_time":"2005/07/13 00:01:00 -0400","original":"7/13/2005 0:00","granularity":"min","time":"2005/07/13 00:00:00 -0400"},"targettype":null,"country":"Saudi Arabia","cinjuries":null,"gdeaths":null,"targetstatus":null,"id":"260","deaths":null,"group":null,"ginjuries":null,"injuries":null,"state":"Ar Riyad (Riyadh)"},"type":"Feature","geometry":{"type":"Point","coordinates":[46.7728,24.6408]}},{"properties":{"targettype2":null,"city":"Unknown","cdeaths":0,"region":"Middle East","itype":"Police Operation","date":{"end_time":"2007/06/08 00:01:00 -0400","original":"6/8/2007 0:00","granularity":"min","time":"2007/06/08 00:00:00 -0400"},"targettype":null,"country":"Saudi Arabia","cinjuries":0,"gdeaths":0,"targetstatus":null,"id":"261","deaths":0,"group":null,"ginjuries":0,"injuries":0,"state":"Unknown"},"type":"Feature","geometry":null},{"properties":{"targettype2":null,"city":"Unknown","cdeaths":null,"region":"Middle East","itype":"Police Operation","date":{"end_time":"2008/03/06 00:01:00 -0500","original":"3/6/2008 0:00","granularity":"min","time":"2008/03/06 00:00:00 -0500"},"targettype":null,"country":"Saudi Arabia","cinjuries":null,"gdeaths":null,"targetstatus":null,"id":"262","deaths":null,"group":null,"ginjuries":null,"injuries":null,"state":"Najran"},"type":"Feature","geometry":null},{"properties":{"targettype2":null,"city":"Riyadh","cdeaths":0,"region":"Middle East","itype":"Police Operation","date":{"end_time":"2006/12/02 00:01:00 -0500","original":"12/2/2006 0:00","granularity":"min","time":"2006/12/02 00:00:00 -0500"},"targettype":null,"country":"Saudi Arabia","cinjuries":0,"gdeaths":0,"targetstatus":null,"id":"263","deaths":0,"group":null,"ginjuries":0,"injuries":0,"state":"Ar Riyad (Riyadh)"},"type":"Feature","geometry":{"type":"Point","coordinates":[46.7728,24.6408]}},{"properties":{"targettype2":null,"city":"Unknown","cdeaths":null,"region":"Middle East","itype":"Police Operation","date":null,"targettype":null,"country":"Saudi Arabia","cinjuries":null,"gdeaths":null,"targetstatus":null,"id":"264","deaths":null,"group":null,"ginjuries":null,"injuries":null,"state":"Unknown"},"type":"Feature","geometry":null},{"properties":{"targettype2":null,"city":"Rumhiyah","cdeaths":null,"region":"Middle East","itype":"Police Operation","date":{"end_time":"2004/04/19 00:01:00 -0400","original":"4/19/2004 0:00","granularity":"min","time":"2004/04/19 00:00:00 -0400"},"targettype":null,"country":"Saudi Arabia","cinjuries":null,"gdeaths":null,"targetstatus":null,"id":"265","deaths":null,"group":null,"ginjuries":null,"injuries":null,"state":"Ar Riyad (Riyadh)"},"type":"Feature","geometry":{"type":"Point","coordinates":[47.1567,25.5697]}},{"properties":{"targettype2":null,"city":"Unknown","cdeaths":null,"region":"Middle East","itype":"Police Operation","date":{"end_time":"1996/04/07 00:01:00 -0500","original":"4/7/1996 0:00","granularity":"min","time":"1996/04/07 00:00:00 -0500"},"targettype":null,"country":"Saudi Arabia","cinjuries":null,"gdeaths":null,"targetstatus":null,"id":"266","deaths":null,"group":null,"ginjuries":null,"injuries":null,"state":"Unknown"},"type":"Feature","geometry":null},{"properties":{"targettype2":null,"city":"Unknown","cdeaths":null,"region":"Middle East","itype":"Police Operation","date":{"end_time":"1996/04/08 00:01:00 -0400","original":"4/8/1996 0:00","granularity":"min","time":"1996/04/08 00:00:00 -0400"},"targettype":null,"country":"Saudi Arabia","cinjuries":null,"gdeaths":null,"targetstatus":null,"id":"267","deaths":null,"group":null,"ginjuries":null,"injuries":null,"state":"Unknown"},"type":"Feature","geometry":null},{"properties":{"targettype2":null,"city":"Jeddah","cdeaths":0,"region":"Middle East","itype":"Police Operation","date":{"end_time":"2007/04/14 00:01:00 -0400","original":"4/14/2007 0:00","granularity":"min","time":"2007/04/14 00:00:00 -0400"},"targettype":null,"country":"Saudi Arabia","cinjuries":0,"gdeaths":0,"targetstatus":null,"id":"268","deaths":0,"group":null,"ginjuries":0,"injuries":0,"state":"Mekkah"},"type":"Feature","geometry":{"type":"Point","coordinates":[39.2192,21.5169]}},{"properties":{"targettype2":null,"city":"Medina","cdeaths":2,"region":"Middle East","itype":"Police Operation","date":{"end_time":"2001/03/15 00:01:00 -0500","original":"3/15/2001 0:00","granularity":"min","time":"2001/03/15 00:00:00 -0500"},"targettype":null,"country":"Saudi Arabia","cinjuries":0,"gdeaths":0,"targetstatus":null,"id":"269","deaths":3,"group":null,"ginjuries":0,"injuries":0,"state":"Al Madinah"},"type":"Feature","geometry":{"type":"Point","coordinates":[39.6142,24.4686]}},{"properties":{"targettype2":null,"city":"Unknown","cdeaths":null,"region":"Middle East","itype":"Police Operation","date":{"end_time":"2005/04/17 00:01:00 -0400","original":"4/17/2005 0:00","granularity":"min","time":"2005/04/17 00:00:00 -0400"},"targettype":null,"country":"Saudi Arabia","cinjuries":null,"gdeaths":null,"targetstatus":null,"id":"270","deaths":null,"group":null,"ginjuries":null,"injuries":null,"state":"Hail"},"type":"Feature","geometry":null},{"properties":{"targettype2":null,"city":"Unknown","cdeaths":0,"region":"Middle East","itype":"Police Operation","date":{"end_time":"2006/01/01 00:01:00 -0500","original":"1/1/2006 0:00","granularity":"min","time":"2006/01/01 00:00:00 -0500"},"targettype":null,"country":"Saudi Arabia","cinjuries":0,"gdeaths":0,"targetstatus":null,"id":"271","deaths":0,"group":null,"ginjuries":0,"injuries":0,"state":"Najran"},"type":"Feature","geometry":null},{"properties":{"targettype2":null,"city":"Riyadh","cdeaths":0,"region":"Middle East","itype":"Police Operation","date":{"end_time":"2007/12/23 00:01:00 -0500","original":"12/23/2007 0:00","granularity":"min","time":"2007/12/23 00:00:00 -0500"},"targettype":null,"country":"Saudi Arabia","cinjuries":0,"gdeaths":0,"targetstatus":null,"id":"272","deaths":0,"group":null,"ginjuries":0,"injuries":0,"state":"Ar Riyad (Riyadh)"},"type":"Feature","geometry":{"type":"Point","coordinates":[46.7728,24.6408]}},{"properties":{"targettype2":null,"city":"Unknown","cdeaths":null,"region":"Middle East","itype":"Trafficking","date":{"end_time":"2005/08/22 00:01:00 -0400","original":"8/22/2005 0:00","granularity":"min","time":"2005/08/22 00:00:00 -0400"},"targettype":null,"country":"Saudi Arabia","cinjuries":null,"gdeaths":null,"targetstatus":null,"id":"273","deaths":null,"group":"Drug Cartels","ginjuries":null,"injuries":null,"state":"Unknown"},"type":"Feature","geometry":null},{"properties":{"targettype2":null,"city":"Unknown","cdeaths":null,"region":"Middle East","itype":"Trafficking","date":null,"targettype":null,"country":"Saudi Arabia","cinjuries":null,"gdeaths":null,"targetstatus":null,"id":"274","deaths":null,"group":"Hizballah (Party Of God) - Lebanon &amp; Syria","ginjuries":null,"injuries":null,"state":"Unknown"},"type":"Feature","geometry":null},{"properties":{"targettype2":null,"city":"Unknown","cdeaths":null,"region":"Middle East","itype":"Trafficking","date":null,"targettype":null,"country":"Saudi Arabia","cinjuries":null,"gdeaths":null,"targetstatus":null,"id":"275","deaths":null,"group":null,"ginjuries":null,"injuries":null,"state":"Unknown"},"type":"Feature","geometry":null},{"properties":{"targettype2":null,"city":"Unknown","cdeaths":null,"region":"Middle East","itype":"Trafficking","date":{"end_time":"2004/05/28 00:01:00 -0400","original":"5/28/2004 0:00","granularity":"min","time":"2004/05/28 00:00:00 -0400"},"targettype":null,"country":"Saudi Arabia","cinjuries":null,"gdeaths":null,"targetstatus":null,"id":"276","deaths":null,"group":null,"ginjuries":null,"injuries":null,"state":"Asir"},"type":"Feature","geometry":null},{"properties":{"targettype2":null,"city":"Saqqam","cdeaths":null,"region":"Middle East","itype":"Trafficking","date":{"end_time":"2006/05/01 00:01:00 -0400","original":"5/1/2006 0:00","granularity":"min","time":"2006/05/01 00:00:00 -0400"},"targettype":null,"country":"Saudi Arabia","cinjuries":null,"gdeaths":null,"targetstatus":null,"id":"277","deaths":null,"group":null,"ginjuries":null,"injuries":null,"state":"Najran"},"type":"Feature","geometry":{"type":"Point","coordinates":[43.117802,24.74262]}},{"properties":{"targettype2":null,"city":"Unknown","cdeaths":null,"region":"Middle East","itype":"Trafficking","date":{"end_time":"2004/11/25 00:01:00 -0500","original":"11/25/2004 0:00","granularity":"min","time":"2004/11/25 00:00:00 -0500"},"targettype":null,"country":"Saudi Arabia","cinjuries":null,"gdeaths":null,"targetstatus":null,"id":"278","deaths":null,"group":null,"ginjuries":null,"injuries":null,"state":"Unknown"},"type":"Feature","geometry":null},{"properties":{"targettype2":null,"city":"Jizan","cdeaths":null,"region":"Middle East","itype":"Trafficking","date":{"end_time":"2006/12/19 00:01:00 -0500","original":"12/19/2006 0:00","granularity":"min","time":"2006/12/19 00:00:00 -0500"},"targettype":null,"country":"Saudi Arabia","cinjuries":null,"gdeaths":null,"targetstatus":null,"id":"279","deaths":null,"group":null,"ginjuries":null,"injuries":null,"state":"Jizan (Qizan)"},"type":"Feature","geometry":{"type":"Point","coordinates":[42.5511,16.8892]}},{"properties":{"targettype2":null,"city":"Unknown","cdeaths":null,"region":"Middle East","itype":"Trafficking","date":null,"targettype":null,"country":"Saudi Arabia","cinjuries":null,"gdeaths":null,"targetstatus":null,"id":"280","deaths":null,"group":null,"ginjuries":null,"injuries":null,"state":"Jizan (Qizan)"},"type":"Feature","geometry":null},{"properties":{"targettype2":null,"city":"Unknown","cdeaths":null,"region":"Middle East","itype":"Trafficking","date":null,"targettype":null,"country":"Saudi Arabia","cinjuries":null,"gdeaths":null,"targetstatus":null,"id":"281","deaths":null,"group":null,"ginjuries":null,"injuries":null,"state":"Unknown"},"type":"Feature","geometry":null},{"properties":{"targettype2":null,"city":"Unknown","cdeaths":null,"region":"Middle East","itype":"Trafficking","date":null,"targettype":null,"country":"Saudi Arabia","cinjuries":null,"gdeaths":null,"targetstatus":null,"id":"282","deaths":null,"group":null,"ginjuries":null,"injuries":null,"state":"Unknown"},"type":"Feature","geometry":null},{"properties":{"targettype2":null,"city":"Unknown","cdeaths":null,"region":"Middle East","itype":"Trafficking","date":null,"targettype":null,"country":"Saudi Arabia","cinjuries":null,"gdeaths":null,"targetstatus":null,"id":"283","deaths":null,"group":null,"ginjuries":null,"injuries":null,"state":"Unknown"},"type":"Feature","geometry":null},{"properties":{"targettype2":null,"city":"Unknown","cdeaths":null,"region":"Middle East","itype":"Trafficking","date":{"end_time":"2005/07/25 00:01:00 -0400","original":"7/25/2005 0:00","granularity":"min","time":"2005/07/25 00:00:00 -0400"},"targettype":null,"country":"Saudi Arabia","cinjuries":null,"gdeaths":null,"targetstatus":null,"id":"284","deaths":null,"group":null,"ginjuries":null,"injuries":null,"state":"Najran"},"type":"Feature","geometry":null},{"properties":{"targettype2":null,"city":"Unknown","cdeaths":null,"region":"Middle East","itype":"Trafficking","date":{"end_time":"2006/05/01 00:01:00 -0400","original":"5/1/2006 0:00","granularity":"min","time":"2006/05/01 00:00:00 -0400"},"targettype":null,"country":"Saudi Arabia","cinjuries":null,"gdeaths":null,"targetstatus":null,"id":"285","deaths":null,"group":null,"ginjuries":null,"injuries":null,"state":"Unknown"},"type":"Feature","geometry":null},{"properties":{"targettype2":null,"city":"Unknown","cdeaths":null,"region":"Middle East","itype":"Trafficking","date":null,"targettype":null,"country":"Saudi Arabia","cinjuries":null,"gdeaths":null,"targetstatus":null,"id":"286","deaths":null,"group":null,"ginjuries":null,"injuries":null,"state":"Unknown"},"type":"Feature","geometry":null},{"properties":{"targettype2":null,"city":"Unknown","cdeaths":null,"region":"Middle East","itype":"Trafficking","date":{"end_time":"2005/06/08 00:01:00 -0400","original":"6/8/2005 0:00","granularity":"min","time":"2005/06/08 00:00:00 -0400"},"targettype":null,"country":"Saudi Arabia","cinjuries":null,"gdeaths":null,"targetstatus":null,"id":"287","deaths":null,"group":null,"ginjuries":null,"injuries":null,"state":"Asir"},"type":"Feature","geometry":null},{"properties":{"targettype2":null,"city":"Unknown","cdeaths":0,"region":"Middle East","itype":"Trafficking","date":null,"targettype":null,"country":"Saudi Arabia","cinjuries":0,"gdeaths":0,"targetstatus":null,"id":"288","deaths":0,"group":null,"ginjuries":0,"injuries":0,"state":"Unknown"},"type":"Feature","geometry":null},{"properties":{"targettype2":null,"city":null,"cdeaths":null,"region":null,"itype":null,"date":null,"targettype":null,"country":null,"cinjuries":null,"gdeaths":null,"targetstatus":null,"id":"289","deaths":352,"group":null,"ginjuries":null,"injuries":null,"state":null},"type":"Feature","geometry":null}],"is_temporal":true,"author":{"url":"","metadata":"","contact_name":"","contact_address":"","source":"Institute for the Study of Violent Groups","contact_phone":""},"source":"","pagination":{"sort":null,"start":0,"total":290,"limit":1000000},"state":"complete","tags":"","published":"2011-07-28T16:00:00Z","id":139455}