{"type":"FeatureCollection","data_type":"Dataset","url_type":null,"permissions":[{"permissions":{"download":true,"view":true},"group_id":"everyone"}],"classification":null,"title":"Ashe Associates","count":65,"stream_id":140347,"contributor":{"url":"http://geocommons.com/users/27101","name":"WeMarketBuilders"},"data_attributes":null,"calculation_params":null,"icon_link":null,"link":"http://geocommons.com/overlays/140347.json","extent":[-83.0454,34.5967,-78.5833,36.508],"geometry_types":["point"],"unique_name":null,"name":"Ashe Associates","feature_count":65,"description":"","next_feature":null,"is_raster":false,"short_classification":"Y","stats":{},"features":[{"properties":{"city":"West Jefferson","name":"Blue Ridge Energies","zip":"28694","type":"Associate","url":"www.blueridgeemc.com/","phone":"336-246-2421","id":"0","address":"2375 NC Highway 163","state":"NC"},"type":"Feature","geometry":{"type":"Point","coordinates":[-81.472369,36.376207]}},{"properties":{"city":"Jefferson","name":"Jordan &amp; Jordan Law Offices, PLLC","zip":"28640","type":"Associate","url":"www.jordanjordanlaw.com/","phone":"336-846-1657","id":"1","address":"410 East Main Street","state":"NC"},"type":"Feature","geometry":{"type":"Point","coordinates":[-81.468867,36.420911]}},{"properties":{"city":"West Jefferson","name":"LifeStore Bank","zip":"28694","type":"Associate","url":"www.golifestore.com/","phone":"336-246-4344","id":"2","address":"419 East 2nd Street","state":"NC"},"type":"Feature","geometry":{"type":"Point","coordinates":[-81.489567,36.404627]}},{"properties":{"city":"West Jefferson","name":"Yadkin Valley Bank","zip":"28694","type":"Associate","url":"www.yadkinvalleybank.com/","phone":"336-246-9800","id":"3","address":"419 East 2nd Street","state":"NC"},"type":"Feature","geometry":{"type":"Point","coordinates":[-81.489567,36.404627]}},{"properties":{"city":"Statesville","name":"84 Lumber","zip":"28625","type":"Associate","url":"www.84lumber.com/","phone":"704-252-6313","id":"4","address":"3210 Taylorsville Hwy","state":"NC"},"type":"Feature","geometry":{"type":"Point","coordinates":[-80.942529,35.802841]}},{"properties":{"city":"West Jefferson","name":"Ashe County Builders Supply Inc","zip":"28694","type":"Associate","url":null,"phone":"336-246-3367","id":"5","address":"127 Beaver Creek School Road","state":"NC"},"type":"Feature","geometry":{"type":"Point","coordinates":[-81.489062,36.379225]}},{"properties":{"city":"West Jefferson","name":"BLEVINS BUILDING SUPPLY","zip":"28694","type":"Associate","url":"www.blevinsbuildingsupplyinc.com","phone":"336-667-4200","id":"6","address":"485 Beaver Creek School Road","state":"NC"},"type":"Feature","geometry":{"type":"Point","coordinates":[-81.494287,36.378158]}},{"properties":{"city":"Boone","name":"Blue Ridge Supply &amp; Millwork","zip":"28607","type":"Associate","url":null,"phone":"828-264-6003","id":"7","address":"1636 US Hwy 421 S.","state":"NC"},"type":"Feature","geometry":{"type":"Point","coordinates":[-81.697844,36.221582]}},{"properties":{"city":"West Jefferson","name":"Lowes","zip":"28694","type":"Associate","url":"www.lowes.com/","phone":"336-846-1829","id":"8","address":"158 Lowe's Drive","state":"NC"},"type":"Feature","geometry":{"type":"Point","coordinates":[-81.500711,36.396395]}},{"properties":{"city":"West Jefferson","name":"The Hardwood Company","zip":"28694","type":"Associate","url":"www.thehardwoodcompany.com/","phone":"336-846-9663","id":"9","address":"419 East 2nd Street","state":"NC"},"type":"Feature","geometry":{"type":"Point","coordinates":[-81.489567,36.404627]}},{"properties":{"city":"West Jefferson","name":"High Country Woodworking","zip":"28694","type":"Associate","url":null,"phone":"336-877-4133","id":"10","address":"419 East 2nd Street","state":"NC"},"type":"Feature","geometry":{"type":"Point","coordinates":[-81.489567,36.404627]}},{"properties":{"city":"West Jefferson","name":"Roland's Cabinet Shop","zip":"28694","type":"Associate","url":null,"phone":"336-846-8878","id":"11","address":"456 Wickzola Lane","state":"NC"},"type":"Feature","geometry":{"type":"Point","coordinates":[-81.482725,36.379825]}},{"properties":{"city":"WILKESBORO","name":"E &amp; E Construction","zip":"28697","type":"Associate","url":null,"phone":"336-957-1640","id":"12","address":"136 Leather Hinge Drive","state":"NC"},"type":"Feature","geometry":{"type":"Point","coordinates":[-81.267355,36.150414]}},{"properties":{"city":"Mooresville","name":"E &amp; P Trimwork, Inc","zip":"28117","type":"Associate","url":"www.eptrimwork.com/","phone":"704-664-6695","id":"13","address":"128 Cedar Pointe Dr","state":"NC"},"type":"Feature","geometry":{"type":"Point","coordinates":[-80.85286,35.604558]}},{"properties":{"city":"West Jefferson","name":"Mountaintop Maintenance","zip":"28694","type":"Associate","url":"www.mountaintopmaintenance.com/","phone":"336-384-5847","id":"14","address":"419 East 2nd Street","state":"NC"},"type":"Feature","geometry":{"type":"Point","coordinates":[-81.489567,36.404627]}},{"properties":{"city":"Raleigh","name":"Peter Okrepky Interior Trim Carpentry","zip":"27615","type":"Associate","url":null,"phone":"919-274-4002","id":"15","address":"8716 Bluff Pointe Ct","state":"NC"},"type":"Feature","geometry":{"type":"Point","coordinates":[-78.583314,35.896763]}},{"properties":{"city":"Creston","name":"Closet Design Center, Inc","zip":"28615","type":"Associate","url":"www.closetdesigncenterinc.com/","phone":"336-846-2321","id":"16","address":"456 Roy Kemp Rd","state":"NC"},"type":"Feature","geometry":{"type":"Point","coordinates":[-81.610996,36.439751]}},{"properties":{"city":"Wilkesboro","name":"Cub Creek Countertops, Inc","zip":"28697","type":"Associate","url":"www.cubcreekcountertops.com/","phone":"336-651-8983","id":"17","address":"1200A Industrial Park Rd","state":"NC"},"type":"Feature","geometry":{"type":"Point","coordinates":[-81.121404,36.156051]}},{"properties":{"city":"Mooresville","name":"N2 Granite, Inc","zip":"28115","type":"Associate","url":"www.n2granite.com/","phone":"336-846-1861","id":"18","address":"640 Oak Ridge Farm Road","state":"NC"},"type":"Feature","geometry":{"type":"Point","coordinates":[-80.808932,35.604247]}},{"properties":{"city":"Deep Gap","name":"High Country Stone","zip":"28618","type":"Associate","url":"www.highcountrystone.com/","phone":"828-355-9320","id":"19","address":"6489 Old 421 S","state":"NC"},"type":"Feature","geometry":{"type":"Point","coordinates":[-81.547186,36.233791]}},{"properties":{"city":"Glendale Springs","name":"ProFinish Painting &amp; Drywall Inc","zip":"28629","type":"Associate","url":"www.asheaverywataugapaintingcontractors.com/","phone":"336-982-3869","id":"20","address":"7471 Nc Highway 16","state":"NC"},"type":"Feature","geometry":{"type":"Point","coordinates":[-81.380529,36.345205]}},{"properties":{"city":"West Jefferson","name":"B &amp; G Plumbing &amp; Electric Inc","zip":"28694","type":"Associate","url":null,"phone":"336-246-9612","id":"21","address":"240 Helen Blevins Rd","state":"NC"},"type":"Feature","geometry":{"type":"Point","coordinates":[-81.490934,36.377023]}},{"properties":{"city":"Fleetwood","name":"Russell Electric &amp; Builders","zip":"28626","type":"Associate","url":null,"phone":"336-977-6902","id":"22","address":"179 Jordan Road","state":"NC"},"type":"Feature","geometry":{"type":"Point","coordinates":[-81.534412,36.316607]}},{"properties":{"city":"West Jefferson","name":"WORLEY'S ELECTRICAL","zip":"28694","type":"Associate","url":"www.worleyelectric.com","phone":"336-877-4127","id":"23","address":"632 Big Tree Rd","state":"NC"},"type":"Feature","geometry":{"type":"Point","coordinates":[-81.548418,36.363684]}},{"properties":{"city":"Boone","name":"Mountain Home and Hearth","zip":"28607","type":"Associate","url":"www.mountainhomeandhearth.com/","phone":"828-262-0051","id":"24","address":"4912 US Highway 421 S","state":"NC"},"type":"Feature","geometry":{"type":"Point","coordinates":[-81.63058,36.230486]}},{"properties":{"city":"Warrensville","name":"Hardin Hardwood Floors","zip":"28693","type":"Associate","url":null,"phone":"336-877-0881","id":"25","address":"2162 W Mill Creek Rd","state":"NC"},"type":"Feature","geometry":{"type":"Point","coordinates":[-81.588245,36.480997]}},{"properties":{"city":"Warrensville","name":"Jones Hardwood Floors","zip":"28693","type":"Associate","url":"www.roanvalleyflooring.com/","phone":"423-727-4700","id":"26","address":"122 Northwest School Road","state":"NC"},"type":"Feature","geometry":{"type":"Point","coordinates":[-81.517854,36.461087]}},{"properties":{"city":"Westminster","name":"Southern Basements","zip":"29693","type":"Associate","url":null,"phone":"864-972-1173","id":"27","address":"11253 South Hwy 11","state":"SC"},"type":"Feature","geometry":{"type":"Point","coordinates":[-83.045423,34.596675]}},{"properties":{"city":"Jefferson","name":"Timber Solutions, Inc.","zip":"28640","type":"Associate","url":"www.timbersolutionsinc.com/","phone":"336-384-1469","id":"28","address":"125 Colvard Farm Road","state":"NC"},"type":"Feature","geometry":{"type":"Point","coordinates":[-81.423462,36.405915]}},{"properties":{"city":"West Jefferson","name":"Odie Gilbert Construction","zip":"28694","type":"Associate","url":null,"phone":"336-877-4710","id":"29","address":"419 East 2nd Street","state":"NC"},"type":"Feature","geometry":{"type":"Point","coordinates":[-81.489567,36.404627]}},{"properties":{"city":"Jefferson","name":"Ashe County Garage Doors","zip":"28640","type":"Associate","url":"www.ashecountygaragedoors.com/","phone":"336-246-3651","id":"30","address":"120 Blackburn Street","state":"NC"},"type":"Feature","geometry":{"type":"Point","coordinates":[-81.479223,36.411828]}},{"properties":{"city":"Boone","name":"GDS-Garbage Disposal Services","zip":"28607","type":"Associate","url":null,"phone":"828-264-3689","id":"31","address":"300 Brookhollow Rd","state":"NC"},"type":"Feature","geometry":{"type":"Point","coordinates":[-81.640305,36.213957]}},{"properties":{"city":"West Jefferson","name":"Cross Creek Construction","zip":"28694","type":"Associate","url":null,"phone":"336-982-4354","id":"32","address":"419 East 2nd Street","state":"NC"},"type":"Feature","geometry":{"type":"Point","coordinates":[-81.489567,36.404627]}},{"properties":{"city":"West Jefferson","name":"Jack Miller Construction","zip":"28694","type":"Associate","url":null,"phone":"336-982-3088","id":"33","address":"8411 Hwy 16 S","state":"NC"},"type":"Feature","geometry":{"type":"Point","coordinates":[-81.386272,36.332786]}},{"properties":{"city":"Jefferson","name":"Sheets Brothers Inc.","zip":"28640","type":"Associate","url":null,"phone":"336-246-5566","id":"34","address":"3466 NC Hwy 16 South","state":"NC"},"type":"Feature","geometry":{"type":"Point","coordinates":[-81.406068,36.392992]}},{"properties":{"city":"West Jefferson","name":"Blue Ridge Air","zip":"28694","type":"Associate","url":"www.ashewataugaheatingandair.com/","phone":"336-877-9009","id":"35","address":"310 Beaver Creek School Road","state":"NC"},"type":"Feature","geometry":{"type":"Point","coordinates":[-81.492081,36.377888]}},{"properties":{"city":"Fleetwood","name":"Scott Brothers Heating &amp; Air","zip":"28626","type":"Associate","url":"www.scottbrothersnc.com/","phone":"336-877-1702","id":"36","address":"1872 Liberty Grove Church Rd","state":"NC"},"type":"Feature","geometry":{"type":"Point","coordinates":[-81.515225,36.287524]}},{"properties":{"city":"Jefferson","name":"Ashe County Building Inspections","zip":"28640","type":"Associate","url":"www.ashecountygov.com/BuildingInspections/index.htm","phone":"336-219-2511","id":"37","address":"150 Government Circle","state":"NC"},"type":"Feature","geometry":{"type":"Point","coordinates":[-81.459136,36.419802]}},{"properties":{"city":"West Jefferson","name":"Staley Insulation Inc.","zip":"28694","type":"Associate","url":null,"phone":"336-846-9200","id":"38","address":"419 East 2nd Street","state":"NC"},"type":"Feature","geometry":{"type":"Point","coordinates":[-81.489567,36.404627]}},{"properties":{"city":"West Jefferson","name":"High Country Insurance &amp; Investments","zip":"28694","type":"Associate","url":null,"phone":"336-846-1465","id":"39","address":"419 East 2nd Street","state":"NC"},"type":"Feature","geometry":{"type":"Point","coordinates":[-81.489567,36.404627]}},{"properties":{"city":"West Jefferson","name":"Life Store Insurance","zip":"28694","type":"Associate","url":"www.lifestoreinsurance.com/","phone":"336-246-7297","id":"40","address":"1441 Mount Jefferson Rd","state":"NC"},"type":"Feature","geometry":{"type":"Point","coordinates":[-81.482445,36.388945]}},{"properties":{"city":"West Jefferson","name":"Miller Insurance","zip":"28694","type":"Associate","url":"www.miller-insurance-group.com/","phone":"336-246-7151","id":"41","address":"419 East 2nd Street","state":"NC"},"type":"Feature","geometry":{"type":"Point","coordinates":[-81.489567,36.404627]}},{"properties":{"city":"Crumpler","name":"Mountain Advantage Tree &amp; Landscaping","zip":"28617","type":"Associate","url":"www.mountainadvantagetreeandlandscape.com/","phone":"336-877-6190","id":"42","address":"644 Roy Goodman RD","state":"NC"},"type":"Feature","geometry":{"type":"Point","coordinates":[-81.417271,36.437202]}},{"properties":{"city":"Purlear","name":"Exterior &amp; Lighting Concepts","zip":"28665","type":"Associate","url":null,"phone":"336-973-1352","id":"43","address":"687 Vannoy Maxwell Rd","state":"NC"},"type":"Feature","geometry":{"type":"Point","coordinates":[-81.297898,36.191008]}},{"properties":{"city":"West Jefferson","name":"St. Germain Media Services, LLC","zip":"28694","type":"Associate","url":"www.wemarketbuilders.com","phone":"336-620-2000","id":"44","address":"419 East 2nd Street","state":"NC"},"type":"Feature","geometry":{"type":"Point","coordinates":[-81.489567,36.404627]}},{"properties":{"city":"Lansing","name":"Shepherd Masonry, Inc","zip":"28643","type":"Associate","url":"www.shepherdmasonry.com/","phone":"336-384-3038","id":"45","address":"9294 Nc Highway 194 N","state":"NC"},"type":"Feature","geometry":{"type":"Point","coordinates":[-81.510466,36.498424]}},{"properties":{"city":"West Jefferson","name":"Independence Oil &amp; LP Gas, Inc","zip":"28694","type":"Associate","url":null,"phone":"336-246-6569","id":"46","address":"419 East 2nd Street","state":"NC"},"type":"Feature","geometry":{"type":"Point","coordinates":[-81.489567,36.404627]}},{"properties":{"city":"West Jefferson","name":"Shatley Construction &amp; Paving","zip":"28694","type":"Associate","url":"www.shatleyconstruction.com","phone":"336-877-8824","id":"47","address":"515 Clarence Lyall Rd","state":"NC"},"type":"Feature","geometry":{"type":"Point","coordinates":[-81.522145,36.356846]}},{"properties":{"city":"West Jefferson","name":"Tri-County Paving, Inc","zip":"28694","type":"Associate","url":null,"phone":"336-246-7244","id":"48","address":"419 East 2nd Street","state":"NC"},"type":"Feature","geometry":{"type":"Point","coordinates":[-81.489567,36.404627]}},{"properties":{"city":"Boone","name":"Terminix Company","zip":"28607","type":"Associate","url":"www.terminix.com/","phone":"828-297-7650","id":"49","address":"7553 Highway 105","state":"NC"},"type":"Feature","geometry":{"type":"Point","coordinates":[-81.771183,36.157807]}},{"properties":{"city":"Trap Hill","name":"Baker's Plumbing","zip":"28685","type":"Associate","url":null,"phone":"336-902-0513","id":"50","address":"187 Gray Stone Drive","state":"NC"},"type":"Feature","geometry":{"type":"Point","coordinates":[-81.510883,36.394507]}},{"properties":{"city":"Todd","name":"Robert Holman Plumbing Company","zip":"28684","type":"Associate","url":null,"phone":"336-877-2265","id":"51","address":"9619 Three Top Road","state":"NC"},"type":"Feature","geometry":{"type":"Point","coordinates":[-81.600909,36.318156]}},{"properties":{"city":"BOONE","name":"Design on Tap Bath and Kitchen Gallery","zip":"28607","type":"Associate","url":null,"phone":"828-265-0505","id":"52","address":"1542 US HIGHWAY 421 S","state":"NC"},"type":"Feature","geometry":{"type":"Point","coordinates":[-81.696585,36.221857]}},{"properties":{"city":"Jefferson","name":"Mountainscape Realty","zip":"28640","type":"Associate","url":"www.mountainscaperealty.com/","phone":"336-846-8977","id":"53","address":"410 East Main Street","state":"NC"},"type":"Feature","geometry":{"type":"Point","coordinates":[-81.468867,36.420911]}},{"properties":{"city":"Jefferson","name":"Jefferson Rent-All, Inc.","zip":"28640","type":"Associate","url":null,"phone":"336-846-8136","id":"54","address":"427 S Main St","state":"NC"},"type":"Feature","geometry":{"type":"Point","coordinates":[-81.477032,36.415555]}},{"properties":{"city":"West Jefferson","name":"SkyBest Security","zip":"28694","type":"Associate","url":"www.skybestsecurity.com/","phone":"336-877-1350","id":"55","address":"419 East 2nd Street","state":"NC"},"type":"Feature","geometry":{"type":"Point","coordinates":[-81.489567,36.404627]}},{"properties":{"city":"Millers Creek","name":"Bare's Sand &amp; Stone, Inc.","zip":"28651","type":"Associate","url":null,"phone":"336-973-5522","id":"56","address":"2431 N NC Highway 16","state":"NC"},"type":"Feature","geometry":{"type":"Point","coordinates":[-81.240488,36.180799]}},{"properties":{"city":"Zionville","name":"Matheson Tile","zip":"28698","type":"Associate","url":null,"phone":"828-964-6437","id":"57","address":"188 LOAFERS JOY DR","state":"NC"},"type":"Feature","geometry":{"type":"Point","coordinates":[-81.739629,36.280927]}},{"properties":{"city":"West Jefferson","name":"Skyline Membership Corp &amp; SkyBest Communications, Inc","zip":"28694","type":"Associate","url":"www.skyline.org/","phone":"800-759-2226","id":"58","address":"419 East 2nd Stree","state":"NC"},"type":"Feature","geometry":{"type":"Point","coordinates":[-81.489567,36.404627]}},{"properties":{"city":"Sparta","name":"Tri-State Components Inc","zip":"28675","type":"Associate","url":"www.tristatecomponents.com/","phone":"336-372-6260","id":"59","address":"79 South Grayson Street","state":"NC"},"type":"Feature","geometry":{"type":"Point","coordinates":[-81.120286,36.508013]}},{"properties":{"city":"Sparta","name":"TruLine Truss, Inc","zip":"28675","type":"Associate","url":"www.trulinetruss.com/","phone":"336-372-2226","id":"60","address":"79 South Grayson Street","state":"NC"},"type":"Feature","geometry":{"type":"Point","coordinates":[-81.120286,36.508013]}},{"properties":{"city":"West Jefferson","name":"Blue Ridge Electric","zip":"28694","type":"Associate","url":"www.blueridgeemc.com/","phone":"336-246-2421","id":"61","address":"2375 NC Highway 163","state":"NC"},"type":"Feature","geometry":{"type":"Point","coordinates":[-81.472369,36.376207]}},{"properties":{"city":"Hamptonville","name":"Yadkin Well Company","zip":"27020","type":"Associate","url":"www.yadkinwell.com/","phone":"800-248-9355","id":"62","address":"1908 Hamptonville Rd","state":"NC"},"type":"Feature","geometry":{"type":"Point","coordinates":[-80.764144,36.09722]}},{"properties":{"city":"Boone","name":"Ward Foundation Systems","zip":"28607","type":"Associate","url":null,"phone":"828-262-3433","id":"63","address":"294 I J Bingham Pl","state":"NC"},"type":"Feature","geometry":{"type":"Point","coordinates":[-81.620209,36.226911]}},{"properties":{"city":"West Jefferson","name":"Guardian Insurance Agency","zip":"28694","type":"Associate","url":"www.mygianc.com","phone":"336-846-6721","id":"64","address":"125 Wade E Vannoy Dr","state":"NC"},"type":"Feature","geometry":{"type":"Point","coordinates":[-81.481843,36.409822]}}],"is_temporal":false,"author":{"url":"","metadata":"","contact_name":"","contact_address":"","source":"","contact_phone":""},"source":"","pagination":{"sort":null,"start":0,"total":65,"limit":1000000},"state":"complete","tags":"","published":"2014-08-12T21:29:47-04:00","id":140347}