{"type":"FeatureCollection","data_type":"Dataset","url_type":null,"permissions":[{"permissions":{"download":true,"view":true},"group_id":"everyone"}],"classification":null,"title":"sonic facebook","count":521,"stream_id":141170,"contributor":{"url":"http://geocommons.com/users/29707","name":"dock4242"},"data_attributes":null,"calculation_params":null,"icon_link":null,"link":"http://geocommons.com/overlays/141170.json","extent":[-122.766,25.4712,-70.9615,47.4233],"geometry_types":["point"],"unique_name":null,"name":"sonic facebook","feature_count":521,"description":"","next_feature":null,"is_raster":false,"short_classification":"Y","stats":{"owner responses":{"max":803,"mean":2.24423076923077,"variance":1254.55102638206,"stdev":35.4196418161176,"min":0,"median":0},"fan post count":{"max":9373,"mean":20.775,"variance":169016.367389205,"stdev":411.116002351167,"min":0,"median":0}},"features":[{"properties":{"city":"Wallingford","category":"Restaurant/cafe","response rate":"50","geo_score":0.0,"owner responses":null,"page id":"sonicofct?sk=info","fan post count":null,"id":"a637zzq6b92f","geo_precision":"unmatched","state":"CT","page name":"Sonic of CT","likes":null},"type":"Feature","geometry":null},{"properties":{"city":"Manchester","category":"Restaurant/cafe","response rate":null,"geo_score":0.0,"owner responses":0,"page id":"1.3558E+14","fan post count":0,"id":"a638002foskb","geo_precision":"unmatched","state":"CT","page name":"Sonic Of Manchester","likes":null},"type":"Feature","geometry":{"type":"Point","coordinates":[-90.5074455791568,38.5842456623285]}},{"properties":{"city":"Oklahoma City","category":"Restaurant/cafe","response rate":"8.57%","geo_score":0.0,"owner responses":803,"page id":"24540959832","fan post count":9373,"id":"a638002fcqfy","geo_precision":"unmatched","state":"OK","page name":"Sonic Drive-In","likes":null},"type":"Feature","geometry":{"type":"Point","coordinates":[-97.5349911014594,35.4823086653582]}},{"properties":{"city":"Bel Air","category":"Restaurant/cafe","response rate":"33.14%","geo_score":0.0,"owner responses":56,"page id":"1.54908E+14","fan post count":169,"id":"a637zzv04flu","geo_precision":"unmatched","state":"MD","page name":"Sonic Drive In Bel Air MD","likes":null},"type":"Feature","geometry":{"type":"Point","coordinates":[-76.3482815698258,39.5367086433322]}},{"properties":{"city":"Ferndale","category":"Restaurant/cafe","response rate":"55.29%","geo_score":0.0,"owner responses":47,"page id":"2.72127E+11","fan post count":85,"id":"a637zzrfi2e6","geo_precision":"unmatched","state":"WA","page name":"Sonic Drive-In Ferndale","likes":null},"type":"Feature","geometry":{"type":"Point","coordinates":[-76.6358090753102,39.1880636474544]}},{"properties":{"city":"Vacaville","category":"Restaurant/cafe","response rate":"31.18%","geo_score":0.0,"owner responses":29,"page id":"1.14444E+14","fan post count":93,"id":"a6380015nrwa","geo_precision":"unmatched","state":"CA","page name":"Sonic Drive-In, NorCal Restaurant Group","likes":null},"type":"Feature","geometry":{"type":"Point","coordinates":[-121.972681610283,38.353809143891]}},{"properties":{"city":"Denton","category":"Product/service","response rate":"50.00%","geo_score":0.0,"owner responses":24,"page id":"1.25578E+14","fan post count":48,"id":"a637zzn9p7p8","geo_precision":"unmatched","state":"TX","page name":"Sonic Drive-In Denton TX","likes":null},"type":"Feature","geometry":{"type":"Point","coordinates":[-97.1291910960992,33.216300162994]}},{"properties":{"city":"NULL","category":"Product/service","response rate":"46.34%","geo_score":0.0,"owner responses":19,"page id":"1.648E+14","fan post count":41,"id":"a638001r38gd","geo_precision":"unmatched","state":"WI","page name":"Sonic Drive In of Eastern Wisconsin","likes":null},"type":"Feature","geometry":null},{"properties":{"city":"Palatine","category":"Local business","response rate":"16.07%","geo_score":0.0,"owner responses":18,"page id":"1.2212E+14","fan post count":112,"id":"a637zzos5vyr","geo_precision":"unmatched","state":"IL","page name":"Sonic Drive-In - Palatine, IL","likes":null},"type":"Feature","geometry":{"type":"Point","coordinates":[-88.0406091032102,42.1168816475558]}},{"properties":{"city":"NULL","category":"Restaurant/cafe","response rate":"19.78%","geo_score":0.0,"owner responses":18,"page id":"2.30469E+11","fan post count":91,"id":"a637zzuq0p0w","geo_precision":"unmatched","state":"AZ","page name":"Sonic Drive In of Arizona","likes":null},"type":"Feature","geometry":null},{"properties":{"city":"NULL","category":"Restaurant/cafe","response rate":"64.29%","geo_score":0.964,"owner responses":18,"page id":"1.96339E+11","fan post count":28,"id":"a637zzrmrihd","geo_precision":"zip","state":"ID","page name":"Sonic Drive-In Utah &amp; Eastern Idaho","likes":null},"type":"Feature","geometry":null},{"properties":{"city":"Pittsburg","category":"Restaurant/cafe","response rate":"29.55%","geo_score":0.0,"owner responses":13,"page id":"1.68055E+11","fan post count":44,"id":"a637zzwzwhla","geo_precision":"unmatched","state":"KS","page name":"Sonic Drive In of Pittsburg Kansas","likes":null},"type":"Feature","geometry":{"type":"Point","coordinates":[-94.6998181100957,37.4103181704318]}},{"properties":{"city":"Rockwell","category":"Restaurant/cafe","response rate":"30.95%","geo_score":0.0,"owner responses":13,"page id":"1.86081E+14","fan post count":42,"id":"a637zzzmayz6","geo_precision":"unmatched","state":"NC","page name":"Sonic Drive- In  Rockwell, North Carolina","likes":null},"type":"Feature","geometry":null},{"properties":{"city":"Lafayette","category":"Restaurant/cafe","response rate":"46.43%","geo_score":0.0,"owner responses":13,"page id":"1.0184E+14","fan post count":28,"id":"a637zzoffr3a","geo_precision":"unmatched","state":"LA","page name":"Sonic Drive-in of Lafayette","likes":null},"type":"Feature","geometry":{"type":"Point","coordinates":[-86.8746815851176,40.4105816703165]}},{"properties":{"city":"Alexandria","category":"Restaurant/cafe","response rate":"58.33%","geo_score":0.0,"owner responses":7,"page id":"1.02558E+14","fan post count":12,"id":"a6380005wjlu","geo_precision":"unmatched","state":"LA","page name":"Sonic Drive In Alexandria","likes":null},"type":"Feature","geometry":{"type":"Point","coordinates":[-77.071281564707,38.8162456519345]}},{"properties":{"city":"Calhoun","category":"Restaurant/cafe","response rate":"35.29%","geo_score":0.0,"owner responses":6,"page id":"2.33534E+11","fan post count":17,"id":"a6380017sg6k","geo_precision":"unmatched","state":"GA","page name":"Sonic Drive In  of  Calhoun, Ga","likes":null},"type":"Feature","geometry":{"type":"Point","coordinates":[-84.9425815958891,34.4999001683577]}},{"properties":{"city":"Bayonne","category":"Local business","response rate":"37.50%","geo_score":0.0,"owner responses":6,"page id":"1.43787E+14","fan post count":16,"id":"a637zzszwu3v","geo_precision":"unmatched","state":"NJ","page name":"Sonic Drive In Bayonne","likes":null},"type":"Feature","geometry":{"type":"Point","coordinates":[-74.117681595406,40.6665546486197]}},{"properties":{"city":"Baton Rouge","category":"Restaurant/cafe","response rate":"62.50%","geo_score":0.0,"owner responses":5,"page id":"1.48091E+14","fan post count":8,"id":"a6380000zsye","geo_precision":"unmatched","state":"LA","page name":"Sonic Drive In Baton Rouge","likes":null},"type":"Feature","geometry":{"type":"Point","coordinates":[-91.1402270976691,30.4580911306202]}},{"properties":{"city":"Wilkes-Barre","category":"Restaurant/cafe","response rate":"44.44%","geo_score":0.0,"owner responses":4,"page id":"3.01281E+11","fan post count":9,"id":"a637zzuijefh","geo_precision":"unmatched","state":"PA","page name":"NEPA Sonic Drive-In","likes":null},"type":"Feature","geometry":{"type":"Point","coordinates":[-75.8779180602341,41.2445816659664]}},{"properties":{"city":"Wenatchee","category":"Restaurant/cafe","response rate":"44.44%","geo_score":0.0,"owner responses":4,"page id":"1.22754E+14","fan post count":9,"id":"a637zzxry551","geo_precision":"unmatched","state":"WA","page name":"Sonic Drive-In Wenatchee","likes":null},"type":"Feature","geometry":{"type":"Point","coordinates":[-120.325281607726,47.423318153892]}},{"properties":{"city":"Eastanollee","category":"Restaurant/cafe","response rate":"57.14%","geo_score":0.0,"owner responses":4,"page id":"1.68363E+14","fan post count":7,"id":"a637zzuflvg3","geo_precision":"unmatched","state":"GA","page name":"Toccoa Sonic Drive-in","likes":null},"type":"Feature","geometry":null},{"properties":{"city":"Saint Joseph","category":"Restaurant/cafe","response rate":"66.67%","geo_score":0.0,"owner responses":4,"page id":"1.62463E+14","fan post count":6,"id":"a6380030h6vq","geo_precision":"unmatched","state":"MO","page name":"Southside Sonic Drive In","likes":null},"type":"Feature","geometry":null},{"properties":{"city":"Franklin Park","category":"Restaurant/cafe","response rate":"11.54%","geo_score":0.0,"owner responses":3,"page id":"2.02633E+11","fan post count":26,"id":"a637zzwgi7ll","geo_precision":"unmatched","state":"IL","page name":"Sonic Drive-In - Franklin Park, IL","likes":null},"type":"Feature","geometry":{"type":"Point","coordinates":[-80.0920455646336,40.5904636509407]}},{"properties":{"city":"Philadelphia","category":"Restaurant/cafe","response rate":"16.67%","geo_score":0.912,"owner responses":3,"page id":"1.09651E+14","fan post count":18,"id":"a63800219arg","geo_precision":"zip","state":"PA","page name":"Sonic Drive in Philadelphia","likes":null},"type":"Feature","geometry":{"type":"Point","coordinates":[-75.1447910730899,39.9980091486017]}},{"properties":{"city":"Plainview","category":"Local business","response rate":"17.65%","geo_score":0.0,"owner responses":3,"page id":"1.0533E+14","fan post count":17,"id":"a637zzugi3iv","geo_precision":"unmatched","state":"TX","page name":"DownTown Sonic Drive In Plainview, TX","likes":null},"type":"Feature","geometry":{"type":"Point","coordinates":[-73.4794815642852,40.7799091597916]}},{"properties":{"city":"Glenwood","category":"Restaurant/cafe","response rate":"37.50%","geo_score":0.0,"owner responses":3,"page id":"2.41896E+14","fan post count":8,"id":"a637zzwc230g","geo_precision":"unmatched","state":"AR","page name":"Sonic Drive-In of Glenwood","likes":null},"type":"Feature","geometry":null},{"properties":{"city":"Columbus","category":"Local business","response rate":"60.00%","geo_score":0.0,"owner responses":3,"page id":"1.18702E+14","fan post count":5,"id":"a637zzzu1kzp","geo_precision":"unmatched","state":"OH","page name":"OSU Campus Sonic Drive-In","likes":null},"type":"Feature","geometry":{"type":"Point","coordinates":[-84.9404180704888,32.4896086378086]}},{"properties":{"city":"Montgomery","category":"Restaurant/cafe","response rate":"2.15%","geo_score":0.0,"owner responses":2,"page id":"1.1226E+11","fan post count":93,"id":"a638000o3vqp","geo_precision":"unmatched","state":"IL","page name":"Sonic Drive-In Montgomery","likes":null},"type":"Feature","geometry":{"type":"Point","coordinates":[-84.3475545821749,39.2473636582906]}},{"properties":{"city":"Quakertown","category":"Restaurant/cafe","response rate":"5.56%","geo_score":0.0,"owner responses":2,"page id":"1.00444E+14","fan post count":36,"id":"a638001zmnew","geo_precision":"unmatched","state":"PA","page name":"Sonic Drive-In Quakertown","likes":null},"type":"Feature","geometry":null},{"properties":{"city":"Anaheim","category":"Restaurant/cafe","response rate":"18.18%","geo_score":0.982,"owner responses":2,"page id":"37956453621","fan post count":11,"id":"a637zzp8nu9k","geo_precision":"zip","state":"CA","page name":"Sonic Drive In Anaheim","likes":null},"type":"Feature","geometry":{"type":"Point","coordinates":[-117.889772624914,33.8361636357441]}},{"properties":{"city":"Montgomery County","category":"Restaurant/cafe","response rate":"28.57%","geo_score":0.875,"owner responses":2,"page id":"1.15303E+14","fan post count":7,"id":"a638002eapbp","geo_precision":"zip","state":"PA","page name":"Sonic Drive-In Montgomery County","likes":null},"type":"Feature","geometry":null},{"properties":{"city":"Sierra Vista","category":"Restaurant/cafe","response rate":"33.33%","geo_score":0.896,"owner responses":2,"page id":"3.53231E+11","fan post count":6,"id":"a637zzuerhfw","geo_precision":"zip","state":"AZ","page name":"Sierra Vista Sonic Drive In","likes":null},"type":"Feature","geometry":{"type":"Point","coordinates":[-110.276500117763,31.5454996688498]}},{"properties":{"city":"Lugoff","category":"Restaurant/cafe","response rate":"50.00%","geo_score":0.0,"owner responses":2,"page id":"1.99504E+14","fan post count":4,"id":"a637zzvfnsro","geo_precision":"unmatched","state":"SC","page name":"Sonic Drive In of Lugoff","likes":null},"type":"Feature","geometry":null},{"properties":{"city":"Lafayette","category":"Restaurant/cafe","response rate":"66.67%","geo_score":0.0,"owner responses":2,"page id":"2.5334E+14","fan post count":3,"id":"a637zzr0kmx0","geo_precision":"unmatched","state":"LA","page name":"Sonic Drive-In Acadiana","likes":null},"type":"Feature","geometry":{"type":"Point","coordinates":[-86.8746815851176,40.4105816703165]}},{"properties":{"city":"Hammond","category":"Local business","response rate":"100.00%","geo_score":0.0,"owner responses":2,"page id":"1.14227E+14","fan post count":2,"id":"a637zzpf4v15","geo_precision":"unmatched","state":"LA","page name":"Sonic Drive-In of University Ave","likes":null},"type":"Feature","geometry":{"type":"Point","coordinates":[-87.4930815749243,41.61118166648]}},{"properties":{"city":"Philadelphia","category":"Restaurant/cafe","response rate":"100.00%","geo_score":0.912,"owner responses":2,"page id":"1.1456E+14","fan post count":2,"id":"a637zznk6oay","geo_precision":"zip","state":"PA","page name":"Sonic Drive-In of Philadelphia","likes":null},"type":"Feature","geometry":{"type":"Point","coordinates":[-75.1447910730899,39.9980091486017]}},{"properties":{"city":"Parker","category":"Restaurant/cafe","response rate":"100.00%","geo_score":0.929,"owner responses":2,"page id":"3.17489E+11","fan post count":2,"id":"a637zzvy5u3j","geo_precision":"zip","state":"CO","page name":"Sonic Drive-In of Parker, CO","likes":null},"type":"Feature","geometry":{"type":"Point","coordinates":[-82.43977258681,34.8536361550475]}},{"properties":{"city":null,"category":"Restaurant/cafe","response rate":"5.88%","geo_score":0.0,"owner responses":2,"page id":"1.05736E+11","fan post count":34,"id":"a637zzs05x02","geo_precision":"unmatched","state":"ID","page name":"Sonic Drive-in","likes":null},"type":"Feature","geometry":null},{"properties":{"city":"Dover","category":"Local business","response rate":"100.00%","geo_score":0.939,"owner responses":2,"page id":"1.96036E+14","fan post count":2,"id":"a637zzumddps","geo_precision":"zip","state":"DE","page name":"Sonic Dover and Milford Drive In","likes":null},"type":"Feature","geometry":{"type":"Point","coordinates":[-75.5267545849195,39.1619181419095]}},{"properties":{"city":"Ava","category":"Restaurant/cafe","response rate":"4.35%","geo_score":0.0,"owner responses":1,"page id":"3.54383E+11","fan post count":23,"id":"a637zzus4qkp","geo_precision":"unmatched","state":"MO","page name":"Sonic Drive In of Ava, MO","likes":null},"type":"Feature","geometry":null},{"properties":{"city":"Lancaster County","category":"Restaurant/cafe","response rate":"6.67%","geo_score":0.886,"owner responses":1,"page id":"1.01501E+16","fan post count":15,"id":"a637zzq3rnyr","geo_precision":"zip","state":"PA","page name":"Sonic Drive-In Lancaster County","likes":null},"type":"Feature","geometry":null},{"properties":{"city":"Valdosta","category":"Restaurant/cafe","response rate":"9.09%","geo_score":0.0,"owner responses":1,"page id":"1.67032E+14","fan post count":11,"id":"a637zzvfcvyj","geo_precision":"unmatched","state":"GA","page name":"Sonic Drive In of Bemiss Rd.","likes":null},"type":"Feature","geometry":{"type":"Point","coordinates":[-83.2831000851927,30.8466636476686]}},{"properties":{"city":"Winchester","category":"Food/grocery","response rate":"11.11%","geo_score":0.0,"owner responses":1,"page id":"1.93899E+11","fan post count":9,"id":"a637zzwzmbfw","geo_precision":"unmatched","state":"VA","page name":"Winchester Sonic Drive In","likes":null},"type":"Feature","geometry":{"type":"Point","coordinates":[-78.1667725815959,39.1783546742408]}},{"properties":{"city":"Commerce","category":"Restaurant/cafe","response rate":"11.11%","geo_score":0.0,"owner responses":1,"page id":"1.44993E+14","fan post count":9,"id":"a6380016f6dn","geo_precision":"unmatched","state":"GA","page name":"Sonic Drive In Commerce, GA","likes":null},"type":"Feature","geometry":{"type":"Point","coordinates":[-118.154782132722,34.0006091327963]}},{"properties":{"city":"Keller","category":"Local business","response rate":"16.67%","geo_score":0.0,"owner responses":1,"page id":"1.07632E+14","fan post count":6,"id":"a637zzuyzcvb","geo_precision":"unmatched","state":"TX","page name":"Sonic Drive In - Keller #1","likes":null},"type":"Feature","geometry":{"type":"Point","coordinates":[-97.2359910918885,32.9275356674608]}},{"properties":{"city":"Keene","category":"Restaurant/cafe","response rate":"16.67%","geo_score":0.0,"owner responses":1,"page id":"1.76928E+14","fan post count":6,"id":"a637zzygkazx","geo_precision":"unmatched","state":"TX","page name":"Sonic Drive-In Keene Tx","likes":null},"type":"Feature","geometry":{"type":"Point","coordinates":[-72.288363590543,42.9424546589049]}},{"properties":{"city":"Dumas","category":"Restaurant/cafe","response rate":"25.00%","geo_score":0.0,"owner responses":1,"page id":"1.27656E+14","fan post count":4,"id":"a637zzx3u33o","geo_precision":"unmatched","state":"TX","page name":"Sonic Drive In Dumas, TX","likes":null},"type":"Feature","geometry":{"type":"Point","coordinates":[-101.966927094339,35.8624816719728]}},{"properties":{"city":"Conyers","category":"Restaurant/cafe","response rate":"25.00%","geo_score":0.0,"owner responses":1,"page id":"1.92511E+14","fan post count":4,"id":"a637zznt5trr","geo_precision":"unmatched","state":"GA","page name":"Sonic Drive In of Conyers, GA","likes":null},"type":"Feature","geometry":{"type":"Point","coordinates":[-84.0075725960918,33.6663636485189]}},{"properties":{"city":"Frederick","category":"Food/grocery","response rate":"33.33%","geo_score":0.0,"owner responses":1,"page id":"2.14619E+14","fan post count":3,"id":"a638002t4t2f","geo_precision":"unmatched","state":"OK","page name":"Sonic Drive In","likes":null},"type":"Feature","geometry":{"type":"Point","coordinates":[-77.4204000685201,39.4262911717984]}},{"properties":{"city":"Columbia","category":"Restaurant/cafe","response rate":"33.33%","geo_score":0.0,"owner responses":1,"page id":"2.28161E+14","fan post count":3,"id":"a637zztu9hzu","geo_precision":"unmatched","state":"MO","page name":"Rock Bridge Sonic Drive-In","likes":null},"type":"Feature","geometry":{"type":"Point","coordinates":[-76.8570365616595,39.2035721458596]}},{"properties":{"city":"Apple Valley","category":"Restaurant/cafe","response rate":"33.33%","geo_score":0.909,"owner responses":1,"page id":"1.72714E+14","fan post count":3,"id":"a637zzywhalo","geo_precision":"zip","state":"CA","page name":"Sonic Drive-In of Victorville &amp; Apple Valley","likes":null},"type":"Feature","geometry":{"type":"Point","coordinates":[-93.2062455793949,44.7439636572023]}},{"properties":{"city":"Demorest","category":"Local business","response rate":"33.33%","geo_score":0.0,"owner responses":1,"page id":"1.68538E+14","fan post count":3,"id":"a637zzpv3uln","geo_precision":"unmatched","state":"GA","page name":"Demorest Sonic Drive-in","likes":null},"type":"Feature","geometry":null},{"properties":{"city":"Springfield","category":"Restaurant/cafe","response rate":"100.00%","geo_score":0.0,"owner responses":1,"page id":"1.13927E+14","fan post count":1,"id":"a637zzrg6uy5","geo_precision":"unmatched","state":"MO","page name":"South Campbell Sonic Drive In","likes":null},"type":"Feature","geometry":{"type":"Point","coordinates":[-74.3221635933014,40.7018001649532]}},{"properties":{"city":"Myrtle Beach","category":"Restaurant/cafe","response rate":"100.00%","geo_score":0.0,"owner responses":1,"page id":"2.28156E+14","fan post count":1,"id":"a637zzwa83pj","geo_precision":"unmatched","state":"SC","page name":"Sonic Drive-In Myrtle Beach","likes":null},"type":"Feature","geometry":{"type":"Point","coordinates":[-78.8754545706822,33.7042361660639]}},{"properties":{"city":"Yakima","category":"Restaurant/cafe","response rate":"100.00%","geo_score":0.0,"owner responses":1,"page id":"1.63649E+14","fan post count":1,"id":"a637zznn8ewi","geo_precision":"unmatched","state":"WA","page name":"Sonic Drive-In Yakima","likes":null},"type":"Feature","geometry":{"type":"Point","coordinates":[-120.529654625949,46.5967271525158]}},{"properties":{"city":"Greer","category":"Restaurant/cafe","response rate":"100.00%","geo_score":0.0,"owner responses":1,"page id":"1.33905E+14","fan post count":1,"id":"a637zztsntq2","geo_precision":"unmatched","state":"SC","page name":"Sonic Drive-In, Greer","likes":null},"type":"Feature","geometry":{"type":"Point","coordinates":[-82.2250545753521,34.9302996498372]}},{"properties":{"city":"California","category":"Restaurant/cafe","response rate":"0.00%","geo_score":0.0,"owner responses":0,"page id":"3.52714E+11","fan post count":22,"id":"a637zzrvfm58","geo_precision":"unmatched","state":"MO","page name":"Sonic Drive In- California, MO","likes":null},"type":"Feature","geometry":null},{"properties":{"city":"Middleton","category":"Restaurant/cafe","response rate":"0.00%","geo_score":0.0,"owner responses":0,"page id":"1.78659E+11","fan post count":17,"id":"a637zzze63nn","geo_precision":"unmatched","state":"WI","page name":"Sonic Drive In Middleton,WI","likes":null},"type":"Feature","geometry":{"type":"Point","coordinates":[-89.4995455795275,43.1016456540092]}},{"properties":{"city":"Dover","category":"Local business","response rate":"0.00%","geo_score":0.939,"owner responses":0,"page id":"1.31665E+11","fan post count":9,"id":"a637zzosjymm","geo_precision":"zip","state":"DE","page name":"Sonic Drive-In Dover","likes":null},"type":"Feature","geometry":{"type":"Point","coordinates":[-75.5267545849195,39.1619181419095]}},{"properties":{"city":"Scottsville","category":"Local business","response rate":"0.00%","geo_score":0.0,"owner responses":0,"page id":"1.16342E+14","fan post count":7,"id":"a638001zg23j","geo_precision":"unmatched","state":"KY","page name":"Sonic Drive In, Scottsville KY","likes":null},"type":"Feature","geometry":null},{"properties":{"city":"Duluth","category":"Restaurant/cafe","response rate":"0.00%","geo_score":0.0,"owner responses":0,"page id":"1.43439E+11","fan post count":6,"id":"a637zzuhuj1o","geo_precision":"unmatched","state":"GA","page name":"abbotts bridge sonic drive in","likes":null},"type":"Feature","geometry":{"type":"Point","coordinates":[-84.1455000669386,34.0030996388412]}},{"properties":{"city":"Harrisburg","category":"Restaurant/cafe","response rate":"0.00%","geo_score":0.0,"owner responses":0,"page id":"1.14214E+14","fan post count":6,"id":"a637zzyc3k04","geo_precision":"unmatched","state":"PA","page name":"Sonic Drive-In Harrisburg","likes":null},"type":"Feature","geometry":{"type":"Point","coordinates":[-76.87560906227,40.2697911727643]}},{"properties":{"city":"Pawleys Island","category":"Restaurant/cafe","response rate":"0.00%","geo_score":0.0,"owner responses":0,"page id":"1.96064E+11","fan post count":6,"id":"a637zzpiu8r6","geo_precision":"unmatched","state":"SC","page name":"Sonic Drive In of Pawleys Island","likes":null},"type":"Feature","geometry":null},{"properties":{"city":"Homestead","category":"Local business","response rate":"0.00%","geo_score":0.0,"owner responses":0,"page id":"2.31436E+14","fan post count":5,"id":"a637zzx88fu7","geo_precision":"unmatched","state":"FL","page name":"Sonic Beach Drive-In","likes":null},"type":"Feature","geometry":{"type":"Point","coordinates":[-80.4681180965962,25.4711911413134]}},{"properties":{"city":"American Canyon","category":"Local business","response rate":"0.00%","geo_score":0.959,"owner responses":0,"page id":"1.45577E+14","fan post count":5,"id":"a637zzs1ydbl","geo_precision":"zip","state":"CA","page name":"Sonic Drive In American Canyon, NorCal Restaurant Group","likes":null},"type":"Feature","geometry":null},{"properties":{"city":"Brownsville","category":"Restaurant/cafe","response rate":"0.00%","geo_score":0.0,"owner responses":0,"page id":"1.40571E+14","fan post count":5,"id":"a637zzr6d3b6","geo_precision":"unmatched","state":"TV","page name":"Sonic Drive In Brownsville #1","likes":null},"type":"Feature","geometry":{"type":"Point","coordinates":[-89.2609000777612,35.590554660721]}},{"properties":{"city":"Waynesboro","category":"Restaurant/cafe","response rate":"0.00%","geo_score":0.0,"owner responses":0,"page id":"1.09986E+14","fan post count":5,"id":"a638001qe4vm","geo_precision":"unmatched","state":"TN","page name":"Waynesboro Sonic Drive-In","likes":null},"type":"Feature","geometry":{"type":"Point","coordinates":[-78.8945180625979,38.0698726393338]}},{"properties":{"city":"Houston","category":"Restaurant/cafe","response rate":"0.00%","geo_score":0.0,"owner responses":0,"page id":"3.76853E+11","fan post count":5,"id":"a637zzpsxs54","geo_precision":"unmatched","state":"MO","page name":"Sonic Drive-In","likes":null},"type":"Feature","geometry":{"type":"Point","coordinates":[-95.3831726072139,29.7628911508572]}},{"properties":{"city":"Greenville","category":"Restaurant/cafe","response rate":"0.00%","geo_score":0.0,"owner responses":0,"page id":"1.02838E+11","fan post count":5,"id":"a6380025k3vn","geo_precision":"unmatched","state":"AL","page name":"Greenville Sonic Drive-In","likes":null},"type":"Feature","geometry":{"type":"Point","coordinates":[-77.3723635938728,35.6016091457582]}},{"properties":{"city":"Hayward","category":"Restaurant/cafe","response rate":"0.00%","geo_score":1.0,"owner responses":0,"page id":"1.89075E+11","fan post count":5,"id":"a637zzui8d76","geo_precision":"zip","state":"CA","page name":"Hayward Sonic Drive-in","likes":null},"type":"Feature","geometry":{"type":"Point","coordinates":[-122.076972617608,37.6436361563672]}},{"properties":{"city":"Woodland","category":"Local business","response rate":"0.00%","geo_score":0.937,"owner responses":0,"page id":"1.21598E+14","fan post count":4,"id":"a637zzwa10xz","geo_precision":"zip","state":"CA","page name":"Sonic Drive In","likes":null},"type":"Feature","geometry":{"type":"Point","coordinates":[-121.772500105117,38.6740546531977]}},{"properties":{"city":"Stigler","category":"Local business","response rate":"0.00%","geo_score":0.0,"owner responses":0,"page id":"1.2012E+14","fan post count":3,"id":"a638000gf09p","geo_precision":"unmatched","state":"OK","page name":"Sonic Drive In","likes":null},"type":"Feature","geometry":null},{"properties":{"city":"Ponchatoula","category":"Local business","response rate":"0.00%","geo_score":0.0,"owner responses":0,"page id":"1.54618E+14","fan post count":3,"id":"a637zzt79wc5","geo_precision":"unmatched","state":"LA","page name":"Sonic Drive-In of Ponchatoula","likes":null},"type":"Feature","geometry":null},{"properties":{"city":"Vacaville","category":"Local business","response rate":"0.00%","geo_score":0.0,"owner responses":0,"page id":"1.1596E+14","fan post count":3,"id":"a637zznnf8dy","geo_precision":"unmatched","state":"CA","page name":"Sonic Drive In Vacaville, NorCal Restaurant Group","likes":null},"type":"Feature","geometry":{"type":"Point","coordinates":[-121.972681610283,38.353809143891]}},{"properties":{"city":"McCrory","category":"Public figure","response rate":"0.00%","geo_score":0.0,"owner responses":0,"page id":"55755307171","fan post count":3,"id":"a637zzn19n4n","geo_precision":"unmatched","state":"AR","page name":"Sonic Drive In","likes":null},"type":"Feature","geometry":null},{"properties":{"city":"Ironton","category":"Restaurant/cafe","response rate":"0.00%","geo_score":0.0,"owner responses":0,"page id":"1.9458E+14","fan post count":3,"id":"a637zzt8gu3y","geo_precision":"unmatched","state":"MO","page name":"Sonic Drive In","likes":null},"type":"Feature","geometry":{"type":"Point","coordinates":[-82.6783090672767,38.5307181607146]}},{"properties":{"city":"NULL","category":"Restaurant/cafe","response rate":"0.00%","geo_score":0.786,"owner responses":0,"page id":"1.47576E+11","fan post count":3,"id":"a637zzq42y4x","geo_precision":"zip","state":"NULL","page name":"Sonic Drive-in Milford","likes":null},"type":"Feature","geometry":null},{"properties":{"city":"Bartlesville","category":"Restaurant/cafe","response rate":"0.00%","geo_score":0.0,"owner responses":0,"page id":"1.16365E+14","fan post count":3,"id":"a637zzp542b8","geo_precision":"unmatched","state":"OK","page name":"Bartlesville Sonic Drive In (Nowata Road)","likes":null},"type":"Feature","geometry":{"type":"Point","coordinates":[-95.9595001161233,36.7471911413952]}},{"properties":{"city":"NULL","category":"Restaurant/cafe","response rate":"0.00%","geo_score":0.786,"owner responses":0,"page id":"1.61539E+14","fan post count":3,"id":"a637zzsfwonw","geo_precision":"zip","state":"NULL","page name":"Sonic Drive In Lake City Ga.","likes":null},"type":"Feature","geometry":null},{"properties":{"city":"Exeter","category":"Restaurant/cafe","response rate":"0.00%","geo_score":0.0,"owner responses":0,"page id":"1.1479E+14","fan post count":3,"id":"a637zzumzj93","geo_precision":"unmatched","state":"PA","page name":"Sonic Drive-In Berks County","likes":null},"type":"Feature","geometry":null},{"properties":{"city":"Bakersfield","category":"Restaurant/cafe","response rate":"0.00%","geo_score":0.905,"owner responses":0,"page id":"65549906608","fan post count":3,"id":"a637zzy8or1j","geo_precision":"zip","state":"CA","page name":"Sonic Drive In Bakersfield #1","likes":null},"type":"Feature","geometry":{"type":"Point","coordinates":[-119.031663631399,35.3572726405751]}},{"properties":{"city":"Lawrenceville","category":"Local business","response rate":"0.00%","geo_score":0.0,"owner responses":0,"page id":"1.08126E+14","fan post count":3,"id":"a637zztr3s7n","geo_precision":"unmatched","state":"GA","page name":"Riverside Sonic Drive-in","likes":null},"type":"Feature","geometry":{"type":"Point","coordinates":[-83.9924725841367,33.9530546580069]}},{"properties":{"city":"Millville","category":"Restaurant/cafe","response rate":"0.00%","geo_score":0.0,"owner responses":0,"page id":"1.08208E+14","fan post count":3,"id":"a637zzt27nqp","geo_precision":"unmatched","state":"NJ","page name":"Sonic Drive-In Millville","likes":null},"type":"Feature","geometry":{"type":"Point","coordinates":[-75.0376365811619,39.3907636736843]}},{"properties":{"city":"Algonquin","category":"Restaurant/cafe","response rate":"0.00%","geo_score":0.0,"owner responses":0,"page id":"1.69713E+14","fan post count":3,"id":"a638002o2yrz","geo_precision":"unmatched","state":"IL","page name":"Sonic Drive-In Algonquin","likes":null},"type":"Feature","geometry":{"type":"Point","coordinates":[-88.3025725917078,42.1627451474575]}},{"properties":{"city":"Gosnell","category":"Local business","response rate":"0.00%","geo_score":0.0,"owner responses":0,"page id":"1.42913E+14","fan post count":3,"id":"a638002k03br","geo_precision":"unmatched","state":"AR","page name":"Sonic Drive in of Gosnell, Arkansas","likes":null},"type":"Feature","geometry":null},{"properties":{"city":"Lorena","category":"Restaurant/cafe","response rate":"0.00%","geo_score":0.0,"owner responses":0,"page id":"1.03218E+14","fan post count":2,"id":"a637zzpfx4pp","geo_precision":"unmatched","state":"TX","page name":"Sonic Drive-In Lorena,Tx","likes":null},"type":"Feature","geometry":null},{"properties":{"city":"Levelland","category":"Food/grocery","response rate":"0.00%","geo_score":0.0,"owner responses":0,"page id":"1.28541E+14","fan post count":2,"id":"a637zzxrg5kb","geo_precision":"unmatched","state":"TX","page name":"Sonic Drive In","likes":null},"type":"Feature","geometry":{"type":"Point","coordinates":[-102.372272615336,33.5847001596949]}},{"properties":{"city":"Baton Rouge","category":"Restaurant/cafe","response rate":"0.00%","geo_score":0.0,"owner responses":0,"page id":"1.37911E+14","fan post count":2,"id":"a637zzu4hicg","geo_precision":"unmatched","state":"LA","page name":"Sonic Drive In - Harding Blvd","likes":null},"type":"Feature","geometry":{"type":"Point","coordinates":[-91.1402270976691,30.4580911306202]}},{"properties":{"city":"Covington","category":"Local business","response rate":"0.00%","geo_score":0.0,"owner responses":0,"page id":"2.18622E+14","fan post count":2,"id":"a6380019156o","geo_precision":"unmatched","state":"GA","page name":"Sonic Drive In 4986","likes":null},"type":"Feature","geometry":{"type":"Point","coordinates":[-83.8587270937474,33.5992456574341]}},{"properties":{"city":"Bellmead","category":"Restaurant/cafe","response rate":"0.00%","geo_score":0.0,"owner responses":0,"page id":"1.72836E+14","fan post count":2,"id":"a638000p80j5","geo_precision":"unmatched","state":"TX","page name":"Sonic Drive-In","likes":null},"type":"Feature","geometry":null},{"properties":{"city":"Howe","category":"Restaurant/cafe","response rate":"0.00%","geo_score":0.0,"owner responses":0,"page id":"1.21248E+14","fan post count":2,"id":"a63800302fhc","geo_precision":"unmatched","state":"TX","page name":"Sonic Drive-In Howe,TX","likes":null},"type":"Feature","geometry":null},{"properties":{"city":"Cathedral City","category":"Restaurant/cafe","response rate":"0.00%","geo_score":0.956,"owner responses":0,"page id":"38151568027","fan post count":2,"id":"a638001mwx5w","geo_precision":"zip","state":"CA","page name":"Sonic Drive In Cathedral City","likes":null},"type":"Feature","geometry":{"type":"Point","coordinates":[-116.464727619557,33.8077636496481]}},{"properties":{"city":"Florence","category":"Restaurant/cafe","response rate":"0.00%","geo_score":0.0,"owner responses":0,"page id":"1.19118E+14","fan post count":2,"id":"a637zzp0z5og","geo_precision":"unmatched","state":"MS","page name":"Sonic Drive In Florence, MS","likes":null},"type":"Feature","geometry":{"type":"Point","coordinates":[-79.7741455742827,34.1840911474221]}},{"properties":{"city":"Flowery Branch","category":"Local business","response rate":"0.00%","geo_score":0.0,"owner responses":0,"page id":"1.08195E+14","fan post count":2,"id":"a637zzp8d9w5","geo_precision":"unmatched","state":"GA","page name":"Oakwood Sonic Drive-in","likes":null},"type":"Feature","geometry":null},{"properties":{"city":"Waycross","category":"Local business","response rate":"0.00%","geo_score":0.0,"owner responses":0,"page id":"1.20955E+14","fan post count":1,"id":"a637zzvn3161","geo_precision":"unmatched","state":"GA","page name":"Sonic Drive In","likes":null},"type":"Feature","geometry":{"type":"Point","coordinates":[-82.3549091001389,31.213863660787]}},{"properties":{"city":"Lexington","category":"Restaurant/cafe","response rate":"0.00%","geo_score":0.0,"owner responses":0,"page id":"1.56743E+14","fan post count":1,"id":"a63800007chc","geo_precision":"unmatched","state":"KY","page name":"Sonic Drive-In","likes":null},"type":"Feature","geometry":{"type":"Point","coordinates":[-80.2586455956387,35.8167631591602]}},{"properties":{"city":"Morgantown","category":"Local business","response rate":"0.00%","geo_score":0.0,"owner responses":0,"page id":"1.39732E+14","fan post count":1,"id":"a637zzufj46y","geo_precision":"unmatched","state":"KY","page name":"Sonic Drive-In","likes":null},"type":"Feature","geometry":{"type":"Point","coordinates":[-79.9506725794736,39.6337001772076]}},{"properties":{"city":"Hammond","category":"Local business","response rate":"0.00%","geo_score":0.0,"owner responses":0,"page id":"1.15728E+14","fan post count":1,"id":"a637zzxi1430","geo_precision":"unmatched","state":"LA","page name":"Sonic Drive-In of West Thomas St","likes":null},"type":"Feature","geometry":{"type":"Point","coordinates":[-87.4930815749243,41.61118166648]}},{"properties":{"city":"Covington","category":"Restaurant/cafe","response rate":"0.00%","geo_score":0.0,"owner responses":0,"page id":"2.20696E+14","fan post count":1,"id":"a637zzqq2dv0","geo_precision":"unmatched","state":"LA","page name":"Sonic Drive In Covington","likes":null},"type":"Feature","geometry":{"type":"Point","coordinates":[-83.8587270937474,33.5992456574341]}},{"properties":{"city":"Lawton","category":"Restaurant/cafe","response rate":"0.00%","geo_score":0.0,"owner responses":0,"page id":"1.44415E+14","fan post count":1,"id":"a637zzu9m4x9","geo_precision":"unmatched","state":"OK","page name":"Sonic Drive In, East Gore","likes":null},"type":"Feature","geometry":{"type":"Point","coordinates":[-98.4177816045249,34.6094271535836]}},{"properties":{"city":"Mt Pleasant","category":"Restaurant/cafe","response rate":"0.00%","geo_score":0.0,"owner responses":0,"page id":"85770734014","fan post count":1,"id":"a637zzn2rbv2","geo_precision":"unmatched","state":"SC","page name":"SONIC DRIVE IN MT PLEASANT, SC","likes":null},"type":"Feature","geometry":null},{"properties":{"city":"Mt Pleasant","category":"Product/service","response rate":"0.00%","geo_score":0.0,"owner responses":0,"page id":"1.85176E+11","fan post count":1,"id":"a637zzplc0ee","geo_precision":"unmatched","state":"SC","page name":"SONIC DRIVE IN MT PLEASANT, SC","likes":null},"type":"Feature","geometry":null},{"properties":{"city":"Feasterville","category":"Local business","response rate":"0.00%","geo_score":0.0,"owner responses":0,"page id":"1.54832E+14","fan post count":1,"id":"a637zzq3a93e","geo_precision":"unmatched","state":"PA","page name":"Feasterville Sonic Drive In","likes":null},"type":"Feature","geometry":null},{"properties":{"city":"Nashville","category":"Local business","response rate":"0.00%","geo_score":0.0,"owner responses":0,"page id":"1.8698E+14","fan post count":1,"id":"a638000cf58u","geo_precision":"unmatched","state":"AR","page name":"Sonic Drive In Nashville AR","likes":null},"type":"Feature","geometry":{"type":"Point","coordinates":[-86.7621365956001,36.1548356698587]}},{"properties":{"city":"Duluth","category":"Local business","response rate":"0.00%","geo_score":0.0,"owner responses":0,"page id":"1.43282E+14","fan post count":1,"id":"a637zzvxzhss","geo_precision":"unmatched","state":"GA","page name":"Satellite Sonic Drive-in","likes":null},"type":"Feature","geometry":{"type":"Point","coordinates":[-84.1455000669386,34.0030996388412]}},{"properties":{"city":"Palmyra","category":"Restaurant/cafe","response rate":"0.00%","geo_score":0.98,"owner responses":0,"page id":"1.10176E+14","fan post count":1,"id":"a637zznoqtck","geo_precision":"zip","state":"PA","page name":"Sonic Drive-In Palmyra","likes":null},"type":"Feature","geometry":null},{"properties":{"city":"Mebane","category":"Restaurant/cafe","response rate":"0.00%","geo_score":0.921,"owner responses":0,"page id":"1.39944E+14","fan post count":1,"id":"a637zzpvqgdt","geo_precision":"zip","state":"NC","page name":"Mebane Sonic Drive-In","likes":null},"type":"Feature","geometry":null},{"properties":{"city":"George West","category":"Restaurant/cafe","response rate":"0.00%","geo_score":0.0,"owner responses":0,"page id":"2.94724E+11","fan post count":1,"id":"a637zzto1yx4","geo_precision":"unmatched","state":"TX","page name":"Sonic Drive In - George West, TX","likes":null},"type":"Feature","geometry":null},{"properties":{"city":"Farmington","category":"Restaurant/cafe","response rate":"#DIV/0!","geo_score":0.0,"owner responses":0,"page id":"1.18386E+14","fan post count":0,"id":"a638000s30uk","geo_precision":"unmatched","state":"AR","page name":"Sonic Drive In","likes":null},"type":"Feature","geometry":{"type":"Point","coordinates":[-90.4221455910167,37.7819361478745]}},{"properties":{"city":"Oklahoma City","category":"Local business","response rate":"#DIV/0!","geo_score":0.0,"owner responses":0,"page id":"1.00868E+14","fan post count":0,"id":"a637zzrztlhl","geo_precision":"unmatched","state":"OK","page name":"Sonic Drive In","likes":null},"type":"Feature","geometry":{"type":"Point","coordinates":[-97.5349911014594,35.4823086653582]}},{"properties":{"city":"Kentwood","category":"Local business","response rate":"#DIV/0!","geo_score":0.0,"owner responses":0,"page id":"1.13363E+14","fan post count":0,"id":"a637zzovqvyx","geo_precision":"unmatched","state":"LA","page name":"Sonic Drive-In of Kentwood","likes":null},"type":"Feature","geometry":{"type":"Point","coordinates":[-85.6094725863339,42.8828361593467]}},{"properties":{"city":"Portage","category":"Restaurant/cafe","response rate":"#DIV/0!","geo_score":0.0,"owner responses":0,"page id":"1.20146E+14","fan post count":0,"id":"a637zzukiv4o","geo_precision":"unmatched","state":"MI","page name":"Sonic Drive-In Portage MI","likes":null},"type":"Feature","geometry":{"type":"Point","coordinates":[-87.1865545999597,41.5818546455076]}},{"properties":{"city":"Amite","category":"Local business","response rate":"#DIV/0!","geo_score":0.0,"owner responses":0,"page id":"1.62798E+14","fan post count":0,"id":"a637zzqutnme","geo_precision":"unmatched","state":"LA","page name":"Sonic Drive-In of Amite","likes":null},"type":"Feature","geometry":null},{"properties":{"city":"Galliano","category":"Local business","response rate":"#DIV/0!","geo_score":0.911,"owner responses":0,"page id":"1.20652E+14","fan post count":0,"id":"a637zzp9fbjt","geo_precision":"zip","state":"LA","page name":"Sonic Drive-In of Galliano","likes":null},"type":"Feature","geometry":null},{"properties":{"city":"Thibodaux","category":"Local business","response rate":"#DIV/0!","geo_score":0.0,"owner responses":0,"page id":"1.20385E+14","fan post count":0,"id":"a637zzwlrqcq","geo_precision":"unmatched","state":"LA","page name":"Sonic Drive-In of Thibodaux","likes":null},"type":"Feature","geometry":{"type":"Point","coordinates":[-90.8200911091868,29.7922001473077]}},{"properties":{"city":"Clinton","category":"Local business","response rate":"#DIV/0!","geo_score":0.0,"owner responses":0,"page id":"1.45152E+14","fan post count":0,"id":"a637zzqwfwfq","geo_precision":"unmatched","state":"LA","page name":"Sonic Drive-In of Clinton","likes":null},"type":"Feature","geometry":{"type":"Point","coordinates":[-76.895454560346,38.7637091660055]}},{"properties":{"city":"Ponchatoula","category":"Local business","response rate":"#DIV/0!","geo_score":0.0,"owner responses":0,"page id":"1.42652E+14","fan post count":0,"id":"a637zzy4f1h7","geo_precision":"unmatched","state":"LA","page name":"Sonic Drive-In of Ponchatoula","likes":null},"type":"Feature","geometry":null},{"properties":{"city":"Morgan City","category":"Local business","response rate":"#DIV/0!","geo_score":0.0,"owner responses":0,"page id":"1.2032E+14","fan post count":0,"id":"a637zzvm2h8b","geo_precision":"unmatched","state":"LA","page name":"Sonic Drive-In of Morgan City","likes":null},"type":"Feature","geometry":{"type":"Point","coordinates":[-91.197318084716,29.7008271441181]}},{"properties":{"city":"Hammond","category":"Local business","response rate":"#DIV/0!","geo_score":0.0,"owner responses":0,"page id":"1.20755E+14","fan post count":0,"id":"a637zzp2t8s4","geo_precision":"unmatched","state":"LA","page name":"Sonic Drive-In Of Railroad Ave","likes":null},"type":"Feature","geometry":{"type":"Point","coordinates":[-87.4930815749243,41.61118166648]}},{"properties":{"city":"Hammond","category":"Local business","response rate":"#DIV/0!","geo_score":0.0,"owner responses":0,"page id":"1.44381E+14","fan post count":0,"id":"a637zztxp631","geo_precision":"unmatched","state":"LA","page name":"Sonic Drive-In of University Ave","likes":null},"type":"Feature","geometry":{"type":"Point","coordinates":[-87.4930815749243,41.61118166648]}},{"properties":{"city":"NULL","category":"Local business","response rate":"#DIV/0!","geo_score":0.786,"owner responses":0,"page id":"1.89663E+14","fan post count":0,"id":"a638001xgwbc","geo_precision":"zip","state":"NULL","page name":"Sonic Drive In","likes":null},"type":"Feature","geometry":null},{"properties":{"city":"NULL","category":"Local business","response rate":"#DIV/0!","geo_score":0.786,"owner responses":0,"page id":"2.47594E+14","fan post count":0,"id":"a637zzqckr3r","geo_precision":"zip","state":"NULL","page name":"Sonic drive in","likes":null},"type":"Feature","geometry":null},{"properties":{"city":"NULL","category":"Local business","response rate":"#DIV/0!","geo_score":0.786,"owner responses":0,"page id":"2.05997E+14","fan post count":0,"id":"a637zzo5wnb6","geo_precision":"zip","state":"NULL","page name":"Sonic Drive In","likes":null},"type":"Feature","geometry":null},{"properties":{"city":"NULL","category":"Local business","response rate":"#DIV/0!","geo_score":0.786,"owner responses":0,"page id":"2.44364E+14","fan post count":0,"id":"a637zzv754u2","geo_precision":"zip","state":"NULL","page name":"Sonic Drive In","likes":null},"type":"Feature","geometry":null},{"properties":{"city":"NULL","category":"Local business","response rate":"#DIV/0!","geo_score":0.786,"owner responses":0,"page id":"1.75442E+14","fan post count":0,"id":"a637zzsxj8be","geo_precision":"zip","state":"NULL","page name":"Sonic Drive In","likes":null},"type":"Feature","geometry":null},{"properties":{"city":"NULL","category":"Local business","response rate":"#DIV/0!","geo_score":0.786,"owner responses":0,"page id":"2.45459E+14","fan post count":0,"id":"a637zzyppi8i","geo_precision":"zip","state":"NULL","page name":"Sonic Drive In","likes":null},"type":"Feature","geometry":null},{"properties":{"city":"NULL","category":"Local business","response rate":"#DIV/0!","geo_score":0.786,"owner responses":0,"page id":"1.18684E+14","fan post count":0,"id":"a6380031h7ue","geo_precision":"zip","state":"NULL","page name":"Sonic Drive In","likes":null},"type":"Feature","geometry":null},{"properties":{"city":"Huntsville","category":"Local business","response rate":"#DIV/0!","geo_score":0.0,"owner responses":0,"page id":"1.21252E+14","fan post count":0,"id":"a637zzuxy4eo","geo_precision":"unmatched","state":"AL","page name":"Sonic Drive In","likes":null},"type":"Feature","geometry":{"type":"Point","coordinates":[-86.5963000883355,34.7123456331157]}},{"properties":{"city":"NULL","category":"Local business","response rate":"#DIV/0!","geo_score":0.786,"owner responses":0,"page id":"2.01816E+14","fan post count":0,"id":"a637zzsnkhu8","geo_precision":"zip","state":"NULL","page name":"Sonic Drive In","likes":null},"type":"Feature","geometry":null},{"properties":{"city":"Dunnellon","category":"Restaurant/cafe","response rate":"#DIV/0!","geo_score":0.0,"owner responses":0,"page id":"1.40998E+14","fan post count":0,"id":"a637zzx1hm9z","geo_precision":"unmatched","state":"FL","page name":"Sonic Drive in","likes":null},"type":"Feature","geometry":null},{"properties":{"city":"NULL","category":"Local business","response rate":"#DIV/0!","geo_score":0.786,"owner responses":0,"page id":"2.22623E+14","fan post count":0,"id":"a637zzuyykbf","geo_precision":"zip","state":"NULL","page name":"Sonic Drive In","likes":null},"type":"Feature","geometry":null},{"properties":{"city":"NULL","category":"Restaurant/cafe","response rate":"#DIV/0!","geo_score":0.786,"owner responses":0,"page id":"2.48928E+11","fan post count":0,"id":"a637zzxew9gj","geo_precision":"zip","state":"NULL","page name":"Sonic-Drive-In","likes":null},"type":"Feature","geometry":null},{"properties":{"city":"NULL","category":"Restaurant/cafe","response rate":"#DIV/0!","geo_score":0.786,"owner responses":0,"page id":"86323237630","fan post count":0,"id":"a6380015dejf","geo_precision":"zip","state":"NULL","page name":"SONIC DRIVE IN 5516","likes":null},"type":"Feature","geometry":null},{"properties":{"city":"NULL","category":"Local business","response rate":"#DIV/0!","geo_score":0.786,"owner responses":0,"page id":"2.4368E+14","fan post count":0,"id":"a637zzohmar0","geo_precision":"zip","state":"NULL","page name":"Sonic Drive In Krebs","likes":null},"type":"Feature","geometry":null},{"properties":{"city":"Tunica","category":"Local business","response rate":"#DIV/0!","geo_score":0.0,"owner responses":0,"page id":"1.25305E+14","fan post count":0,"id":"a637zzxu3nq5","geo_precision":"unmatched","state":"MS","page name":"Sonic Drive In.. Robinsonville","likes":null},"type":"Feature","geometry":null},{"properties":{"city":"McEwen","category":"Local business","response rate":"#DIV/0!","geo_score":0.0,"owner responses":0,"page id":"1.8195E+14","fan post count":0,"id":"a637zzslbpwo","geo_precision":"unmatched","state":"TN","page name":"McEwen Sonic Drive In","likes":null},"type":"Feature","geometry":null},{"properties":{"city":"Silver City","category":"Restaurant/cafe","response rate":"#DIV/0!","geo_score":0.0,"owner responses":0,"page id":"1.08875E+14","fan post count":0,"id":"a637zzxs6lt1","geo_precision":"unmatched","state":"NM","page name":"Sonic Drive In","likes":null},"type":"Feature","geometry":{"type":"Point","coordinates":[-108.27427262508,32.7779456649473]}},{"properties":{"city":"NULL","category":"Restaurant/cafe","response rate":"#DIV/0!","geo_score":0.786,"owner responses":0,"page id":"1.02731E+11","fan post count":0,"id":"a638001nslnd","geo_precision":"zip","state":"NULL","page name":"Sonic Drive-In","likes":null},"type":"Feature","geometry":null},{"properties":{"city":"Demorest","category":"Restaurant/cafe","response rate":"#DIV/0!","geo_score":0.0,"owner responses":0,"page id":"28886809226","fan post count":0,"id":"a637zzw2k0u5","geo_precision":"unmatched","state":"GA","page name":"Sonic Drive-In","likes":null},"type":"Feature","geometry":null},{"properties":{"city":"NULL","category":"Community","response rate":"#DIV/0!","geo_score":0.786,"owner responses":0,"page id":"1.17138E+14","fan post count":0,"id":"a637zzz82zxn","geo_precision":"zip","state":"NULL","page name":"Sonic Drive-In","likes":null},"type":"Feature","geometry":null},{"properties":{"city":"NULL","category":"Community","response rate":"#DIV/0!","geo_score":0.786,"owner responses":0,"page id":"1.31266E+14","fan post count":0,"id":"a637zzmm06zs","geo_precision":"zip","state":"NULL","page name":"Sonic drive-in","likes":null},"type":"Feature","geometry":null},{"properties":{"city":"NULL","category":"Restaurant/cafe","response rate":"#DIV/0!","geo_score":0.786,"owner responses":0,"page id":"1.93697E+11","fan post count":0,"id":"a638000rg9fk","geo_precision":"zip","state":"NULL","page name":"Sonic Drive-In","likes":null},"type":"Feature","geometry":null},{"properties":{"city":"NULL","category":"Restaurant/cafe","response rate":"#DIV/0!","geo_score":0.786,"owner responses":0,"page id":"1.2193E+14","fan post count":0,"id":"a638001r49sx","geo_precision":"zip","state":"NULL","page name":"Sonic Drive-In","likes":null},"type":"Feature","geometry":null},{"properties":{"city":"NULL","category":"Restaurant/cafe","response rate":"#DIV/0!","geo_score":0.786,"owner responses":0,"page id":"1.32284E+11","fan post count":0,"id":"a637zznr6ac7","geo_precision":"zip","state":"NULL","page name":"Sonic Drive-In","likes":null},"type":"Feature","geometry":null},{"properties":{"city":"NULL","category":"Restaurant/cafe","response rate":"#DIV/0!","geo_score":0.786,"owner responses":0,"page id":"2.71554E+11","fan post count":0,"id":"a6380024sseh","geo_precision":"zip","state":"NULL","page name":"Sonic Drive-In","likes":null},"type":"Feature","geometry":null},{"properties":{"city":"NULL","category":"Restaurant/cafe","response rate":"#DIV/0!","geo_score":0.786,"owner responses":0,"page id":"1.51277E+11","fan post count":0,"id":"a6380012vh5d","geo_precision":"zip","state":"NULL","page name":"Sonic Drive-In","likes":null},"type":"Feature","geometry":null},{"properties":{"city":"NULL","category":"Local business","response rate":"#DIV/0!","geo_score":0.786,"owner responses":0,"page id":"2.44152E+11","fan post count":0,"id":"a638001z35sr","geo_precision":"zip","state":"NULL","page name":"Sonic Drive-In!","likes":null},"type":"Feature","geometry":null},{"properties":{"city":"NULL","category":"Local business","response rate":"#DIV/0!","geo_score":0.786,"owner responses":0,"page id":"2.52993E+14","fan post count":0,"id":"a637zzp43d19","geo_precision":"zip","state":"NULL","page name":"SONIC DRIVE-IN","likes":null},"type":"Feature","geometry":null},{"properties":{"city":"Peabody","category":"Restaurant/cafe","response rate":"#DIV/0!","geo_score":0.0,"owner responses":0,"page id":"1.90694E+14","fan post count":0,"id":"a637zzq59v3r","geo_precision":"unmatched","state":"MA","page name":"Sonic Drive-In","likes":null},"type":"Feature","geometry":{"type":"Point","coordinates":[-70.9614635635784,42.534045676855]}},{"properties":{"city":"NULL","category":"Local business","response rate":"#DIV/0!","geo_score":0.786,"owner responses":0,"page id":"2.27922E+14","fan post count":0,"id":"a637zzo8ga6s","geo_precision":"zip","state":"NULL","page name":"Sonic Drive-In","likes":null},"type":"Feature","geometry":null},{"properties":{"city":"NULL","category":"Local business","response rate":"#DIV/0!","geo_score":0.786,"owner responses":0,"page id":"1.46132E+14","fan post count":0,"id":"a637zzvcay5a","geo_precision":"zip","state":"NULL","page name":"Sonic Drive-In","likes":null},"type":"Feature","geometry":null},{"properties":{"city":"Pilot Point","category":"Restaurant/cafe","response rate":"#DIV/0!","geo_score":0.0,"owner responses":0,"page id":"2.5692E+14","fan post count":0,"id":"a637zzwnk6ff","geo_precision":"unmatched","state":"TX","page name":"Sonic Drive-in","likes":null},"type":"Feature","geometry":null},{"properties":{"city":"NULL","category":"Local business","response rate":"#DIV/0!","geo_score":0.786,"owner responses":0,"page id":"1.41523E+14","fan post count":0,"id":"a637zzo9cjug","geo_precision":"zip","state":"NULL","page name":"Sonic Drive-In","likes":null},"type":"Feature","geometry":null},{"properties":{"city":"NULL","category":"Local business","response rate":"#DIV/0!","geo_score":0.786,"owner responses":0,"page id":"2.04289E+14","fan post count":0,"id":"a637zzwspo2f","geo_precision":"zip","state":"NULL","page name":"Sonic Drive-In","likes":null},"type":"Feature","geometry":null},{"properties":{"city":"Wichita","category":"Restaurant/cafe","response rate":"#DIV/0!","geo_score":0.0,"owner responses":0,"page id":"2.46349E+14","fan post count":0,"id":"a637zzyah5iu","geo_precision":"unmatched","state":"KS","page name":"Sonic Drive-In","likes":null},"type":"Feature","geometry":{"type":"Point","coordinates":[-97.3362270813231,37.6888456533527]}},{"properties":{"city":"Commerce","category":"Restaurant/cafe","response rate":"#DIV/0!","geo_score":0.0,"owner responses":0,"page id":"1.17264E+14","fan post count":0,"id":"a637zzrrxq8d","geo_precision":"unmatched","state":"TX","page name":"Sonic Drive In Commerce, Texas","likes":null},"type":"Feature","geometry":{"type":"Point","coordinates":[-118.154782132722,34.0006091327963]}},{"properties":{"city":"San Antonio","category":"Restaurant/cafe","response rate":"#DIV/0!","geo_score":0.0,"owner responses":0,"page id":"1.99037E+14","fan post count":0,"id":"a637zzqjfm2z","geo_precision":"unmatched","state":"TX","page name":"Mother effin Sonic Drive In","likes":null},"type":"Feature","geometry":{"type":"Point","coordinates":[-98.5126815862062,29.4515361432896]}},{"properties":{"city":"Stanford","category":"Restaurant/cafe","response rate":"#DIV/0!","geo_score":0.0,"owner responses":0,"page id":"3.41136E+11","fan post count":0,"id":"a637zzqv86t2","geo_precision":"unmatched","state":"KY","page name":"Sonic Drive In Stanford KY","likes":null},"type":"Feature","geometry":{"type":"Point","coordinates":[-122.165409122312,37.4225911630981]}},{"properties":{"city":"Fort Smith","category":"Local business","response rate":"#DIV/0!","geo_score":0.921,"owner responses":0,"page id":"1.09201E+14","fan post count":0,"id":"a637zzwcn71k","geo_precision":"zip","state":"AR","page name":"Sonic Drive In - Towson Ave","likes":null},"type":"Feature","geometry":{"type":"Point","coordinates":[-94.3987365804547,35.3686906548254]}},{"properties":{"city":"Nashville","category":"Local business","response rate":"#DIV/0!","geo_score":0.0,"owner responses":0,"page id":"1.78147E+14","fan post count":0,"id":"a638002xfn7f","geo_precision":"unmatched","state":"TN","page name":"Sonic Drive In, Nashville TN","likes":null},"type":"Feature","geometry":{"type":"Point","coordinates":[-86.7621365956001,36.1548356698587]}},{"properties":{"city":"Plant City","category":"Local business","response rate":"#DIV/0!","geo_score":0.0,"owner responses":0,"page id":"1.83416E+14","fan post count":0,"id":"a637zzwcqjw2","geo_precision":"unmatched","state":"FL","page name":"sonic drive in plant city","likes":null},"type":"Feature","geometry":{"type":"Point","coordinates":[-82.1288635716836,28.0142546522078]}},{"properties":{"city":"Cedar Park","category":"Local business","response rate":"#DIV/0!","geo_score":0.0,"owner responses":0,"page id":"1.91967E+14","fan post count":0,"id":"a638000jpjeq","geo_precision":"unmatched","state":"TX","page name":"Sonic Drive In- Cedar Park","likes":null},"type":"Feature","geometry":{"type":"Point","coordinates":[-97.8303181047728,30.50661763915]}},{"properties":{"city":"NULL","category":"Local business","response rate":"#DIV/0!","geo_score":0.786,"owner responses":0,"page id":"2.26653E+14","fan post count":0,"id":"a638000bbfuw","geo_precision":"zip","state":"NULL","page name":"Spring Hill Sonic Drive In","likes":null},"type":"Feature","geometry":null},{"properties":{"city":"Benton","category":"Local business","response rate":"#DIV/0!","geo_score":0.0,"owner responses":0,"page id":"1.46534E+14","fan post count":0,"id":"a638002gnjzu","geo_precision":"unmatched","state":"TN","page name":"Sonic Drive In Benton Tn.","likes":null},"type":"Feature","geometry":{"type":"Point","coordinates":[-92.5770270884179,34.5707726715055]}},{"properties":{"city":"Coffeyville","category":"Restaurant/cafe","response rate":"#DIV/0!","geo_score":0.0,"owner responses":0,"page id":"2.25232E+14","fan post count":0,"id":"a637zzt3ixrh","geo_precision":"unmatched","state":"KS","page name":"Coffeyville Sonic Drive-In","likes":null},"type":"Feature","geometry":{"type":"Point","coordinates":[-95.6264365909066,37.0377091356771]}},{"properties":{"city":"San Antonio","category":"Local business","response rate":"#DIV/0!","geo_score":0.0,"owner responses":0,"page id":"1.00354E+14","fan post count":0,"id":"a637zzy4aw6t","geo_precision":"unmatched","state":"TX","page name":"Sonic Drive-in Culebra","likes":null},"type":"Feature","geometry":{"type":"Point","coordinates":[-98.5126815862062,29.4515361432896]}},{"properties":{"city":"Bullard","category":"Local business","response rate":"#DIV/0!","geo_score":0.0,"owner responses":0,"page id":"1.88581E+14","fan post count":0,"id":"a637zzwrr90z","geo_precision":"unmatched","state":"TX","page name":"Bullard Sonic Drive-In","likes":null},"type":"Feature","geometry":null},{"properties":{"city":"Wadesboro","category":"Restaurant/cafe","response rate":"#DIV/0!","geo_score":0.0,"owner responses":0,"page id":"2.08151E+14","fan post count":0,"id":"a638002uo1vf","geo_precision":"unmatched","state":"NC","page name":"Sonic Drive-In Wadesboro","likes":null},"type":"Feature","geometry":null},{"properties":{"city":"Marionville","category":"Local business","response rate":"#DIV/0!","geo_score":0.0,"owner responses":0,"page id":"1.44778E+14","fan post count":0,"id":"a637zzzo3lmo","geo_precision":"unmatched","state":"MO","page name":"Sonic Drive-In Marionville","likes":null},"type":"Feature","geometry":null},{"properties":{"city":"Mandeville","category":"Restaurant/cafe","response rate":"#DIV/0!","geo_score":0.0,"owner responses":0,"page id":"2.31584E+14","fan post count":0,"id":"a638002wmamn","geo_precision":"unmatched","state":"LA","page name":"Sonic Drive-In Mandeville","likes":null},"type":"Feature","geometry":{"type":"Point","coordinates":[-90.0780090983432,30.3692816473584]}},{"properties":{"city":"NULL","category":"Local business","response rate":"#DIV/0!","geo_score":0.786,"owner responses":0,"page id":"2.48056E+11","fan post count":0,"id":"a637zznnubn0","geo_precision":"zip","state":"NULL","page name":"sonic americas drive-in","likes":null},"type":"Feature","geometry":null},{"properties":{"city":"NULL","category":"Restaurant/cafe","response rate":"#DIV/0!","geo_score":0.786,"owner responses":0,"page id":"1.43938E+14","fan post count":0,"id":"a637zzqmjxds","geo_precision":"zip","state":"NULL","page name":"Sonic Americas Drive-In","likes":null},"type":"Feature","geometry":null},{"properties":{"city":"Edwardsville","category":"Restaurant/cafe","response rate":"#DIV/0!","geo_score":0.0,"owner responses":0,"page id":"3.42558E+11","fan post count":0,"id":"a6380030kcy2","geo_precision":"unmatched","state":"IL","page name":"Sonic Drive In of Edwardsville, IL","likes":null},"type":"Feature","geometry":{"type":"Point","coordinates":[-89.9581911101936,38.8039816507155]}},{"properties":{"city":"Andalusia","category":"Restaurant/cafe","response rate":"#DIV/0!","geo_score":0.0,"owner responses":0,"page id":"1.22404E+14","fan post count":0,"id":"a637zzqvlbpg","geo_precision":"unmatched","state":"AL","page name":"Sonic Drive In of Andalusia, AL","likes":null},"type":"Feature","geometry":null},{"properties":{"city":"Russellville","category":"Local business","response rate":"#DIV/0!","geo_score":0.0,"owner responses":0,"page id":"3.73285E+11","fan post count":0,"id":"a637zzt0dr9j","geo_precision":"unmatched","state":"KY","page name":"SONIC DRIVE IN OF RUSSELLVILLE KENTUCKY","likes":null},"type":"Feature","geometry":{"type":"Point","coordinates":[-93.1368180767709,35.2784266384406]}},{"properties":{"city":"Oklahoma City","category":"Local business","response rate":"#DIV/0!","geo_score":0.0,"owner responses":0,"page id":"1.83492E+14","fan post count":0,"id":"a637zztnfycg","geo_precision":"unmatched","state":"OK","page name":"sonic drive in @ oklahoma city ok","likes":null},"type":"Feature","geometry":{"type":"Point","coordinates":[-97.5349911014594,35.4823086653582]}},{"properties":{"city":"Orlando","category":"Local business","response rate":"#DIV/0!","geo_score":0.0,"owner responses":0,"page id":"2.17912E+14","fan post count":0,"id":"a637zzvt8x9s","geo_precision":"unmatched","state":"FL","page name":"Sonic Drive In International Drive Orlando, FL","likes":null},"type":"Feature","geometry":{"type":"Point","coordinates":[-81.3757910982383,28.533509156965]}},{"properties":{"city":"Plano","category":"Restaurant/cafe","response rate":"#DIV/0!","geo_score":0.0,"owner responses":0,"page id":"1.16324E+14","fan post count":0,"id":"a637zzxz1kmq","geo_precision":"unmatched","state":"TX","page name":"Sonic Drive In - Midway","likes":null},"type":"Feature","geometry":{"type":"Point","coordinates":[-96.7459366039093,33.0503726589517]}},{"properties":{"city":"Feasterville","category":"Restaurant/cafe","response rate":"#DIV/0!","geo_score":0.0,"owner responses":0,"page id":"1.1362E+14","fan post count":0,"id":"a637zznl45iy","geo_precision":"unmatched","state":"PA","page name":"Sonic Drive In Somerton","likes":null},"type":"Feature","geometry":null},{"properties":{"city":"Modesto","category":"Local business","response rate":"#DIV/0!","geo_score":0.9,"owner responses":0,"page id":"1.19634E+14","fan post count":0,"id":"a637zzv4ms2f","geo_precision":"zip","state":"CA","page name":"Sonic Drive-In of Modesto","likes":null},"type":"Feature","geometry":{"type":"Point","coordinates":[-120.994546132145,37.6614816401786]}},{"properties":{"city":"Castle Hills","category":"Local business","response rate":"#DIV/0!","geo_score":0.0,"owner responses":0,"page id":"1.06438E+14","fan post count":0,"id":"a637zzqcdvyc","geo_precision":"unmatched","state":"TX","page name":"Sonic Drive-in Castle Hills","likes":null},"type":"Feature","geometry":null},{"properties":{"city":"Baton Rouge","category":"Restaurant/cafe","response rate":"#DIV/0!","geo_score":0.0,"owner responses":0,"page id":"2.03942E+14","fan post count":0,"id":"a637zzrop32t","geo_precision":"unmatched","state":"LA","page name":"Sonic Drive-In on Coursey","likes":null},"type":"Feature","geometry":{"type":"Point","coordinates":[-91.1402270976691,30.4580911306202]}},{"properties":{"city":"San Antonio","category":"Local business","response rate":"#DIV/0!","geo_score":0.0,"owner responses":0,"page id":"1.10529E+14","fan post count":0,"id":"a637zzyzpt3v","geo_precision":"unmatched","state":"TX","page name":"Sonic Drive-in Bitters Rd","likes":null},"type":"Feature","geometry":{"type":"Point","coordinates":[-98.5126815862062,29.4515361432896]}},{"properties":{"city":"Glenwood","category":"Local business","response rate":"#DIV/0!","geo_score":0.0,"owner responses":0,"page id":"1.40751E+14","fan post count":0,"id":"a638002nt922","geo_precision":"unmatched","state":"AR","page name":"Sonic Drive-In Glenwood, Ar","likes":null},"type":"Feature","geometry":null},{"properties":{"city":"Leesville","category":"Restaurant/cafe","response rate":"#DIV/0!","geo_score":0.0,"owner responses":0,"page id":"2.45964E+14","fan post count":0,"id":"a638002foedq","geo_precision":"unmatched","state":"LA","page name":"Sonic Drive-In of Leesville","likes":null},"type":"Feature","geometry":null},{"properties":{"city":"NULL","category":"Local business","response rate":"#DIV/0!","geo_score":0.786,"owner responses":0,"page id":"1.08606E+14","fan post count":0,"id":"a637zzwtk9g4","geo_precision":"zip","state":"NULL","page name":"Sonic Drive-in Zarzamora 2","likes":null},"type":"Feature","geometry":null},{"properties":{"city":"NULL","category":"Local business","response rate":"#DIV/0!","geo_score":0.786,"owner responses":0,"page id":"1.00355E+14","fan post count":0,"id":"a638000eils8","geo_precision":"zip","state":"NULL","page name":"Sonic Drive-in Ingram Rd","likes":null},"type":"Feature","geometry":null},{"properties":{"city":"NULL","category":"Local business","response rate":"#DIV/0!","geo_score":0.786,"owner responses":0,"page id":"1.09159E+14","fan post count":0,"id":"a637zzrsuuev","geo_precision":"zip","state":"NULL","page name":"Sonic Drive-in Leon Springs","likes":null},"type":"Feature","geometry":null},{"properties":{"city":"Rock Springs","category":"Restaurant/cafe","response rate":"#DIV/0!","geo_score":0.0,"owner responses":0,"page id":"2.33193E+14","fan post count":0,"id":"a637zzra72nx","geo_precision":"unmatched","state":"WY","page name":"Rock Springs Sonic Drive-In","likes":null},"type":"Feature","geometry":{"type":"Point","coordinates":[-109.222400104988,41.5909271408021]}},{"properties":{"city":"Las Vegas","category":"Local business","response rate":"#DIV/0!","geo_score":0.0,"owner responses":0,"page id":"1.08369E+14","fan post count":0,"id":"a6380019t3uu","geo_precision":"unmatched","state":"NV","page name":"sonic burger drive in las vegas","likes":null},"type":"Feature","geometry":{"type":"Point","coordinates":[-105.222591117044,35.5970271707732]}},{"properties":{"city":"Cape Girardeau","category":"Restaurant/cafe","response rate":"#DIV/0!","geo_score":0.0,"owner responses":0,"page id":"2.06002E+14","fan post count":0,"id":"a638000g8f6c","geo_precision":"unmatched","state":"MO","page name":"Sonic Drive-in","likes":null},"type":"Feature","geometry":{"type":"Point","coordinates":[-89.5465000833392,37.3090456669235]}},{"properties":{"city":"Trumann","category":"Restaurant/cafe","response rate":"#DIV/0!","geo_score":0.0,"owner responses":0,"page id":"2.05327E+14","fan post count":0,"id":"a637zzvflx6u","geo_precision":"unmatched","state":"AR","page name":"Sonic Drive-In","likes":null},"type":"Feature","geometry":null},{"properties":{"city":"Centralia","category":"Restaurant/cafe","response rate":"#DIV/0!","geo_score":0.0,"owner responses":0,"page id":"2.26445E+14","fan post count":0,"id":"a637zztzvbxu","geo_precision":"unmatched","state":"MO","page name":"Sonic Drive-in","likes":null},"type":"Feature","geometry":{"type":"Point","coordinates":[-89.1325455844864,38.5252546492421]}},{"properties":{"city":"Austin","category":"Restaurant/cafe","response rate":"#DIV/0!","geo_score":0.0,"owner responses":0,"page id":"1.52536E+14","fan post count":0,"id":"a638001knonk","geo_precision":"unmatched","state":"TX","page name":"Sonic Drive-In","likes":null},"type":"Feature","geometry":{"type":"Point","coordinates":[-92.9779815778052,43.6677816486952]}},{"properties":{"city":"Longview","category":"Local business","response rate":"#DIV/0!","geo_score":0.0,"owner responses":0,"page id":"1.51441E+14","fan post count":0,"id":"a638000nf4qd","geo_precision":"unmatched","state":"TX","page name":"Sonic drive-in","likes":null},"type":"Feature","geometry":{"type":"Point","coordinates":[-94.7539090757458,32.5091456376596]}},{"properties":{"city":"NULL","category":"Local business","response rate":"#DIV/0!","geo_score":0.786,"owner responses":0,"page id":"2.5222E+14","fan post count":0,"id":"a6380016cmcq","geo_precision":"zip","state":"NULL","page name":"sonic drive in on pine and peoria","likes":null},"type":"Feature","geometry":null},{"properties":{"city":"Warner Robins","category":"Food/grocery","response rate":"#DIV/0!","geo_score":0.0,"owner responses":0,"page id":"2.56677E+14","fan post count":0,"id":"a637zzqz9fo3","geo_precision":"unmatched","state":"GA","page name":"Sonic Drive In - South Warner Robins (Bonaire)","likes":null},"type":"Feature","geometry":{"type":"Point","coordinates":[-83.6380271056447,32.6087181332058]}},{"properties":{"city":"San Angelo","category":"Company","response rate":"#DIV/0!","geo_score":0.0,"owner responses":0,"page id":"1.12055E+14","fan post count":0,"id":"a638001l8pyp","geo_precision":"unmatched","state":"TX","page name":"Sonic Drive-In San Angelo, TX","likes":null},"type":"Feature","geometry":{"type":"Point","coordinates":[-100.45250010861,31.4531091335309]}},{"properties":{"city":"NULL","category":"Local business","response rate":"#DIV/0!","geo_score":0.786,"owner responses":0,"page id":"1.04793E+14","fan post count":0,"id":"a637zzt77jeq","geo_precision":"zip","state":"NULL","page name":"Sonic Drive-in 281/1604","likes":null},"type":"Feature","geometry":null},{"properties":{"city":"Costa Mesa","category":"Restaurant/cafe","response rate":"#DIV/0!","geo_score":0.889,"owner responses":0,"page id":"1.48707E+14","fan post count":0,"id":"a638001f1jd7","geo_precision":"zip","state":"CA","page name":"Sonic Drive-In of Costa Mesa","likes":null},"type":"Feature","geometry":{"type":"Point","coordinates":[-117.912291122115,33.6649726383065]}},{"properties":{"city":"Concord","category":"Restaurant/cafe","response rate":"#DIV/0!","geo_score":0.0,"owner responses":0,"page id":"1.25885E+14","fan post count":0,"id":"a637zztwq7cs","geo_precision":"unmatched","state":"NC","page name":"Sonic Drive-In Concord Mills NC","likes":null},"type":"Feature","geometry":{"type":"Point","coordinates":[-80.6004725767731,35.4043361656864]}},{"properties":{"city":"NULL","category":"Restaurant/cafe","response rate":"#DIV/0!","geo_score":0.786,"owner responses":0,"page id":"3.36755E+11","fan post count":0,"id":"a638000hrsrs","geo_precision":"zip","state":"NULL","page name":"Sonic America's Drive In","likes":null},"type":"Feature","geometry":null},{"properties":{"city":"NULL","category":"Local business","response rate":"#DIV/0!","geo_score":0.786,"owner responses":0,"page id":"2.21464E+14","fan post count":0,"id":"a637zzq6blme","geo_precision":"zip","state":"NULL","page name":"Sonic; America's Drive In.","likes":null},"type":"Feature","geometry":null},{"properties":{"city":"McKinney","category":"Local business","response rate":"#DIV/0!","geo_score":0.0,"owner responses":0,"page id":"1.4763E+14","fan post count":0,"id":"a637zzssus0k","geo_precision":"unmatched","state":"TX","page name":"Sonic Drive in Mckinney Tx","likes":null},"type":"Feature","geometry":{"type":"Point","coordinates":[-96.6397546036195,33.1972086560593]}},{"properties":{"city":"Fayette","category":"Restaurant/cafe","response rate":"#DIV/0!","geo_score":0.0,"owner responses":0,"page id":"1.86334E+14","fan post count":0,"id":"a637zzu2g2ej","geo_precision":"unmatched","state":"AL","page name":"Sonic Drive In of Fayette","likes":null},"type":"Feature","geometry":null},{"properties":{"city":"Jennings","category":"Restaurant/cafe","response rate":"#DIV/0!","geo_score":0.0,"owner responses":0,"page id":"1.71512E+14","fan post count":0,"id":"a637zzoa4mcj","geo_precision":"unmatched","state":"LA","page name":"Sonic Drive- In of Jennings","likes":null},"type":"Feature","geometry":{"type":"Point","coordinates":[-90.2614270905334,38.7211001537871]}},{"properties":{"city":"NULL","category":"Local business","response rate":"#DIV/0!","geo_score":0.786,"owner responses":0,"page id":"2.39782E+14","fan post count":0,"id":"a638001t2fpw","geo_precision":"zip","state":"NULL","page name":"Sonic Drive In","likes":null},"type":"Feature","geometry":null},{"properties":{"city":"NULL","category":"Local business","response rate":"#DIV/0!","geo_score":0.786,"owner responses":0,"page id":"1.40709E+14","fan post count":0,"id":"a637zznff6fi","geo_precision":"zip","state":"NULL","page name":"sonic drive in","likes":null},"type":"Feature","geometry":null},{"properties":{"city":"NULL","category":"Local business","response rate":"#DIV/0!","geo_score":0.786,"owner responses":0,"page id":"1.18242E+14","fan post count":0,"id":"a637zzxjrd74","geo_precision":"zip","state":"NULL","page name":"Sonic drive in","likes":null},"type":"Feature","geometry":null},{"properties":{"city":"NULL","category":"Local business","response rate":"#DIV/0!","geo_score":0.786,"owner responses":0,"page id":"1.38442E+14","fan post count":0,"id":"a637zzyq6lyd","geo_precision":"zip","state":"NULL","page name":"Sonic Drive In","likes":null},"type":"Feature","geometry":null},{"properties":{"city":"NULL","category":"Local business","response rate":"#DIV/0!","geo_score":0.786,"owner responses":0,"page id":"1.74824E+14","fan post count":0,"id":"a637zzs8d2mo","geo_precision":"zip","state":"NULL","page name":"Sonic drive in","likes":null},"type":"Feature","geometry":null},{"properties":{"city":"NULL","category":"Local business","response rate":"#DIV/0!","geo_score":0.786,"owner responses":0,"page id":"2.51786E+14","fan post count":0,"id":"a637zztsa6hd","geo_precision":"zip","state":"NULL","page name":"sonic drive in","likes":null},"type":"Feature","geometry":null},{"properties":{"city":"NULL","category":"Local business","response rate":"#DIV/0!","geo_score":0.786,"owner responses":0,"page id":"1.34005E+14","fan post count":0,"id":"a637zzsf86qm","geo_precision":"zip","state":"NULL","page name":"sonic drive in","likes":null},"type":"Feature","geometry":null},{"properties":{"city":"NULL","category":"Local business","response rate":"#DIV/0!","geo_score":0.786,"owner responses":0,"page id":"1.26819E+14","fan post count":0,"id":"a63800054d18","geo_precision":"zip","state":"NULL","page name":"sonic drive in","likes":null},"type":"Feature","geometry":null},{"properties":{"city":"NULL","category":"Local business","response rate":"#DIV/0!","geo_score":0.786,"owner responses":0,"page id":"2.11645E+14","fan post count":0,"id":"a637zzpzug05","geo_precision":"zip","state":"NULL","page name":"Sonic Drive -In","likes":null},"type":"Feature","geometry":null},{"properties":{"city":"NULL","category":"Local business","response rate":"#DIV/0!","geo_score":0.786,"owner responses":0,"page id":"1.84295E+14","fan post count":0,"id":"a637zzvlc1ru","geo_precision":"zip","state":"NULL","page name":"sonic drive in","likes":null},"type":"Feature","geometry":null},{"properties":{"city":"NULL","category":"Local business","response rate":"#DIV/0!","geo_score":0.786,"owner responses":0,"page id":"2.36152E+14","fan post count":0,"id":"a6380006v1v7","geo_precision":"zip","state":"NULL","page name":"Sonic Drive In","likes":null},"type":"Feature","geometry":null},{"properties":{"city":"NULL","category":"Local business","response rate":"#DIV/0!","geo_score":0.786,"owner responses":0,"page id":"1.25922E+14","fan post count":0,"id":"a637zzq1vnmg","geo_precision":"zip","state":"NULL","page name":"Sonic Drive In","likes":null},"type":"Feature","geometry":null},{"properties":{"city":"NULL","category":"Local business","response rate":"#DIV/0!","geo_score":0.786,"owner responses":0,"page id":"2.03407E+14","fan post count":0,"id":"a637zzo3awrd","geo_precision":"zip","state":"NULL","page name":"Sonic Drive In","likes":null},"type":"Feature","geometry":null},{"properties":{"city":"NULL","category":"Local business","response rate":"#DIV/0!","geo_score":0.786,"owner responses":0,"page id":"1.42887E+14","fan post count":0,"id":"a637zzouy139","geo_precision":"zip","state":"NULL","page name":"sonic drive in","likes":null},"type":"Feature","geometry":null},{"properties":{"city":"NULL","category":"Local business","response rate":"#DIV/0!","geo_score":0.786,"owner responses":0,"page id":"2.41645E+14","fan post count":0,"id":"a637zzyv2uud","geo_precision":"zip","state":"NULL","page name":"Sonic Drive In","likes":null},"type":"Feature","geometry":null},{"properties":{"city":"NULL","category":"Local business","response rate":"#DIV/0!","geo_score":0.786,"owner responses":0,"page id":"1.29864E+14","fan post count":0,"id":"a637zzyt1ihd","geo_precision":"zip","state":"NULL","page name":"Sonic Drive In","likes":null},"type":"Feature","geometry":null},{"properties":{"city":"NULL","category":"Local business","response rate":"#DIV/0!","geo_score":0.786,"owner responses":0,"page id":"2.29877E+14","fan post count":0,"id":"a637zzqrvcn1","geo_precision":"zip","state":"NULL","page name":"Sonic drive in","likes":null},"type":"Feature","geometry":null},{"properties":{"city":"NULL","category":"Local business","response rate":"#DIV/0!","geo_score":0.786,"owner responses":0,"page id":"1.06422E+14","fan post count":0,"id":"a637zzuthuoz","geo_precision":"zip","state":"NULL","page name":"sonic drive in.","likes":null},"type":"Feature","geometry":null},{"properties":{"city":"NULL","category":"Local business","response rate":"#DIV/0!","geo_score":0.786,"owner responses":0,"page id":"2.54504E+14","fan post count":0,"id":"a637zzylbd66","geo_precision":"zip","state":"NULL","page name":"Sonic Drive In","likes":null},"type":"Feature","geometry":null},{"properties":{"city":"NULL","category":"Local business","response rate":"#DIV/0!","geo_score":0.786,"owner responses":0,"page id":"2.65504E+14","fan post count":0,"id":"a637zztkeggj","geo_precision":"zip","state":"NULL","page name":"Sonic Drive In","likes":null},"type":"Feature","geometry":null},{"properties":{"city":"NULL","category":"Local business","response rate":"#DIV/0!","geo_score":0.786,"owner responses":0,"page id":"1.67071E+14","fan post count":0,"id":"a637zztwb3m9","geo_precision":"zip","state":"NULL","page name":"Sonic Drive In(:","likes":null},"type":"Feature","geometry":null},{"properties":{"city":"NULL","category":"Local business","response rate":"#DIV/0!","geo_score":0.786,"owner responses":0,"page id":"1.81533E+14","fan post count":0,"id":"a637zzzh3gd1","geo_precision":"zip","state":"NULL","page name":"Sonic Drive In","likes":null},"type":"Feature","geometry":null},{"properties":{"city":"NULL","category":"Local business","response rate":"#DIV/0!","geo_score":0.786,"owner responses":0,"page id":"2.41233E+14","fan post count":0,"id":"a637zzxbwo4x","geo_precision":"zip","state":"NULL","page name":"Sonic Drive In","likes":null},"type":"Feature","geometry":null},{"properties":{"city":"NULL","category":"Local business","response rate":"#DIV/0!","geo_score":0.786,"owner responses":0,"page id":"1.87691E+14","fan post count":0,"id":"a637zzq8xa36","geo_precision":"zip","state":"NULL","page name":"Sonic Drive In","likes":null},"type":"Feature","geometry":null},{"properties":{"city":"NULL","category":"Local business","response rate":"#DIV/0!","geo_score":0.786,"owner responses":0,"page id":"1.91621E+14","fan post count":0,"id":"a637zztwg2as","geo_precision":"zip","state":"NULL","page name":"sonic drive in","likes":null},"type":"Feature","geometry":null},{"properties":{"city":"NULL","category":"Local business","response rate":"#DIV/0!","geo_score":0.786,"owner responses":0,"page id":"2.3823E+14","fan post count":0,"id":"a638002huxsz","geo_precision":"zip","state":"NULL","page name":"Sonic Drive In","likes":null},"type":"Feature","geometry":null},{"properties":{"city":"NULL","category":"Local business","response rate":"#DIV/0!","geo_score":0.786,"owner responses":0,"page id":"1.89783E+14","fan post count":0,"id":"a637zzta5sfq","geo_precision":"zip","state":"NULL","page name":"Sonic Drive In","likes":null},"type":"Feature","geometry":null},{"properties":{"city":"NULL","category":"Local business","response rate":"#DIV/0!","geo_score":0.786,"owner responses":0,"page id":"1.40232E+14","fan post count":0,"id":"a637zzqqpo8b","geo_precision":"zip","state":"NULL","page name":"sonic drive in","likes":null},"type":"Feature","geometry":null},{"properties":{"city":"NULL","category":"Local business","response rate":"#DIV/0!","geo_score":0.786,"owner responses":0,"page id":"2.41898E+14","fan post count":0,"id":"a638002xssvv","geo_precision":"zip","state":"NULL","page name":"Sonic Drive In","likes":null},"type":"Feature","geometry":null},{"properties":{"city":"NULL","category":"Local business","response rate":"#DIV/0!","geo_score":0.786,"owner responses":0,"page id":"2.37191E+14","fan post count":0,"id":"a637zztd2g0p","geo_precision":"zip","state":"NULL","page name":"sonic drive in","likes":null},"type":"Feature","geometry":null},{"properties":{"city":"NULL","category":"Local business","response rate":"#DIV/0!","geo_score":0.786,"owner responses":0,"page id":"2.52051E+14","fan post count":0,"id":"a637zzuemifn","geo_precision":"zip","state":"NULL","page name":"Sonic Drive In","likes":null},"type":"Feature","geometry":null},{"properties":{"city":"NULL","category":"Local business","response rate":"#DIV/0!","geo_score":0.786,"owner responses":0,"page id":"1.03394E+14","fan post count":0,"id":"a637zzoco7kh","geo_precision":"zip","state":"NULL","page name":"Sonic Drive In","likes":null},"type":"Feature","geometry":null},{"properties":{"city":"NULL","category":"Local business","response rate":"#DIV/0!","geo_score":0.786,"owner responses":0,"page id":"1.45248E+14","fan post count":0,"id":"a637zztelc33","geo_precision":"zip","state":"NULL","page name":"sonic drive in","likes":null},"type":"Feature","geometry":null},{"properties":{"city":"NULL","category":"Local business","response rate":"#DIV/0!","geo_score":0.786,"owner responses":0,"page id":"1.62901E+14","fan post count":0,"id":"a6380009w613","geo_precision":"zip","state":"NULL","page name":"Sonic Drive In","likes":null},"type":"Feature","geometry":null},{"properties":{"city":"NULL","category":"Local business","response rate":"#DIV/0!","geo_score":0.786,"owner responses":0,"page id":"2.57682E+14","fan post count":0,"id":"a637zzug49ir","geo_precision":"zip","state":"NULL","page name":"Sonic Drive In","likes":null},"type":"Feature","geometry":null},{"properties":{"city":"NULL","category":"Local business","response rate":"#DIV/0!","geo_score":0.786,"owner responses":0,"page id":"1.40532E+14","fan post count":0,"id":"a6380030lymg","geo_precision":"zip","state":"NULL","page name":"Sonic Drive In","likes":null},"type":"Feature","geometry":null},{"properties":{"city":"NULL","category":"Local business","response rate":"#DIV/0!","geo_score":0.786,"owner responses":0,"page id":"1.30873E+14","fan post count":0,"id":"a637zzq2gqgr","geo_precision":"zip","state":"NULL","page name":"Sonic Drive In","likes":null},"type":"Feature","geometry":null},{"properties":{"city":"NULL","category":"Local business","response rate":"#DIV/0!","geo_score":0.786,"owner responses":0,"page id":"1.61707E+14","fan post count":0,"id":"a637zzobs8gu","geo_precision":"zip","state":"NULL","page name":"sonic drive in","likes":null},"type":"Feature","geometry":null},{"properties":{"city":"NULL","category":"Local business","response rate":"#DIV/0!","geo_score":0.786,"owner responses":0,"page id":"2.22373E+14","fan post count":0,"id":"a637zztkrmiz","geo_precision":"zip","state":"NULL","page name":"sonic drive in","likes":null},"type":"Feature","geometry":null},{"properties":{"city":"NULL","category":"Local business","response rate":"#DIV/0!","geo_score":0.786,"owner responses":0,"page id":"1.69566E+14","fan post count":0,"id":"a637zzswfwkm","geo_precision":"zip","state":"NULL","page name":"Sonic Drive In","likes":null},"type":"Feature","geometry":null},{"properties":{"city":"NULL","category":"Local business","response rate":"#DIV/0!","geo_score":0.786,"owner responses":0,"page id":"1.98708E+14","fan post count":0,"id":"a637zzthy3m8","geo_precision":"zip","state":"NULL","page name":"Sonic Drive In","likes":null},"type":"Feature","geometry":null},{"properties":{"city":"NULL","category":"Local business","response rate":"#DIV/0!","geo_score":0.786,"owner responses":0,"page id":"2.36353E+14","fan post count":0,"id":"a637zzyo6t79","geo_precision":"zip","state":"NULL","page name":"Sonic Drive In","likes":null},"type":"Feature","geometry":null},{"properties":{"city":"NULL","category":"Local business","response rate":"#DIV/0!","geo_score":0.786,"owner responses":0,"page id":"2.49105E+14","fan post count":0,"id":"a637zzqk82qi","geo_precision":"zip","state":"NULL","page name":"* Sonic Drive In *","likes":null},"type":"Feature","geometry":null},{"properties":{"city":"NULL","category":"Local business","response rate":"#DIV/0!","geo_score":0.786,"owner responses":0,"page id":"1.48899E+14","fan post count":0,"id":"a637zznmsrmb","geo_precision":"zip","state":"NULL","page name":"Sonic Drive In","likes":null},"type":"Feature","geometry":null},{"properties":{"city":"NULL","category":"Local business","response rate":"#DIV/0!","geo_score":0.786,"owner responses":0,"page id":"1.95392E+14","fan post count":0,"id":"a637zzntm2z1","geo_precision":"zip","state":"NULL","page name":"sonic drive in","likes":null},"type":"Feature","geometry":null},{"properties":{"city":"NULL","category":"Local business","response rate":"#DIV/0!","geo_score":0.786,"owner responses":0,"page id":"1.1983E+14","fan post count":0,"id":"a637zzxtz0nt","geo_precision":"zip","state":"NULL","page name":"Sonic Drive In","likes":null},"type":"Feature","geometry":null},{"properties":{"city":"NULL","category":"Local business","response rate":"#DIV/0!","geo_score":0.786,"owner responses":0,"page id":"1.71615E+14","fan post count":0,"id":"a637zzyxbe38","geo_precision":"zip","state":"NULL","page name":"sonic drive in","likes":null},"type":"Feature","geometry":null},{"properties":{"city":"NULL","category":"Local business","response rate":"#DIV/0!","geo_score":0.786,"owner responses":0,"page id":"1.13663E+14","fan post count":0,"id":"a637zzmnamnk","geo_precision":"zip","state":"NULL","page name":"Sonic Drive In","likes":null},"type":"Feature","geometry":null},{"properties":{"city":"NULL","category":"Local business","response rate":"#DIV/0!","geo_score":0.786,"owner responses":0,"page id":"2.43701E+14","fan post count":0,"id":"a637zzuv8bna","geo_precision":"zip","state":"NULL","page name":"Sonic Drive In!(:","likes":null},"type":"Feature","geometry":null},{"properties":{"city":"NULL","category":"Local business","response rate":"#DIV/0!","geo_score":0.786,"owner responses":0,"page id":"1.9068E+14","fan post count":0,"id":"a637zzznx8hh","geo_precision":"zip","state":"NULL","page name":"sonic drive in","likes":null},"type":"Feature","geometry":null},{"properties":{"city":"NULL","category":"Local business","response rate":"#DIV/0!","geo_score":0.786,"owner responses":0,"page id":"1.19813E+14","fan post count":0,"id":"a637zzrxdr9a","geo_precision":"zip","state":"NULL","page name":"Sonic Drive In","likes":null},"type":"Feature","geometry":null},{"properties":{"city":"NULL","category":"Local business","response rate":"#DIV/0!","geo_score":0.786,"owner responses":0,"page id":"2.44062E+14","fan post count":0,"id":"a638001mj7du","geo_precision":"zip","state":"NULL","page name":"Sonic Drive IN","likes":null},"type":"Feature","geometry":null},{"properties":{"city":"NULL","category":"Local business","response rate":"#DIV/0!","geo_score":0.786,"owner responses":0,"page id":"1.04991E+14","fan post count":0,"id":"a637zzv865ns","geo_precision":"zip","state":"NULL","page name":"Sonic Drive In","likes":null},"type":"Feature","geometry":null},{"properties":{"city":"NULL","category":"Local business","response rate":"#DIV/0!","geo_score":0.786,"owner responses":0,"page id":"1.06292E+14","fan post count":0,"id":"a637zzmu682v","geo_precision":"zip","state":"NULL","page name":"Sonic Drive In","likes":null},"type":"Feature","geometry":null},{"properties":{"city":"NULL","category":"Local business","response rate":"#DIV/0!","geo_score":0.786,"owner responses":0,"page id":"1.93089E+14","fan post count":0,"id":"a637zzyrwwfo","geo_precision":"zip","state":"NULL","page name":"Sonic Drive In","likes":null},"type":"Feature","geometry":null},{"properties":{"city":"NULL","category":"Local business","response rate":"#DIV/0!","geo_score":0.786,"owner responses":0,"page id":"2.41034E+14","fan post count":0,"id":"a637zzxwnl2h","geo_precision":"zip","state":"NULL","page name":"sonic drive in","likes":null},"type":"Feature","geometry":null},{"properties":{"city":"NULL","category":"Local business","response rate":"#DIV/0!","geo_score":0.786,"owner responses":0,"page id":"2.4773E+14","fan post count":0,"id":"a637zzwgffrt","geo_precision":"zip","state":"NULL","page name":"sonic drive in","likes":null},"type":"Feature","geometry":null},{"properties":{"city":"NULL","category":"Local business","response rate":"#DIV/0!","geo_score":0.786,"owner responses":0,"page id":"1.03247E+14","fan post count":0,"id":"a637zzoctwu8","geo_precision":"zip","state":"NULL","page name":"sonic drive in!","likes":null},"type":"Feature","geometry":null},{"properties":{"city":"NULL","category":"Local business","response rate":"#DIV/0!","geo_score":0.786,"owner responses":0,"page id":"1.53352E+14","fan post count":0,"id":"a637zzowq2vn","geo_precision":"zip","state":"NULL","page name":"sonic drive in","likes":null},"type":"Feature","geometry":null},{"properties":{"city":"NULL","category":"Local business","response rate":"#DIV/0!","geo_score":0.786,"owner responses":0,"page id":"1.98127E+14","fan post count":0,"id":"a637zztzg0hx","geo_precision":"zip","state":"NULL","page name":"Sonic Drive In","likes":null},"type":"Feature","geometry":null},{"properties":{"city":"NULL","category":"Local business","response rate":"#DIV/0!","geo_score":0.786,"owner responses":0,"page id":"1.62406E+14","fan post count":0,"id":"a637zzta2pu3","geo_precision":"zip","state":"NULL","page name":"Sonic Drive In","likes":null},"type":"Feature","geometry":null},{"properties":{"city":"NULL","category":"Local business","response rate":"#DIV/0!","geo_score":0.786,"owner responses":0,"page id":"2.14568E+14","fan post count":0,"id":"a637zzslb107","geo_precision":"zip","state":"NULL","page name":"Sonic Drive In","likes":null},"type":"Feature","geometry":null},{"properties":{"city":"NULL","category":"Local business","response rate":"#DIV/0!","geo_score":0.786,"owner responses":0,"page id":"1.8964E+14","fan post count":0,"id":"a637zzzdyzt2","geo_precision":"zip","state":"NULL","page name":"Sonic Drive In","likes":null},"type":"Feature","geometry":null},{"properties":{"city":"NULL","category":"Local business","response rate":"#DIV/0!","geo_score":0.786,"owner responses":0,"page id":"1.89881E+14","fan post count":0,"id":"a637zzsji0dw","geo_precision":"zip","state":"NULL","page name":"Sonic Drive in","likes":null},"type":"Feature","geometry":null},{"properties":{"city":"NULL","category":"Local business","response rate":"#DIV/0!","geo_score":0.786,"owner responses":0,"page id":"1.682E+14","fan post count":0,"id":"a637zzvwq2oz","geo_precision":"zip","state":"NULL","page name":"sonic drive in","likes":null},"type":"Feature","geometry":null},{"properties":{"city":"NULL","category":"Local business","response rate":"#DIV/0!","geo_score":0.786,"owner responses":0,"page id":"2.08353E+14","fan post count":0,"id":"a637zzwadyc9","geo_precision":"zip","state":"NULL","page name":"Sonic Drive In","likes":null},"type":"Feature","geometry":null},{"properties":{"city":"NULL","category":"Local business","response rate":"#DIV/0!","geo_score":0.786,"owner responses":0,"page id":"2.56972E+14","fan post count":0,"id":"a637zzwge72z","geo_precision":"zip","state":"NULL","page name":"sonic  drive in","likes":null},"type":"Feature","geometry":null},{"properties":{"city":"NULL","category":"Local business","response rate":"#DIV/0!","geo_score":0.786,"owner responses":0,"page id":"2.54043E+14","fan post count":0,"id":"a637zzo0fd2s","geo_precision":"zip","state":"NULL","page name":"Sonic Drive In","likes":null},"type":"Feature","geometry":null},{"properties":{"city":"NULL","category":"Local business","response rate":"#DIV/0!","geo_score":0.786,"owner responses":0,"page id":"1.41184E+14","fan post count":0,"id":"a637zzyj1vuj","geo_precision":"zip","state":"NULL","page name":"Sonic Drive In","likes":null},"type":"Feature","geometry":null},{"properties":{"city":"NULL","category":"Local business","response rate":"#DIV/0!","geo_score":0.786,"owner responses":0,"page id":"1.87789E+14","fan post count":0,"id":"a637zzr1ellx","geo_precision":"zip","state":"NULL","page name":"Sonic Drive In","likes":null},"type":"Feature","geometry":null},{"properties":{"city":"NULL","category":"Local business","response rate":"#DIV/0!","geo_score":0.786,"owner responses":0,"page id":"1.09595E+14","fan post count":0,"id":"a637zzwrzhmf","geo_precision":"zip","state":"NULL","page name":"sonic drive in","likes":null},"type":"Feature","geometry":null},{"properties":{"city":"NULL","category":"Local business","response rate":"#DIV/0!","geo_score":0.786,"owner responses":0,"page id":"1.33286E+14","fan post count":0,"id":"a638001uqwqi","geo_precision":"zip","state":"NULL","page name":"sonic drive in","likes":null},"type":"Feature","geometry":null},{"properties":{"city":"NULL","category":"Local business","response rate":"#DIV/0!","geo_score":0.786,"owner responses":0,"page id":"1.646E+14","fan post count":0,"id":"a637zznl0cgw","geo_precision":"zip","state":"NULL","page name":"Sonic Drive In","likes":null},"type":"Feature","geometry":null},{"properties":{"city":"NULL","category":"Local business","response rate":"#DIV/0!","geo_score":0.786,"owner responses":0,"page id":"1.63625E+14","fan post count":0,"id":"a637zzpulk29","geo_precision":"zip","state":"NULL","page name":"Sonic drive in","likes":null},"type":"Feature","geometry":null},{"properties":{"city":"NULL","category":"Local business","response rate":"#DIV/0!","geo_score":0.786,"owner responses":0,"page id":"2.50057E+14","fan post count":0,"id":"a637zzxa0qja","geo_precision":"zip","state":"NULL","page name":"Sonic Drive in","likes":null},"type":"Feature","geometry":null},{"properties":{"city":"NULL","category":"Local business","response rate":"#DIV/0!","geo_score":0.786,"owner responses":0,"page id":"1.66701E+14","fan post count":0,"id":"a637zzxx3myf","geo_precision":"zip","state":"NULL","page name":"Sonic Drive In","likes":null},"type":"Feature","geometry":null},{"properties":{"city":"NULL","category":"Local business","response rate":"#DIV/0!","geo_score":0.786,"owner responses":0,"page id":"1.173E+14","fan post count":0,"id":"a637zzxowjeg","geo_precision":"zip","state":"NULL","page name":"sonic drive in","likes":null},"type":"Feature","geometry":null},{"properties":{"city":"NULL","category":"Local business","response rate":"#DIV/0!","geo_score":0.786,"owner responses":0,"page id":"2.08469E+14","fan post count":0,"id":"a637zzw2c9yh","geo_precision":"zip","state":"NULL","page name":"Sonic Drive In","likes":null},"type":"Feature","geometry":null},{"properties":{"city":"NULL","category":"Local business","response rate":"#DIV/0!","geo_score":0.786,"owner responses":0,"page id":"1.38977E+14","fan post count":0,"id":"a637zzmuwht9","geo_precision":"zip","state":"NULL","page name":"Sonic Drive In","likes":null},"type":"Feature","geometry":null},{"properties":{"city":"NULL","category":"Local business","response rate":"#DIV/0!","geo_score":0.786,"owner responses":0,"page id":"2.13095E+14","fan post count":0,"id":"a637zzqwjauc","geo_precision":"zip","state":"NULL","page name":"SONIC DRIVE IN","likes":null},"type":"Feature","geometry":null},{"properties":{"city":"Ingleside","category":"Local business","response rate":"#DIV/0!","geo_score":0.0,"owner responses":0,"page id":"1.80887E+14","fan post count":0,"id":"a637zzx7kjcd","geo_precision":"unmatched","state":"TX","page name":"Sonic drive in","likes":null},"type":"Feature","geometry":null},{"properties":{"city":"NULL","category":"Local business","response rate":"#DIV/0!","geo_score":0.786,"owner responses":0,"page id":"2.33221E+14","fan post count":0,"id":"a637zztugyj8","geo_precision":"zip","state":"NULL","page name":"Sonic Drive In","likes":null},"type":"Feature","geometry":null},{"properties":{"city":"NULL","category":"Local business","response rate":"#DIV/0!","geo_score":0.786,"owner responses":0,"page id":"1.61052E+14","fan post count":0,"id":"a637zzrks060","geo_precision":"zip","state":"NULL","page name":"Sonic Drive In","likes":null},"type":"Feature","geometry":null},{"properties":{"city":"NULL","category":"Local business","response rate":"#DIV/0!","geo_score":0.786,"owner responses":0,"page id":"2.17725E+14","fan post count":0,"id":"a637zznssy6u","geo_precision":"zip","state":"NULL","page name":"Sonic Drive In","likes":null},"type":"Feature","geometry":null},{"properties":{"city":"NULL","category":"Local business","response rate":"#DIV/0!","geo_score":0.786,"owner responses":0,"page id":"1.89657E+14","fan post count":0,"id":"a638002hurew","geo_precision":"zip","state":"NULL","page name":"Sonic Drive In","likes":null},"type":"Feature","geometry":null},{"properties":{"city":"NULL","category":"Local business","response rate":"#DIV/0!","geo_score":0.786,"owner responses":0,"page id":"2.44959E+14","fan post count":0,"id":"a637zzoni7at","geo_precision":"zip","state":"NULL","page name":"Sonic Drive In","likes":null},"type":"Feature","geometry":null},{"properties":{"city":"NULL","category":"Local business","response rate":"#DIV/0!","geo_score":0.786,"owner responses":0,"page id":"1.08228E+14","fan post count":0,"id":"a637zzva11yu","geo_precision":"zip","state":"NULL","page name":"Sonic drive in","likes":null},"type":"Feature","geometry":null},{"properties":{"city":"NULL","category":"Local business","response rate":"#DIV/0!","geo_score":0.786,"owner responses":0,"page id":"2.12905E+14","fan post count":0,"id":"a638001908cv","geo_precision":"zip","state":"NULL","page name":"Sonic Drive In","likes":null},"type":"Feature","geometry":null},{"properties":{"city":"NULL","category":"Local business","response rate":"#DIV/0!","geo_score":0.786,"owner responses":0,"page id":"2.18931E+14","fan post count":0,"id":"a637zzvqe8u4","geo_precision":"zip","state":"NULL","page name":"sonic Drive In","likes":null},"type":"Feature","geometry":null},{"properties":{"city":"NULL","category":"Local business","response rate":"#DIV/0!","geo_score":0.786,"owner responses":0,"page id":"2.12837E+14","fan post count":0,"id":"a638001exst2","geo_precision":"zip","state":"NULL","page name":"Sonic Drive In","likes":null},"type":"Feature","geometry":null},{"properties":{"city":"NULL","category":"Local business","response rate":"#DIV/0!","geo_score":0.786,"owner responses":0,"page id":"2.24931E+14","fan post count":0,"id":"a637zzyqs11x","geo_precision":"zip","state":"NULL","page name":"sonic drive in","likes":null},"type":"Feature","geometry":null},{"properties":{"city":"NULL","category":"Local business","response rate":"#DIV/0!","geo_score":0.786,"owner responses":0,"page id":"1.38362E+14","fan post count":0,"id":"a637zzpfw4cr","geo_precision":"zip","state":"NULL","page name":"Sonic Drive in","likes":null},"type":"Feature","geometry":null},{"properties":{"city":"NULL","category":"Local business","response rate":"#DIV/0!","geo_score":0.786,"owner responses":0,"page id":"1.67228E+14","fan post count":0,"id":"a637zzof6djp","geo_precision":"zip","state":"NULL","page name":"Sonic drive in","likes":null},"type":"Feature","geometry":null},{"properties":{"city":"NULL","category":"Local business","response rate":"#DIV/0!","geo_score":0.786,"owner responses":0,"page id":"2.46492E+14","fan post count":0,"id":"a637zzu83133","geo_precision":"zip","state":"NULL","page name":"Sonic drive in","likes":null},"type":"Feature","geometry":null},{"properties":{"city":"NULL","category":"Local business","response rate":"#DIV/0!","geo_score":0.786,"owner responses":0,"page id":"1.94381E+14","fan post count":0,"id":"a638000xgoim","geo_precision":"zip","state":"NULL","page name":"Sonic Drive In","likes":null},"type":"Feature","geometry":null},{"properties":{"city":"NULL","category":"Local business","response rate":"#DIV/0!","geo_score":0.786,"owner responses":0,"page id":"2.1799E+14","fan post count":0,"id":"a637zzuev2dl","geo_precision":"zip","state":"NULL","page name":"Sonic Drive In","likes":null},"type":"Feature","geometry":null},{"properties":{"city":"NULL","category":"Local business","response rate":"#DIV/0!","geo_score":0.786,"owner responses":0,"page id":"2.57439E+14","fan post count":0,"id":"a637zzpjvk7d","geo_precision":"zip","state":"NULL","page name":"Sonic Drive In","likes":null},"type":"Feature","geometry":null},{"properties":{"city":"NULL","category":"Local business","response rate":"#DIV/0!","geo_score":0.786,"owner responses":0,"page id":"1.30064E+14","fan post count":0,"id":"a638001afabt","geo_precision":"zip","state":"NULL","page name":"sonic drive in","likes":null},"type":"Feature","geometry":null},{"properties":{"city":"NULL","category":"Local business","response rate":"#DIV/0!","geo_score":0.786,"owner responses":0,"page id":"1.22827E+14","fan post count":0,"id":"a6380013ecl1","geo_precision":"zip","state":"NULL","page name":"Sonic Drive In","likes":null},"type":"Feature","geometry":null},{"properties":{"city":"NULL","category":"Local business","response rate":"#DIV/0!","geo_score":0.786,"owner responses":0,"page id":"1.1059E+14","fan post count":0,"id":"a638002mbyx2","geo_precision":"zip","state":"NULL","page name":"Sonic Drive In","likes":null},"type":"Feature","geometry":null},{"properties":{"city":"NULL","category":"Local business","response rate":"#DIV/0!","geo_score":0.786,"owner responses":0,"page id":"2.01841E+14","fan post count":0,"id":"a637zztaummr","geo_precision":"zip","state":"NULL","page name":"Sonic Drive In","likes":null},"type":"Feature","geometry":null},{"properties":{"city":"NULL","category":"Local business","response rate":"#DIV/0!","geo_score":0.786,"owner responses":0,"page id":"2.22568E+14","fan post count":0,"id":"a637zzu5lij6","geo_precision":"zip","state":"NULL","page name":"Sonic Drive In","likes":null},"type":"Feature","geometry":null},{"properties":{"city":"NULL","category":"Local business","response rate":"#DIV/0!","geo_score":0.786,"owner responses":0,"page id":"1.26408E+14","fan post count":0,"id":"a637zzyj34zu","geo_precision":"zip","state":"NULL","page name":"Sonic drive in","likes":null},"type":"Feature","geometry":null},{"properties":{"city":"NULL","category":"Local business","response rate":"#DIV/0!","geo_score":0.786,"owner responses":0,"page id":"2.12119E+14","fan post count":0,"id":"a637zzpfjo92","geo_precision":"zip","state":"NULL","page name":"Sonic Drive In","likes":null},"type":"Feature","geometry":null},{"properties":{"city":"NULL","category":"Local business","response rate":"#DIV/0!","geo_score":0.786,"owner responses":0,"page id":"1.96438E+14","fan post count":0,"id":"a637zzs08d3f","geo_precision":"zip","state":"NULL","page name":"Sonic Drive In","likes":null},"type":"Feature","geometry":null},{"properties":{"city":"NULL","category":"Local business","response rate":"#DIV/0!","geo_score":0.786,"owner responses":0,"page id":"1.26387E+14","fan post count":0,"id":"a637zzvby6z5","geo_precision":"zip","state":"NULL","page name":"Sonic Drive In","likes":null},"type":"Feature","geometry":null},{"properties":{"city":"NULL","category":"Local business","response rate":"#DIV/0!","geo_score":0.786,"owner responses":0,"page id":"1.8375E+14","fan post count":0,"id":"a637zzxelj9c","geo_precision":"zip","state":"NULL","page name":"Sonic Drive - In","likes":null},"type":"Feature","geometry":null},{"properties":{"city":"NULL","category":"Local business","response rate":"#DIV/0!","geo_score":0.786,"owner responses":0,"page id":"1.92959E+14","fan post count":0,"id":"a637zzw18m94","geo_precision":"zip","state":"NULL","page name":"Sonic drive in","likes":null},"type":"Feature","geometry":null},{"properties":{"city":"NULL","category":"Local business","response rate":"#DIV/0!","geo_score":0.786,"owner responses":0,"page id":"2.41453E+14","fan post count":0,"id":"a637zztfskmf","geo_precision":"zip","state":"NULL","page name":"Sonic drive in","likes":null},"type":"Feature","geometry":null},{"properties":{"city":"NULL","category":"Local business","response rate":"#DIV/0!","geo_score":0.786,"owner responses":0,"page id":"1.94402E+14","fan post count":0,"id":"a637zztb4tm1","geo_precision":"zip","state":"NULL","page name":"Sonic Drive In","likes":null},"type":"Feature","geometry":null},{"properties":{"city":"NULL","category":"Local business","response rate":"#DIV/0!","geo_score":0.786,"owner responses":0,"page id":"2.08592E+14","fan post count":0,"id":"a637zzr20wor","geo_precision":"zip","state":"NULL","page name":"sonic drive in","likes":null},"type":"Feature","geometry":null},{"properties":{"city":"NULL","category":"Local business","response rate":"#DIV/0!","geo_score":0.786,"owner responses":0,"page id":"1.23294E+14","fan post count":0,"id":"a637zzrpoaqu","geo_precision":"zip","state":"NULL","page name":"Sonic Drive In","likes":null},"type":"Feature","geometry":null},{"properties":{"city":"NULL","category":"Local business","response rate":"#DIV/0!","geo_score":0.786,"owner responses":0,"page id":"2.25566E+14","fan post count":0,"id":"a637zzo86vz6","geo_precision":"zip","state":"NULL","page name":"Sonic drive in","likes":null},"type":"Feature","geometry":null},{"properties":{"city":"NULL","category":"Local business","response rate":"#DIV/0!","geo_score":0.786,"owner responses":0,"page id":"1.33503E+14","fan post count":0,"id":"a638000itqdl","geo_precision":"zip","state":"NULL","page name":"Sonic drive in","likes":null},"type":"Feature","geometry":null},{"properties":{"city":"NULL","category":"Local business","response rate":"#DIV/0!","geo_score":0.786,"owner responses":0,"page id":"2.22053E+14","fan post count":0,"id":"a637zzvx10oh","geo_precision":"zip","state":"NULL","page name":"sonic drive in","likes":null},"type":"Feature","geometry":null},{"properties":{"city":"NULL","category":"Local business","response rate":"#DIV/0!","geo_score":0.786,"owner responses":0,"page id":"1.39521E+14","fan post count":0,"id":"a638001ihv45","geo_precision":"zip","state":"NULL","page name":"sonic drive in","likes":null},"type":"Feature","geometry":null},{"properties":{"city":"NULL","category":"Local business","response rate":"#DIV/0!","geo_score":0.786,"owner responses":0,"page id":"2.21739E+14","fan post count":0,"id":"a638001iwltp","geo_precision":"zip","state":"NULL","page name":"Sonic Drive In","likes":null},"type":"Feature","geometry":null},{"properties":{"city":"NULL","category":"Local business","response rate":"#DIV/0!","geo_score":0.786,"owner responses":0,"page id":"1.48677E+14","fan post count":0,"id":"a637zzo3xqzz","geo_precision":"zip","state":"NULL","page name":"Sonic Drive In","likes":null},"type":"Feature","geometry":null},{"properties":{"city":"NULL","category":"Local business","response rate":"#DIV/0!","geo_score":0.786,"owner responses":0,"page id":"2.48638E+14","fan post count":0,"id":"a637zzu3eor3","geo_precision":"zip","state":"NULL","page name":"sonic drive in","likes":null},"type":"Feature","geometry":null},{"properties":{"city":"NULL","category":"Local business","response rate":"#DIV/0!","geo_score":0.786,"owner responses":0,"page id":"1.25412E+14","fan post count":0,"id":"a638002s09fm","geo_precision":"zip","state":"NULL","page name":"sonic drive- in","likes":null},"type":"Feature","geometry":null},{"properties":{"city":"NULL","category":"Local business","response rate":"#DIV/0!","geo_score":0.786,"owner responses":0,"page id":"1.30381E+14","fan post count":0,"id":"a637zzu4ascb","geo_precision":"zip","state":"NULL","page name":"sonic drive in","likes":null},"type":"Feature","geometry":null},{"properties":{"city":"NULL","category":"Local business","response rate":"#DIV/0!","geo_score":0.786,"owner responses":0,"page id":"2.26695E+14","fan post count":0,"id":"a637zzpk55ry","geo_precision":"zip","state":"NULL","page name":"Sonic Drive In","likes":null},"type":"Feature","geometry":null},{"properties":{"city":"NULL","category":"Local business","response rate":"#DIV/0!","geo_score":0.786,"owner responses":0,"page id":"1.18166E+14","fan post count":0,"id":"a637zzy3ce2i","geo_precision":"zip","state":"NULL","page name":"Sonic Drive In","likes":null},"type":"Feature","geometry":null},{"properties":{"city":"NULL","category":"Local business","response rate":"#DIV/0!","geo_score":0.786,"owner responses":0,"page id":"2.26695E+14","fan post count":0,"id":"a637zzssvlo3","geo_precision":"zip","state":"NULL","page name":"Sonic Drive In","likes":null},"type":"Feature","geometry":null},{"properties":{"city":"NULL","category":"Local business","response rate":"#DIV/0!","geo_score":0.786,"owner responses":0,"page id":"2.14128E+14","fan post count":0,"id":"a637zzqdhkv1","geo_precision":"zip","state":"NULL","page name":"Sonic Drive In","likes":null},"type":"Feature","geometry":null},{"properties":{"city":"NULL","category":"Local business","response rate":"#DIV/0!","geo_score":0.786,"owner responses":0,"page id":"1.91395E+14","fan post count":0,"id":"a637zzvnekcd","geo_precision":"zip","state":"NULL","page name":"Sonic Drive In","likes":null},"type":"Feature","geometry":null},{"properties":{"city":"NULL","category":"Local business","response rate":"#DIV/0!","geo_score":0.786,"owner responses":0,"page id":"1.38378E+14","fan post count":0,"id":"a637zzr4mlwl","geo_precision":"zip","state":"NULL","page name":"sonic drive in","likes":null},"type":"Feature","geometry":null},{"properties":{"city":"NULL","category":"Local business","response rate":"#DIV/0!","geo_score":0.786,"owner responses":0,"page id":"2.33743E+14","fan post count":0,"id":"a637zzvqvfpp","geo_precision":"zip","state":"NULL","page name":"sonic drive in","likes":null},"type":"Feature","geometry":null},{"properties":{"city":"NULL","category":"Local business","response rate":"#DIV/0!","geo_score":0.786,"owner responses":0,"page id":"1.66939E+14","fan post count":0,"id":"a637zzzkexiu","geo_precision":"zip","state":"NULL","page name":"Sonic Drive In","likes":null},"type":"Feature","geometry":null},{"properties":{"city":"NULL","category":"Local business","response rate":"#DIV/0!","geo_score":0.786,"owner responses":0,"page id":"1.8515E+14","fan post count":0,"id":"a637zzqobd42","geo_precision":"zip","state":"NULL","page name":"Sonic Drive In","likes":null},"type":"Feature","geometry":null},{"properties":{"city":"NULL","category":"Local business","response rate":"#DIV/0!","geo_score":0.786,"owner responses":0,"page id":"2.52031E+14","fan post count":0,"id":"a637zzvx27p4","geo_precision":"zip","state":"NULL","page name":"Sonic Drive In","likes":null},"type":"Feature","geometry":null},{"properties":{"city":"NULL","category":"Local business","response rate":"#DIV/0!","geo_score":0.786,"owner responses":0,"page id":"1.88917E+14","fan post count":0,"id":"a638002z54e5","geo_precision":"zip","state":"NULL","page name":"Sonic Drive In","likes":null},"type":"Feature","geometry":null},{"properties":{"city":"NULL","category":"Local business","response rate":"#DIV/0!","geo_score":0.786,"owner responses":0,"page id":"2.11465E+14","fan post count":0,"id":"a637zzv3svkt","geo_precision":"zip","state":"NULL","page name":"Sonic Drive In","likes":null},"type":"Feature","geometry":null},{"properties":{"city":"NULL","category":"Local business","response rate":"#DIV/0!","geo_score":0.786,"owner responses":0,"page id":"2.01969E+14","fan post count":0,"id":"a637zzoxfe9s","geo_precision":"zip","state":"NULL","page name":"Sonic Drive In","likes":null},"type":"Feature","geometry":null},{"properties":{"city":"NULL","category":"Local business","response rate":"#DIV/0!","geo_score":0.786,"owner responses":0,"page id":"2.60926E+14","fan post count":0,"id":"a638002hmma9","geo_precision":"zip","state":"NULL","page name":"Sonic Drive In","likes":null},"type":"Feature","geometry":null},{"properties":{"city":"NULL","category":"Local business","response rate":"#DIV/0!","geo_score":0.786,"owner responses":0,"page id":"2.22477E+14","fan post count":0,"id":"a637zzysl5mm","geo_precision":"zip","state":"NULL","page name":"Sonic Drive In","likes":null},"type":"Feature","geometry":null},{"properties":{"city":"NULL","category":"Local business","response rate":"#DIV/0!","geo_score":0.786,"owner responses":0,"page id":"1.86893E+14","fan post count":0,"id":"a637zzshbn5a","geo_precision":"zip","state":"NULL","page name":"Sonic Drive In","likes":null},"type":"Feature","geometry":null},{"properties":{"city":"NULL","category":"Local business","response rate":"#DIV/0!","geo_score":0.786,"owner responses":0,"page id":"1.74906E+14","fan post count":0,"id":"a637zzs734eo","geo_precision":"zip","state":"NULL","page name":"sonic drive in","likes":null},"type":"Feature","geometry":null},{"properties":{"city":"NULL","category":"Local business","response rate":"#DIV/0!","geo_score":0.786,"owner responses":0,"page id":"1.54054E+14","fan post count":0,"id":"a637zzsek3h4","geo_precision":"zip","state":"NULL","page name":"Sonic drive in","likes":null},"type":"Feature","geometry":null},{"properties":{"city":"NULL","category":"Local business","response rate":"#DIV/0!","geo_score":0.786,"owner responses":0,"page id":"2.04417E+14","fan post count":0,"id":"a637zzscnxaj","geo_precision":"zip","state":"NULL","page name":"Sonic Drive In","likes":null},"type":"Feature","geometry":null},{"properties":{"city":"NULL","category":"Local business","response rate":"#DIV/0!","geo_score":0.786,"owner responses":0,"page id":"1.66471E+14","fan post count":0,"id":"a637zzt292ej","geo_precision":"zip","state":"NULL","page name":"Sonic Drive In","likes":null},"type":"Feature","geometry":null},{"properties":{"city":"NULL","category":"Local business","response rate":"#DIV/0!","geo_score":0.786,"owner responses":0,"page id":"1.73944E+14","fan post count":0,"id":"a637zzripy0e","geo_precision":"zip","state":"NULL","page name":"Sonic Drive In","likes":null},"type":"Feature","geometry":null},{"properties":{"city":"NULL","category":"Local business","response rate":"#DIV/0!","geo_score":0.786,"owner responses":0,"page id":"1.36191E+14","fan post count":0,"id":"a637zzyfaxly","geo_precision":"zip","state":"NULL","page name":"Sonic Drive In! :)","likes":null},"type":"Feature","geometry":null},{"properties":{"city":"NULL","category":"Local business","response rate":"#DIV/0!","geo_score":0.786,"owner responses":0,"page id":"2.383E+14","fan post count":0,"id":"a637zzqt95ze","geo_precision":"zip","state":"NULL","page name":"Sonic Drive In","likes":null},"type":"Feature","geometry":null},{"properties":{"city":"Keller","category":"Local business","response rate":"#DIV/0!","geo_score":0.0,"owner responses":0,"page id":"3.23414E+11","fan post count":0,"id":"a637zzo5ekqi","geo_precision":"unmatched","state":"TX","page name":"Keller Sonic Drive-In","likes":null},"type":"Feature","geometry":{"type":"Point","coordinates":[-97.2359910918885,32.9275356674608]}},{"properties":{"city":"Lansing","category":"Restaurant/cafe","response rate":"#DIV/0!","geo_score":0.0,"owner responses":0,"page id":"2.20857E+14","fan post count":0,"id":"a637zzq3ojxz","geo_precision":"unmatched","state":"KS","page name":"Sonic Drive-In Lansing","likes":null},"type":"Feature","geometry":{"type":"Point","coordinates":[-87.5457911045884,41.5657816423894]}},{"properties":{"city":"NULL","category":"Local business","response rate":"#DIV/0!","geo_score":0.786,"owner responses":0,"page id":"1.47687E+14","fan post count":0,"id":"a637zzznqzeh","geo_precision":"zip","state":"NULL","page name":"Sonic America's Drive-In","likes":null},"type":"Feature","geometry":null},{"properties":{"city":"NULL","category":"Local business","response rate":"#DIV/0!","geo_score":0.786,"owner responses":0,"page id":"1.28428E+14","fan post count":0,"id":"a638000x6afu","geo_precision":"zip","state":"NULL","page name":"Sonic America's Drive-In","likes":null},"type":"Feature","geometry":null},{"properties":{"city":"Hampton","category":"Restaurant/cafe","response rate":"#DIV/0!","geo_score":0.0,"owner responses":0,"page id":"2.11258E+11","fan post count":0,"id":"a637zzw28kbt","geo_precision":"unmatched","state":"VA","page name":"Sonic Americas #1 drive in","likes":null},"type":"Feature","geometry":{"type":"Point","coordinates":[-76.3601270940976,37.034945639299]}},{"properties":{"city":"Marionville","category":"Restaurant/cafe","response rate":"#DIV/0!","geo_score":0.0,"owner responses":0,"page id":"1.54581E+14","fan post count":0,"id":"a638002vt73g","geo_precision":"unmatched","state":"MO","page name":"Sonic Drive In of Marionville Mo.","likes":null},"type":"Feature","geometry":null},{"properties":{"city":"NULL","category":"Organization","response rate":"#DIV/0!","geo_score":0.786,"owner responses":0,"page id":"1.06116E+14","fan post count":0,"id":"a637zzv0taid","geo_precision":"zip","state":"NULL","page name":"Sonic Drive In","likes":null},"type":"Feature","geometry":null},{"properties":{"city":"Santee","category":"Local business","response rate":"#DIV/0!","geo_score":0.881,"owner responses":0,"page id":"1.21301E+14","fan post count":0,"id":"a637zzp5zrl5","geo_precision":"zip","state":"CA","page name":"Sonic Drive In","likes":null},"type":"Feature","geometry":{"type":"Point","coordinates":[-116.988245610577,32.8482361383851]}},{"properties":{"city":"NULL","category":"Interest","response rate":"#DIV/0!","geo_score":0.786,"owner responses":0,"page id":"3.78506E+11","fan post count":0,"id":"a6380003lavn","geo_precision":"zip","state":"NULL","page name":"Sonic Drive In","likes":null},"type":"Feature","geometry":null},{"properties":{"city":"Peabody","category":"Local business","response rate":"#DIV/0!","geo_score":0.0,"owner responses":0,"page id":"1.199E+14","fan post count":0,"id":"a637zzohksv8","geo_precision":"unmatched","state":"MA","page name":"Sonic Drive In","likes":null},"type":"Feature","geometry":{"type":"Point","coordinates":[-70.9614635635784,42.534045676855]}},{"properties":{"city":"El Dorado","category":"Local business","response rate":"#DIV/0!","geo_score":1.0,"owner responses":0,"page id":"1.05933E+14","fan post count":0,"id":"a637zzz3y5yt","geo_precision":"zip","state":"AR","page name":"Sonic Drive In","likes":null},"type":"Feature","geometry":{"type":"Point","coordinates":[-92.6625546101293,33.2135181425692]}},{"properties":{"city":"Rancho Cucamonga","category":"Local business","response rate":"#DIV/0!","geo_score":0.876,"owner responses":0,"page id":"1.12152E+14","fan post count":0,"id":"a637zzrqs4fy","geo_precision":"zip","state":"CA","page name":"Sonic Drive In","likes":null},"type":"Feature","geometry":{"type":"Point","coordinates":[-117.579400599006,34.1233451370124]}},{"properties":{"city":"Randallstown","category":"Local business","response rate":"#DIV/0!","geo_score":0.0,"owner responses":0,"page id":"1.4887E+14","fan post count":0,"id":"a638000js5bh","geo_precision":"unmatched","state":"MD","page name":"Sonic Drive In","likes":null},"type":"Feature","geometry":{"type":"Point","coordinates":[-76.7966180730463,39.3752726586491]}},{"properties":{"city":"Hayward","category":"Local business","response rate":"#DIV/0!","geo_score":1.0,"owner responses":0,"page id":"1.05007E+14","fan post count":0,"id":"a638000e9lph","geo_precision":"zip","state":"CA","page name":"Sonic Drive In","likes":null},"type":"Feature","geometry":{"type":"Point","coordinates":[-122.076972617608,37.6436361563672]}},{"properties":{"city":"Puyallup","category":"Local business","response rate":"#DIV/0!","geo_score":0.0,"owner responses":0,"page id":"1.08181E+14","fan post count":0,"id":"a637zzx2ixwq","geo_precision":"unmatched","state":"WA","page name":"Sonic Drive In","likes":null},"type":"Feature","geometry":{"type":"Point","coordinates":[-122.292227618285,47.184872670203]}},{"properties":{"city":"Bensalem","category":"Local business","response rate":"#DIV/0!","geo_score":0.0,"owner responses":0,"page id":"1.1401E+14","fan post count":0,"id":"a637zzmpr84s","geo_precision":"unmatched","state":"PA","page name":"Sonic Drive In","likes":null},"type":"Feature","geometry":null},{"properties":{"city":"Lake City","category":"Local business","response rate":"#DIV/0!","geo_score":0.0,"owner responses":0,"page id":"1.17519E+14","fan post count":0,"id":"a637zzrzercn","geo_precision":"unmatched","state":"SC","page name":"Sonic Drive In","likes":null},"type":"Feature","geometry":null},{"properties":{"city":"Brownsville","category":"Local business","response rate":"#DIV/0!","geo_score":0.0,"owner responses":0,"page id":"1.1628E+14","fan post count":0,"id":"a637zznwm8v4","geo_precision":"unmatched","state":"TN","page name":"Sonic Drive In","likes":null},"type":"Feature","geometry":{"type":"Point","coordinates":[-89.2609000777612,35.590554660721]}},{"properties":{"city":"Cleveland","category":"Local business","response rate":"#DIV/0!","geo_score":0.0,"owner responses":0,"page id":"1.20096E+14","fan post count":0,"id":"a637zzsyh0yb","geo_precision":"unmatched","state":"OH","page name":"Sonic Drive In","likes":null},"type":"Feature","geometry":{"type":"Point","coordinates":[-84.8710635817477,35.1714816555621]}},{"properties":{"city":"Tahlequah","category":"Local business","response rate":"#DIV/0!","geo_score":0.0,"owner responses":0,"page id":"1.14196E+14","fan post count":0,"id":"a637zzx64gzl","geo_precision":"unmatched","state":"OK","page name":"Sonic Drive In","likes":null},"type":"Feature","geometry":{"type":"Point","coordinates":[-94.9715270787483,35.9128726570233]}},{"properties":{"city":"Reading","category":"Local business","response rate":"#DIV/0!","geo_score":0.0,"owner responses":0,"page id":"1.13483E+14","fan post count":0,"id":"a637zzpwkwat","geo_precision":"unmatched","state":"PA","page name":"Sonic Drive In","likes":null},"type":"Feature","geometry":{"type":"Point","coordinates":[-75.9263000811997,40.3416911569114]}},{"properties":{"city":"Marshall","category":"Local business","response rate":"#DIV/0!","geo_score":0.0,"owner responses":0,"page id":"1.17546E+14","fan post count":0,"id":"a637zzoxrnd7","geo_precision":"unmatched","state":"TX","page name":"Sonic Drive In","likes":null},"type":"Feature","geometry":{"type":"Point","coordinates":[-95.7878545926949,44.4471726714206]}},{"properties":{"city":"McComb","category":"Local business","response rate":"#DIV/0!","geo_score":0.0,"owner responses":0,"page id":"1.17086E+14","fan post count":0,"id":"a637zzop5vqu","geo_precision":"unmatched","state":"MS","page name":"Sonic Drive In","likes":null},"type":"Feature","geometry":{"type":"Point","coordinates":[-90.4595001012872,31.2446271487335]}},{"properties":{"city":"Searcy","category":"Local business","response rate":"#DIV/0!","geo_score":0.905,"owner responses":0,"page id":"1.19358E+14","fan post count":0,"id":"a637zzo1xbxx","geo_precision":"zip","state":"AR","page name":"Sonic Drive In","likes":null},"type":"Feature","geometry":{"type":"Point","coordinates":[-91.7337090810074,35.2470456545193]}},{"properties":{"city":"Jennings","category":"Local business","response rate":"#DIV/0!","geo_score":0.0,"owner responses":0,"page id":"1.11535E+14","fan post count":0,"id":"a637zzpae4h7","geo_precision":"unmatched","state":"LA","page name":"Sonic Drive In","likes":null},"type":"Feature","geometry":{"type":"Point","coordinates":[-90.2614270905334,38.7211001537871]}},{"properties":{"city":"Orlando","category":"Local business","response rate":"#DIV/0!","geo_score":0.0,"owner responses":0,"page id":"1.00874E+14","fan post count":0,"id":"a637zzyxmzy5","geo_precision":"unmatched","state":"FL","page name":"Sonic Drive In","likes":null},"type":"Feature","geometry":{"type":"Point","coordinates":[-81.3757910982383,28.533509156965]}},{"properties":{"city":"Farmerville","category":"Local business","response rate":"#DIV/0!","geo_score":0.0,"owner responses":0,"page id":"1.20901E+14","fan post count":0,"id":"a637zzznoebj","geo_precision":"unmatched","state":"LA","page name":"Sonic Drive In","likes":null},"type":"Feature","geometry":null},{"properties":{"city":"Lexington","category":"Local business","response rate":"#DIV/0!","geo_score":0.0,"owner responses":0,"page id":"1.15732E+14","fan post count":0,"id":"a637zznh76ou","geo_precision":"unmatched","state":"TN","page name":"Sonic Drive In","likes":null},"type":"Feature","geometry":{"type":"Point","coordinates":[-80.2586455956387,35.8167631591602]}},{"properties":{"city":"Rockwell","category":"Local business","response rate":"#DIV/0!","geo_score":0.0,"owner responses":0,"page id":"1.16288E+14","fan post count":0,"id":"a637zztauuxg","geo_precision":"unmatched","state":"NC","page name":"Sonic Drive In","likes":null},"type":"Feature","geometry":null},{"properties":{"city":"Hemet","category":"Local business","response rate":"#DIV/0!","geo_score":0.918,"owner responses":0,"page id":"1.20782E+14","fan post count":0,"id":"a637zzwrbzqz","geo_precision":"zip","state":"CA","page name":"Sonic Drive In","likes":null},"type":"Feature","geometry":{"type":"Point","coordinates":[-116.983063622987,33.7420001618342]}},{"properties":{"city":"Camden","category":"Local business","response rate":"#DIV/0!","geo_score":0.0,"owner responses":0,"page id":"1.20356E+14","fan post count":0,"id":"a638001thz5t","geo_precision":"unmatched","state":"AR","page name":"Sonic Drive In","likes":null},"type":"Feature","geometry":{"type":"Point","coordinates":[-75.1061815898757,39.9371911649858]}},{"properties":{"city":"Philadelphia","category":"Local business","response rate":"#DIV/0!","geo_score":0.0,"owner responses":0,"page id":"1.04947E+14","fan post count":0,"id":"a637zzxqh6gt","geo_precision":"unmatched","state":"MS","page name":"Sonic Drive In","likes":null},"type":"Feature","geometry":{"type":"Point","coordinates":[-75.1447910730899,39.9980091486017]}},{"properties":{"city":"New Iberia","category":"Local business","response rate":"#DIV/0!","geo_score":0.873,"owner responses":0,"page id":"1.16364E+14","fan post count":0,"id":"a638001sv5gr","geo_precision":"zip","state":"LA","page name":"Sonic Drive In","likes":null},"type":"Feature","geometry":{"type":"Point","coordinates":[-91.8184545965586,30.0035726326775]}},{"properties":{"city":"Binghamton","category":"Local business","response rate":"#DIV/0!","geo_score":0.0,"owner responses":0,"page id":"1.16609E+14","fan post count":0,"id":"a638001m3f8b","geo_precision":"unmatched","state":"NY","page name":"Sonic Drive In","likes":null},"type":"Feature","geometry":{"type":"Point","coordinates":[-75.9118000818493,42.1022271701441]}},{"properties":{"city":"Opelousas","category":"Local business","response rate":"#DIV/0!","geo_score":0.0,"owner responses":0,"page id":"1.0806E+14","fan post count":0,"id":"a637zzwsu3vf","geo_precision":"unmatched","state":"LA","page name":"Sonic Drive In","likes":null},"type":"Feature","geometry":{"type":"Point","coordinates":[-92.0844090805108,30.5281811280829]}},{"properties":{"city":"Winnsboro","category":"Local business","response rate":"#DIV/0!","geo_score":0.0,"owner responses":0,"page id":"1.15993E+14","fan post count":0,"id":"a637zzybqupq","geo_precision":"unmatched","state":"LA","page name":"Sonic Drive In","likes":null},"type":"Feature","geometry":null},{"properties":{"city":"Sulphur","category":"Local business","response rate":"#DIV/0!","geo_score":0.0,"owner responses":0,"page id":"1.13359E+14","fan post count":0,"id":"a637zzpk1czk","geo_precision":"unmatched","state":"LA","page name":"Sonic Drive In","likes":null},"type":"Feature","geometry":{"type":"Point","coordinates":[-93.3608365749924,30.2303541277523]}},{"properties":{"city":"Ripley","category":"Local business","response rate":"#DIV/0!","geo_score":0.0,"owner responses":0,"page id":"1.14152E+14","fan post count":0,"id":"a637zzyhiali","geo_precision":"unmatched","state":"TN","page name":"Sonic Drive In","likes":null},"type":"Feature","geometry":null},{"properties":{"city":"Dodge City","category":"Local business","response rate":"#DIV/0!","geo_score":0.0,"owner responses":0,"page id":"1.15616E+14","fan post count":0,"id":"a6380019rz00","geo_precision":"unmatched","state":"KS","page name":"Sonic Drive In","likes":null},"type":"Feature","geometry":{"type":"Point","coordinates":[-100.018209120376,37.7596726581117]}},{"properties":{"city":"Guthrie","category":"Local business","response rate":"#DIV/0!","geo_score":0.0,"owner responses":0,"page id":"1.1393E+14","fan post count":0,"id":"a637zzo30gf6","geo_precision":"unmatched","state":"OK","page name":"Sonic Drive In","likes":null},"type":"Feature","geometry":null},{"properties":{"city":"Madill","category":"Local business","response rate":"#DIV/0!","geo_score":0.0,"owner responses":0,"page id":"1.16236E+14","fan post count":0,"id":"a637zzo4vdvs","geo_precision":"unmatched","state":"OK","page name":"Sonic Drive In","likes":null},"type":"Feature","geometry":null},{"properties":{"city":"Senatobia","category":"Local business","response rate":"#DIV/0!","geo_score":0.0,"owner responses":0,"page id":"1.09505E+14","fan post count":0,"id":"a637zzt150rz","geo_precision":"unmatched","state":"MS","page name":"Sonic Drive In","likes":null},"type":"Feature","geometry":null},{"properties":{"city":"Fredericksburg","category":"Local business","response rate":"#DIV/0!","geo_score":0.0,"owner responses":0,"page id":"1.2055E+14","fan post count":0,"id":"a637zzre64lz","geo_precision":"unmatched","state":"VA","page name":"Sonic Drive In","likes":null},"type":"Feature","geometry":{"type":"Point","coordinates":[-77.4707815625983,38.301827172178]}},{"properties":{"city":"Nowata","category":"Local business","response rate":"#DIV/0!","geo_score":0.0,"owner responses":0,"page id":"1.13891E+14","fan post count":0,"id":"a637zztcji1g","geo_precision":"unmatched","state":"OK","page name":"Sonic Drive In","likes":null},"type":"Feature","geometry":null},{"properties":{"city":"Corinth","category":"Local business","response rate":"#DIV/0!","geo_score":0.0,"owner responses":0,"page id":"1.17711E+14","fan post count":0,"id":"a6380015fvxj","geo_precision":"unmatched","state":"MS","page name":"Sonic Drive In","likes":null},"type":"Feature","geometry":{"type":"Point","coordinates":[-88.5152635729319,34.937227143778]}},{"properties":{"city":"Fresno","category":"Local business","response rate":"#DIV/0!","geo_score":0.98,"owner responses":0,"page id":"1.13398E+14","fan post count":0,"id":"a637zzy5ssbn","geo_precision":"zip","state":"CA","page name":"Sonic Drive In","likes":null},"type":"Feature","geometry":{"type":"Point","coordinates":[-119.792109133328,36.781545671896]}},{"properties":{"city":"Stockton","category":"Local business","response rate":"#DIV/0!","geo_score":0.917,"owner responses":0,"page id":"1.11567E+14","fan post count":0,"id":"a637zzwweb66","geo_precision":"zip","state":"CA","page name":"Sonic Drive In","likes":null},"type":"Feature","geometry":{"type":"Point","coordinates":[-121.300864139212,37.9756266605687]}},{"properties":{"city":"Brandon","category":"Local business","response rate":"#DIV/0!","geo_score":0.0,"owner responses":0,"page id":"1.17457E+14","fan post count":0,"id":"a637zzvibvfg","geo_precision":"unmatched","state":"MS","page name":"Sonic Drive In","likes":null},"type":"Feature","geometry":{"type":"Point","coordinates":[-89.9984725863509,32.280327163481]}},{"properties":{"city":"Lake Worth","category":"Local business","response rate":"#DIV/0!","geo_score":0.0,"owner responses":0,"page id":"1.20806E+14","fan post count":0,"id":"a637zzts42oq","geo_precision":"unmatched","state":"FL","page name":"Sonic Drive In","likes":null},"type":"Feature","geometry":{"type":"Point","coordinates":[-80.0587455727284,26.6196911530169]}},{"properties":{"city":"Livingston","category":"Local business","response rate":"#DIV/0!","geo_score":0.0,"owner responses":0,"page id":"1.21316E+14","fan post count":0,"id":"a637zzwm87n6","geo_precision":"unmatched","state":"TX","page name":"Sonic Drive In","likes":null},"type":"Feature","geometry":{"type":"Point","coordinates":[-74.3213365882771,40.7887361386199]}},{"properties":{"city":"Cameron","category":"Local business","response rate":"#DIV/0!","geo_score":0.0,"owner responses":0,"page id":"1.00874E+14","fan post count":0,"id":"a637zzzuiy92","geo_precision":"unmatched","state":"MO","page name":"Sonic Drive In","likes":null},"type":"Feature","geometry":null},{"properties":{"city":"Cabot","category":"Local business","response rate":"#DIV/0!","geo_score":0.952,"owner responses":0,"page id":"1.11585E+14","fan post count":0,"id":"a637zzxkzpef","geo_precision":"zip","state":"AR","page name":"Sonic Drive In","likes":null},"type":"Feature","geometry":{"type":"Point","coordinates":[-92.0223270908769,34.9726456622196]}},{"properties":{"city":"Madisonville","category":"Local business","response rate":"#DIV/0!","geo_score":0.0,"owner responses":0,"page id":"1.11721E+14","fan post count":0,"id":"a637zzqspzz5","geo_precision":"unmatched","state":"KY","page name":"Sonic Drive In","likes":null},"type":"Feature","geometry":{"type":"Point","coordinates":[-87.5021910766851,37.3326636599571]}},{"properties":{"city":"Batesville","category":"Local business","response rate":"#DIV/0!","geo_score":0.0,"owner responses":0,"page id":"1.11301E+14","fan post count":0,"id":"a637zzojlppq","geo_precision":"unmatched","state":"AR","page name":"Sonic Drive In","likes":null},"type":"Feature","geometry":null},{"properties":{"city":"Hernando","category":"Local business","response rate":"#DIV/0!","geo_score":0.0,"owner responses":0,"page id":"1.00881E+14","fan post count":0,"id":"a637zzzij5wg","geo_precision":"unmatched","state":"MS","page name":"Sonic Drive In","likes":null},"type":"Feature","geometry":null},{"properties":{"city":"Cleveland","category":"Local business","response rate":"#DIV/0!","geo_score":0.0,"owner responses":0,"page id":"1.11518E+14","fan post count":0,"id":"a637zzxlheel","geo_precision":"unmatched","state":"TX","page name":"Sonic Drive In","likes":null},"type":"Feature","geometry":{"type":"Point","coordinates":[-84.8710635817477,35.1714816555621]}},{"properties":{"city":"Streetsboro","category":"Local business","response rate":"#DIV/0!","geo_score":0.0,"owner responses":0,"page id":"1.15597E+14","fan post count":0,"id":"a637zzz88ix7","geo_precision":"unmatched","state":"OH","page name":"Sonic Drive In","likes":null},"type":"Feature","geometry":{"type":"Point","coordinates":[-81.349127085894,41.2424541479827]}},{"properties":{"city":"Brownsville","category":"Local business","response rate":"#DIV/0!","geo_score":0.0,"owner responses":0,"page id":"1.11765E+14","fan post count":0,"id":"a637zzwar0tu","geo_precision":"unmatched","state":"TX","page name":"Sonic Drive In","likes":null},"type":"Feature","geometry":{"type":"Point","coordinates":[-89.2609000777612,35.590554660721]}},{"properties":{"city":"Parkersburg","category":"Local business","response rate":"#DIV/0!","geo_score":0.0,"owner responses":0,"page id":"1.11416E+14","fan post count":0,"id":"a637zzq4okx1","geo_precision":"unmatched","state":"WV","page name":"Sonic Drive In","likes":null},"type":"Feature","geometry":{"type":"Point","coordinates":[-81.5421365797029,39.2661721427679]}},{"properties":{"city":"Loganville","category":"Local business","response rate":"#DIV/0!","geo_score":0.0,"owner responses":0,"page id":"1.21572E+14","fan post count":0,"id":"a637zzwuqqtm","geo_precision":"unmatched","state":"GA","page name":"Sonic Drive In","likes":null},"type":"Feature","geometry":null},{"properties":{"city":"Beeville","category":"Local business","response rate":"#DIV/0!","geo_score":0.0,"owner responses":0,"page id":"1.13794E+14","fan post count":0,"id":"a637zzmy0mt9","geo_precision":"unmatched","state":"TX","page name":"Sonic Drive In","likes":null},"type":"Feature","geometry":{"type":"Point","coordinates":[-97.7507546184385,28.4054996272295]}},{"properties":{"city":"Vilonia","category":"Local business","response rate":"#DIV/0!","geo_score":0.929,"owner responses":0,"page id":"1.00887E+14","fan post count":0,"id":"a637zzu11f2a","geo_precision":"zip","state":"AR","page name":"Sonic Drive In","likes":null},"type":"Feature","geometry":null},{"properties":{"city":"Carencro","category":"Local business","response rate":"#DIV/0!","geo_score":0.0,"owner responses":0,"page id":"1.15944E+14","fan post count":0,"id":"a637zzxmj7mq","geo_precision":"unmatched","state":"LA","page name":"Sonic Drive In","likes":null},"type":"Feature","geometry":null},{"properties":{"city":"Columbia","category":"Local business","response rate":"#DIV/0!","geo_score":0.0,"owner responses":0,"page id":"1.13998E+14","fan post count":0,"id":"a638000nqswg","geo_precision":"unmatched","state":"KY","page name":"Sonic Drive In","likes":null},"type":"Feature","geometry":{"type":"Point","coordinates":[-76.8570365616595,39.2035721458596]}},{"properties":{"city":"Nacogdoches","category":"Local business","response rate":"#DIV/0!","geo_score":0.0,"owner responses":0,"page id":"1.16312E+14","fan post count":0,"id":"a637zzuhs2vk","geo_precision":"unmatched","state":"TX","page name":"Sonic Drive In","likes":null},"type":"Feature","geometry":{"type":"Point","coordinates":[-94.6508635920194,31.6088546559491]}},{"properties":{"city":"Lufkin","category":"Local business","response rate":"#DIV/0!","geo_score":0.0,"owner responses":0,"page id":"1.08138E+14","fan post count":0,"id":"a637zznuqlqf","geo_precision":"unmatched","state":"TX","page name":"Sonic Drive In","likes":null},"type":"Feature","geometry":{"type":"Point","coordinates":[-94.7303725885176,31.3368726553362]}},{"properties":{"city":"Lamesa","category":"Local business","response rate":"#DIV/0!","geo_score":0.0,"owner responses":0,"page id":"1.1732E+14","fan post count":0,"id":"a637zzpgt1g0","geo_precision":"unmatched","state":"TX","page name":"Sonic Drive In","likes":null},"type":"Feature","geometry":null},{"properties":{"city":"Atlanta","category":"Local business","response rate":"#DIV/0!","geo_score":0.0,"owner responses":0,"page id":"1.09639E+14","fan post count":0,"id":"a637zzuc94tk","geo_precision":"unmatched","state":"TX","page name":"Sonic Drive In","likes":null},"type":"Feature","geometry":{"type":"Point","coordinates":[-84.4031725953062,33.7595086328769]}},{"properties":{"city":"Terrell","category":"Local business","response rate":"#DIV/0!","geo_score":0.0,"owner responses":0,"page id":"1.11571E+14","fan post count":0,"id":"a638000trxr0","geo_precision":"unmatched","state":"TX","page name":"Sonic Drive In","likes":null},"type":"Feature","geometry":{"type":"Point","coordinates":[-96.2824455988973,32.7375271524714]}},{"properties":{"city":"Millville","category":"Local business","response rate":"#DIV/0!","geo_score":0.0,"owner responses":0,"page id":"1.08191E+14","fan post count":0,"id":"a637zzvhcm6d","geo_precision":"unmatched","state":"NJ","page name":"Sonic Drive In","likes":null},"type":"Feature","geometry":{"type":"Point","coordinates":[-75.0376365811619,39.3907636736843]}},{"properties":{"city":"Cache","category":"Local business","response rate":"#DIV/0!","geo_score":0.0,"owner responses":0,"page id":"1.13727E+14","fan post count":0,"id":"a638002vvp0p","geo_precision":"unmatched","state":"OK","page name":"Sonic Drive In","likes":null},"type":"Feature","geometry":null},{"properties":{"city":"Philadelphia","category":"Local business","response rate":"#DIV/0!","geo_score":0.912,"owner responses":0,"page id":"1.17531E+14","fan post count":0,"id":"a637zzsj9ld4","geo_precision":"zip","state":"PA","page name":"Sonic Drive In","likes":null},"type":"Feature","geometry":{"type":"Point","coordinates":[-75.1447910730899,39.9980091486017]}},{"properties":{"city":"Midland","category":"Local business","response rate":"#DIV/0!","geo_score":0.0,"owner responses":0,"page id":"1.16347E+14","fan post count":0,"id":"a637zznrrg0w","geo_precision":"unmatched","state":"TX","page name":"Sonic Drive In","likes":null},"type":"Feature","geometry":{"type":"Point","coordinates":[-84.2306270945977,43.6227091464011]}},{"properties":{"city":"McMinnville","category":"Local business","response rate":"#DIV/0!","geo_score":0.0,"owner responses":0,"page id":"1.1405E+14","fan post count":0,"id":"a638001rnjiq","geo_precision":"unmatched","state":"TN","page name":"Sonic Drive In","likes":null},"type":"Feature","geometry":{"type":"Point","coordinates":[-85.7793090805005,35.6867091574481]}},{"properties":{"city":"Winfield","category":"Local business","response rate":"#DIV/0!","geo_score":0.0,"owner responses":0,"page id":"1.17751E+14","fan post count":0,"id":"a637zzxadldr","geo_precision":"unmatched","state":"KS","page name":"Sonic Drive In","likes":null},"type":"Feature","geometry":{"type":"Point","coordinates":[-96.9806726160263,37.2478911700638]}},{"properties":{"city":"Easton","category":"Local business","response rate":"#DIV/0!","geo_score":0.0,"owner responses":0,"page id":"1.13914E+14","fan post count":0,"id":"a638000q7p6k","geo_precision":"unmatched","state":"MD","page name":"Sonic Drive In","likes":null},"type":"Feature","geometry":{"type":"Point","coordinates":[-76.0704545872595,38.7715911686897]}},{"properties":{"city":"Miami","category":"Local business","response rate":"#DIV/0!","geo_score":0.0,"owner responses":0,"page id":"1.04989E+14","fan post count":0,"id":"a637zzp7phwn","geo_precision":"unmatched","state":"OK","page name":"Sonic Drive In","likes":null},"type":"Feature","geometry":{"type":"Point","coordinates":[-80.224145578524,25.7876726475849]}},{"properties":{"city":"Piedmont","category":"Local business","response rate":"#DIV/0!","geo_score":0.0,"owner responses":0,"page id":"1.47998E+14","fan post count":0,"id":"a637zzyysk67","geo_precision":"unmatched","state":"MO","page name":"Sonic Drive In","likes":null},"type":"Feature","geometry":{"type":"Point","coordinates":[-122.231409135144,37.8219911727643]}},{"properties":{"city":"Pharr","category":"Local business","response rate":"#DIV/0!","geo_score":0.0,"owner responses":0,"page id":"1.21032E+14","fan post count":0,"id":"a637zzwon7b7","geo_precision":"unmatched","state":"TX","page name":"Sonic Drive In","likes":null},"type":"Feature","geometry":{"type":"Point","coordinates":[-98.1851726108668,26.206336125617]}},{"properties":{"city":"Gaffney","category":"Local business","response rate":"#DIV/0!","geo_score":0.0,"owner responses":0,"page id":"1.17484E+14","fan post count":0,"id":"a637zzzogg5t","geo_precision":"unmatched","state":"SC","page name":"Sonic Drive In","likes":null},"type":"Feature","geometry":{"type":"Point","coordinates":[-81.6530090767523,35.0719361343581]}},{"properties":{"city":"Tuscaloosa","category":"Local business","response rate":"#DIV/0!","geo_score":0.0,"owner responses":0,"page id":"1.17948E+14","fan post count":0,"id":"a638001pa2j0","geo_precision":"unmatched","state":"AL","page name":"Sonic Drive In","likes":null},"type":"Feature","geometry":{"type":"Point","coordinates":[-87.5346090742049,33.2065361587922]}},{"properties":{"city":"Abilene","category":"Local business","response rate":"#DIV/0!","geo_score":0.0,"owner responses":0,"page id":"1.11788E+14","fan post count":0,"id":"a637zzu0ycli","geo_precision":"unmatched","state":"TX","page name":"Sonic Drive In","likes":null},"type":"Feature","geometry":{"type":"Point","coordinates":[-99.7454816205445,32.4464271701066]}},{"properties":{"city":"Southaven","category":"Local business","response rate":"#DIV/0!","geo_score":0.0,"owner responses":0,"page id":"1.11526E+14","fan post count":0,"id":"a637zzn95oqa","geo_precision":"unmatched","state":"MS","page name":"Sonic Drive In","likes":null},"type":"Feature","geometry":{"type":"Point","coordinates":[-89.9873000885668,34.9667271668585]}},{"properties":{"city":"Eunice","category":"Local business","response rate":"#DIV/0!","geo_score":0.0,"owner responses":0,"page id":"1.09684E+14","fan post count":0,"id":"a637zzs4rdtp","geo_precision":"unmatched","state":"LA","page name":"Sonic Drive In","likes":null},"type":"Feature","geometry":{"type":"Point","coordinates":[-92.416927082959,30.4935906553423]}},{"properties":{"city":"Denham Springs","category":"Local business","response rate":"#DIV/0!","geo_score":0.0,"owner responses":0,"page id":"1.1987E+14","fan post count":0,"id":"a637zzrouzwy","geo_precision":"unmatched","state":"LA","page name":"Sonic Drive In","likes":null},"type":"Feature","geometry":null},{"properties":{"city":"Leesville","category":"Local business","response rate":"#DIV/0!","geo_score":0.0,"owner responses":0,"page id":"1.13587E+14","fan post count":0,"id":"a637zzxwke47","geo_precision":"unmatched","state":"LA","page name":"Sonic Drive In","likes":null},"type":"Feature","geometry":null},{"properties":{"city":"Joplin","category":"Local business","response rate":"#DIV/0!","geo_score":0.0,"owner responses":0,"page id":"1.13934E+14","fan post count":0,"id":"a637zzqvvota","geo_precision":"unmatched","state":"MO","page name":"Sonic Drive In","likes":null},"type":"Feature","geometry":{"type":"Point","coordinates":[-94.5110271036858,37.0777636610421]}},{"properties":{"city":"Greenwood","category":"Local business","response rate":"#DIV/0!","geo_score":0.0,"owner responses":0,"page id":"1.11765E+14","fan post count":0,"id":"a638001hg2x8","geo_precision":"unmatched","state":"MS","page name":"Sonic Drive In","likes":null},"type":"Feature","geometry":{"type":"Point","coordinates":[-82.1548180922257,34.1897546353448]}},{"properties":{"city":"Vinita","category":"Local business","response rate":"#DIV/0!","geo_score":0.0,"owner responses":0,"page id":"1.13736E+14","fan post count":0,"id":"a637zzol0i96","geo_precision":"unmatched","state":"OK","page name":"Sonic Drive In","likes":null},"type":"Feature","geometry":null},{"properties":{"city":"Cookeville","category":"Local business","response rate":"#DIV/0!","geo_score":0.0,"owner responses":0,"page id":"1.04999E+14","fan post count":0,"id":"a637zzwxznys","geo_precision":"unmatched","state":"TN","page name":"Sonic Drive In","likes":null},"type":"Feature","geometry":{"type":"Point","coordinates":[-85.5042910927012,36.1642001374308]}},{"properties":{"city":"Lake Charles","category":"Local business","response rate":"#DIV/0!","geo_score":0.883,"owner responses":0,"page id":"1.11552E+14","fan post count":0,"id":"a637zzqzt4vo","geo_precision":"zip","state":"LA","page name":"Sonic Drive In","likes":null},"type":"Feature","geometry":{"type":"Point","coordinates":[-93.2085366085144,30.2146546443443]}},{"properties":{"city":"Magnolia","category":"Local business","response rate":"#DIV/0!","geo_score":0.946,"owner responses":0,"page id":"1.1951E+14","fan post count":0,"id":"a637zzzxuiij","geo_precision":"zip","state":"AR","page name":"Sonic Drive In","likes":null},"type":"Feature","geometry":{"type":"Point","coordinates":[-93.2334725978776,33.2740546439294]}},{"properties":{"city":"Pleasant View","category":"Local business","response rate":"#DIV/0!","geo_score":0.0,"owner responses":0,"page id":"1.1365E+14","fan post count":0,"id":"a637zzwawb0v","geo_precision":"unmatched","state":"TN","page name":"Sonic Drive In","likes":null},"type":"Feature","geometry":null},{"properties":{"city":"Henderson","category":"Local business","response rate":"#DIV/0!","geo_score":0.0,"owner responses":0,"page id":"1.11742E+14","fan post count":0,"id":"a637zzv6v5pw","geo_precision":"unmatched","state":"TN","page name":"Sonic Drive In","likes":null},"type":"Feature","geometry":{"type":"Point","coordinates":[-78.4085365754037,36.3247541693556]}},{"properties":{"city":"Bonham","category":"Local business","response rate":"#DIV/0!","geo_score":0.0,"owner responses":0,"page id":"1.11703E+14","fan post count":0,"id":"a637zztvoyvk","geo_precision":"unmatched","state":"TX","page name":"Sonic Drive In","likes":null},"type":"Feature","geometry":null},{"properties":{"city":"Dallas","category":"Local business","response rate":"#DIV/0!","geo_score":0.0,"owner responses":0,"page id":"1.17548E+14","fan post count":0,"id":"a637zzsnnm2u","geo_precision":"unmatched","state":"TX","page name":"Sonic Drive In","likes":null},"type":"Feature","geometry":{"type":"Point","coordinates":[-96.7871635973627,32.799527136775]}},{"properties":{"city":"Memphis","category":"Local business","response rate":"#DIV/0!","geo_score":0.0,"owner responses":0,"page id":"1.13883E+14","fan post count":0,"id":"a637zzu5pxvu","geo_precision":"unmatched","state":"MS","page name":"Sonic Drive In","likes":null},"type":"Feature","geometry":{"type":"Point","coordinates":[-89.9710635743128,35.1173636323157]}},{"properties":{"city":"Wilsonville","category":"Local business","response rate":"#DIV/0!","geo_score":0.0,"owner responses":0,"page id":"1.00882E+14","fan post count":0,"id":"a637zzyvofpv","geo_precision":"unmatched","state":"OR","page name":"Sonic Drive In","likes":null},"type":"Feature","geometry":{"type":"Point","coordinates":[-122.766418112671,45.3068091567884]}},{"properties":{"city":"Winnfield","category":"Local business","response rate":"#DIV/0!","geo_score":0.0,"owner responses":0,"page id":"1.11542E+14","fan post count":0,"id":"a637zztnih4d","geo_precision":"unmatched","state":"LA","page name":"Sonic Drive In","likes":null},"type":"Feature","geometry":null},{"properties":{"city":"Greenville","category":"Local business","response rate":"#DIV/0!","geo_score":0.0,"owner responses":0,"page id":"1.0086E+14","fan post count":0,"id":"a637zzz8f1ag","geo_precision":"unmatched","state":"TX","page name":"Sonic Drive In","likes":null},"type":"Feature","geometry":{"type":"Point","coordinates":[-77.3723635938728,35.6016091457582]}},{"properties":{"city":"Zachary","category":"Local business","response rate":"#DIV/0!","geo_score":0.0,"owner responses":0,"page id":"1.13933E+14","fan post count":0,"id":"a637zznkx22y","geo_precision":"unmatched","state":"LA","page name":"Sonic Drive In","likes":null},"type":"Feature","geometry":{"type":"Point","coordinates":[-91.1567816011202,30.6550816293866]}},{"properties":{"city":"Franklin","category":"Local business","response rate":"#DIV/0!","geo_score":0.0,"owner responses":0,"page id":"1.15731E+14","fan post count":0,"id":"a637zztvvmc4","geo_precision":"unmatched","state":"LA","page name":"Sonic Drive In","likes":null},"type":"Feature","geometry":{"type":"Point","coordinates":[-84.3015725700014,39.561254670292]}},{"properties":{"city":"Bogalusa","category":"Local business","response rate":"#DIV/0!","geo_score":0.0,"owner responses":0,"page id":"1.2137E+14","fan post count":0,"id":"a6380023wbbn","geo_precision":"unmatched","state":"LA","page name":"Sonic Drive In","likes":null},"type":"Feature","geometry":{"type":"Point","coordinates":[-89.8637635957708,30.7804356433668]}},{"properties":{"city":"Dayton","category":"Local business","response rate":"#DIV/0!","geo_score":0.0,"owner responses":0,"page id":"1.15686E+14","fan post count":0,"id":"a6380001s2nh","geo_precision":"unmatched","state":"TX","page name":"Sonic Drive In","likes":null},"type":"Feature","geometry":{"type":"Point","coordinates":[-84.196663567177,39.7627091729235]}},{"properties":{"city":"Cordova","category":"Local business","response rate":"#DIV/0!","geo_score":0.0,"owner responses":0,"page id":"1.13349E+14","fan post count":0,"id":"a637zzwmbo3h","geo_precision":"unmatched","state":"TN","page name":"Sonic Drive In","likes":null},"type":"Feature","geometry":null},{"properties":{"city":"Sherwood","category":"Local business","response rate":"#DIV/0!","geo_score":0.0,"owner responses":0,"page id":"1.13379E+14","fan post count":0,"id":"a637zzx3gv7h","geo_precision":"unmatched","state":"AR","page name":"Sonic Drive In","likes":null},"type":"Feature","geometry":{"type":"Point","coordinates":[-92.2115180918143,34.8308906654269]}},{"properties":{"city":"Murray","category":"Local business","response rate":"#DIV/0!","geo_score":0.0,"owner responses":0,"page id":"1.15475E+14","fan post count":0,"id":"a637zzpjr6z1","geo_precision":"unmatched","state":"KY","page name":"Sonic Drive In","likes":null},"type":"Feature","geometry":{"type":"Point","coordinates":[-88.3156546065036,36.6094911624927]}},{"properties":{"city":"Stillwater","category":"Local business","response rate":"#DIV/0!","geo_score":0.0,"owner responses":0,"page id":"1.1745E+14","fan post count":0,"id":"a637zzsw525s","geo_precision":"unmatched","state":"OK","page name":"Sonic Drive In","likes":null},"type":"Feature","geometry":{"type":"Point","coordinates":[-92.8185816148032,45.05521817702]}},{"properties":{"city":"Milwaukee","category":"Local business","response rate":"#DIV/0!","geo_score":0.0,"owner responses":0,"page id":"1.11574E+14","fan post count":0,"id":"a637zzvc312k","geo_precision":"unmatched","state":"WI","page name":"Sonic Drive In","likes":null},"type":"Feature","geometry":{"type":"Point","coordinates":[-87.9559090860479,43.0521636793134]}},{"properties":{"city":"Choctaw","category":"Local business","response rate":"#DIV/0!","geo_score":0.0,"owner responses":0,"page id":"1.1635E+14","fan post count":0,"id":"a638000m4fq8","geo_precision":"unmatched","state":"OK","page name":"Sonic Drive In","likes":null},"type":"Feature","geometry":null},{"properties":{"city":"Yuba City","category":"Local business","response rate":"#DIV/0!","geo_score":0.875,"owner responses":0,"page id":"1.09593E+14","fan post count":0,"id":"a637zzn4oygc","geo_precision":"zip","state":"CA","page name":"Sonic Drive In","likes":null},"type":"Feature","geometry":{"type":"Point","coordinates":[-121.626200139806,39.134791153279]}},{"properties":{"city":"Lewisville","category":"Local business","response rate":"#DIV/0!","geo_score":0.0,"owner responses":0,"page id":"1.21151E+14","fan post count":0,"id":"a637zzwvhaiy","geo_precision":"unmatched","state":"TX","page name":"Sonic Drive In","likes":null},"type":"Feature","geometry":{"type":"Point","coordinates":[-97.0062365913861,33.0383181667822]}},{"properties":{"city":"Corsicana","category":"Local business","response rate":"#DIV/0!","geo_score":0.0,"owner responses":0,"page id":"1.16623E+14","fan post count":0,"id":"a638002ena77","geo_precision":"unmatched","state":"TX","page name":"Sonic Drive In","likes":null},"type":"Feature","geometry":{"type":"Point","coordinates":[-96.4694090936258,32.0924816327401]}},{"properties":{"city":"Indianola","category":"Local business","response rate":"#DIV/0!","geo_score":0.0,"owner responses":0,"page id":"1.18461E+14","fan post count":0,"id":"a637zzuej4jq","geo_precision":"unmatched","state":"MS","page name":"Sonic Drive In","likes":null},"type":"Feature","geometry":{"type":"Point","coordinates":[-90.6474181047592,33.4479996467728]}},{"properties":{"city":"Rock Hill","category":"Local business","response rate":"#DIV/0!","geo_score":0.0,"owner responses":0,"page id":"1.11618E+14","fan post count":0,"id":"a637zzxwsc1e","geo_precision":"unmatched","state":"SC","page name":"Sonic Drive In","likes":null},"type":"Feature","geometry":{"type":"Point","coordinates":[-81.0260815732678,34.9380911552686]}},{"properties":{"city":"Hugo","category":"Local business","response rate":"#DIV/0!","geo_score":0.0,"owner responses":0,"page id":"1.11601E+14","fan post count":0,"id":"a6380025r9l2","geo_precision":"unmatched","state":"OK","page name":"Sonic Drive In","likes":null},"type":"Feature","geometry":null},{"properties":{"city":"Winchester","category":"Local business","response rate":"#DIV/0!","geo_score":0.0,"owner responses":0,"page id":"1.15539E+14","fan post count":0,"id":"a637zzw0xm00","geo_precision":"unmatched","state":"KY","page name":"Sonic Drive In","likes":null},"type":"Feature","geometry":{"type":"Point","coordinates":[-78.1667725815959,39.1783546742408]}},{"properties":{"city":"Edna","category":"Local business","response rate":"#DIV/0!","geo_score":0.0,"owner responses":0,"page id":"1.17553E+14","fan post count":0,"id":"a638000mqp52","geo_precision":"unmatched","state":"TX","page name":"Sonic Drive In","likes":null},"type":"Feature","geometry":null},{"properties":{"city":"Grove","category":"Local business","response rate":"#DIV/0!","geo_score":0.0,"owner responses":0,"page id":"1.13786E+14","fan post count":0,"id":"a638002c0uut","geo_precision":"unmatched","state":"OK","page name":"Sonic Drive In","likes":null},"type":"Feature","geometry":null},{"properties":{"city":"San Antonio","category":"Local business","response rate":"#DIV/0!","geo_score":0.0,"owner responses":0,"page id":"1.15783E+14","fan post count":0,"id":"a638002m3l7d","geo_precision":"unmatched","state":"TX","page name":"Sonic Drive In","likes":null},"type":"Feature","geometry":{"type":"Point","coordinates":[-98.5126815862062,29.4515361432896]}},{"properties":{"city":"Harlingen","category":"Local business","response rate":"#DIV/0!","geo_score":0.0,"owner responses":0,"page id":"1.08202E+14","fan post count":0,"id":"a637zzxf8ulw","geo_precision":"unmatched","state":"TX","page name":"Sonic Drive In","likes":null},"type":"Feature","geometry":{"type":"Point","coordinates":[-97.6962726080812,26.1922001550045]}},{"properties":{"city":"Muskogee","category":"Local business","response rate":"#DIV/0!","geo_score":0.0,"owner responses":0,"page id":"1.08168E+14","fan post count":0,"id":"a637zzmleu9i","geo_precision":"unmatched","state":"OK","page name":"Sonic Drive In","likes":null},"type":"Feature","geometry":{"type":"Point","coordinates":[-95.3680455792895,35.7466176728116]}},{"properties":{"city":"Sapulpa","category":"Local business","response rate":"#DIV/0!","geo_score":0.0,"owner responses":0,"page id":"1.0815E+14","fan post count":0,"id":"a638000q516f","geo_precision":"unmatched","state":"OK","page name":"Sonic Drive In","likes":null},"type":"Feature","geometry":{"type":"Point","coordinates":[-96.1048180988242,36.0035361684108]}},{"properties":{"city":"Brady","category":"Local business","response rate":"#DIV/0!","geo_score":0.0,"owner responses":0,"page id":"1.15821E+14","fan post count":0,"id":"a637zzs1q1a9","geo_precision":"unmatched","state":"TX","page name":"Sonic Drive In","likes":null},"type":"Feature","geometry":null},{"properties":{"city":"White House","category":"Local business","response rate":"#DIV/0!","geo_score":0.9,"owner responses":0,"page id":"1.16478E+14","fan post count":0,"id":"a637zzq4oe90","geo_precision":"zip","state":"TN","page name":"Sonic Drive In","likes":null},"type":"Feature","geometry":null},{"properties":{"city":"Lubbock","category":"Local business","response rate":"#DIV/0!","geo_score":0.0,"owner responses":0,"page id":"1.11641E+14","fan post count":0,"id":"a637zzy2x8ya","geo_precision":"unmatched","state":"TX","page name":"Sonic Drive In","likes":null},"type":"Feature","geometry":{"type":"Point","coordinates":[-101.877791088331,33.5647361493471]}},{"properties":{"city":"Fordyce","category":"Local business","response rate":"#DIV/0!","geo_score":0.878,"owner responses":0,"page id":"1.11348E+14","fan post count":0,"id":"a638000csa2g","geo_precision":"zip","state":"AR","page name":"Sonic Drive In","likes":null},"type":"Feature","geometry":null},{"properties":{"city":"Jacksonville","category":"Local business","response rate":"#DIV/0!","geo_score":0.0,"owner responses":0,"page id":"1.15836E+14","fan post count":0,"id":"a637zzsinq4z","geo_precision":"unmatched","state":"NC","page name":"Sonic Drive In","likes":null},"type":"Feature","geometry":{"type":"Point","coordinates":[-77.4097635609052,34.759627159199]}},{"properties":{"city":"Alvin","category":"Local business","response rate":"#DIV/0!","geo_score":0.0,"owner responses":0,"page id":"1.09509E+14","fan post count":0,"id":"a637zzqwsdr9","geo_precision":"unmatched","state":"TX","page name":"Sonic Drive In","likes":null},"type":"Feature","geometry":{"type":"Point","coordinates":[-95.27159107626,29.3937001565487]}},{"properties":{"city":"Hasbrouck Heights","category":"Local business","response rate":"#DIV/0!","geo_score":0.0,"owner responses":0,"page id":"1.1441E+14","fan post count":0,"id":"a6380018kuwr","geo_precision":"unmatched","state":"NJ","page name":"Sonic Drive In","likes":null},"type":"Feature","geometry":{"type":"Point","coordinates":[-74.0750635917402,40.8628911444699]}},{"properties":{"city":"Greenville","category":"Local business","response rate":"#DIV/0!","geo_score":0.0,"owner responses":0,"page id":"1.00885E+14","fan post count":0,"id":"a637zzqlumzr","geo_precision":"unmatched","state":"MS","page name":"Sonic Drive In","likes":null},"type":"Feature","geometry":{"type":"Point","coordinates":[-77.3723635938728,35.6016091457582]}},{"properties":{"city":"Milwaukee","category":"Local business","response rate":"#DIV/0!","geo_score":0.0,"owner responses":0,"page id":"1.16869E+14","fan post count":0,"id":"a637zzxekslv","geo_precision":"unmatched","state":"WI","page name":"Sonic Drive In","likes":null},"type":"Feature","geometry":{"type":"Point","coordinates":[-87.9559090860479,43.0521636793134]}},{"properties":{"city":"Brinkley","category":"Local business","response rate":"#DIV/0!","geo_score":0.905,"owner responses":0,"page id":"1.13455E+14","fan post count":0,"id":"a637zztoyy9y","geo_precision":"zip","state":"AR","page name":"Sonic Drive In","likes":null},"type":"Feature","geometry":null},{"properties":{"city":"Flower Mound","category":"Local business","response rate":"#DIV/0!","geo_score":0.0,"owner responses":0,"page id":"1.08133E+14","fan post count":0,"id":"a637zzxdm7iu","geo_precision":"unmatched","state":"TX","page name":"Sonic Drive In","likes":null},"type":"Feature","geometry":{"type":"Point","coordinates":[-97.0788180939435,33.0317456685049]}},{"properties":{"city":"Tupelo","category":"Local business","response rate":"#DIV/0!","geo_score":0.0,"owner responses":0,"page id":"1.11599E+14","fan post count":0,"id":"a637zzxhgdhu","geo_precision":"unmatched","state":"MS","page name":"Sonic Drive In","likes":null},"type":"Feature","geometry":{"type":"Point","coordinates":[-88.7258816092626,34.2595816329714]}},{"properties":{"city":"Birch Run","category":"Local business","response rate":"#DIV/0!","geo_score":0.0,"owner responses":0,"page id":"1.09911E+14","fan post count":0,"id":"a637zzxab3cq","geo_precision":"unmatched","state":"MI","page name":"Sonic Drive In","likes":null},"type":"Feature","geometry":null},{"properties":{"city":"Lampasas","category":"Local business","response rate":"#DIV/0!","geo_score":0.0,"owner responses":0,"page id":"1.20288E+14","fan post count":0,"id":"a638002p0y7f","geo_precision":"unmatched","state":"TX","page name":"Sonic Drive In","likes":null},"type":"Feature","geometry":null},{"properties":{"city":"Lafayette","category":"Local business","response rate":"#DIV/0!","geo_score":0.0,"owner responses":0,"page id":"1.17238E+14","fan post count":0,"id":"a637zzr2l4iy","geo_precision":"unmatched","state":"LA","page name":"Sonic Drive In","likes":null},"type":"Feature","geometry":{"type":"Point","coordinates":[-86.8746815851176,40.4105816703165]}},{"properties":{"city":"Hope","category":"Local business","response rate":"#DIV/0!","geo_score":0.0,"owner responses":0,"page id":"1.17599E+14","fan post count":0,"id":"a637zzs0acxo","geo_precision":"unmatched","state":"AR","page name":"Sonic Drive In","likes":null},"type":"Feature","geometry":{"type":"Point","coordinates":[-93.5899090991867,33.6677816330735]}},{"properties":{"city":"Lewisburg","category":"Local business","response rate":"#DIV/0!","geo_score":0.0,"owner responses":0,"page id":"1.20944E+14","fan post count":0,"id":"a637zzxix7t3","geo_precision":"unmatched","state":"TN","page name":"Sonic Drive In","likes":null},"type":"Feature","geometry":{"type":"Point","coordinates":[-86.7931090930713,35.44903614732]}},{"properties":{"city":"West Helena","category":"Local business","response rate":"#DIV/0!","geo_score":0.914,"owner responses":0,"page id":"1.09674E+14","fan post count":0,"id":"a637zznm0ifk","geo_precision":"zip","state":"AR","page name":"Sonic Drive In","likes":null},"type":"Feature","geometry":null},{"properties":{"city":"Lebanon","category":"Local business","response rate":"#DIV/0!","geo_score":0.0,"owner responses":0,"page id":"1.11546E+14","fan post count":0,"id":"a637zzoahweo","geo_precision":"unmatched","state":"MO","page name":"Sonic Drive In","likes":null},"type":"Feature","geometry":{"type":"Point","coordinates":[-76.4208545804606,40.3415271462508]}},{"properties":{"city":"Kennewick","category":"Local business","response rate":"#DIV/0!","geo_score":0.0,"owner responses":0,"page id":"1.17941E+14","fan post count":0,"id":"a637zzrye0j3","geo_precision":"unmatched","state":"WA","page name":"Sonic Drive In","likes":null},"type":"Feature","geometry":{"type":"Point","coordinates":[-119.159272625455,46.2034726722573]}},{"properties":{"city":"Forrest City","category":"Local business","response rate":"#DIV/0!","geo_score":0.883,"owner responses":0,"page id":"1.20896E+14","fan post count":0,"id":"a637zzzyyr2g","geo_precision":"zip","state":"AR","page name":"Sonic Drive In","likes":null},"type":"Feature","geometry":{"type":"Point","coordinates":[-90.7887180760362,35.0101271350574]}},{"properties":{"city":"Del Rio","category":"Local business","response rate":"#DIV/0!","geo_score":0.0,"owner responses":0,"page id":"1.17317E+14","fan post count":0,"id":"a637zzvsk5u7","geo_precision":"unmatched","state":"TX","page name":"Sonic Drive In","likes":null},"type":"Feature","geometry":{"type":"Point","coordinates":[-100.895836617796,29.3707181419093]}},{"properties":{"city":"Lafayette","category":"Local business","response rate":"#DIV/0!","geo_score":0.0,"owner responses":0,"page id":"1.04892E+14","fan post count":0,"id":"a637zzyn74wx","geo_precision":"unmatched","state":"IN","page name":"Sonic Drive In","likes":null},"type":"Feature","geometry":{"type":"Point","coordinates":[-86.8746815851176,40.4105816703165]}},{"properties":{"city":"Berea","category":"Local business","response rate":"#DIV/0!","geo_score":0.0,"owner responses":0,"page id":"1.08173E+14","fan post count":0,"id":"a637zztprwjn","geo_precision":"unmatched","state":"KY","page name":"Sonic Drive In","likes":null},"type":"Feature","geometry":{"type":"Point","coordinates":[-82.4607545871848,34.8788456342687]}},{"properties":{"city":"Sweetwater","category":"Local business","response rate":"#DIV/0!","geo_score":0.0,"owner responses":0,"page id":"1.13816E+14","fan post count":0,"id":"a637zztffp3i","geo_precision":"unmatched","state":"TX","page name":"Sonic Drive In","likes":null},"type":"Feature","geometry":{"type":"Point","coordinates":[-80.3736271008898,25.7659726634854]}},{"properties":{"city":"Dothan","category":"Local business","response rate":"#DIV/0!","geo_score":0.0,"owner responses":0,"page id":"1.11741E+14","fan post count":0,"id":"a637zztv2bz8","geo_precision":"unmatched","state":"AL","page name":"Sonic Drive In","likes":null},"type":"Feature","geometry":{"type":"Point","coordinates":[-85.4072546015888,31.2272271578385]}},{"properties":{"city":"Olive Branch","category":"Local business","response rate":"#DIV/0!","geo_score":0.0,"owner responses":0,"page id":"1.17999E+14","fan post count":0,"id":"a637zzny18sl","geo_precision":"unmatched","state":"MS","page name":"Sonic Drive In","likes":null},"type":"Feature","geometry":{"type":"Point","coordinates":[-89.8416271102024,34.963009161737]}},{"properties":{"city":"Grapevine","category":"Local business","response rate":"#DIV/0!","geo_score":0.0,"owner responses":0,"page id":"1.17165E+14","fan post count":0,"id":"a637zzq52b80","geo_precision":"unmatched","state":"TX","page name":"Sonic Drive In","likes":null},"type":"Feature","geometry":{"type":"Point","coordinates":[-97.0857815953009,32.9350271665897]}},{"properties":{"city":"Brownfield","category":"Local business","response rate":"#DIV/0!","geo_score":0.0,"owner responses":0,"page id":"1.13463E+14","fan post count":0,"id":"a637zzwel3ti","geo_precision":"unmatched","state":"TX","page name":"Sonic Drive In","likes":null},"type":"Feature","geometry":null},{"properties":{"city":"Wichita Falls","category":"Local business","response rate":"#DIV/0!","geo_score":0.0,"owner responses":0,"page id":"1.11603E+14","fan post count":0,"id":"a637zzyhv68t","geo_precision":"unmatched","state":"TX","page name":"Sonic Drive In","likes":null},"type":"Feature","geometry":{"type":"Point","coordinates":[-98.514881618548,33.8970456417955]}},{"properties":{"city":"Kingston","category":"Local business","response rate":"#DIV/0!","geo_score":0.0,"owner responses":0,"page id":"1.13699E+14","fan post count":0,"id":"a637zzssorqg","geo_precision":"unmatched","state":"PA","page name":"Sonic Drive In","likes":null},"type":"Feature","geometry":{"type":"Point","coordinates":[-74.0040910587403,41.9288726473062]}},{"properties":{"city":"Sayre","category":"Local business","response rate":"#DIV/0!","geo_score":0.0,"owner responses":0,"page id":"1.13608E+14","fan post count":0,"id":"a638000l9ah1","geo_precision":"unmatched","state":"OK","page name":"Sonic Drive In","likes":null},"type":"Feature","geometry":null},{"properties":{"city":"Pineville","category":"Local business","response rate":"#DIV/0!","geo_score":0.0,"owner responses":0,"page id":"1.20729E+14","fan post count":0,"id":"a637zztxkzwu","geo_precision":"unmatched","state":"LA","page name":"Sonic Drive In","likes":null},"type":"Feature","geometry":{"type":"Point","coordinates":[-92.4124816031406,31.338781631196]}},{"properties":{"city":"Crest Hill","category":"Local business","response rate":"#DIV/0!","geo_score":0.889,"owner responses":0,"page id":"1.20712E+14","fan post count":0,"id":"a637zzw35x4h","geo_precision":"zip","state":"IL","page name":"Sonic Drive In","likes":null},"type":"Feature","geometry":{"type":"Point","coordinates":[-88.1084910759334,41.5645271689707]}},{"properties":{"city":"West Plains","category":"Local business","response rate":"#DIV/0!","geo_score":0.0,"owner responses":0,"page id":"1.13548E+14","fan post count":0,"id":"a637zzrnamnn","geo_precision":"unmatched","state":"MO","page name":"Sonic Drive In","likes":null},"type":"Feature","geometry":{"type":"Point","coordinates":[-91.864991081321,36.7373541649375]}},{"properties":{"city":"North Fort Myers","category":"Local business","response rate":"#DIV/0!","geo_score":0.0,"owner responses":0,"page id":"1.00881E+14","fan post count":0,"id":"a637zzua60yj","geo_precision":"unmatched","state":"FL","page name":"Sonic Drive In","likes":null},"type":"Feature","geometry":{"type":"Point","coordinates":[-81.8843635969918,26.7029181546365]}},{"properties":{"city":"Saint Martinville","category":"Local business","response rate":"#DIV/0!","geo_score":0.884,"owner responses":0,"page id":"1.17949E+14","fan post count":0,"id":"a637zzra3aub","geo_precision":"zip","state":"LA","page name":"Sonic Drive In","likes":null},"type":"Feature","geometry":null},{"properties":{"city":"Saint Marys","category":"Local business","response rate":"#DIV/0!","geo_score":0.857,"owner responses":0,"page id":"1.17463E+14","fan post count":0,"id":"a637zzvqo05d","geo_precision":"zip","state":"GA","page name":"Sonic Drive In","likes":null},"type":"Feature","geometry":null},{"properties":{"city":"Fort Pierce","category":"Local business","response rate":"#DIV/0!","geo_score":0.0,"owner responses":0,"page id":"1.18232E+14","fan post count":0,"id":"a637zzuyjmn4","geo_precision":"unmatched","state":"FL","page name":"Sonic Drive In","likes":null},"type":"Feature","geometry":{"type":"Point","coordinates":[-80.3354726015643,27.4388181291311]}},{"properties":{"city":"Quitman","category":"Local business","response rate":"#DIV/0!","geo_score":0.0,"owner responses":0,"page id":"1.15956E+14","fan post count":0,"id":"a637zzu81hc0","geo_precision":"unmatched","state":"AR","page name":"Sonic Drive In","likes":null},"type":"Feature","geometry":null},{"properties":{"city":"London","category":"Local business","response rate":"#DIV/0!","geo_score":0.0,"owner responses":0,"page id":"1.04926E+14","fan post count":0,"id":"a637zztc18af","geo_precision":"unmatched","state":"KY","page name":"Sonic Drive In","likes":null},"type":"Feature","geometry":null},{"properties":{"city":"Hereford","category":"Local business","response rate":"#DIV/0!","geo_score":0.0,"owner responses":0,"page id":"1.15389E+14","fan post count":0,"id":"a6380029g7oy","geo_precision":"unmatched","state":"TX","page name":"Sonic Drive In","likes":null},"type":"Feature","geometry":{"type":"Point","coordinates":[-102.398618097331,34.8219631572215]}},{"properties":{"city":"Carrollton","category":"Local business","response rate":"#DIV/0!","geo_score":0.0,"owner responses":0,"page id":"1.15543E+14","fan post count":0,"id":"a637zzu0rv9w","geo_precision":"unmatched","state":"TX","page name":"Sonic Drive In","likes":null},"type":"Feature","geometry":{"type":"Point","coordinates":[-85.0767001064638,33.5809091406904]}},{"properties":{"city":"Yukon","category":"Local business","response rate":"#DIV/0!","geo_score":0.0,"owner responses":0,"page id":"1.13344E+14","fan post count":0,"id":"a6380023rzk3","geo_precision":"unmatched","state":"OK","page name":"Sonic Drive In","likes":null},"type":"Feature","geometry":{"type":"Point","coordinates":[-97.7491180917599,35.5022541516593]}},{"properties":{"city":"Lincolnton","category":"Local business","response rate":"#DIV/0!","geo_score":0.0,"owner responses":0,"page id":"1.2058E+14","fan post count":0,"id":"a637zzrai0z8","geo_precision":"unmatched","state":"NC","page name":"Sonic Drive In","likes":null},"type":"Feature","geometry":null},{"properties":{"city":"DeRidder","category":"Local business","response rate":"#DIV/0!","geo_score":0.0,"owner responses":0,"page id":"1.1622E+14","fan post count":0,"id":"a637zzxyqdat","geo_precision":"unmatched","state":"LA","page name":"Sonic Drive In","likes":null},"type":"Feature","geometry":null},{"properties":{"city":"Jackson","category":"Local business","response rate":"#DIV/0!","geo_score":0.0,"owner responses":0,"page id":"1.19944E+14","fan post count":0,"id":"a637zzncuu7l","geo_precision":"unmatched","state":"TN","page name":"Sonic Drive In","likes":null},"type":"Feature","geometry":{"type":"Point","coordinates":[-89.6581180796074,37.3799456439383]}},{"properties":{"city":"Weatherford","category":"Local business","response rate":"#DIV/0!","geo_score":0.0,"owner responses":0,"page id":"1.20042E+14","fan post count":0,"id":"a638001t9jzc","geo_precision":"unmatched","state":"OK","page name":"Sonic Drive In","likes":null},"type":"Feature","geometry":{"type":"Point","coordinates":[-97.7850000860126,32.7592361696454]}}],"is_temporal":false,"author":{"url":"","metadata":"","contact_name":"","contact_address":"","source":"","contact_phone":""},"source":"","pagination":{"sort":null,"start":0,"total":521,"limit":1000000},"state":"complete","tags":"","published":"2014-08-12T22:43:19-04:00","id":141170}