{"type":"FeatureCollection","data_type":"Dataset","url_type":null,"permissions":[{"permissions":{"download":true,"view":true},"group_id":"everyone"}],"classification":null,"title":"Parking enforcement - Vancouver Sun","count":67,"stream_id":14210,"contributor":{"url":"http://geocommons.com/users/695","name":"Bill"},"data_attributes":null,"calculation_params":null,"icon_link":null,"link":"http://geocommons.com/overlays/14210.json","extent":[-123.169,49.2333,-123.034,49.291],"geometry_types":["point"],"unique_name":null,"name":"Parking enforcement - Vancouver Sun","feature_count":67,"description":"This data set shows the locations and total parking tickets for downtown Vancouver.","next_feature":null,"is_raster":false,"short_classification":"Y","stats":{"offence":{"max":171.0,"mean":171.0,"variance":0.0,"stdev":0.0,"min":171.0,"median":171.0},"tickets":{"max":7397.0,"mean":1803.89552238806,"variance":1208179.85255541,"stdev":1099.17234888593,"min":1000.0,"median":1499.0},"lat":{"max":49.290981,"mean":49.2752272089552,"variance":0.00012321899762235,"stdev":0.0111004052909049,"min":49.233284,"median":49.279922},"long":{"max":-123.034241,"mean":-123.121341447761,"variance":0.000452494962826769,"stdev":0.0212719289869718,"min":-123.169189,"median":-123.123848}},"features":[{"properties":{"offence":171.0,"tickets":1000.0,"id":"a64l7xu070o6","lat":49.28368,"address":"750 Burrard St.","long":-123.122185},"type":"Feature","geometry":{"type":"Point","coordinates":[-123.122185,49.28368]}},{"properties":{"offence":171.0,"tickets":1009.0,"id":"a64l7y22yrt3","lat":49.263695,"address":"1650 Broadway St. E.","long":-123.142235},"type":"Feature","geometry":{"type":"Point","coordinates":[-123.142235,49.263695]}},{"properties":{"offence":171.0,"tickets":1013.0,"id":"a64l7xt1867v","lat":49.263367,"address":"1050 Broadway St. W.","long":-123.127747},"type":"Feature","geometry":{"type":"Point","coordinates":[-123.127747,49.263367]}},{"properties":{"offence":171.0,"tickets":1019.0,"id":"a64l7xwsbxx0","lat":49.283096,"address":"350 Hastings St. W.","long":-123.110458},"type":"Feature","geometry":{"type":"Point","coordinates":[-123.110458,49.283096]}},{"properties":{"offence":171.0,"tickets":1046.0,"id":"a64l7y3lna7o","lat":49.279587,"address":"1150 Burrard St.","long":-123.128418},"type":"Feature","geometry":{"type":"Point","coordinates":[-123.128418,49.279587]}},{"properties":{"offence":171.0,"tickets":1047.0,"id":"a64l7xq8ueuw","lat":49.262691,"address":"2550 Yukon St.","long":-123.1129},"type":"Feature","geometry":{"type":"Point","coordinates":[-123.1129,49.262691]}},{"properties":{"offence":171.0,"tickets":1051.0,"id":"a64l7xol8cn9","lat":49.283806,"address":"350 Cordova St. W.","long":-123.109558},"type":"Feature","geometry":{"type":"Point","coordinates":[-123.109558,49.283806]}},{"properties":{"offence":171.0,"tickets":1060.0,"id":"a64l7y02qrd1","lat":49.27681,"address":"1050 Homer St.","long":-123.120895},"type":"Feature","geometry":{"type":"Point","coordinates":[-123.120895,49.27681]}},{"properties":{"offence":171.0,"tickets":1067.0,"id":"a64l7y05h2ar","lat":49.258457,"address":"3050 Granville St.","long":-123.138733},"type":"Feature","geometry":{"type":"Point","coordinates":[-123.138733,49.258457]}},{"properties":{"offence":171.0,"tickets":1069.0,"id":"a64l7y0v2kv1","lat":49.263569,"address":"1450 Broadway St. W.","long":-123.13723},"type":"Feature","geometry":{"type":"Point","coordinates":[-123.13723,49.263569]}},{"properties":{"offence":171.0,"tickets":1070.0,"id":"a64l7xolxfog","lat":49.273487,"address":"1250 Commercial Dr.","long":-123.069572},"type":"Feature","geometry":{"type":"Point","coordinates":[-123.069572,49.273487]}},{"properties":{"offence":171.0,"tickets":1082.0,"id":"a64l7xnmgmq0","lat":49.280373,"address":"550 Abbott St.","long":-123.107605},"type":"Feature","geometry":{"type":"Point","coordinates":[-123.107605,49.280373]}},{"properties":{"offence":171.0,"tickets":1088.0,"id":"a64l7y264w89","lat":49.286495,"address":"1250 Robson St.","long":-123.127762},"type":"Feature","geometry":{"type":"Point","coordinates":[-123.127762,49.286495]}},{"properties":{"offence":171.0,"tickets":1119.0,"id":"a64l7y1vpoae","lat":49.2603,"address":"2850 Granville St.","long":-123.138718},"type":"Feature","geometry":{"type":"Point","coordinates":[-123.138718,49.2603]}},{"properties":{"offence":171.0,"tickets":1128.0,"id":"a64l7xy9s9xe","lat":49.279987,"address":"1050 Hornby St.","long":-123.125801},"type":"Feature","geometry":{"type":"Point","coordinates":[-123.125801,49.279987]}},{"properties":{"offence":171.0,"tickets":1146.0,"id":"a64l7xv09hv0","lat":49.279587,"address":"750 Nelson St.","long":-123.12355},"type":"Feature","geometry":{"type":"Point","coordinates":[-123.12355,49.279587]}},{"properties":{"offence":171.0,"tickets":1157.0,"id":"a64l7xzdnen1","lat":49.275303,"address":"1050 Commercial Dr.","long":-123.069534},"type":"Feature","geometry":{"type":"Point","coordinates":[-123.069534,49.275303]}},{"properties":{"offence":171.0,"tickets":1176.0,"id":"a64l7xwbdl9z","lat":49.286442,"address":"1150 Georgia St. W.","long":-123.124252},"type":"Feature","geometry":{"type":"Point","coordinates":[-123.124252,49.286442]}},{"properties":{"offence":171.0,"tickets":1188.0,"id":"a64l7xo1xi8j","lat":49.263504,"address":"1250 Broadway St. W.","long":-123.132553},"type":"Feature","geometry":{"type":"Point","coordinates":[-123.132553,49.263504]}},{"properties":{"offence":171.0,"tickets":1215.0,"id":"a64l7y39huwf","lat":49.285744,"address":"1650 Davie St.","long":-123.139465},"type":"Feature","geometry":{"type":"Point","coordinates":[-123.139465,49.285744]}},{"properties":{"offence":171.0,"tickets":1274.0,"id":"a64l7xqdqf1t","lat":49.285641,"address":"550 Burrard St.","long":-123.119324},"type":"Feature","geometry":{"type":"Point","coordinates":[-123.119324,49.285641]}},{"properties":{"offence":171.0,"tickets":1277.0,"id":"a64l7xz1275y","lat":49.283272,"address":"1350 Davie St.","long":-123.135628},"type":"Feature","geometry":{"type":"Point","coordinates":[-123.135628,49.283272]}},{"properties":{"offence":171.0,"tickets":1291.0,"id":"a64l7y1mo7gk","lat":49.262657,"address":"1550 10th Ave W.","long":-123.139847},"type":"Feature","geometry":{"type":"Point","coordinates":[-123.139847,49.262657]}},{"properties":{"offence":171.0,"tickets":1291.0,"id":"a64l7y2g9o32","lat":49.282097,"address":"850 Hornby St.","long":-123.122581},"type":"Feature","geometry":{"type":"Point","coordinates":[-123.122581,49.282097]}},{"properties":{"offence":171.0,"tickets":1296.0,"id":"a64l7y22sf35","lat":49.263721,"address":"1850 Broadway St. W.","long":-123.146973},"type":"Feature","geometry":{"type":"Point","coordinates":[-123.146973,49.263721]}},{"properties":{"offence":171.0,"tickets":1324.0,"id":"a64l7xxb2bb6","lat":49.287491,"address":"650 Bute St.","long":-123.124771},"type":"Feature","geometry":{"type":"Point","coordinates":[-123.124771,49.287491]}},{"properties":{"offence":171.0,"tickets":1330.0,"id":"a64l7xsj7j3l","lat":49.286064,"address":"1150 Alberni St.","long":-123.124832},"type":"Feature","geometry":{"type":"Point","coordinates":[-123.124832,49.286064]}},{"properties":{"offence":171.0,"tickets":1342.0,"id":"a64l7xpb1sx2","lat":49.290981,"address":"1750 Robson St.","long":-123.134697},"type":"Feature","geometry":{"type":"Point","coordinates":[-123.134697,49.290981]}},{"properties":{"offence":171.0,"tickets":1350.0,"id":"a64l7xy6fen6","lat":49.274399,"address":"1150 Commercial Dr.","long":-123.06955},"type":"Feature","geometry":{"type":"Point","coordinates":[-123.06955,49.274399]}},{"properties":{"offence":171.0,"tickets":1366.0,"id":"a64l7xuegky6","lat":49.26347,"address":"1150 Broadway St. W.","long":-123.130188},"type":"Feature","geometry":{"type":"Point","coordinates":[-123.130188,49.26347]}},{"properties":{"offence":171.0,"tickets":1381.0,"id":"a64l7xs3u6l3","lat":49.271057,"address":"650 Terminal Ave.","long":-123.09021},"type":"Feature","geometry":{"type":"Point","coordinates":[-123.09021,49.271057]}},{"properties":{"offence":171.0,"tickets":1397.0,"id":"a64l7xnwx12v","lat":49.272579,"address":"1350 Commercial Dr.","long":-123.069595},"type":"Feature","geometry":{"type":"Point","coordinates":[-123.069595,49.272579]}},{"properties":{"offence":171.0,"tickets":1408.0,"id":"a64l7xzatqxe","lat":49.282318,"address":"1250 Davie St.","long":-123.134148},"type":"Feature","geometry":{"type":"Point","coordinates":[-123.134148,49.282318]}},{"properties":{"offence":171.0,"tickets":1499.0,"id":"a64l7xpf48ze","lat":49.279922,"address":"550 Main St.","long":-123.099716},"type":"Feature","geometry":{"type":"Point","coordinates":[-123.099716,49.279922]}},{"properties":{"offence":171.0,"tickets":1548.0,"id":"a64l7xyuk4w6","lat":49.282394,"address":"650 Seymour St.","long":-123.116287},"type":"Feature","geometry":{"type":"Point","coordinates":[-123.116287,49.282394]}},{"properties":{"offence":171.0,"tickets":1551.0,"id":"a64l7xv97ukr","lat":49.283184,"address":"750 Hornby St.","long":-123.120949},"type":"Feature","geometry":{"type":"Point","coordinates":[-123.120949,49.283184]}},{"properties":{"offence":171.0,"tickets":1562.0,"id":"a64l7y3s8fio","lat":49.283531,"address":"550 Seymour St.","long":-123.114571},"type":"Feature","geometry":{"type":"Point","coordinates":[-123.114571,49.283531]}},{"properties":{"offence":171.0,"tickets":1587.0,"id":"a64l7y3uey2p","lat":49.282742,"address":"850 Burrard St.","long":-123.123627},"type":"Feature","geometry":{"type":"Point","coordinates":[-123.123627,49.282742]}},{"properties":{"offence":171.0,"tickets":1597.0,"id":"a64l7xo0e6qy","lat":49.263695,"address":"1650 Broadway St. W.","long":-123.142235},"type":"Feature","geometry":{"type":"Point","coordinates":[-123.142235,49.263695]}},{"properties":{"offence":171.0,"tickets":1605.0,"id":"a64l7y2qec0b","lat":49.287937,"address":"1150 Pender St. W.","long":-123.121941},"type":"Feature","geometry":{"type":"Point","coordinates":[-123.121941,49.287937]}},{"properties":{"offence":171.0,"tickets":1608.0,"id":"a64l7xu69qeu","lat":49.233284,"address":"3350 Kingsway","long":-123.034241},"type":"Feature","geometry":{"type":"Point","coordinates":[-123.034241,49.233284]}},{"properties":{"offence":171.0,"tickets":1616.0,"id":"a64l7xu5tdh1","lat":49.284393,"address":"450 Cordova St. W.","long":-123.110443},"type":"Feature","geometry":{"type":"Point","coordinates":[-123.110443,49.284393]}},{"properties":{"offence":171.0,"tickets":1646.0,"id":"a64l7xxco8mz","lat":49.264095,"address":"2850 Broadway St. W.","long":-123.169189},"type":"Feature","geometry":{"type":"Point","coordinates":[-123.169189,49.264095]}},{"properties":{"offence":171.0,"tickets":1677.0,"id":"a64l7xvnhqa8","lat":49.263306,"address":"750 Broadway St. W.","long":-123.120872},"type":"Feature","geometry":{"type":"Point","coordinates":[-123.120872,49.263306]}},{"properties":{"offence":171.0,"tickets":1679.0,"id":"a64l7xwq24my","lat":49.287468,"address":"1350 Robson St.","long":-123.129257},"type":"Feature","geometry":{"type":"Point","coordinates":[-123.129257,49.287468]}},{"properties":{"offence":171.0,"tickets":1757.0,"id":"a64l7y1c340k","lat":49.263794,"address":"1950 Broadway St. W.","long":-123.149368},"type":"Feature","geometry":{"type":"Point","coordinates":[-123.149368,49.263794]}},{"properties":{"offence":171.0,"tickets":1770.0,"id":"a64l7xorkg4y","lat":49.287041,"address":"1050 Pender St. W.","long":-123.119003},"type":"Feature","geometry":{"type":"Point","coordinates":[-123.119003,49.287041]}},{"properties":{"offence":171.0,"tickets":1791.0,"id":"a64l7xof5xyb","lat":49.263603,"address":"1550 Broadway St. W.","long":-123.139824},"type":"Feature","geometry":{"type":"Point","coordinates":[-123.139824,49.263603]}},{"properties":{"offence":171.0,"tickets":1853.0,"id":"a64l7y38a9wl","lat":49.280411,"address":"150 Pender St. E.","long":-123.10096},"type":"Feature","geometry":{"type":"Point","coordinates":[-123.10096,49.280411]}},{"properties":{"offence":171.0,"tickets":1931.0,"id":"a64l7y2n3vt3","lat":49.262165,"address":"2650 Granville St.","long":-123.13858},"type":"Feature","geometry":{"type":"Point","coordinates":[-123.13858,49.262165]}},{"properties":{"offence":171.0,"tickets":1995.0,"id":"a64l7xo57xay","lat":49.280437,"address":"950 Howe St.","long":-123.123253},"type":"Feature","geometry":{"type":"Point","coordinates":[-123.123253,49.280437]}},{"properties":{"offence":171.0,"tickets":2073.0,"id":"a64l7xxffoie","lat":49.275574,"address":"450 Davie St.","long":-123.123772},"type":"Feature","geometry":{"type":"Point","coordinates":[-123.123772,49.275574]}},{"properties":{"offence":171.0,"tickets":2246.0,"id":"a64l7xw948nt","lat":49.263084,"address":"150 Broadway St. W.","long":-123.108185},"type":"Feature","geometry":{"type":"Point","coordinates":[-123.108185,49.263084]}},{"properties":{"offence":171.0,"tickets":2248.0,"id":"a64l7y3to6ro","lat":49.285007,"address":"750 Thurlow St.","long":-123.124222},"type":"Feature","geometry":{"type":"Point","coordinates":[-123.124222,49.285007]}},{"properties":{"offence":171.0,"tickets":2480.0,"id":"a64l7y2c7zhr","lat":49.286396,"address":"750 Bute St.","long":-123.126396},"type":"Feature","geometry":{"type":"Point","coordinates":[-123.126396,49.286396]}},{"properties":{"offence":171.0,"tickets":2491.0,"id":"a64l7xpbelsr","lat":49.263325,"address":"950 Broadway St. W.","long":-123.12542},"type":"Feature","geometry":{"type":"Point","coordinates":[-123.12542,49.263325]}},{"properties":{"offence":171.0,"tickets":2592.0,"id":"a64l7xpaci1h","lat":49.263271,"address":"650 Broadway St. W.","long":-123.118729},"type":"Feature","geometry":{"type":"Point","coordinates":[-123.118729,49.263271]}},{"properties":{"offence":171.0,"tickets":2613.0,"id":"a64l7xynx2hi","lat":49.284691,"address":"1050 Alberni St.","long":-123.122704},"type":"Feature","geometry":{"type":"Point","coordinates":[-123.122704,49.284691]}},{"properties":{"offence":171.0,"tickets":2626.0,"id":"a64l7y3dfu0i","lat":49.279743,"address":"1050 Davie St.","long":-123.130219},"type":"Feature","geometry":{"type":"Point","coordinates":[-123.130219,49.279743]}},{"properties":{"offence":171.0,"tickets":2743.0,"id":"a64l7y21hwx5","lat":49.263336,"address":"850 Broadway St. W.","long":-123.123032},"type":"Feature","geometry":{"type":"Point","coordinates":[-123.123032,49.263336]}},{"properties":{"offence":171.0,"tickets":2756.0,"id":"a64l7xo8zx5k","lat":49.26355,"address":"1350 Broadway St. W.","long":-123.134888},"type":"Feature","geometry":{"type":"Point","coordinates":[-123.134888,49.26355]}},{"properties":{"offence":171.0,"tickets":3063.0,"id":"a64l7xrj0wpp","lat":49.281109,"address":"1150 Davie St.","long":-123.132301},"type":"Feature","geometry":{"type":"Point","coordinates":[-123.132301,49.281109]}},{"properties":{"offence":171.0,"tickets":3190.0,"id":"a64l7xt6lsgm","lat":49.263737,"address":"1750 Broadway St. W.","long":-123.144539},"type":"Feature","geometry":{"type":"Point","coordinates":[-123.144539,49.263737]}},{"properties":{"offence":171.0,"tickets":3264.0,"id":"a64l7xsyfuue","lat":49.287525,"address":"1050 Hastings St. W.","long":-123.118217},"type":"Feature","geometry":{"type":"Point","coordinates":[-123.118217,49.287525]}},{"properties":{"offence":171.0,"tickets":3269.0,"id":"a64l7xwp788s","lat":49.28149,"address":"850 Howe St.","long":-123.121651},"type":"Feature","geometry":{"type":"Point","coordinates":[-123.121651,49.28149]}},{"properties":{"offence":171.0,"tickets":6461.0,"id":"a64l7xv07vyj","lat":49.285301,"address":"1150 Robson St.","long":-123.125923},"type":"Feature","geometry":{"type":"Point","coordinates":[-123.125923,49.285301]}},{"properties":{"offence":171.0,"tickets":7397.0,"id":"a64l7xw5asl9","lat":49.283955,"address":"1050 Robson St.","long":-123.123848},"type":"Feature","geometry":{"type":"Point","coordinates":[-123.123848,49.283955]}}],"is_temporal":false,"author":{"url":"","metadata":"","contact_name":"","contact_address":"","source":"","contact_phone":""},"source":"","pagination":{"sort":null,"start":0,"total":67,"limit":1000000},"state":"complete","tags":"law,parking,transportation","published":"2009-07-08T17:39:43Z","id":14210}