{"type":"FeatureCollection","data_type":"Dataset","url_type":null,"permissions":[{"permissions":{"download":true,"view":true},"group_id":"everyone"}],"classification":null,"title":"New York Cities Stack Air Emissions, TRIS 2007 EPA","count":287,"stream_id":14227,"contributor":{"url":"http://geocommons.com/users/2943","name":"Margot"},"data_attributes":null,"calculation_params":null,"icon_link":null,"link":"http://geocommons.com/overlays/14227.json","extent":[-79.5772,0.0,0.0,44.9902],"geometry_types":["point"],"unique_name":null,"name":"New York Cities Stack Air Emissions, TRIS 2007 EPA","feature_count":287,"description":"File Type 1: Facility, Chemical, Releases and Other Waste Management Summary Information\nThe file &quot;Type 1&quot; contains the bulk of the data that can be found on a Form R. It is the most used and requested file of the State Data Files. It contains information about Facilities, Chemicals, On-site Releases, POTW quantities, Off-site Transfer and Disposal quantities, On-site Energy Recovery Processes, On-site Recycling Processes and Source Reduction and Recycling Activities for all states in RY2007. Each record in this file represents data from a single chemical report (Form R or Form A Certification Statement) submitted by a facility. For example, this file will contain records for all chemicals that were reported to TRI from all facilities located in a specific reporting year.\nUploaded into Geocommons as a csv from pivot table. Data was pivoted to show total stack air emissions by city in New York. \n","next_feature":null,"is_raster":false,"short_classification":"Y","stats":{"latitude":{"max":44.99021,"mean":42.1047978397213,"variance":10.4184679934604,"stdev":3.22776517012318,"min":0.0,"median":42.65078},"longitude":{"max":0.0,"mean":-75.0117161324042,"variance":32.9582071102126,"stdev":5.74092388995122,"min":-79.57723,"median":-75.3269},"sumstackairemissions":{"max":3043718.3319,"mean":51753.1327707317,"variance":55381732698.4325,"stdev":235333.237555668,"min":0.0,"median":542.02}},"features":[{"properties":{"city":"ADAMS","latitude":43.81325,"longitude":-76.03217,"id":"a674wgsjcrt7","sumstackairemissions":0.0},"type":"Feature","geometry":{"type":"Point","coordinates":[-76.03217,43.81325]}},{"properties":{"city":"AKRON","latitude":43.02832,"longitude":-78.4986,"id":"a674wgylsqxt","sumstackairemissions":37534.32},"type":"Feature","geometry":{"type":"Point","coordinates":[-78.4986,43.02832]}},{"properties":{"city":"ALBANY","latitude":42.65078,"longitude":-73.75186,"id":"a674wh1gnreo","sumstackairemissions":2131.93},"type":"Feature","geometry":{"type":"Point","coordinates":[-73.75186,42.65078]}},{"properties":{"city":"ALBION","latitude":43.22833,"longitude":-78.19389,"id":"a674wgrn0usm","sumstackairemissions":0.0},"type":"Feature","geometry":{"type":"Point","coordinates":[-78.19389,43.22833]}},{"properties":{"city":"ALEXANDER","latitude":42.89951,"longitude":-78.24789,"id":"a674wgpeskhr","sumstackairemissions":0.0},"type":"Feature","geometry":{"type":"Point","coordinates":[-78.24789,42.89951]}},{"properties":{"city":"AMHERST","latitude":43.02989,"longitude":-78.81019,"id":"a674wh239i0e","sumstackairemissions":67150.0},"type":"Feature","geometry":{"type":"Point","coordinates":[-78.81019,43.02989]}},{"properties":{"city":"AMITYVILLE","latitude":40.71251,"longitude":-73.39581,"id":"a674wglvytxw","sumstackairemissions":10.0},"type":"Feature","geometry":{"type":"Point","coordinates":[-73.39581,40.71251]}},{"properties":{"city":"AMSTERDAM","latitude":42.97167,"longitude":-74.17983,"id":"a674wh1hs9bi","sumstackairemissions":3855.0},"type":"Feature","geometry":{"type":"Point","coordinates":[-74.17983,42.97167]}},{"properties":{"city":"ANCRAM","latitude":42.04792,"longitude":-73.63658,"id":"a674wgske4jk","sumstackairemissions":0.034},"type":"Feature","geometry":{"type":"Point","coordinates":[-73.63658,42.04792]}},{"properties":{"city":"ANGOLA","latitude":42.65247,"longitude":-79.01142,"id":"a674wgsp8w1r","sumstackairemissions":0.0},"type":"Feature","geometry":{"type":"Point","coordinates":[-79.01142,42.65247]}},{"properties":{"city":"ARCADE","latitude":42.53746,"longitude":-78.42085,"id":"a674wgne4j1z","sumstackairemissions":23474.4},"type":"Feature","geometry":{"type":"Point","coordinates":[-78.42085,42.53746]}},{"properties":{"city":"ARKPORT","latitude":42.39383,"longitude":-77.7005,"id":"a674wgotq2c7","sumstackairemissions":0.0},"type":"Feature","geometry":{"type":"Point","coordinates":[-77.7005,42.39383]}},{"properties":{"city":"ARMONK","latitude":41.11942,"longitude":-73.72311,"id":"a674wgm3w2nb","sumstackairemissions":0.0},"type":"Feature","geometry":{"type":"Point","coordinates":[-73.72311,41.11942]}},{"properties":{"city":"ASHVILLE","latitude":42.0803,"longitude":-79.36975,"id":"a674wgvvenq6","sumstackairemissions":0.0},"type":"Feature","geometry":{"type":"Point","coordinates":[-79.36975,42.0803]}},{"properties":{"city":"ASTORIA","latitude":40.78597,"longitude":-73.91106,"id":"a674wgwhczf8","sumstackairemissions":79296.9},"type":"Feature","geometry":{"type":"Point","coordinates":[-73.91106,40.78597]}},{"properties":{"city":"ATHENS","latitude":42.27805,"longitude":-73.82204,"id":"a674wgvbybqi","sumstackairemissions":0.0},"type":"Feature","geometry":{"type":"Point","coordinates":[-73.82204,42.27805]}},{"properties":{"city":"AUBURN","latitude":42.9408,"longitude":-76.58084,"id":"a674wgt0lxma","sumstackairemissions":3952.00261},"type":"Feature","geometry":{"type":"Point","coordinates":[-76.58084,42.9408]}},{"properties":{"city":"AVON","latitude":42.91492,"longitude":-77.70482,"id":"a674wgtw0up9","sumstackairemissions":20.0},"type":"Feature","geometry":{"type":"Point","coordinates":[-77.70482,42.91492]}},{"properties":{"city":"BALDWINSVILLE","latitude":43.16944,"longitude":-76.31111,"id":"a674wgzft1ci","sumstackairemissions":23472.001},"type":"Feature","geometry":{"type":"Point","coordinates":[-76.31111,43.16944]}},{"properties":{"city":"BARKER","latitude":43.353,"longitude":-78.59628,"id":"a674wgm8l6ac","sumstackairemissions":179506.17631},"type":"Feature","geometry":{"type":"Point","coordinates":[-78.59628,43.353]}},{"properties":{"city":"BATAVIA","latitude":42.98666,"longitude":-78.1934,"id":"a674wgzqu7ly","sumstackairemissions":0.0},"type":"Feature","geometry":{"type":"Point","coordinates":[-78.1934,42.98666]}},{"properties":{"city":"BATH","latitude":42.35332,"longitude":-77.30369,"id":"a674wh0h6o60","sumstackairemissions":0.0},"type":"Feature","geometry":{"type":"Point","coordinates":[-77.30369,42.35332]}},{"properties":{"city":"BAY SHORE","latitude":40.72483,"longitude":-73.25158,"id":"a674wgqx64sj","sumstackairemissions":0.0},"type":"Feature","geometry":{"type":"Point","coordinates":[-73.25158,40.72483]}},{"properties":{"city":"BEACON","latitude":41.51485,"longitude":-73.94799,"id":"a674wgnzx4ga","sumstackairemissions":13955.0},"type":"Feature","geometry":{"type":"Point","coordinates":[-73.94799,41.51485]}},{"properties":{"city":"BEAVER FALLS","latitude":43.88413,"longitude":-75.44566,"id":"a674wgsbhh7t","sumstackairemissions":0.0},"type":"Feature","geometry":{"type":"Point","coordinates":[-75.44566,43.88413]}},{"properties":{"city":"BERGEN","latitude":43.085,"longitude":-77.95055,"id":"a674wgryuf3k","sumstackairemissions":5.0},"type":"Feature","geometry":{"type":"Point","coordinates":[-77.95055,43.085]}},{"properties":{"city":"BIG FLATS","latitude":42.1281,"longitude":-76.95949,"id":"a674wgrlq0sp","sumstackairemissions":3485.0},"type":"Feature","geometry":{"type":"Point","coordinates":[-76.95949,42.1281]}},{"properties":{"city":"BINGHAMTON","latitude":42.11022,"longitude":-75.89367,"id":"a674wgmb4euy","sumstackairemissions":104.3},"type":"Feature","geometry":{"type":"Point","coordinates":[-75.89367,42.11022]}},{"properties":{"city":"BLASDELL","latitude":42.8047,"longitude":-78.84492,"id":"a674wgx58yzw","sumstackairemissions":73521.86},"type":"Feature","geometry":{"type":"Point","coordinates":[-78.84492,42.8047]}},{"properties":{"city":"BLAUVELT","latitude":41.0769,"longitude":-73.95205,"id":"a674wh12j2cn","sumstackairemissions":0.0},"type":"Feature","geometry":{"type":"Point","coordinates":[-73.95205,41.0769]}},{"properties":{"city":"BOHEMIA","latitude":40.78054,"longitude":-73.11131,"id":"a674wgnt2dqs","sumstackairemissions":0.0},"type":"Feature","geometry":{"type":"Point","coordinates":[-73.11131,40.78054]}},{"properties":{"city":"BOONVILLE","latitude":43.49684,"longitude":-75.3269,"id":"a674wgqcsnd7","sumstackairemissions":0.0},"type":"Feature","geometry":{"type":"Point","coordinates":[-75.3269,43.49684]}},{"properties":{"city":"BREWSTER","latitude":41.41417,"longitude":-73.58521,"id":"a674wgoy0aqa","sumstackairemissions":2592.015},"type":"Feature","geometry":{"type":"Point","coordinates":[-73.58521,41.41417]}},{"properties":{"city":"BRONX","latitude":40.85782,"longitude":-73.84718,"id":"a674wh1omdwx","sumstackairemissions":752.839},"type":"Feature","geometry":{"type":"Point","coordinates":[-73.84718,40.85782]}},{"properties":{"city":"BROOKLYN","latitude":40.69783,"longitude":-73.94919,"id":"a674wglz04wo","sumstackairemissions":20782.00443},"type":"Feature","geometry":{"type":"Point","coordinates":[-73.94919,40.69783]}},{"properties":{"city":"BROWNVILLE","latitude":44.00127,"longitude":-75.98207,"id":"a674wgug101n","sumstackairemissions":0.00569},"type":"Feature","geometry":{"type":"Point","coordinates":[-75.98207,44.00127]}},{"properties":{"city":"BUFFALO","latitude":42.89066,"longitude":-78.84019,"id":"a674wgt81qh9","sumstackairemissions":134761.45},"type":"Feature","geometry":{"type":"Point","coordinates":[-78.84019,42.89066]}},{"properties":{"city":"CALEDONIA","latitude":42.97653,"longitude":-77.84556,"id":"a674wh1aa2w3","sumstackairemissions":2.0},"type":"Feature","geometry":{"type":"Point","coordinates":[-77.84556,42.97653]}},{"properties":{"city":"CALVERTON","latitude":40.90466,"longitude":-72.81036,"id":"a674wgrqhfrm","sumstackairemissions":0.1},"type":"Feature","geometry":{"type":"Point","coordinates":[-72.81036,40.90466]}},{"properties":{"city":"CAMDEN","latitude":43.33277,"longitude":-75.74918,"id":"a674wgyoirh8","sumstackairemissions":0.0},"type":"Feature","geometry":{"type":"Point","coordinates":[-75.74918,43.33277]}},{"properties":{"city":"CAMPBELL","latitude":42.22809,"longitude":-77.18707,"id":"a674wgrec5or","sumstackairemissions":0.0},"type":"Feature","geometry":{"type":"Point","coordinates":[-77.18707,42.22809]}},{"properties":{"city":"CANAJOHARIE","latitude":42.9072,"longitude":-74.57154,"id":"a674wgr8ixjm","sumstackairemissions":0.0},"type":"Feature","geometry":{"type":"Point","coordinates":[-74.57154,42.9072]}},{"properties":{"city":"CANANDAIGUA","latitude":42.905,"longitude":-77.29833,"id":"a674wgx8ylmy","sumstackairemissions":0.0},"type":"Feature","geometry":{"type":"Point","coordinates":[-77.29833,42.905]}},{"properties":{"city":"CANASTOTA","latitude":43.07563,"longitude":-75.75505,"id":"a674wgvkcvls","sumstackairemissions":5024.0},"type":"Feature","geometry":{"type":"Point","coordinates":[-75.75505,43.07563]}},{"properties":{"city":"CANTON","latitude":44.5593,"longitude":-75.3162,"id":"a674wgyqy11m","sumstackairemissions":0.0},"type":"Feature","geometry":{"type":"Point","coordinates":[-75.3162,44.5593]}},{"properties":{"city":"CARTHAGE","latitude":43.97722,"longitude":-75.59805,"id":"a674wgzc8puq","sumstackairemissions":500.0},"type":"Feature","geometry":{"type":"Point","coordinates":[-75.59805,43.97722]}},{"properties":{"city":"CATSKILL","latitude":42.19056,"longitude":-73.90791,"id":"a674wgy4lh5w","sumstackairemissions":362114.033},"type":"Feature","geometry":{"type":"Point","coordinates":[-73.90791,42.19056]}},{"properties":{"city":"CAZENOVIA","latitude":42.92135,"longitude":-75.81115,"id":"a674wgyim2nz","sumstackairemissions":0.213},"type":"Feature","geometry":{"type":"Point","coordinates":[-75.81115,42.92135]}},{"properties":{"city":"CENTRAL ISLIP","latitude":40.7742,"longitude":-73.1968,"id":"a674wgy58xdm","sumstackairemissions":8404.0},"type":"Feature","geometry":{"type":"Point","coordinates":[-73.1968,40.7742]}},{"properties":{"city":"CHATEAUGAY","latitude":44.92354,"longitude":-74.07737,"id":"a674wh03pdjm","sumstackairemissions":5.0},"type":"Feature","geometry":{"type":"Point","coordinates":[-74.07737,44.92354]}},{"properties":{"city":"CHEEKTOWAGA","latitude":42.90129,"longitude":-78.75453,"id":"a674wh0n0xev","sumstackairemissions":33161.293},"type":"Feature","geometry":{"type":"Point","coordinates":[-78.75453,42.90129]}},{"properties":{"city":"CHEMUNG","latitude":42.00576,"longitude":-76.6203,"id":"a674wguwbv3c","sumstackairemissions":46784.0},"type":"Feature","geometry":{"type":"Point","coordinates":[-76.6203,42.00576]}},{"properties":{"city":"CHESTER","latitude":41.36217,"longitude":-74.27933,"id":"a674wgqim7kb","sumstackairemissions":0.0},"type":"Feature","geometry":{"type":"Point","coordinates":[-74.27933,41.36217]}},{"properties":{"city":"CHITTENANGO","latitude":43.0543,"longitude":-75.85773,"id":"a674wh0jufmj","sumstackairemissions":46.0},"type":"Feature","geometry":{"type":"Point","coordinates":[-75.85773,43.0543]}},{"properties":{"city":"CICERO","latitude":43.16894,"longitude":-76.08632,"id":"a674wgvh6bc9","sumstackairemissions":16.0},"type":"Feature","geometry":{"type":"Point","coordinates":[-76.08632,43.16894]}},{"properties":{"city":"CLAY","latitude":43.11862,"longitude":-76.19509,"id":"a674wgrcc7v6","sumstackairemissions":4810.0},"type":"Feature","geometry":{"type":"Point","coordinates":[-76.19509,43.11862]}},{"properties":{"city":"CLAYVILLE","latitude":42.97815,"longitude":-75.24921,"id":"a674wgxo73y7","sumstackairemissions":31.0},"type":"Feature","geometry":{"type":"Point","coordinates":[-75.24921,42.97815]}},{"properties":{"city":"CLIFTON SPRINGS","latitude":42.95843,"longitude":-77.13385,"id":"a674wgs9xrx4","sumstackairemissions":1002.8},"type":"Feature","geometry":{"type":"Point","coordinates":[-77.13385,42.95843]}},{"properties":{"city":"CLINTON","latitude":43.04778,"longitude":-75.37553,"id":"a674wgqy1jcj","sumstackairemissions":22.84},"type":"Feature","geometry":{"type":"Point","coordinates":[-75.37553,43.04778]}},{"properties":{"city":"CLOCKVILLE","latitude":43.03108,"longitude":-75.73448,"id":"a674wgm18fka","sumstackairemissions":22.312},"type":"Feature","geometry":{"type":"Point","coordinates":[-75.73448,43.03108]}},{"properties":{"city":"CLYDE","latitude":43.08389,"longitude":-76.87404,"id":"a674wgwpw9w7","sumstackairemissions":0.0},"type":"Feature","geometry":{"type":"Point","coordinates":[-76.87404,43.08389]}},{"properties":{"city":"COHOES","latitude":42.75561,"longitude":-73.70339,"id":"a674wgsfiqr9","sumstackairemissions":5393.90908},"type":"Feature","geometry":{"type":"Point","coordinates":[-73.70339,42.75561]}},{"properties":{"city":"COLLEGE POINT","latitude":40.78134,"longitude":-73.84052,"id":"a674wgpy3oxx","sumstackairemissions":0.0},"type":"Feature","geometry":{"type":"Point","coordinates":[-73.84052,40.78134]}},{"properties":{"city":"COMMACK","latitude":40.81527,"longitude":-73.27112,"id":"a674wgyycy83","sumstackairemissions":12540.0},"type":"Feature","geometry":{"type":"Point","coordinates":[-73.27112,40.81527]}},{"properties":{"city":"CONKLIN","latitude":42.07898,"longitude":-75.83657,"id":"a674wgsksip2","sumstackairemissions":0.0},"type":"Feature","geometry":{"type":"Point","coordinates":[-75.83657,42.07898]}},{"properties":{"city":"CORNING","latitude":42.14572,"longitude":-77.04443,"id":"a674wgymwpeh","sumstackairemissions":1678.4},"type":"Feature","geometry":{"type":"Point","coordinates":[-77.04443,42.14572]}},{"properties":{"city":"CORTLAND","latitude":42.60408,"longitude":-76.18166,"id":"a674wgr8ytbk","sumstackairemissions":449.202},"type":"Feature","geometry":{"type":"Point","coordinates":[-76.18166,42.60408]}},{"properties":{"city":"CORTLANDVILLE","latitude":42.58822,"longitude":-76.18551,"id":"a674wgy7qt0i","sumstackairemissions":35556.0},"type":"Feature","geometry":{"type":"Point","coordinates":[-76.18551,42.58822]}},{"properties":{"city":"CUBA","latitude":42.19778,"longitude":-78.275,"id":"a674wh1i9n6e","sumstackairemissions":0.0},"type":"Feature","geometry":{"type":"Point","coordinates":[-78.275,42.19778]}},{"properties":{"city":"DEER PARK","latitude":40.76192,"longitude":-73.30563,"id":"a674wgo3q333","sumstackairemissions":7523.0},"type":"Feature","geometry":{"type":"Point","coordinates":[-73.30563,40.76192]}},{"properties":{"city":"DEPEW","latitude":42.91621,"longitude":-78.71026,"id":"a674wgys94s2","sumstackairemissions":194140.0},"type":"Feature","geometry":{"type":"Point","coordinates":[-78.71026,42.91621]}},{"properties":{"city":"DEPOSIT","latitude":42.04922,"longitude":-75.41817,"id":"a674wgoy41qn","sumstackairemissions":31652.24},"type":"Feature","geometry":{"type":"Point","coordinates":[-75.41817,42.04922]}},{"properties":{"city":"DOLGEVILLE","latitude":43.09146,"longitude":-74.78379,"id":"a674wh19er4j","sumstackairemissions":0.0},"type":"Feature","geometry":{"type":"Point","coordinates":[-74.78379,43.09146]}},{"properties":{"city":"DRESDEN","latitude":42.67914,"longitude":-76.9486,"id":"a674wgx4evpg","sumstackairemissions":20.452},"type":"Feature","geometry":{"type":"Point","coordinates":[-76.9486,42.67914]}},{"properties":{"city":"DUNKIRK","latitude":42.48343,"longitude":-79.33303,"id":"a674wgv1hc60","sumstackairemissions":192477.85},"type":"Feature","geometry":{"type":"Point","coordinates":[-79.33303,42.48343]}},{"properties":{"city":"EAST AURORA","latitude":42.79391,"longitude":-78.6512,"id":"a674wgngcqx6","sumstackairemissions":1.4},"type":"Feature","geometry":{"type":"Point","coordinates":[-78.6512,42.79391]}},{"properties":{"city":"EAST BLOOMFIELD","latitude":42.89937,"longitude":-77.42464,"id":"a674wgu13ms0","sumstackairemissions":0.0},"type":"Feature","geometry":{"type":"Point","coordinates":[-77.42464,42.89937]}},{"properties":{"city":"EAST GREENBUSH","latitude":42.60872,"longitude":-73.75811,"id":"a674wgnng0vb","sumstackairemissions":0.5},"type":"Feature","geometry":{"type":"Point","coordinates":[-73.75811,42.60872]}},{"properties":{"city":"EAST SETAUKET","latitude":40.91633,"longitude":-73.09373,"id":"a674wgux2c9h","sumstackairemissions":2285.0},"type":"Feature","geometry":{"type":"Point","coordinates":[-73.09373,40.91633]}},{"properties":{"city":"EAST SYRACUSE","latitude":43.07487,"longitude":-76.07258,"id":"a674wgm4fo4v","sumstackairemissions":32449.46},"type":"Feature","geometry":{"type":"Point","coordinates":[-76.07258,43.07487]}},{"properties":{"city":"ELLENVILLE","latitude":41.72433,"longitude":-74.38403,"id":"a674wgutauxo","sumstackairemissions":27.0},"type":"Feature","geometry":{"type":"Point","coordinates":[-74.38403,41.72433]}},{"properties":{"city":"ELMA","latitude":42.80129,"longitude":-78.62478,"id":"a674wgx2yx3u","sumstackairemissions":0.0},"type":"Feature","geometry":{"type":"Point","coordinates":[-78.62478,42.80129]}},{"properties":{"city":"ELMIRA","latitude":42.09786,"longitude":-76.79467,"id":"a674wgvyyy5m","sumstackairemissions":2819.22},"type":"Feature","geometry":{"type":"Point","coordinates":[-76.79467,42.09786]}},{"properties":{"city":"ENDICOTT","latitude":42.10761,"longitude":-76.05013,"id":"a674wgubid64","sumstackairemissions":6818.1958},"type":"Feature","geometry":{"type":"Point","coordinates":[-76.05013,42.10761]}},{"properties":{"city":"FAIRPORT","latitude":43.10073,"longitude":-77.44487,"id":"a674wgzh8wpk","sumstackairemissions":526.14},"type":"Feature","geometry":{"type":"Point","coordinates":[-77.44487,43.10073]}},{"properties":{"city":"FALCONER","latitude":42.11813,"longitude":-79.1874,"id":"a674wgtq5ifm","sumstackairemissions":271.3},"type":"Feature","geometry":{"type":"Point","coordinates":[-79.1874,42.11813]}},{"properties":{"city":"FAR ROCKAWAY","latitude":40.60728,"longitude":-73.76123,"id":"a674wgogzip7","sumstackairemissions":8.88},"type":"Feature","geometry":{"type":"Point","coordinates":[-73.76123,40.60728]}},{"properties":{"city":"FARMINGDALE","latitude":40.73687,"longitude":-73.43407,"id":"a674wgm2elos","sumstackairemissions":563.0},"type":"Feature","geometry":{"type":"Point","coordinates":[-73.43407,40.73687]}},{"properties":{"city":"FEURA BUSH","latitude":42.58354,"longitude":-73.86754,"id":"a674wgrx9bc3","sumstackairemissions":214777.0},"type":"Feature","geometry":{"type":"Point","coordinates":[-73.86754,42.58354]}},{"properties":{"city":"FLUSHING","latitude":40.77463,"longitude":-73.8742,"id":"a674wgo5cm9c","sumstackairemissions":4895.0},"type":"Feature","geometry":{"type":"Point","coordinates":[-73.8742,40.77463]}},{"properties":{"city":"FONDA","latitude":42.95703,"longitude":-74.38953,"id":"a674wh11hjla","sumstackairemissions":43521.0},"type":"Feature","geometry":{"type":"Point","coordinates":[-74.38953,42.95703]}},{"properties":{"city":"FORT DRUM","latitude":44.04016,"longitude":-75.77471,"id":"a674wgp0h3ue","sumstackairemissions":1306.0},"type":"Feature","geometry":{"type":"Point","coordinates":[-75.77471,44.04016]}},{"properties":{"city":"FORT EDWARD","latitude":43.28711,"longitude":-73.59358,"id":"a674wgw57yvu","sumstackairemissions":6.38},"type":"Feature","geometry":{"type":"Point","coordinates":[-73.59358,43.28711]}},{"properties":{"city":"FRASER","latitude":42.24491,"longitude":-74.96371,"id":"a674wgqmhp0n","sumstackairemissions":126316.0},"type":"Feature","geometry":{"type":"Point","coordinates":[-74.96371,42.24491]}},{"properties":{"city":"FREEPORT","latitude":40.64672,"longitude":-73.56972,"id":"a674wgqvijar","sumstackairemissions":8911.0},"type":"Feature","geometry":{"type":"Point","coordinates":[-73.56972,40.64672]}},{"properties":{"city":"FREWSBURG","latitude":42.06836,"longitude":-79.15706,"id":"a674wgtfdjs1","sumstackairemissions":34375.0},"type":"Feature","geometry":{"type":"Point","coordinates":[-79.15706,42.06836]}},{"properties":{"city":"FRIENDSHIP","latitude":42.21211,"longitude":-78.11428,"id":"a674wgxw8a69","sumstackairemissions":5.0},"type":"Feature","geometry":{"type":"Point","coordinates":[-78.11428,42.21211]}},{"properties":{"city":"FULTON","latitude":43.34511,"longitude":-76.42678,"id":"a674wguhiwq9","sumstackairemissions":10659.0},"type":"Feature","geometry":{"type":"Point","coordinates":[-76.42678,43.34511]}},{"properties":{"city":"FULTONVILLE","latitude":42.89805,"longitude":-74.34195,"id":"a674wgvkkpcx","sumstackairemissions":0.2},"type":"Feature","geometry":{"type":"Point","coordinates":[-74.34195,42.89805]}},{"properties":{"city":"GENEVA","latitude":42.88379,"longitude":-76.97853,"id":"a674wgm93otb","sumstackairemissions":69.568},"type":"Feature","geometry":{"type":"Point","coordinates":[-76.97853,42.88379]}},{"properties":{"city":"GLENDALE","latitude":40.70837,"longitude":-73.87198,"id":"a674wgwa8cgq","sumstackairemissions":0.0},"type":"Feature","geometry":{"type":"Point","coordinates":[-73.87198,40.70837]}},{"properties":{"city":"GLENS FALLS","latitude":43.30869,"longitude":-73.63517,"id":"a674wgurcgaf","sumstackairemissions":158768.78608},"type":"Feature","geometry":{"type":"Point","coordinates":[-73.63517,43.30869]}},{"properties":{"city":"GLENWOOD LANDING","latitude":40.83072,"longitude":-73.64753,"id":"a674wgtdnwtr","sumstackairemissions":449.5},"type":"Feature","geometry":{"type":"Point","coordinates":[-73.64753,40.83072]}},{"properties":{"city":"GLOVERSVILLE","latitude":43.06019,"longitude":-74.33674,"id":"a674wgmw1jdx","sumstackairemissions":27687.0},"type":"Feature","geometry":{"type":"Point","coordinates":[-74.33674,43.06019]}},{"properties":{"city":"GOSHEN","latitude":41.39407,"longitude":-74.33895,"id":"a674wgqu379r","sumstackairemissions":0.0},"type":"Feature","geometry":{"type":"Point","coordinates":[-74.33895,41.39407]}},{"properties":{"city":"GOUVERNEUR","latitude":44.2861,"longitude":-75.42947,"id":"a674wgy2seo0","sumstackairemissions":27268.0},"type":"Feature","geometry":{"type":"Point","coordinates":[-75.42947,44.2861]}},{"properties":{"city":"GRAND ISLAND","latitude":43.05114,"longitude":-78.9925,"id":"a674wgysizam","sumstackairemissions":300.0},"type":"Feature","geometry":{"type":"Point","coordinates":[-78.9925,43.05114]}},{"properties":{"city":"GRANVILLE","latitude":43.39797,"longitude":-73.25556,"id":"a674wgpjl4nr","sumstackairemissions":470.146},"type":"Feature","geometry":{"type":"Point","coordinates":[-73.25556,43.39797]}},{"properties":{"city":"GREAT NECK","latitude":40.78135,"longitude":-73.73245,"id":"a674wgryx37l","sumstackairemissions":0.0},"type":"Feature","geometry":{"type":"Point","coordinates":[-73.73245,40.78135]}},{"properties":{"city":"GREEN ISLAND","latitude":42.74695,"longitude":-73.69369,"id":"a674wgtwm7j4","sumstackairemissions":10.0},"type":"Feature","geometry":{"type":"Point","coordinates":[-73.69369,42.74695]}},{"properties":{"city":"GREENE","latitude":42.32685,"longitude":-75.77477,"id":"a674wgnwcc47","sumstackairemissions":262.0},"type":"Feature","geometry":{"type":"Point","coordinates":[-75.77477,42.32685]}},{"properties":{"city":"GREENLAWN","latitude":40.86613,"longitude":-73.36873,"id":"a674wguqwnur","sumstackairemissions":0.0},"type":"Feature","geometry":{"type":"Point","coordinates":[-73.36873,40.86613]}},{"properties":{"city":"GREENWICH","latitude":43.10732,"longitude":-73.52579,"id":"a674wgsqywc9","sumstackairemissions":0.0},"type":"Feature","geometry":{"type":"Point","coordinates":[-73.52579,43.10732]}},{"properties":{"city":"HAGAMAN","latitude":42.97795,"longitude":-74.15111,"id":"a674wgnetwum","sumstackairemissions":0.0},"type":"Feature","geometry":{"type":"Point","coordinates":[-74.15111,42.97795]}},{"properties":{"city":"HAMBURG","latitude":14.26015,"longitude":-26.27904,"id":"a674wgrakzv8","sumstackairemissions":0.696},"type":"Feature","geometry":{"type":"Point","coordinates":[-26.27904,14.26015]}},{"properties":{"city":"HAUPPAUGE","latitude":40.81416,"longitude":-73.24465,"id":"a674wgq0711x","sumstackairemissions":57059.3},"type":"Feature","geometry":{"type":"Point","coordinates":[-73.24465,40.81416]}},{"properties":{"city":"HICKSVILLE","latitude":40.74645,"longitude":-73.5006,"id":"a674wgp2ys7h","sumstackairemissions":64411.5},"type":"Feature","geometry":{"type":"Point","coordinates":[-73.5006,40.74645]}},{"properties":{"city":"HOLTSVILLE","latitude":40.81427,"longitude":-73.04547,"id":"a674wgto214j","sumstackairemissions":14408.0},"type":"Feature","geometry":{"type":"Point","coordinates":[-73.04547,40.81427]}},{"properties":{"city":"HOMER","latitude":42.63768,"longitude":-76.18211,"id":"a674wgyjg01m","sumstackairemissions":0.0},"type":"Feature","geometry":{"type":"Point","coordinates":[-76.18211,42.63768]}},{"properties":{"city":"HONEOYE FALLS","latitude":42.9562,"longitude":-77.57355,"id":"a674wgwopetz","sumstackairemissions":0.0},"type":"Feature","geometry":{"type":"Point","coordinates":[-77.57355,42.9562]}},{"properties":{"city":"HOOSICK FALLS","latitude":42.90537,"longitude":-73.35592,"id":"a674wgpow9q7","sumstackairemissions":27943.0},"type":"Feature","geometry":{"type":"Point","coordinates":[-73.35592,42.90537]}},{"properties":{"city":"HOPEWELL JUNCTION","latitude":41.54028,"longitude":-73.82701,"id":"a674wgo8z84x","sumstackairemissions":35660.0},"type":"Feature","geometry":{"type":"Point","coordinates":[-73.82701,41.54028]}},{"properties":{"city":"HORNELL","latitude":42.33899,"longitude":-77.66652,"id":"a674wh114r8t","sumstackairemissions":0.0},"type":"Feature","geometry":{"type":"Point","coordinates":[-77.66652,42.33899]}},{"properties":{"city":"HORSEHEADS","latitude":42.16787,"longitude":-76.83179,"id":"a674wgvohbmg","sumstackairemissions":1500.0},"type":"Feature","geometry":{"type":"Point","coordinates":[-76.83179,42.16787]}},{"properties":{"city":"HUNTINGTON STATION","latitude":40.83915,"longitude":-73.42614,"id":"a674wgwstup6","sumstackairemissions":0.0008},"type":"Feature","geometry":{"type":"Point","coordinates":[-73.42614,40.83915]}},{"properties":{"city":"ILION","latitude":43.01364,"longitude":-75.03339,"id":"a674wgt8xdw6","sumstackairemissions":176.4},"type":"Feature","geometry":{"type":"Point","coordinates":[-75.03339,43.01364]}},{"properties":{"city":"INWOOD","latitude":40.62569,"longitude":-73.74569,"id":"a674wgut8ipu","sumstackairemissions":1123.5},"type":"Feature","geometry":{"type":"Point","coordinates":[-73.74569,40.62569]}},{"properties":{"city":"ISLAND PARK","latitude":40.61686,"longitude":-73.64803,"id":"a674wgz5ywwq","sumstackairemissions":10.1},"type":"Feature","geometry":{"type":"Point","coordinates":[-73.64803,40.61686]}},{"properties":{"city":"ITHACA","latitude":42.48718,"longitude":-76.47278,"id":"a674wgyj4sv1","sumstackairemissions":23.21},"type":"Feature","geometry":{"type":"Point","coordinates":[-76.47278,42.48718]}},{"properties":{"city":"JAMAICA","latitude":40.66034,"longitude":-73.78293,"id":"a674wgome01g","sumstackairemissions":8290.0},"type":"Feature","geometry":{"type":"Point","coordinates":[-73.78293,40.66034]}},{"properties":{"city":"JAMESTOWN","latitude":42.10385,"longitude":-79.23235,"id":"a674wgnvwdtt","sumstackairemissions":246731.679},"type":"Feature","geometry":{"type":"Point","coordinates":[-79.23235,42.10385]}},{"properties":{"city":"JAMESVILLE","latitude":43.00063,"longitude":-76.07223,"id":"a674wh135byk","sumstackairemissions":4.72},"type":"Feature","geometry":{"type":"Point","coordinates":[-76.07223,43.00063]}},{"properties":{"city":"JOHNSON CITY","latitude":42.11182,"longitude":-75.9742,"id":"a674wgvuj758","sumstackairemissions":667303.0},"type":"Feature","geometry":{"type":"Point","coordinates":[-75.9742,42.11182]}},{"properties":{"city":"JOHNSTOWN","latitude":43.00012,"longitude":-74.38216,"id":"a674wgmyzafn","sumstackairemissions":14094.0},"type":"Feature","geometry":{"type":"Point","coordinates":[-74.38216,43.00012]}},{"properties":{"city":"JORDAN","latitude":43.06754,"longitude":-76.4671,"id":"a674wguka5k8","sumstackairemissions":0.0},"type":"Feature","geometry":{"type":"Point","coordinates":[-76.4671,43.06754]}},{"properties":{"city":"KINGSTON","latitude":41.94539,"longitude":-74.01838,"id":"a674wh1o6y5i","sumstackairemissions":2.13},"type":"Feature","geometry":{"type":"Point","coordinates":[-74.01838,41.94539]}},{"properties":{"city":"KIRKWOOD","latitude":42.1036,"longitude":-75.831,"id":"a674wgrt6943","sumstackairemissions":0.0},"type":"Feature","geometry":{"type":"Point","coordinates":[-75.831,42.1036]}},{"properties":{"city":"LA FARGEVILLE","latitude":44.19617,"longitude":-75.95911,"id":"a674wgp0thph","sumstackairemissions":13500.0},"type":"Feature","geometry":{"type":"Point","coordinates":[-75.95911,44.19617]}},{"properties":{"city":"LACKAWANNA","latitude":42.81009,"longitude":-78.82396,"id":"a674wh1ub2io","sumstackairemissions":0.0},"type":"Feature","geometry":{"type":"Point","coordinates":[-78.82396,42.81009]}},{"properties":{"city":"LAKEWOOD","latitude":42.09083,"longitude":-79.35062,"id":"a674wgx98d5u","sumstackairemissions":2.0},"type":"Feature","geometry":{"type":"Point","coordinates":[-79.35062,42.09083]}},{"properties":{"city":"LANCASTER","latitude":42.92656,"longitude":-78.62313,"id":"a674wgrhlq9r","sumstackairemissions":2.059},"type":"Feature","geometry":{"type":"Point","coordinates":[-78.62313,42.92656]}},{"properties":{"city":"LANSING","latitude":42.60333,"longitude":-76.63555,"id":"a674wgrydrwj","sumstackairemissions":127122.302},"type":"Feature","geometry":{"type":"Point","coordinates":[-76.63555,42.60333]}},{"properties":{"city":"LATHAM","latitude":42.75562,"longitude":-73.79073,"id":"a674wgv4d9am","sumstackairemissions":119.4},"type":"Feature","geometry":{"type":"Point","coordinates":[-73.79073,42.75562]}},{"properties":{"city":"LAWRENCE","latitude":40.63278,"longitude":-73.74331,"id":"a674wgwdntfn","sumstackairemissions":1599.0},"type":"Feature","geometry":{"type":"Point","coordinates":[-73.74331,40.63278]}},{"properties":{"city":"LE ROY","latitude":42.96967,"longitude":-78.00861,"id":"a674wgpeakif","sumstackairemissions":0.0},"type":"Feature","geometry":{"type":"Point","coordinates":[-78.00861,42.96967]}},{"properties":{"city":"LITTLE FALLS","latitude":43.05476,"longitude":-74.85617,"id":"a674wgpyy1rh","sumstackairemissions":10082.0},"type":"Feature","geometry":{"type":"Point","coordinates":[-74.85617,43.05476]}},{"properties":{"city":"LIVERPOOL","latitude":43.13645,"longitude":-76.19076,"id":"a674wgpfcbl3","sumstackairemissions":4591.8},"type":"Feature","geometry":{"type":"Point","coordinates":[-76.19076,43.13645]}},{"properties":{"city":"LOCKPORT","latitude":43.17759,"longitude":-78.70714,"id":"a674wgtqpqr7","sumstackairemissions":15249.081},"type":"Feature","geometry":{"type":"Point","coordinates":[-78.70714,43.17759]}},{"properties":{"city":"LODI","latitude":42.60944,"longitude":-76.82389,"id":"a674wh0o7wxk","sumstackairemissions":1010.0},"type":"Feature","geometry":{"type":"Point","coordinates":[-76.82389,42.60944]}},{"properties":{"city":"LONG ISLAND CITY","latitude":40.74567,"longitude":-73.93846,"id":"a674wgnd4ita","sumstackairemissions":77178.04},"type":"Feature","geometry":{"type":"Point","coordinates":[-73.93846,40.74567]}},{"properties":{"city":"LOWVILLE","latitude":43.79069,"longitude":-75.50599,"id":"a674wgr5vb6k","sumstackairemissions":43799.4},"type":"Feature","geometry":{"type":"Point","coordinates":[-75.50599,43.79069]}},{"properties":{"city":"LYONS","latitude":43.05392,"longitude":-76.97503,"id":"a674wgtsfxut","sumstackairemissions":41402.0},"type":"Feature","geometry":{"type":"Point","coordinates":[-76.97503,43.05392]}},{"properties":{"city":"MANCHESTER","latitude":42.96741,"longitude":-77.24387,"id":"a674wh1fltbs","sumstackairemissions":0.0},"type":"Feature","geometry":{"type":"Point","coordinates":[-77.24387,42.96741]}},{"properties":{"city":"MANHATTAN","latitude":40.72764,"longitude":-73.97275,"id":"a674wh1il3w5","sumstackairemissions":34722.61},"type":"Feature","geometry":{"type":"Point","coordinates":[-73.97275,40.72764]}},{"properties":{"city":"MARION","latitude":43.13941,"longitude":-77.18871,"id":"a674wgq60tu7","sumstackairemissions":0.0},"type":"Feature","geometry":{"type":"Point","coordinates":[-77.18871,43.13941]}},{"properties":{"city":"MASSENA","latitude":44.97007,"longitude":-74.80358,"id":"a674wgo4ktyu","sumstackairemissions":1018045.3557},"type":"Feature","geometry":{"type":"Point","coordinates":[-74.80358,44.97007]}},{"properties":{"city":"MAYBROOK","latitude":41.50894,"longitude":-74.20392,"id":"a674wgocchtg","sumstackairemissions":551.272},"type":"Feature","geometry":{"type":"Point","coordinates":[-74.20392,41.50894]}},{"properties":{"city":"MC CONNELLSVILLE","latitude":43.27737,"longitude":-75.69498,"id":"a674wgmoxr7v","sumstackairemissions":7.724},"type":"Feature","geometry":{"type":"Point","coordinates":[-75.69498,43.27737]}},{"properties":{"city":"MC GRAW","latitude":42.59194,"longitude":-76.15,"id":"a674wgr30gsy","sumstackairemissions":6.76},"type":"Feature","geometry":{"type":"Point","coordinates":[-76.15,42.59194]}},{"properties":{"city":"MECHANICVILLE","latitude":42.91736,"longitude":-73.71219,"id":"a674wgrus0y1","sumstackairemissions":7453.596},"type":"Feature","geometry":{"type":"Point","coordinates":[-73.71219,42.91736]}},{"properties":{"city":"MEDINA","latitude":43.21081,"longitude":-78.36847,"id":"a674wgx657k2","sumstackairemissions":0.0},"type":"Feature","geometry":{"type":"Point","coordinates":[-78.36847,43.21081]}},{"properties":{"city":"MELVILLE","latitude":40.77776,"longitude":-73.41288,"id":"a674wh1kiesf","sumstackairemissions":1525.273},"type":"Feature","geometry":{"type":"Point","coordinates":[-73.41288,40.77776]}},{"properties":{"city":"MIDDLE ISLAND","latitude":40.89111,"longitude":-72.9425,"id":"a674wh29vpca","sumstackairemissions":0.0},"type":"Feature","geometry":{"type":"Point","coordinates":[-72.9425,40.89111]}},{"properties":{"city":"MIDDLEPORT","latitude":43.20717,"longitude":-78.46888,"id":"a674wh13wnie","sumstackairemissions":655.0},"type":"Feature","geometry":{"type":"Point","coordinates":[-78.46888,43.20717]}},{"properties":{"city":"MIDDLETOWN","latitude":41.45876,"longitude":-74.36975,"id":"a674wgxrlqzc","sumstackairemissions":54147.6},"type":"Feature","geometry":{"type":"Point","coordinates":[-74.36975,41.45876]}},{"properties":{"city":"MODEL CITY","latitude":43.22781,"longitude":-78.97189,"id":"a674wgm2hqhg","sumstackairemissions":0.13},"type":"Feature","geometry":{"type":"Point","coordinates":[-78.97189,43.22781]}},{"properties":{"city":"MONTICELLO","latitude":41.66282,"longitude":-74.83135,"id":"a674wgnizcic","sumstackairemissions":15.914},"type":"Feature","geometry":{"type":"Point","coordinates":[-74.83135,41.66282]}},{"properties":{"city":"MOUNT VERNON","latitude":40.89555,"longitude":-73.82273,"id":"a674wgm80qbc","sumstackairemissions":867.94},"type":"Feature","geometry":{"type":"Point","coordinates":[-73.82273,40.89555]}},{"properties":{"city":"NEW HARTFORD","latitude":43.07847,"longitude":-75.34329,"id":"a674wgq3jo44","sumstackairemissions":1104.4},"type":"Feature","geometry":{"type":"Point","coordinates":[-75.34329,43.07847]}},{"properties":{"city":"NEW ROCHELLE","latitude":40.92714,"longitude":-73.77173,"id":"a674wgw85w12","sumstackairemissions":5.0},"type":"Feature","geometry":{"type":"Point","coordinates":[-73.77173,40.92714]}},{"properties":{"city":"NEW WINDSOR","latitude":41.48288,"longitude":-74.02314,"id":"a674wgznqmag","sumstackairemissions":163877.91},"type":"Feature","geometry":{"type":"Point","coordinates":[-74.02314,41.48288]}},{"properties":{"city":"NEW YORK","latitude":40.86772,"longitude":-73.92989,"id":"a674wgr6uomw","sumstackairemissions":0.0},"type":"Feature","geometry":{"type":"Point","coordinates":[-73.92989,40.86772]}},{"properties":{"city":"NEW YORK MILLS","latitude":43.1111,"longitude":-75.29049,"id":"a674wgms8t9p","sumstackairemissions":3858.0},"type":"Feature","geometry":{"type":"Point","coordinates":[-75.29049,43.1111]}},{"properties":{"city":"NEWARK","latitude":43.03958,"longitude":-77.08947,"id":"a674wgm6u65j","sumstackairemissions":10616.1},"type":"Feature","geometry":{"type":"Point","coordinates":[-77.08947,43.03958]}},{"properties":{"city":"NEWBURGH","latitude":41.55971,"longitude":-73.99022,"id":"a674wgy2qh9c","sumstackairemissions":1593780.79},"type":"Feature","geometry":{"type":"Point","coordinates":[-73.99022,41.55971]}},{"properties":{"city":"NEWTON FALLS","latitude":44.22767,"longitude":-74.99753,"id":"a674wgmnofdi","sumstackairemissions":0.0},"type":"Feature","geometry":{"type":"Point","coordinates":[-74.99753,44.22767]}},{"properties":{"city":"NIAGARA FALLS","latitude":43.09278,"longitude":-79.00409,"id":"a674wgoenggi","sumstackairemissions":157685.63048},"type":"Feature","geometry":{"type":"Point","coordinates":[-79.00409,43.09278]}},{"properties":{"city":"NISKAYUNA","latitude":42.83095,"longitude":-73.87639,"id":"a674wgnunohu","sumstackairemissions":6.281},"type":"Feature","geometry":{"type":"Point","coordinates":[-73.87639,42.83095]}},{"properties":{"city":"NORFOLK","latitude":44.80553,"longitude":-74.99742,"id":"a674wgve5i7h","sumstackairemissions":0.0},"type":"Feature","geometry":{"type":"Point","coordinates":[-74.99742,44.80553]}},{"properties":{"city":"NORTH COLLINS","latitude":42.60111,"longitude":-78.93528,"id":"a674wgvr3yin","sumstackairemissions":0.0},"type":"Feature","geometry":{"type":"Point","coordinates":[-78.93528,42.60111]}},{"properties":{"city":"NORTH HOOSICK","latitude":42.92392,"longitude":-73.32242,"id":"a674wgxegznn","sumstackairemissions":18.6443},"type":"Feature","geometry":{"type":"Point","coordinates":[-73.32242,42.92392]}},{"properties":{"city":"NORTH LAWRENCE","latitude":44.80442,"longitude":-74.67603,"id":"a674wh1ydhy4","sumstackairemissions":0.0},"type":"Feature","geometry":{"type":"Point","coordinates":[-74.67603,44.80442]}},{"properties":{"city":"NORTH SYRACUSE","latitude":43.12372,"longitude":-76.10479,"id":"a674wgyq03d6","sumstackairemissions":5.0},"type":"Feature","geometry":{"type":"Point","coordinates":[-76.10479,43.12372]}},{"properties":{"city":"NORTH TONAWANDA","latitude":43.04534,"longitude":-78.87588,"id":"a674wgu21gu1","sumstackairemissions":20498.0},"type":"Feature","geometry":{"type":"Point","coordinates":[-78.87588,43.04534]}},{"properties":{"city":"NORTHPORT","latitude":40.92347,"longitude":-73.34256,"id":"a674wh15y2ec","sumstackairemissions":276572.0},"type":"Feature","geometry":{"type":"Point","coordinates":[-73.34256,40.92347]}},{"properties":{"city":"NORWICH","latitude":42.51457,"longitude":-75.52913,"id":"a674wgwcpwzn","sumstackairemissions":44377.0},"type":"Feature","geometry":{"type":"Point","coordinates":[-75.52913,42.51457]}},{"properties":{"city":"OAK HILL","latitude":42.38358,"longitude":-74.12519,"id":"a674wgnwrdn6","sumstackairemissions":0.0},"type":"Feature","geometry":{"type":"Point","coordinates":[-74.12519,42.38358]}},{"properties":{"city":"OAKFIELD","latitude":43.06278,"longitude":-78.27527,"id":"a674wgy36yc8","sumstackairemissions":6200.0},"type":"Feature","geometry":{"type":"Point","coordinates":[-78.27527,43.06278]}},{"properties":{"city":"OAKS CORNERS","latitude":42.9316,"longitude":-76.9965,"id":"a674wgz30g5y","sumstackairemissions":0.0},"type":"Feature","geometry":{"type":"Point","coordinates":[-76.9965,42.9316]}},{"properties":{"city":"OCEANSIDE","latitude":40.63203,"longitude":-73.65324,"id":"a674wgo2a5mo","sumstackairemissions":0.0},"type":"Feature","geometry":{"type":"Point","coordinates":[-73.65324,40.63203]}},{"properties":{"city":"OGDENSBURG","latitude":44.71013,"longitude":-75.47217,"id":"a674wgy2ddwa","sumstackairemissions":1485.0},"type":"Feature","geometry":{"type":"Point","coordinates":[-75.47217,44.71013]}},{"properties":{"city":"OLEAN","latitude":42.07862,"longitude":-78.41801,"id":"a674wgqhjq2v","sumstackairemissions":13676.4695},"type":"Feature","geometry":{"type":"Point","coordinates":[-78.41801,42.07862]}},{"properties":{"city":"ONEIDA","latitude":43.07195,"longitude":-75.6337,"id":"a674wgq65z1e","sumstackairemissions":0.0},"type":"Feature","geometry":{"type":"Point","coordinates":[-75.6337,43.07195]}},{"properties":{"city":"ORANGEBURG","latitude":41.04923,"longitude":-73.95241,"id":"a674wgx28r6v","sumstackairemissions":9939.52},"type":"Feature","geometry":{"type":"Point","coordinates":[-73.95241,41.04923]}},{"properties":{"city":"ORCHARD PARK","latitude":42.77913,"longitude":-78.78038,"id":"a674wgnf8k89","sumstackairemissions":164.0},"type":"Feature","geometry":{"type":"Point","coordinates":[-78.78038,42.77913]}},{"properties":{"city":"ORISKANY","latitude":43.15907,"longitude":-75.37321,"id":"a674wgyjlf9c","sumstackairemissions":1383.0},"type":"Feature","geometry":{"type":"Point","coordinates":[-75.37321,43.15907]}},{"properties":{"city":"ORISKANY FALLS","latitude":42.93786,"longitude":-75.46414,"id":"a674wgmp4gxi","sumstackairemissions":1536.0},"type":"Feature","geometry":{"type":"Point","coordinates":[-75.46414,42.93786]}},{"properties":{"city":"OSSINING","latitude":41.15793,"longitude":-73.86815,"id":"a674wgvzj4qp","sumstackairemissions":97.0},"type":"Feature","geometry":{"type":"Point","coordinates":[-73.86815,41.15793]}},{"properties":{"city":"OSWEGO","latitude":43.47902,"longitude":-76.48357,"id":"a674wgs4ig4d","sumstackairemissions":50081.12},"type":"Feature","geometry":{"type":"Point","coordinates":[-76.48357,43.47902]}},{"properties":{"city":"OWEGO","latitude":42.10578,"longitude":-76.22728,"id":"a674wgpcndel","sumstackairemissions":13549.374},"type":"Feature","geometry":{"type":"Point","coordinates":[-76.22728,42.10578]}},{"properties":{"city":"OYSTER BAY","latitude":40.869,"longitude":-73.53035,"id":"a674wgnzozf1","sumstackairemissions":13850.0},"type":"Feature","geometry":{"type":"Point","coordinates":[-73.53035,40.869]}},{"properties":{"city":"PAINTED POST","latitude":42.14425,"longitude":-77.10996,"id":"a674wgwswumr","sumstackairemissions":255.0},"type":"Feature","geometry":{"type":"Point","coordinates":[-77.10996,42.14425]}},{"properties":{"city":"PALMYRA","latitude":43.06216,"longitude":-77.20251,"id":"a674wh1ghswo","sumstackairemissions":127113.71},"type":"Feature","geometry":{"type":"Point","coordinates":[-77.20251,43.06216]}},{"properties":{"city":"PAWLING","latitude":41.57081,"longitude":-73.59725,"id":"a674wgn6owrv","sumstackairemissions":0.0},"type":"Feature","geometry":{"type":"Point","coordinates":[-73.59725,41.57081]}},{"properties":{"city":"PEARL RIVER","latitude":41.07567,"longitude":-74.02011,"id":"a674wgpnte2e","sumstackairemissions":6.0},"type":"Feature","geometry":{"type":"Point","coordinates":[-74.02011,41.07567]}},{"properties":{"city":"PEEKSKILL","latitude":41.27286,"longitude":-73.93489,"id":"a674wgvoiquy","sumstackairemissions":4873.0},"type":"Feature","geometry":{"type":"Point","coordinates":[-73.93489,41.27286]}},{"properties":{"city":"PENN YAN","latitude":42.67167,"longitude":-76.96741,"id":"a674wgxjgv7x","sumstackairemissions":2961.0},"type":"Feature","geometry":{"type":"Point","coordinates":[-76.96741,42.67167]}},{"properties":{"city":"PETERSBURGH","latitude":42.74202,"longitude":-73.3592,"id":"a674wgpqgii0","sumstackairemissions":1900.0},"type":"Feature","geometry":{"type":"Point","coordinates":[-73.3592,42.74202]}},{"properties":{"city":"PHOENIX","latitude":43.25063,"longitude":-76.31061,"id":"a674wgrqko0m","sumstackairemissions":108.0},"type":"Feature","geometry":{"type":"Point","coordinates":[-76.31061,43.25063]}},{"properties":{"city":"PIFFARD","latitude":42.83147,"longitude":-77.8423,"id":"a674wgod3a0q","sumstackairemissions":2046.0},"type":"Feature","geometry":{"type":"Point","coordinates":[-77.8423,42.83147]}},{"properties":{"city":"PLAINVIEW","latitude":40.78848,"longitude":-73.46073,"id":"a674wgv1ywuf","sumstackairemissions":7.72201},"type":"Feature","geometry":{"type":"Point","coordinates":[-73.46073,40.78848]}},{"properties":{"city":"PLATTSBURGH","latitude":44.6729,"longitude":-73.45257,"id":"a674wgylrrvd","sumstackairemissions":4040.0},"type":"Feature","geometry":{"type":"Point","coordinates":[-73.45257,44.6729]}},{"properties":{"city":"PORT EWEN","latitude":41.91733,"longitude":-73.98097,"id":"a674wgycrqw4","sumstackairemissions":0.0},"type":"Feature","geometry":{"type":"Point","coordinates":[-73.98097,41.91733]}},{"properties":{"city":"PORT JEFFERSON","latitude":40.94992,"longitude":-73.07817,"id":"a674wgz0dpw5","sumstackairemissions":45419.5},"type":"Feature","geometry":{"type":"Point","coordinates":[-73.07817,40.94992]}},{"properties":{"city":"PORT JERVIS","latitude":41.3796,"longitude":-74.7011,"id":"a674wgrrkcwt","sumstackairemissions":21.7},"type":"Feature","geometry":{"type":"Point","coordinates":[-74.7011,41.3796]}},{"properties":{"city":"POTSDAM","latitude":44.6772,"longitude":-75.01588,"id":"a674wgs7i0v4","sumstackairemissions":2524.7},"type":"Feature","geometry":{"type":"Point","coordinates":[-75.01588,44.6772]}},{"properties":{"city":"POUGHKEEPSIE","latitude":41.66284,"longitude":-73.91862,"id":"a674wgmmenmp","sumstackairemissions":1006.4},"type":"Feature","geometry":{"type":"Point","coordinates":[-73.91862,41.66284]}},{"properties":{"city":"QUEENSBURY","latitude":43.34681,"longitude":-73.59888,"id":"a674wgz84e4t","sumstackairemissions":432.0},"type":"Feature","geometry":{"type":"Point","coordinates":[-73.59888,43.34681]}},{"properties":{"city":"RAVENA","latitude":42.49906,"longitude":-73.8146,"id":"a674wgq4c1uk","sumstackairemissions":261097.149},"type":"Feature","geometry":{"type":"Point","coordinates":[-73.8146,42.49906]}},{"properties":{"city":"RENSSELAER","latitude":42.62016,"longitude":-73.75052,"id":"a674wgqr4ijo","sumstackairemissions":28238.19},"type":"Feature","geometry":{"type":"Point","coordinates":[-73.75052,42.62016]}},{"properties":{"city":"RIVERHEAD","latitude":40.94682,"longitude":-72.68307,"id":"a674wgtfepkt","sumstackairemissions":7350.4},"type":"Feature","geometry":{"type":"Point","coordinates":[-72.68307,40.94682]}},{"properties":{"city":"ROCHESTER","latitude":43.17772,"longitude":-77.64337,"id":"a674wgmp1hk7","sumstackairemissions":3043718.3319},"type":"Feature","geometry":{"type":"Point","coordinates":[-77.64337,43.17772]}},{"properties":{"city":"ROME","latitude":43.21407,"longitude":-75.45909,"id":"a674wh1y3xy2","sumstackairemissions":69320.0},"type":"Feature","geometry":{"type":"Point","coordinates":[-75.45909,43.21407]}},{"properties":{"city":"ROTTERDAM JUNCTION","latitude":42.86064,"longitude":-74.02505,"id":"a674wgmuui2x","sumstackairemissions":138960.0},"type":"Feature","geometry":{"type":"Point","coordinates":[-74.02505,42.86064]}},{"properties":{"city":"ROUSES POINT","latitude":44.99021,"longitude":-73.36994,"id":"a674wh0zwn1h","sumstackairemissions":1813.01},"type":"Feature","geometry":{"type":"Point","coordinates":[-73.36994,44.99021]}},{"properties":{"city":"SAINT JOHNSVILLE","latitude":42.99649,"longitude":-74.67735,"id":"a674wgmkq0od","sumstackairemissions":0.0},"type":"Feature","geometry":{"type":"Point","coordinates":[-74.67735,42.99649]}},{"properties":{"city":"SANGERFIELD","latitude":42.9,"longitude":-75.37658,"id":"a674wgw5i708","sumstackairemissions":0.0},"type":"Feature","geometry":{"type":"Point","coordinates":[-75.37658,42.9]}},{"properties":{"city":"SARATOGA SPRINGS","latitude":43.06636,"longitude":-73.81358,"id":"a674wh0nf5lg","sumstackairemissions":100950.0},"type":"Feature","geometry":{"type":"Point","coordinates":[-73.81358,43.06636]}},{"properties":{"city":"SAYVILLE","latitude":40.74087,"longitude":-73.0819,"id":"a674wgsk68ju","sumstackairemissions":1909.7},"type":"Feature","geometry":{"type":"Point","coordinates":[-73.0819,40.74087]}},{"properties":{"city":"SCHENECTADY","latitude":42.80277,"longitude":-73.96555,"id":"a674wgp8cqb2","sumstackairemissions":18642.891},"type":"Feature","geometry":{"type":"Point","coordinates":[-73.96555,42.80277]}},{"properties":{"city":"SCOTTSVILLE","latitude":43.00416,"longitude":-77.82145,"id":"a674wgrudi6o","sumstackairemissions":9596.2},"type":"Feature","geometry":{"type":"Point","coordinates":[-77.82145,43.00416]}},{"properties":{"city":"SELKIRK","latitude":42.57542,"longitude":-73.85356,"id":"a674wgs1c2ih","sumstackairemissions":172060.0},"type":"Feature","geometry":{"type":"Point","coordinates":[-73.85356,42.57542]}},{"properties":{"city":"SENECA FALLS","latitude":42.96069,"longitude":-76.81503,"id":"a674wgwnv2m0","sumstackairemissions":83520.28},"type":"Feature","geometry":{"type":"Point","coordinates":[-76.81503,42.96069]}},{"properties":{"city":"SHERBURNE","latitude":42.6742,"longitude":-75.49763,"id":"a674wgtvgnek","sumstackairemissions":0.0},"type":"Feature","geometry":{"type":"Point","coordinates":[-75.49763,42.6742]}},{"properties":{"city":"SHERRILL","latitude":43.07694,"longitude":-75.59861,"id":"a674wgx94cf7","sumstackairemissions":17.2},"type":"Feature","geometry":{"type":"Point","coordinates":[-75.59861,43.07694]}},{"properties":{"city":"SIDNEY","latitude":42.3085,"longitude":-75.39839,"id":"a674wgq1n1kb","sumstackairemissions":20202.0},"type":"Feature","geometry":{"type":"Point","coordinates":[-75.39839,42.3085]}},{"properties":{"city":"SILVER SPRINGS","latitude":42.65775,"longitude":-78.0805,"id":"a674wgziy57h","sumstackairemissions":99498.35},"type":"Feature","geometry":{"type":"Point","coordinates":[-78.0805,42.65775]}},{"properties":{"city":"SKANEATELES FALLS","latitude":42.985,"longitude":-76.45504,"id":"a674wgyxenko","sumstackairemissions":0.4},"type":"Feature","geometry":{"type":"Point","coordinates":[-76.45504,42.985]}},{"properties":{"city":"SLATE HILL","latitude":41.38987,"longitude":-74.47702,"id":"a674wgvapszl","sumstackairemissions":16.5},"type":"Feature","geometry":{"type":"Point","coordinates":[-74.47702,41.38987]}},{"properties":{"city":"SLEEPY HOLLOW","latitude":41.08056,"longitude":-73.86811,"id":"a674wgm5xyoy","sumstackairemissions":0.0},"type":"Feature","geometry":{"type":"Point","coordinates":[-73.86811,41.08056]}},{"properties":{"city":"SMITHTOWN","latitude":40.81922,"longitude":-73.2467,"id":"a674wh1amrgp","sumstackairemissions":8.0},"type":"Feature","geometry":{"type":"Point","coordinates":[-73.2467,40.81922]}},{"properties":{"city":"SOLVAY","latitude":31.59125,"longitude":-55.89811,"id":"a674wh1gmrxv","sumstackairemissions":5563.9},"type":"Feature","geometry":{"type":"Point","coordinates":[-55.89811,31.59125]}},{"properties":{"city":"SOUTH BETHLEHEM","latitude":42.525,"longitude":-73.85056,"id":"a674wgw5nnmb","sumstackairemissions":0.0},"type":"Feature","geometry":{"type":"Point","coordinates":[-73.85056,42.525]}},{"properties":{"city":"SPRINGVILLE","latitude":42.5137,"longitude":-78.67189,"id":"a674wgz442kz","sumstackairemissions":542.02},"type":"Feature","geometry":{"type":"Point","coordinates":[-78.67189,42.5137]}},{"properties":{"city":"STATEN ISLAND","latitude":40.60094,"longitude":-74.13597,"id":"a674wgs0vtlz","sumstackairemissions":120.0},"type":"Feature","geometry":{"type":"Point","coordinates":[-74.13597,40.60094]}},{"properties":{"city":"STONY BROOK","latitude":0.0,"longitude":0.0,"id":"a674wh0octid","sumstackairemissions":46893.02},"type":"Feature","geometry":{"type":"Point","coordinates":[0.0,0.0]}},{"properties":{"city":"STONY POINT","latitude":41.21826,"longitude":-73.98051,"id":"a674wgxc9wly","sumstackairemissions":19446.645},"type":"Feature","geometry":{"type":"Point","coordinates":[-73.98051,41.21826]}},{"properties":{"city":"SYOSSET","latitude":40.80364,"longitude":-73.52054,"id":"a674wgvf7439","sumstackairemissions":0.0},"type":"Feature","geometry":{"type":"Point","coordinates":[-73.52054,40.80364]}},{"properties":{"city":"SYRACUSE","latitude":43.07698,"longitude":-76.15717,"id":"a674wgmgemoh","sumstackairemissions":104789.132},"type":"Feature","geometry":{"type":"Point","coordinates":[-76.15717,43.07698]}},{"properties":{"city":"TICONDEROGA","latitude":43.89056,"longitude":-73.40333,"id":"a674wgzljn59","sumstackairemissions":427926.8633},"type":"Feature","geometry":{"type":"Point","coordinates":[-73.40333,43.89056]}},{"properties":{"city":"TOMKINS COVE","latitude":41.25933,"longitude":-73.97867,"id":"a674wgogspq8","sumstackairemissions":1219444.5},"type":"Feature","geometry":{"type":"Point","coordinates":[-73.97867,41.25933]}},{"properties":{"city":"TONAWANDA","latitude":42.97869,"longitude":-78.92396,"id":"a674wh1vvh9z","sumstackairemissions":902224.143},"type":"Feature","geometry":{"type":"Point","coordinates":[-78.92396,42.97869]}},{"properties":{"city":"TROY","latitude":42.73539,"longitude":-73.68538,"id":"a674wgysqlqc","sumstackairemissions":42.9111},"type":"Feature","geometry":{"type":"Point","coordinates":[-73.68538,42.73539]}},{"properties":{"city":"TUCKAHOE","latitude":40.95426,"longitude":-73.81931,"id":"a674wgm5wmpp","sumstackairemissions":6.81522},"type":"Feature","geometry":{"type":"Point","coordinates":[-73.81931,40.95426]}},{"properties":{"city":"ULSTER PARK","latitude":41.88209,"longitude":-73.98779,"id":"a674wh22anyy","sumstackairemissions":2.7},"type":"Feature","geometry":{"type":"Point","coordinates":[-73.98779,41.88209]}},{"properties":{"city":"UPTON","latitude":40.86,"longitude":-72.86958,"id":"a674wgrvijqd","sumstackairemissions":4.318},"type":"Feature","geometry":{"type":"Point","coordinates":[-72.86958,40.86]}},{"properties":{"city":"UTICA","latitude":43.09841,"longitude":-75.25588,"id":"a674wh1t5uy4","sumstackairemissions":17696.0},"type":"Feature","geometry":{"type":"Point","coordinates":[-75.25588,43.09841]}},{"properties":{"city":"VERNON","latitude":43.08372,"longitude":-75.53661,"id":"a674wgsbvp5p","sumstackairemissions":0.0},"type":"Feature","geometry":{"type":"Point","coordinates":[-75.53661,43.08372]}},{"properties":{"city":"VICTOR","latitude":43.00929,"longitude":-77.43592,"id":"a674wgzssos5","sumstackairemissions":0.0},"type":"Feature","geometry":{"type":"Point","coordinates":[-77.43592,43.00929]}},{"properties":{"city":"WALDEN","latitude":41.55132,"longitude":-74.1821,"id":"a674wgys19vz","sumstackairemissions":250.1},"type":"Feature","geometry":{"type":"Point","coordinates":[-74.1821,41.55132]}},{"properties":{"city":"WALLKILL","latitude":41.60656,"longitude":-74.17899,"id":"a674wgqt3i33","sumstackairemissions":2000.0},"type":"Feature","geometry":{"type":"Point","coordinates":[-74.17899,41.60656]}},{"properties":{"city":"WALTON","latitude":42.17003,"longitude":-75.13789,"id":"a674wgr99ud6","sumstackairemissions":0.0},"type":"Feature","geometry":{"type":"Point","coordinates":[-75.13789,42.17003]}},{"properties":{"city":"WAMPSVILLE","latitude":43.055,"longitude":-75.705,"id":"a674wgptosxx","sumstackairemissions":38373.0},"type":"Feature","geometry":{"type":"Point","coordinates":[-75.705,43.055]}},{"properties":{"city":"WARNERS","latitude":43.09678,"longitude":-76.30389,"id":"a674wgzt9zvo","sumstackairemissions":6314.29},"type":"Feature","geometry":{"type":"Point","coordinates":[-76.30389,43.09678]}},{"properties":{"city":"WARWICK","latitude":41.25221,"longitude":-74.37351,"id":"a674wgoshgjk","sumstackairemissions":1.0},"type":"Feature","geometry":{"type":"Point","coordinates":[-74.37351,41.25221]}},{"properties":{"city":"WATERFORD","latitude":42.81479,"longitude":-73.67611,"id":"a674wguamzur","sumstackairemissions":154627.1366},"type":"Feature","geometry":{"type":"Point","coordinates":[-73.67611,42.81479]}},{"properties":{"city":"WATERLOO","latitude":42.90105,"longitude":-76.85808,"id":"a674wgu54srp","sumstackairemissions":87183.0},"type":"Feature","geometry":{"type":"Point","coordinates":[-76.85808,42.90105]}},{"properties":{"city":"WATERTOWN","latitude":43.95263,"longitude":-75.92652,"id":"a674wgwt3ts4","sumstackairemissions":17467.996},"type":"Feature","geometry":{"type":"Point","coordinates":[-75.92652,43.95263]}},{"properties":{"city":"WATERVLIET","latitude":42.73774,"longitude":-73.70983,"id":"a674wh0sot5b","sumstackairemissions":8670.0},"type":"Feature","geometry":{"type":"Point","coordinates":[-73.70983,42.73774]}},{"properties":{"city":"WATKINS GLEN","latitude":42.37633,"longitude":-76.86639,"id":"a674wgxit9ye","sumstackairemissions":67644.077},"type":"Feature","geometry":{"type":"Point","coordinates":[-76.86639,42.37633]}},{"properties":{"city":"WAVERLY","latitude":42.00033,"longitude":-76.55617,"id":"a674wgoo9p7i","sumstackairemissions":16.00769},"type":"Feature","geometry":{"type":"Point","coordinates":[-76.55617,42.00033]}},{"properties":{"city":"WAYLAND","latitude":42.56335,"longitude":-77.59142,"id":"a674wgubkflj","sumstackairemissions":57560.0},"type":"Feature","geometry":{"type":"Point","coordinates":[-77.59142,42.56335]}},{"properties":{"city":"WEBSTER","latitude":43.22841,"longitude":-77.40261,"id":"a674wgol9wzo","sumstackairemissions":36390.0},"type":"Feature","geometry":{"type":"Point","coordinates":[-77.40261,43.22841]}},{"properties":{"city":"WELLSVILLE","latitude":42.12945,"longitude":-77.92761,"id":"a674wgn1ihtv","sumstackairemissions":10.0},"type":"Feature","geometry":{"type":"Point","coordinates":[-77.92761,42.12945]}},{"properties":{"city":"WEST BABYLON","latitude":40.73035,"longitude":-73.37241,"id":"a674wgrul0uk","sumstackairemissions":32264.0},"type":"Feature","geometry":{"type":"Point","coordinates":[-73.37241,40.73035]}},{"properties":{"city":"WEST HAVERSTRAW","latitude":41.20544,"longitude":-73.96697,"id":"a674wh24bj00","sumstackairemissions":20115.8766},"type":"Feature","geometry":{"type":"Point","coordinates":[-73.96697,41.20544]}},{"properties":{"city":"WEST NYACK","latitude":41.10431,"longitude":-73.96397,"id":"a674wgwkko0a","sumstackairemissions":0.0},"type":"Feature","geometry":{"type":"Point","coordinates":[-73.96397,41.10431]}},{"properties":{"city":"WEST POINT","latitude":41.39774,"longitude":-73.96676,"id":"a674wgm6rnlp","sumstackairemissions":84.8},"type":"Feature","geometry":{"type":"Point","coordinates":[-73.96676,41.39774]}},{"properties":{"city":"WEST SENECA","latitude":42.84853,"longitude":-78.72915,"id":"a674wgyqpfhn","sumstackairemissions":2.0},"type":"Feature","geometry":{"type":"Point","coordinates":[-78.72915,42.84853]}},{"properties":{"city":"WESTBURY","latitude":40.76314,"longitude":-73.55751,"id":"a674wh0yf0d8","sumstackairemissions":2220.0},"type":"Feature","geometry":{"type":"Point","coordinates":[-73.55751,40.76314]}},{"properties":{"city":"WESTFIELD","latitude":42.33145,"longitude":-79.57723,"id":"a674wgvmxupt","sumstackairemissions":26005.0},"type":"Feature","geometry":{"type":"Point","coordinates":[-79.57723,42.33145]}},{"properties":{"city":"WHITESBORO","latitude":43.10494,"longitude":-75.337,"id":"a674wgnna7ny","sumstackairemissions":1012.0},"type":"Feature","geometry":{"type":"Point","coordinates":[-75.337,43.10494]}},{"properties":{"city":"WILLIAMSON","latitude":43.23448,"longitude":-77.18208,"id":"a674wgw365f6","sumstackairemissions":1000.0},"type":"Feature","geometry":{"type":"Point","coordinates":[-77.18208,43.23448]}},{"properties":{"city":"WILLIAMSTOWN","latitude":43.42647,"longitude":-75.89214,"id":"a674wgpfd17z","sumstackairemissions":0.0},"type":"Feature","geometry":{"type":"Point","coordinates":[-75.89214,43.42647]}},{"properties":{"city":"WOODSTOCK","latitude":42.02583,"longitude":-74.10361,"id":"a674wgy4e7dp","sumstackairemissions":0.0},"type":"Feature","geometry":{"type":"Point","coordinates":[-74.10361,42.02583]}},{"properties":{"city":"WYOMING","latitude":42.84185,"longitude":-78.07669,"id":"a674wgy7vnxe","sumstackairemissions":0.0},"type":"Feature","geometry":{"type":"Point","coordinates":[-78.07669,42.84185]}},{"properties":{"city":"YONKERS","latitude":40.9472,"longitude":-73.87486,"id":"a674wgolfk75","sumstackairemissions":3273.23},"type":"Feature","geometry":{"type":"Point","coordinates":[-73.87486,40.9472]}}],"is_temporal":false,"author":{"url":"http://www.epa.gov/triinter/tridata/tri07/data/index.htm#h4","metadata":"http://www.epa.gov/triinter/tridata/tri07/data/index.htm#h4","contact_name":"","contact_address":"","source":"US EPA","contact_phone":""},"source":"http://www.epa.gov/triinter/tridata/tri07/data/index.htm#h4","pagination":{"sort":null,"start":0,"total":287,"limit":1000000},"state":"complete","tags":"2007,air,chemicals,cities,emissions,epa,newyork,ny,releases,states,toxics,tris","published":"2007-01-01T12:00:00Z","id":14227}