{"type":"FeatureCollection","data_type":"Dataset","url_type":null,"permissions":[{"permissions":{"download":true,"view":true},"group_id":"everyone"}],"classification":null,"title":"Skagit and Island county vaccine exemptions","count":35,"stream_id":142704,"contributor":{"url":"http://geocommons.com/users/25919","name":"KateM"},"data_attributes":null,"calculation_params":null,"icon_link":null,"link":"http://geocommons.com/overlays/142704.json","extent":[-122.686,47.9797,-121.759,48.5857],"geometry_types":["point"],"unique_name":null,"name":"Skagit and Island county vaccine exemptions","feature_count":35,"description":"","next_feature":null,"is_raster":false,"short_classification":"Y","stats":{"latitude":{"max":48.585718,"mean":48.3930711714286,"variance":0.0178365879610284,"stdev":0.133553689432484,"min":47.979657,"median":48.411448},"longitude":{"max":-121.759274,"mean":-122.394586285714,"variance":0.0414180520472097,"stdev":0.203514255144965,"min":-122.686325,"median":-122.343908},"percent exempt":{"max":63.6,"mean":11.44,"variance":143.131294117647,"stdev":11.9637491664464,"min":0.0,"median":9.1},"kindergartners enrolled":{"max":127,"mean":54.3142857142857,"variance":976.221848739496,"stdev":31.2445491044357,"min":3,"median":53}},"features":[{"properties":{"city":"Oak Harbor","latitude":48.291212,"school name":"Der Kinderhuis School","zip code":"98277","school type":"Private School","district name":"Oak Harbor","longitude":-122.649587,"percent exempt":0.0,"id":"a6e1apqhmikn","address":"900 SE Dock St.","kindergartners enrolled":19,"state":"WA"},"type":"Feature","geometry":{"type":"Point","coordinates":[-122.649587,48.291212]}},{"properties":{"city":"Oak Harbor","latitude":48.298258,"school name":"Oak Harbor Christian School","zip code":"98277","school type":"Private School","district name":"Oak Harbor","longitude":-122.650199,"percent exempt":10.0,"id":"a6e1aps3na2e","address":"675 E Whidbey Ave.","kindergartners enrolled":20,"state":"WA"},"type":"Feature","geometry":{"type":"Point","coordinates":[-122.650199,48.298258]}},{"properties":{"city":"Clinton","latitude":47.979657,"school name":"Whidbey Island Waldorf School","zip code":"98236","school type":"Private School","district name":"South Whidbey","longitude":-122.406679,"percent exempt":63.6,"id":"a6e1aq0su330","address":"6335 Old Pietila Road","kindergartners enrolled":11,"state":"WA"},"type":"Feature","geometry":{"type":"Point","coordinates":[-122.406679,47.979657]}},{"properties":{"city":"Mount Vernon","latitude":48.4064,"school name":"Mount Vernon Christian School","zip code":"98273","school type":"Private School","district name":"Mount Vernon","longitude":-122.343908,"percent exempt":18.5,"id":"a6e1apt5qvw5","address":"820 W. Blackburn Road","kindergartners enrolled":27,"state":"WA"},"type":"Feature","geometry":{"type":"Point","coordinates":[-122.343908,48.4064]}},{"properties":{"city":"Langley","latitude":48.03294,"school name":"Whidbey Island Academy Shared School","zip code":"98260","school type":"Public School","district name":"South Whidbey","longitude":-122.440939,"percent exempt":0.0,"id":"a6e1apxs98zw","address":"PO Box 346","kindergartners enrolled":3,"state":"WA"},"type":"Feature","geometry":{"type":"Point","coordinates":[-122.440939,48.03294]}},{"properties":{"city":"Oak Harbor","latitude":48.296897,"school name":"Oak Harbor Elementary","zip code":"98277","school type":"Public School","district name":"Oak Harbor","longitude":-122.643463,"percent exempt":6.3,"id":"a6e1apnmwoyy","address":"151 SE Midway Blvd.","kindergartners enrolled":127,"state":"WA"},"type":"Feature","geometry":{"type":"Point","coordinates":[-122.643463,48.296897]}},{"properties":{"city":"Oak Harbor","latitude":48.294759,"school name":"Broadview Elementary","zip code":"98277","school type":"Public School","district name":"Oak Harbor","longitude":-122.66621,"percent exempt":8.2,"id":"a6e1apwvu7dk","address":"473 SW Fairhaven Dr.","kindergartners enrolled":73,"state":"WA"},"type":"Feature","geometry":{"type":"Point","coordinates":[-122.66621,48.294759]}},{"properties":{"city":"Oak Harbor","latitude":48.300692,"school name":"Hillcrest Elementary","zip code":"98277","school type":"Public School","district name":"Oak Harbor","longitude":-122.676069,"percent exempt":9.6,"id":"a6e1apr44f9h","address":"1500 NW 2nd Ave.","kindergartners enrolled":94,"state":"WA"},"type":"Feature","geometry":{"type":"Point","coordinates":[-122.676069,48.300692]}},{"properties":{"city":"Oak Harbor","latitude":48.300824,"school name":"Olympic View Elementary","zip code":"98277","school type":"Public School","district name":"Oak Harbor","longitude":-122.634207,"percent exempt":9.7,"id":"a6e1apot74lk","address":"380 NE Regatta Dr.","kindergartners enrolled":72,"state":"WA"},"type":"Feature","geometry":{"type":"Point","coordinates":[-122.634207,48.300824]}},{"properties":{"city":"Coupeville","latitude":48.211798,"school name":"Coupeville Elementary School","zip code":"98239","school type":"Public School","district name":"Coupeville","longitude":-122.686325,"percent exempt":13.8,"id":"a6e1apoohhk2","address":"6 South Main","kindergartners enrolled":65,"state":"WA"},"type":"Feature","geometry":{"type":"Point","coordinates":[-122.686325,48.211798]}},{"properties":{"city":"Oak Harbor","latitude":48.307113,"school name":"Crescent Harbor Elementary","zip code":"98277","school type":"Public School","district name":"Oak Harbor","longitude":-122.596889,"percent exempt":13.9,"id":"a6e1apzdvcsx","address":"330 E. Crescent Harbor Rd.","kindergartners enrolled":72,"state":"WA"},"type":"Feature","geometry":{"type":"Point","coordinates":[-122.596889,48.307113]}},{"properties":{"city":"Oak Harbor","latitude":48.295679,"school name":"Home Connection","zip code":"98277","school type":"Public School","district name":"Oak Harbor","longitude":-122.657595,"percent exempt":19.0,"id":"a6e1aptb3dpq","address":"350 S. Oak Harbor St.","kindergartners enrolled":21,"state":"WA"},"type":"Feature","geometry":{"type":"Point","coordinates":[-122.657595,48.295679]}},{"properties":{"city":"Mount Vernon","latitude":48.406295,"school name":"Skagit Family Learning Center","zip code":"98273","school type":"Public Cooperative School","district name":"Mount Vernon","longitude":-122.339366,"percent exempt":40.0,"id":"a6e1apvh38yy","address":"2001 Cleveland Ave.","kindergartners enrolled":20,"state":"WA"},"type":"Feature","geometry":{"type":"Point","coordinates":[-122.339366,48.406295]}},{"properties":{"city":"Burlington","latitude":48.48705,"school name":"Bay View Elementary","zip code":"98233","school type":"Public School","district name":"Burlington-Edison","longitude":-122.418006,"percent exempt":0.0,"id":"a6e1apzke7in","address":"15241 Josh Wilson Rd","kindergartners enrolled":57,"state":"WA"},"type":"Feature","geometry":{"type":"Point","coordinates":[-122.418006,48.48705]}},{"properties":{"city":"Mount Vernon","latitude":48.442678,"school name":"Centennial Elementary School","zip code":"98273","school type":"Public School","district name":"Mount Vernon","longitude":-122.30096,"percent exempt":1.0,"id":"a6e1aq0e8kxb","address":"3100 Martin Rd","kindergartners enrolled":103,"state":"WA"},"type":"Feature","geometry":{"type":"Point","coordinates":[-122.30096,48.442678]}},{"properties":{"city":"Mount Vernon","latitude":48.428703,"school name":"Madison Elementary","zip code":"98273","school type":"Public School","district name":"Mount Vernon","longitude":-122.329485,"percent exempt":2.0,"id":"a6e1apon0nmn","address":"907 E Fir St","kindergartners enrolled":98,"state":"WA"},"type":"Feature","geometry":{"type":"Point","coordinates":[-122.329485,48.428703]}},{"properties":{"city":"Burlington","latitude":48.476793,"school name":"West View Elementary","zip code":"98233","school type":"Public School","district name":"Burlington-Edison","longitude":-122.34113,"percent exempt":2.8,"id":"a6e1aq11q934","address":"515 W Victoria Ave","kindergartners enrolled":107,"state":"WA"},"type":"Feature","geometry":{"type":"Point","coordinates":[-122.34113,48.476793]}},{"properties":{"city":"Mount Vernon","latitude":48.411448,"school name":"Little Mountain Elementary","zip code":"98274","school type":"Public School","district name":"Mount Vernon","longitude":-122.313218,"percent exempt":4.3,"id":"a6e1aprd7o4s","address":"1514 S Laventure Rd","kindergartners enrolled":92,"state":"WA"},"type":"Feature","geometry":{"type":"Point","coordinates":[-122.313218,48.411448]}},{"properties":{"city":"Bow","latitude":48.508755,"school name":"Allen Elementary","zip code":"98232","school type":"Public School","district name":"Burlington-Edison","longitude":-122.374469,"percent exempt":4.4,"id":"a6e1apxl97s2","address":"17145 Cook Road","kindergartners enrolled":45,"state":"WA"},"type":"Feature","geometry":{"type":"Point","coordinates":[-122.374469,48.508755]}},{"properties":{"city":"Mount Vernon","latitude":48.420761,"school name":"Washington Elementary School","zip code":"98273","school type":"Public School","district name":"Mount Vernon","longitude":-122.348493,"percent exempt":4.6,"id":"a6e1apzxdzmf","address":"1020 Mclean Rd","kindergartners enrolled":87,"state":"WA"},"type":"Feature","geometry":{"type":"Point","coordinates":[-122.348493,48.420761]}},{"properties":{"city":"Mount Vernon","latitude":48.415534,"school name":"Lincoln Elementary School","zip code":"98274","school type":"Public School","district name":"Mount Vernon","longitude":-122.32767,"percent exempt":5.3,"id":"a6e1aptg9khl","address":"1005 S 11Th St","kindergartners enrolled":38,"state":"WA"},"type":"Feature","geometry":{"type":"Point","coordinates":[-122.32767,48.415534]}},{"properties":{"city":"Mount Vernon","latitude":48.40651,"school name":"Jefferson Elementary","zip code":"98273","school type":"Public School","district name":"Mount Vernon","longitude":-122.318889,"percent exempt":6.7,"id":"a6e1apwj5o2s","address":"1801 E Blackburn Rd","kindergartners enrolled":75,"state":"WA"},"type":"Feature","geometry":{"type":"Point","coordinates":[-122.318889,48.40651]}},{"properties":{"city":"Burlington","latitude":48.468655,"school name":"Lucille Umbarger Elementary","zip code":"98233","school type":"Public School","district name":"Burlington-Edison","longitude":-122.319273,"percent exempt":6.8,"id":"a6e1apzp5nwh","address":"820 S Skagit St","kindergartners enrolled":59,"state":"WA"},"type":"Feature","geometry":{"type":"Point","coordinates":[-122.319273,48.468655]}},{"properties":{"city":"Sedro-Woolley","latitude":48.585718,"school name":"Samish Elementary School","zip code":"98284","school type":"Public School","district name":"Sedro-Woolley","longitude":-122.225356,"percent exempt":8.0,"id":"a6e1apslq8z2","address":"23953 Prairie Road","kindergartners enrolled":25,"state":"WA"},"type":"Feature","geometry":{"type":"Point","coordinates":[-122.225356,48.585718]}},{"properties":{"city":"Sedro-Woolley","latitude":48.514268,"school name":"Evergreen Elementary School","zip code":"98284","school type":"Public School","district name":"Sedro-Woolley","longitude":-122.222012,"percent exempt":8.2,"id":"a6e1aq2ucpti","address":"1007 Mcgarigle Road","kindergartners enrolled":61,"state":"WA"},"type":"Feature","geometry":{"type":"Point","coordinates":[-122.222012,48.514268]}},{"properties":{"city":"Lyman","latitude":48.52543,"school name":"Lyman Elementary School","zip code":"98263","school type":"Public School","district name":"Sedro-Woolley","longitude":-122.061699,"percent exempt":8.7,"id":"a6e1aq1pw47a","address":"Po Box 1308","kindergartners enrolled":23,"state":"WA"},"type":"Feature","geometry":{"type":"Point","coordinates":[-122.061699,48.52543]}},{"properties":{"city":"Clear Lake","latitude":48.46358,"school name":"Clear Lake Elementary School","zip code":"98235","school type":"Public School","district name":"Sedro-Woolley","longitude":-122.234499,"percent exempt":9.1,"id":"a6e1apzgfowx","address":"Po Box 128","kindergartners enrolled":22,"state":"WA"},"type":"Feature","geometry":{"type":"Point","coordinates":[-122.234499,48.46358]}},{"properties":{"city":"Sedro-Woolley","latitude":48.501492,"school name":"Central Elementary School","zip code":"98284","school type":"Public School","district name":"Sedro-Woolley","longitude":-122.231572,"percent exempt":10.6,"id":"a6e1aq2uj0ty","address":"601 Talcott Street","kindergartners enrolled":66,"state":"WA"},"type":"Feature","geometry":{"type":"Point","coordinates":[-122.231572,48.501492]}},{"properties":{"city":"Sedro-Woolley","latitude":48.499936,"school name":"Mary Purcell Elementary School","zip code":"98284","school type":"Public School","district name":"Sedro-Woolley","longitude":-122.229572,"percent exempt":11.3,"id":"a6e1aq2m1une","address":"700 Bennett Street","kindergartners enrolled":53,"state":"WA"},"type":"Feature","geometry":{"type":"Point","coordinates":[-122.229572,48.499936]}},{"properties":{"city":"Mount Vernon","latitude":48.377764,"school name":"Conway School","zip code":"98274","school type":"Public School","district name":"Conway","longitude":-122.253937,"percent exempt":12.2,"id":"a6e1apr5bxu4","address":"19710 State Route 564","kindergartners enrolled":41,"state":"WA"},"type":"Feature","geometry":{"type":"Point","coordinates":[-122.253937,48.377764]}},{"properties":{"city":"Mount Vernon","latitude":48.401802,"school name":"Big Lake Elementary School","zip code":"98274","school type":"Public School","district name":"Sedro-Woolley","longitude":-122.24096,"percent exempt":13.2,"id":"a6e1apoiyohk","address":"16802 Lake View Blvd.","kindergartners enrolled":38,"state":"WA"},"type":"Feature","geometry":{"type":"Point","coordinates":[-122.24096,48.401802]}},{"properties":{"city":"Anacortes","latitude":48.512484,"school name":"Whitney School","zip code":"98221","school type":"Public School","district name":"Anacortes","longitude":-122.617503,"percent exempt":13.3,"id":"a6e1apv5yqe2","address":"1200 M Avenue","kindergartners enrolled":75,"state":"WA"},"type":"Feature","geometry":{"type":"Point","coordinates":[-122.617503,48.512484]}},{"properties":{"city":"La Conner","latitude":48.39124,"school name":"La Conner Elementary","zip code":"98257","school type":"Public School","district name":"La Conner","longitude":-122.510501,"percent exempt":14.3,"id":"a6e1apnd75m2","address":"Po Box 2103","kindergartners enrolled":35,"state":"WA"},"type":"Feature","geometry":{"type":"Point","coordinates":[-122.510501,48.39124]}},{"properties":{"city":"Edison","latitude":48.561852,"school name":"Edison Elementary","zip code":"98232","school type":"Public School","district name":"Burlington-Edison","longitude":-122.440606,"percent exempt":15.2,"id":"a6e1aprxtria","address":"5801 Main St","kindergartners enrolled":46,"state":"WA"},"type":"Feature","geometry":{"type":"Point","coordinates":[-122.440606,48.561852]}},{"properties":{"city":"Concrete","latitude":48.532514,"school name":"Concrete Elementary School","zip code":"98237","school type":"Public School","district name":"Concrete","longitude":-121.759274,"percent exempt":25.8,"id":"a6e1apw09451","address":"7838 S. Superior Ave","kindergartners enrolled":31,"state":"WA"},"type":"Feature","geometry":{"type":"Point","coordinates":[-121.759274,48.532514]}}],"is_temporal":false,"author":{"url":"","metadata":"","contact_name":"","contact_address":"","source":"","contact_phone":""},"source":"","pagination":{"sort":null,"start":0,"total":35,"limit":1000000},"state":"complete","tags":"","published":"2014-08-13T01:27:16-04:00","id":142704}