{"type":"FeatureCollection","data_type":"Dataset Analysis","url_type":null,"permissions":[{"permissions":{"download":true,"view":true},"group_id":"everyone"}],"classification":null,"title":"Clipped 'Dams, National Atlas of the United States' using 'Michigan County Boundaries 2000'","count":123,"stream_id":145577,"contributor":{"url":"http://geocommons.com/users/31150","name":"karlianderson"},"data_attributes":null,"calculation_params":[{"calculation":"clip","input":{"ds1":"23846","ds2":"145253"}}],"icon_link":null,"link":"http://geocommons.com/overlays/145577.json","extent":[-90.4149,41.85,-83.09,47.1489],"geometry_types":["point"],"unique_name":null,"name":"Clipped 'Dams, National Atlas of the United States' using 'Michigan County Boundaries 2000'","feature_count":123,"description":"Dataset created by clipping 1) Dams, National Atlas of the United States  with 2) Michigan County Boundaries 2000 as the clipping dataset","next_feature":null,"is_raster":false,"short_classification":"Y","stats":{"NID_HEIGHT":{"max":210.0,"mean":44.2211382113821,"variance":1242.91332000533,"stdev":35.2549758191001,"min":6.0,"median":36.0},"NORMAL_STO":{"max":9700000000.0,"mean":78888285.2926829,"variance":7.64955140572991e+17,"stdev":874617139.423297,"min":0.0,"median":10300.0},"SURF_AREA":{"max":20358400.0,"mean":332174.487804878,"variance":6648846077590.69,"stdev":2578535.64598023,"min":0.0,"median":977.0},"MAX_STOR":{"max":9700000000.0,"mean":79153482.2113821,"variance":7.64921275870912e+17,"stdev":874597779.479751,"min":0.0,"median":16406.0},"DAMS00X020":{"max":7767,"mean":7201.10569105691,"variance":229128.849393576,"stdev":478.674053394976,"min":6055,"median":7434},"LONGITUDE":{"max":-83.09,"mean":-86.3627409756098,"variance":3.7555813356515,"stdev":1.93793223195536,"min":-90.41492,"median":-86.27333},"LATITUDE":{"max":47.14889,"mean":45.1072924390244,"variance":2.32257837176777,"stdev":1.52400077813883,"min":41.85,"median":45.78667},"YR_COMPL":{"max":null,"min":null,"median":null},"DRAIN_AREA":{"max":181000.0,"mean":1988.59837398374,"variance":265686799.451473,"stdev":16299.9018233691,"min":0.0,"median":80.0}},"features":[{"properties":{"CITY":"CONSTANTINE","NID_HEIGHT":30.0,"NORMAL_STO":5750.0,"SURF_AREA":525.0,"HAZARD":"H","RIVER":"ST JOSEPH","OWN_TYPE":"U","MAX_STOR":5750.0,"DAMS00X020":6055,"PURPOSES":"H","OTHER_NAME":null,"NIDID":"MI00535","LONGITUDE":-85.66666,"OWN_NAME":"INDIANA MICHIGAN POWER COMPANY","LATITUDE":41.85,"YR_COMPL":"1873","STATE":"MI","SYMBOL":"H","DAM_NAME":"CONSTANTINE","id":"6054","DAM_TYPE":"PGRE","DRAIN_AREA":1543.0,"COUNTY":"ST JOSEPH"},"type":"Feature","geometry":{"type":"Point","coordinates":[-85.6666599823009,41.8499999870744]}},{"properties":{"CITY":"CENTREVILLE","NID_HEIGHT":18.0,"NORMAL_STO":5225.0,"SURF_AREA":950.0,"HAZARD":"S","RIVER":"PRAIRIE RIVER","OWN_TYPE":"P","MAX_STOR":8550.0,"DAMS00X020":6078,"PURPOSES":"R","OTHER_NAME":null,"NIDID":"MI00470","LONGITUDE":-85.48333,"OWN_NAME":"FLOYD TEMPLIN","LATITUDE":41.90833,"YR_COMPL":"1972","STATE":"MI","SYMBOL":"R","DAM_NAME":"LAKE TEMPLENE DAM","id":"6077","DAM_TYPE":"RE","DRAIN_AREA":0.0,"COUNTY":"SAINT JOSEPH"},"type":"Feature","geometry":{"type":"Point","coordinates":[-85.48333001809,41.9083299963539]}},{"properties":{"CITY":"BERRIEN SPRINGS","NID_HEIGHT":36.0,"NORMAL_STO":5500.0,"SURF_AREA":600.0,"HAZARD":"H","RIVER":"SAINT JOSEPH RIVER","OWN_TYPE":"P","MAX_STOR":6400.0,"DAMS00X020":6089,"PURPOSES":"H","OTHER_NAME":null,"NIDID":"MI00538","LONGITUDE":-86.32833,"OWN_NAME":"AMERICAN ELECTRIC POWER","LATITUDE":41.945,"YR_COMPL":"1908","STATE":"MI","SYMBOL":"H","DAM_NAME":"BERRIEN SPRINGS DAM","id":"6088","DAM_TYPE":"PGRE","DRAIN_AREA":4081.0,"COUNTY":"BERRIEN"},"type":"Feature","geometry":{"type":"Point","coordinates":[-86.3283299827052,41.9449999799439]}},{"properties":{"CITY":"THREE RIVERS","NID_HEIGHT":25.0,"NORMAL_STO":6550.0,"SURF_AREA":580.0,"HAZARD":"H","RIVER":"ST JOSEPH","OWN_TYPE":"L","MAX_STOR":6550.0,"DAMS00X020":6092,"PURPOSES":"HR","OTHER_NAME":null,"NIDID":"MI00534","LONGITUDE":-85.53333,"OWN_NAME":"STURGIS CITY OF","LATITUDE":41.96667,"YR_COMPL":"1913","STATE":"MI","SYMBOL":"H","DAM_NAME":"STURGIS","id":"6091","DAM_TYPE":"CBRE","DRAIN_AREA":950.0,"COUNTY":"ST JOSEPH"},"type":"Feature","geometry":{"type":"Point","coordinates":[-85.5333300194351,41.9666699825029]}},{"properties":{"CITY":"JEFFERSON","NID_HEIGHT":33.0,"NORMAL_STO":56000.0,"SURF_AREA":800.0,"HAZARD":"L","RIVER":"GOOSE CREEK","OWN_TYPE":"P","MAX_STOR":73000.0,"DAMS00X020":6152,"PURPOSES":"R","OTHER_NAME":null,"NIDID":"MI00620","LONGITUDE":-84.325,"OWN_NAME":"LAKE COLUMBIA PROP OWNER","LATITUDE":42.08333,"YR_COMPL":"1961","STATE":"MI","SYMBOL":"R","DAM_NAME":"LAKE COLUMBIA DAM","id":"6151","DAM_TYPE":"RE","DRAIN_AREA":34.0,"COUNTY":"JACKSON"},"type":"Feature","geometry":{"type":"Point","coordinates":[-84.3249999792174,42.0833300010619]}},{"properties":{"CITY":"ANN ARBOR","NID_HEIGHT":34.0,"NORMAL_STO":5050.0,"SURF_AREA":315.0,"HAZARD":"H","RIVER":"HURON","OWN_TYPE":"L","MAX_STOR":7298.0,"DAMS00X020":6217,"PURPOSES":"SHR","OTHER_NAME":null,"NIDID":"MI00560","LONGITUDE":-83.61667,"OWN_NAME":"ANN ARBOR CITY OF","LATITUDE":42.18333,"YR_COMPL":"1913","STATE":"MI","SYMBOL":"S","DAM_NAME":"BARTON DAM","id":"6216","DAM_TYPE":"RE","DRAIN_AREA":728.0,"COUNTY":"WASHTENAW"},"type":"Feature","geometry":{"type":"Point","coordinates":[-83.6166700008824,42.1833300037522]}},{"properties":{"CITY":"BELLEVILLE","NID_HEIGHT":45.0,"NORMAL_STO":17770.0,"SURF_AREA":987.0,"HAZARD":"H","RIVER":"HURON","OWN_TYPE":"L","MAX_STOR":18000.0,"DAMS00X020":6224,"PURPOSES":"H","OTHER_NAME":null,"NIDID":"MI00194","LONGITUDE":-83.56667,"OWN_NAME":"CHARTER TOWNSHIP OF YPSILANTI","LATITUDE":42.2,"YR_COMPL":"1932","STATE":"MI","SYMBOL":"H","DAM_NAME":"FORD LAKE","id":"6223","DAM_TYPE":"RE","DRAIN_AREA":814.0,"COUNTY":"WASHTENAW"},"type":"Feature","geometry":{"type":"Point","coordinates":[-83.5666699995373,42.1999999964903]}},{"properties":{"CITY":"NEW BOSTON","NID_HEIGHT":38.0,"NORMAL_STO":17780.0,"SURF_AREA":1270.0,"HAZARD":"H","RIVER":"HURON","OWN_TYPE":"L","MAX_STOR":25000.0,"DAMS00X020":6240,"PURPOSES":"HR","OTHER_NAME":null,"NIDID":"MI00557","LONGITUDE":-83.45,"OWN_NAME":"WEISENBERGER MILLS","LATITUDE":42.21667,"YR_COMPL":"1924","STATE":"MI","SYMBOL":"H","DAM_NAME":"FRENCH LANDING","id":"6239","DAM_TYPE":"REPG","DRAIN_AREA":833.0,"COUNTY":"WAYNE"},"type":"Feature","geometry":{"type":"Point","coordinates":[-83.4500000041088,42.2166699892285]}},{"properties":{"CITY":"MICHIGAN CENTER","NID_HEIGHT":9.5,"NORMAL_STO":5280.0,"SURF_AREA":2160.0,"HAZARD":"S","RIVER":"GRAND RIVER","OWN_TYPE":"L","MAX_STOR":8000.0,"DAMS00X020":6245,"PURPOSES":"R","OTHER_NAME":null,"NIDID":"MI00122","LONGITUDE":-84.31834,"OWN_NAME":"LEONI TOWNSHIP","LATITUDE":42.22167,"YR_COMPL":"1911","STATE":"MI","SYMBOL":"R","DAM_NAME":"MICHIGAN CENTER LAKE DAM","id":"6244","DAM_TYPE":"PG","DRAIN_AREA":62.9,"COUNTY":"JACKSON"},"type":"Feature","geometry":{"type":"Point","coordinates":[-84.3183399829902,42.2216699990493]}},{"properties":{"CITY":"COMSTOCK","NID_HEIGHT":26.0,"NORMAL_STO":6000.0,"SURF_AREA":1000.0,"HAZARD":"H","RIVER":"KALAMAZOO","OWN_TYPE":"P","MAX_STOR":10000.0,"DAMS00X020":6272,"PURPOSES":"H","OTHER_NAME":null,"NIDID":"MI00146","LONGITUDE":-85.5,"OWN_NAME":"STS HYDROPOWER LTD","LATITUDE":42.28333,"YR_COMPL":"1941","STATE":"MI","SYMBOL":"H","DAM_NAME":"MORROW","id":"6271","DAM_TYPE":"PG","DRAIN_AREA":991.0,"COUNTY":"KALAMAZOO"},"type":"Feature","geometry":{"type":"Point","coordinates":[-85.5000000108281,42.2833300064424]}},{"properties":{"CITY":"HENRIETTA STATION","NID_HEIGHT":7.5,"NORMAL_STO":5000.0,"SURF_AREA":400.0,"HAZARD":"L","RIVER":"TRIBUTARY TO PORTAGE RIVER","OWN_TYPE":"S","MAX_STOR":6500.0,"DAMS00X020":6306,"PURPOSES":"R","OTHER_NAME":null,"NIDID":"MI00733","LONGITUDE":-84.25667,"OWN_NAME":"MDNR PARKS &amp; RECREATION","LATITUDE":42.35833,"YR_COMPL":"1957","STATE":"MI","SYMBOL":"R","DAM_NAME":"PORTAGE LAKE DAM","id":"6305","DAM_TYPE":"RE","DRAIN_AREA":5.7,"COUNTY":"JACKSON"},"type":"Feature","geometry":{"type":"Point","coordinates":[-84.2566699987277,42.3583300084602]}},{"properties":{"CITY":"DEXTER","NID_HEIGHT":20.0,"NORMAL_STO":9600.0,"SURF_AREA":1050.0,"HAZARD":"S","RIVER":"HURON RIVER","OWN_TYPE":"L","MAX_STOR":12000.0,"DAMS00X020":6378,"PURPOSES":"R","OTHER_NAME":null,"NIDID":"MI00011","LONGITUDE":-83.675,"OWN_NAME":"HURON-CLINTON METRO AUTHORITY","LATITUDE":42.51333,"YR_COMPL":"1946","STATE":"MI","SYMBOL":"R","DAM_NAME":"KENT LAKE DAM","id":"6377","DAM_TYPE":"REPG","DRAIN_AREA":147.0,"COUNTY":"LIVINGSTON"},"type":"Feature","geometry":{"type":"Point","coordinates":[-83.675000010162,42.5133300223164]}},{"properties":{"CITY":"NEW RICHMOND","NID_HEIGHT":30.0,"NORMAL_STO":17200.0,"SURF_AREA":1600.0,"HAZARD":"L","RIVER":"KALAMAZOO","OWN_TYPE":"U","MAX_STOR":20640.0,"DAMS00X020":6395,"PURPOSES":"H","OTHER_NAME":"CALKINS BRIDGE","NIDID":"MI00151","LONGITUDE":-85.9533,"OWN_NAME":"CONSUMERS ENERGY COMPANY","LATITUDE":42.5634,"YR_COMPL":"1936","STATE":"MI","SYMBOL":"H","DAM_NAME":"ALLEGAN","id":"6394","DAM_TYPE":"PGRE","DRAIN_AREA":1550.0,"COUNTY":"ALLEGAN"},"type":"Feature","geometry":{"type":"Point","coordinates":[-85.9532999935769,42.5634000070417]}},{"properties":{"CITY":"OXBOW","NID_HEIGHT":15.0,"NORMAL_STO":6900.0,"SURF_AREA":290.0,"HAZARD":"H","RIVER":"HURON RIVER","OWN_TYPE":"P","MAX_STOR":2100.0,"DAMS00X020":6437,"PURPOSES":"R","OTHER_NAME":null,"NIDID":"MI00263","LONGITUDE":-83.48167,"OWN_NAME":"OAKLAND COUNTY DRAIN COMMISSIONER","LATITUDE":42.64,"YR_COMPL":"1964","STATE":"MI","SYMBOL":"R","DAM_NAME":"OXBOW DAM","id":"6436","DAM_TYPE":"REPG","DRAIN_AREA":25.7,"COUNTY":"OAKLAND"},"type":"Feature","geometry":{"type":"Point","coordinates":[-83.481669977878,42.639999988955]}},{"properties":{"CITY":"STONY CREEK","NID_HEIGHT":32.0,"NORMAL_STO":5000.0,"SURF_AREA":590.0,"HAZARD":"H","RIVER":"STONY CREEK","OWN_TYPE":"L","MAX_STOR":13000.0,"DAMS00X020":6468,"PURPOSES":"R","OTHER_NAME":null,"NIDID":"MI00685","LONGITUDE":-83.09,"OWN_NAME":"HURON-CLINTON METRO AUTHORITY","LATITUDE":42.71667,"YR_COMPL":"1961","STATE":"MI","SYMBOL":"R","DAM_NAME":"LOWER STONY LAKE DAM","id":"6467","DAM_TYPE":"PGRE","DRAIN_AREA":68.2,"COUNTY":"MACOMB"},"type":"Feature","geometry":{"type":"Point","coordinates":[-83.0900000234827,42.71667000268]}},{"properties":{"CITY":"BYRON","NID_HEIGHT":18.0,"NORMAL_STO":30000.0,"SURF_AREA":416.0,"HAZARD":"S","RIVER":"NORTH ORE CREEK","OWN_TYPE":"L","MAX_STOR":35000.0,"DAMS00X020":6496,"PURPOSES":"CO","OTHER_NAME":null,"NIDID":"MI00117","LONGITUDE":-83.84167,"OWN_NAME":"ARGENTINE TOWNSHIP","LATITUDE":42.79139,"YR_COMPL":"1929","STATE":"MI","SYMBOL":"C","DAM_NAME":"ARGENTINE DAM","id":"6495","DAM_TYPE":"REPG","DRAIN_AREA":92.0,"COUNTY":"GENESEE"},"type":"Feature","geometry":{"type":"Point","coordinates":[-83.8416700069356,42.7913900227454]}},{"properties":{"CITY":"SARANAC","NID_HEIGHT":65.8,"NORMAL_STO":2900.0,"SURF_AREA":110.0,"HAZARD":"S","RIVER":"SESSIONS CREEK","OWN_TYPE":"S","MAX_STOR":3500.0,"DAMS00X020":6554,"PURPOSES":"R","OTHER_NAME":null,"NIDID":"MI00794","LONGITUDE":-85.1261,"OWN_NAME":"MDNR PARKS &amp; RECREATION","LATITUDE":42.94533,"YR_COMPL":"1981","STATE":"MI","SYMBOL":"R","DAM_NAME":"SESSIONS CREEK DAM","id":"6553","DAM_TYPE":"RE","DRAIN_AREA":15.5,"COUNTY":"IONIA"},"type":"Feature","geometry":{"type":"Point","coordinates":[-85.1261000232414,42.9453300184403]}},{"properties":{"CITY":"LYONS","NID_HEIGHT":33.0,"NORMAL_STO":6000.0,"SURF_AREA":660.0,"HAZARD":"H","RIVER":"GRAND","OWN_TYPE":"U","MAX_STOR":6000.0,"DAMS00X020":6561,"PURPOSES":"H","OTHER_NAME":null,"NIDID":"MI00206","LONGITUDE":-84.90334,"OWN_NAME":"CONSUMERS ENERGY COMPANY","LATITUDE":42.95666,"YR_COMPL":"1907","STATE":"MI","SYMBOL":"H","DAM_NAME":"WEBBER","id":"6560","DAM_TYPE":"PGRE","DRAIN_AREA":1750.0,"COUNTY":"IONA"},"type":"Feature","geometry":{"type":"Point","coordinates":[-84.9033400181009,42.9566600128946]}},{"properties":{"CITY":"FLINT","NID_HEIGHT":22.0,"NORMAL_STO":5200.0,"SURF_AREA":684.0,"HAZARD":"S","RIVER":"FLINT RIVER","OWN_TYPE":"L","MAX_STOR":6887.0,"DAMS00X020":6608,"PURPOSES":"R","OTHER_NAME":null,"NIDID":"MI00469","LONGITUDE":-83.66,"OWN_NAME":"GENESEE COUNTY PARKS &amp; REC. COMM","LATITUDE":43.08,"YR_COMPL":"1971","STATE":"MI","SYMBOL":"R","DAM_NAME":"MOTT DAM","id":"6607","DAM_TYPE":"REPG","DRAIN_AREA":612.0,"COUNTY":"GENESEE"},"type":"Feature","geometry":{"type":"Point","coordinates":[-83.6599999806996,43.0799999814197]}},{"properties":{"CITY":"GENESEE","NID_HEIGHT":35.0,"NORMAL_STO":15350.0,"SURF_AREA":1400.0,"HAZARD":"H","RIVER":"FLINT RIVER","OWN_TYPE":"L","MAX_STOR":29900.0,"DAMS00X020":6626,"PURPOSES":"R","OTHER_NAME":null,"NIDID":"MI00064","LONGITUDE":-83.485,"OWN_NAME":"CITY OF FLINT","LATITUDE":43.12,"YR_COMPL":"1954","STATE":"MI","SYMBOL":"R","DAM_NAME":"HOLLOWAY DAM","id":"6625","DAM_TYPE":"PGRE","DRAIN_AREA":526.0,"COUNTY":"GENESEE"},"type":"Feature","geometry":{"type":"Point","coordinates":[-83.4849999759916,43.1200000115547]}},{"properties":{"CITY":"CLOVERVILLE","NID_HEIGHT":21.0,"NORMAL_STO":15432.0,"SURF_AREA":1728.0,"HAZARD":"H","RIVER":"BLACK AND MOSQUITO CREEKS","OWN_TYPE":"L","MAX_STOR":20616.0,"DAMS00X020":6664,"PURPOSES":"O","OTHER_NAME":null,"NIDID":"MI00613","LONGITUDE":-86.04166,"OWN_NAME":"MUSKEGON COUNTY","LATITUDE":43.25,"YR_COMPL":"1973","STATE":"MI","SYMBOL":"O","DAM_NAME":"MUSKEGON WASTE WATER LAGOONS","id":"6663","DAM_TYPE":"RE","DRAIN_AREA":2.7,"COUNTY":"MUSKEGON"},"type":"Feature","geometry":{"type":"Point","coordinates":[-86.0416599923895,43.2499999763069]}},{"properties":{"CITY":"NEWAYGO","NID_HEIGHT":106.0,"NORMAL_STO":22500.0,"SURF_AREA":3971.0,"HAZARD":"H","RIVER":"MUSKEGON","OWN_TYPE":"U","MAX_STOR":22500.0,"DAMS00X020":6729,"PURPOSES":"HRC","OTHER_NAME":null,"NIDID":"MI00171","LONGITUDE":-85.63,"OWN_NAME":"CONSUMERS ENERGY COMPANY","LATITUDE":43.48833,"YR_COMPL":"1931","STATE":"MI","SYMBOL":"H","DAM_NAME":"HARDY","id":"6728","DAM_TYPE":"RE","DRAIN_AREA":1851.0,"COUNTY":"NEWAYGO"},"type":"Feature","geometry":{"type":"Point","coordinates":[-85.6300000240118,43.4883300001152]}},{"properties":{"CITY":"NEWAYGO","NID_HEIGHT":43.3,"NORMAL_STO":10000.0,"SURF_AREA":550.0,"HAZARD":"H","RIVER":"MUSKEGON","OWN_TYPE":"U","MAX_STOR":10000.0,"DAMS00X020":6777,"PURPOSES":"HR","OTHER_NAME":null,"NIDID":"MI00195","LONGITUDE":-85.47833,"OWN_NAME":"CONSUMERS ENERGY COMPANY","LATITUDE":43.61333,"YR_COMPL":"1906","STATE":"MI","SYMBOL":"H","DAM_NAME":"ROGERS","id":"6776","DAM_TYPE":"PGRE","DRAIN_AREA":1749.0,"COUNTY":"MECOSTA"},"type":"Feature","geometry":{"type":"Point","coordinates":[-85.4783300082692,43.6133300034781]}},{"properties":{"CITY":"MOUNT PLEASANT","NID_HEIGHT":45.0,"NORMAL_STO":5760.0,"SURF_AREA":730.0,"HAZARD":"H","RIVER":"CHIPPEWA RIVER","OWN_TYPE":"P","MAX_STOR":13500.0,"DAMS00X020":6791,"PURPOSES":"R","OTHER_NAME":null,"NIDID":"MI00434","LONGITUDE":-84.99139,"OWN_NAME":"LAKE ISABELLA CORPORATION","LATITUDE":43.65333,"YR_COMPL":"1967","STATE":"MI","SYMBOL":"R","DAM_NAME":"LAKE ISABELLA DAM","id":"6790","DAM_TYPE":"RE","DRAIN_AREA":416.0,"COUNTY":"ISABELLA"},"type":"Feature","geometry":{"type":"Point","coordinates":[-84.9913900074901,43.6533299851816]}},{"properties":{"CITY":"SANFORD","NID_HEIGHT":36.0,"NORMAL_STO":15000.0,"SURF_AREA":1526.0,"HAZARD":"H","RIVER":"TITTABAWASSEE","OWN_TYPE":"P","MAX_STOR":15000.0,"DAMS00X020":6801,"PURPOSES":"H","OTHER_NAME":null,"NIDID":"MI00550","LONGITUDE":-84.38028,"OWN_NAME":"WOLVERINE POWER CORP","LATITUDE":43.67694,"YR_COMPL":"1925","STATE":"MI","SYMBOL":"H","DAM_NAME":"SANFORD","id":"6800","DAM_TYPE":"CN","DRAIN_AREA":1020.0,"COUNTY":"MIDLAND"},"type":"Feature","geometry":{"type":"Point","coordinates":[-84.380280020767,43.6769400045307]}},{"properties":{"CITY":"BARRYTON","NID_HEIGHT":12.6,"NORMAL_STO":6100.0,"SURF_AREA":1420.0,"HAZARD":"S","RIVER":"W BR CHIPPEWA RIVER","OWN_TYPE":"S","MAX_STOR":7500.0,"DAMS00X020":6812,"PURPOSES":"R","OTHER_NAME":null,"NIDID":"MI00364","LONGITUDE":-85.18333,"OWN_NAME":"MDNR WILDLIFE","LATITUDE":43.72,"YR_COMPL":"1954","STATE":"MI","SYMBOL":"R","DAM_NAME":"WINCHESTER DAM","id":"6811","DAM_TYPE":"RE","DRAIN_AREA":40.4,"COUNTY":"MECOSTA"},"type":"Feature","geometry":{"type":"Point","coordinates":[-85.1833300100191,43.7199999792649]}},{"properties":{"CITY":"SANFORD","NID_HEIGHT":54.0,"NORMAL_STO":36000.0,"SURF_AREA":3658.0,"HAZARD":"H","RIVER":"TITTABAWASSEE","OWN_TYPE":"U","MAX_STOR":66200.0,"DAMS00X020":6830,"PURPOSES":"HC","OTHER_NAME":null,"NIDID":"MI00549","LONGITUDE":-84.37695,"OWN_NAME":"WOLVERINE POWER CORP","LATITUDE":43.81417,"YR_COMPL":"1925","STATE":"MI","SYMBOL":"H","DAM_NAME":"EDENVILLE","id":"6829","DAM_TYPE":"PGRE","DRAIN_AREA":985.0,"COUNTY":"GLADWIN"},"type":"Feature","geometry":{"type":"Point","coordinates":[-84.3769500226534,43.8141700031469]}},{"properties":{"CITY":"LUDINGTON","NID_HEIGHT":110.0,"NORMAL_STO":54000.0,"SURF_AREA":0.0,"HAZARD":"H","RIVER":"LAKE MICHIGAN","OWN_TYPE":"U","MAX_STOR":82300.0,"DAMS00X020":6850,"PURPOSES":"H","OTHER_NAME":null,"NIDID":"MI00180","LONGITUDE":-86.4283,"OWN_NAME":"CONSUMERS ENERGY CO &amp; DETROIT EDISON CO","LATITUDE":43.895,"YR_COMPL":"1973","STATE":"MI","SYMBOL":"H","DAM_NAME":"LUDINGTON","id":"6849","DAM_TYPE":"RE","DRAIN_AREA":0.0,"COUNTY":"MASON"},"type":"Feature","geometry":{"type":"Point","coordinates":[-86.4283000063557,43.8949999839729]}},{"properties":{"CITY":"EVART","NID_HEIGHT":9.0,"NORMAL_STO":15000.0,"SURF_AREA":187.0,"HAZARD":"S","RIVER":"DOC AND TOM CREEK","OWN_TYPE":"P","MAX_STOR":20000.0,"DAMS00X020":6869,"PURPOSES":"RO","OTHER_NAME":null,"NIDID":"MI00115","LONGITUDE":-84.98333,"OWN_NAME":"LAKE OF THE PINES ASSOCIATION","LATITUDE":43.95,"YR_COMPL":"1955","STATE":"MI","SYMBOL":"R","DAM_NAME":"DOC AND TOM LAKE LEVEL CONTROL STRUCTURE","id":"6868","DAM_TYPE":"RE","DRAIN_AREA":0.0,"COUNTY":"CLARE"},"type":"Feature","geometry":{"type":"Point","coordinates":[-84.9833300046386,43.9499999951389]}},{"properties":{"CITY":"HIGHWOOD","NID_HEIGHT":36.0,"NORMAL_STO":6000.0,"SURF_AREA":1286.0,"HAZARD":"H","RIVER":"TITTABAWASSEE","OWN_TYPE":"U","MAX_STOR":9000.0,"DAMS00X020":6871,"PURPOSES":"HC","OTHER_NAME":null,"NIDID":"MI00548","LONGITUDE":-84.33611,"OWN_NAME":"WOLVERINE POWER CORP","LATITUDE":43.95861,"YR_COMPL":"1925","STATE":"MI","SYMBOL":"H","DAM_NAME":"SMALLWOOD","id":"6870","DAM_TYPE":"PGRE","DRAIN_AREA":342.0,"COUNTY":"GLADWIN"},"type":"Feature","geometry":{"type":"Point","coordinates":[-84.3361099982301,43.9586099850255]}},{"properties":{"CITY":"LUDINGTON STATE PARK","NID_HEIGHT":20.0,"NORMAL_STO":85600.0,"SURF_AREA":4750.0,"HAZARD":"H","RIVER":"BIG SABLE RIVER","OWN_TYPE":"S","MAX_STOR":102500.0,"DAMS00X020":6890,"PURPOSES":"O","OTHER_NAME":null,"NIDID":"MI00236","LONGITUDE":-86.49223,"OWN_NAME":"MDNR","LATITUDE":44.0325,"YR_COMPL":"1913","STATE":"MI","SYMBOL":"O","DAM_NAME":"HAMLIN LAKE DAM","id":"6889","DAM_TYPE":"PGRE","DRAIN_AREA":206.0,"COUNTY":"MASON"},"type":"Feature","geometry":{"type":"Point","coordinates":[-86.4922299937012,44.0324999876721]}},{"properties":{"CITY":"WHITE STAR","NID_HEIGHT":57.0,"NORMAL_STO":15000.0,"SURF_AREA":2087.0,"HAZARD":"H","RIVER":"TITTABAWASSEE","OWN_TYPE":"U","MAX_STOR":15000.0,"DAMS00X020":6893,"PURPOSES":"HC","OTHER_NAME":null,"NIDID":"MI00547","LONGITUDE":-84.34194,"OWN_NAME":"WOLVERINE POWER CORP","LATITUDE":44.04111,"YR_COMPL":"1925","STATE":"MI","SYMBOL":"H","DAM_NAME":"SECORD","id":"6892","DAM_TYPE":"PG","DRAIN_AREA":210.0,"COUNTY":"GLADWIN"},"type":"Feature","geometry":{"type":"Point","coordinates":[-84.3419399770384,44.0411099775587]}},{"properties":{"CITY":"WOODEN SHOE VILLAGE","NID_HEIGHT":36.0,"NORMAL_STO":12500.0,"SURF_AREA":977.0,"HAZARD":"H","RIVER":"SUGAR RIVER","OWN_TYPE":"P","MAX_STOR":17500.0,"DAMS00X020":6915,"PURPOSES":"RO","OTHER_NAME":null,"NIDID":"MI00471","LONGITUDE":-84.445,"OWN_NAME":"GLADWIN COUNTY DRAIN COMMISSIONER","LATITUDE":44.11333,"YR_COMPL":"1976","STATE":"MI","SYMBOL":"R","DAM_NAME":"LAKE LANCER DAM","id":"6914","DAM_TYPE":"RE","DRAIN_AREA":33.2,"COUNTY":"GLADWIN"},"type":"Feature","geometry":{"type":"Point","coordinates":[-84.4450000211908,44.1133300169294]}},{"properties":{"CITY":"OMER","NID_HEIGHT":48.0,"NORMAL_STO":6405.0,"SURF_AREA":305.0,"HAZARD":"S","RIVER":"WELLS CREEK","OWN_TYPE":"P","MAX_STOR":7440.0,"DAMS00X020":6917,"PURPOSES":"R","OTHER_NAME":null,"NIDID":"MI00437","LONGITUDE":-84.05833,"OWN_NAME":"FOREST LAKE PROPERTY OWNERS ASSOC.","LATITUDE":44.12167,"YR_COMPL":"1971","STATE":"MI","SYMBOL":"R","DAM_NAME":"FOREST LAKE DAM","id":"6916","DAM_TYPE":"RE","DRAIN_AREA":0.0,"COUNTY":"ARENAC"},"type":"Feature","geometry":{"type":"Point","coordinates":[-84.0583299797535,44.1216700017333]}},{"properties":{"CITY":"OMER","NID_HEIGHT":32.0,"NORMAL_STO":6150.0,"SURF_AREA":410.0,"HAZARD":"S","RIVER":"PETERSON CREEK","OWN_TYPE":"P","MAX_STOR":6800.0,"DAMS00X020":6961,"PURPOSES":"R","OTHER_NAME":null,"NIDID":"MI00296","LONGITUDE":-84.05833,"OWN_NAME":"OGEMAW LAKE PROPERTY OWNERS","LATITUDE":44.245,"YR_COMPL":"1964","STATE":"MI","SYMBOL":"R","DAM_NAME":"LAKE OGEMAW DAM","id":"6960","DAM_TYPE":"RE","DRAIN_AREA":6.1,"COUNTY":"OGEMAW"},"type":"Feature","geometry":{"type":"Point","coordinates":[-84.0583299797535,44.2449999933889]}},{"properties":{"CITY":"MANISTEE","NID_HEIGHT":82.0,"NORMAL_STO":39500.0,"SURF_AREA":1540.0,"HAZARD":"H","RIVER":"MANISTEE","OWN_TYPE":"U","MAX_STOR":39500.0,"DAMS00X020":6965,"PURPOSES":"R","OTHER_NAME":null,"NIDID":"MI00200","LONGITUDE":-85.93833,"OWN_NAME":"CONSUMERS ENERGY COMPANY","LATITUDE":44.25834,"YR_COMPL":"1918","STATE":"MI","SYMBOL":"R","DAM_NAME":"TIPPY","id":"6964","DAM_TYPE":"PGRE","DRAIN_AREA":1451.0,"COUNTY":"MANISTEE"},"type":"Feature","geometry":{"type":"Point","coordinates":[-85.9383299915856,44.2583399880135]}},{"properties":{"CITY":"MANISTEE","NID_HEIGHT":18.0,"NORMAL_STO":39500.0,"SURF_AREA":1540.0,"HAZARD":"L","RIVER":"PINE","OWN_TYPE":"U","MAX_STOR":39500.0,"DAMS00X020":6966,"PURPOSES":"R","OTHER_NAME":null,"NIDID":"MI00229","LONGITUDE":-85.93833,"OWN_NAME":"CONSUMERS ENERGY COMPANY","LATITUDE":44.25834,"YR_COMPL":"1918","STATE":"MI","SYMBOL":"R","DAM_NAME":"STRONACH","id":"6965","DAM_TYPE":"PG","DRAIN_AREA":0.0,"COUNTY":"MANISTEE"},"type":"Feature","geometry":{"type":"Point","coordinates":[-85.9383299915856,44.2583399880135]}},{"properties":{"CITY":"MANISTEE","NID_HEIGHT":90.0,"NORMAL_STO":69000.0,"SURF_AREA":2025.0,"HAZARD":"H","RIVER":"MANISTEE","OWN_TYPE":"U","MAX_STOR":69000.0,"DAMS00X020":7001,"PURPOSES":"H","OTHER_NAME":null,"NIDID":"MI00174","LONGITUDE":-85.82,"OWN_NAME":"CONSUMERS ENERGY COMPANY","LATITUDE":44.38,"YR_COMPL":"1925","STATE":"MI","SYMBOL":"H","DAM_NAME":"HODENPYL","id":"7000","DAM_TYPE":"PGRE","DRAIN_AREA":1018.0,"COUNTY":"MANISTEE"},"type":"Feature","geometry":{"type":"Point","coordinates":[-85.8200000097508,44.3800000163933]}},{"properties":{"CITY":"HOUGHTON HEIGHTS","NID_HEIGHT":6.0,"NORMAL_STO":11880.0,"SURF_AREA":9900.0,"HAZARD":"L","RIVER":"THE CUT","OWN_TYPE":"P","MAX_STOR":19800.0,"DAMS00X020":7022,"PURPOSES":"R","OTHER_NAME":null,"NIDID":"MI02011","LONGITUDE":-84.67167,"OWN_NAME":"HIGGINS LAKE ASSOCIATION","LATITUDE":44.43333,"YR_COMPL":"1956","STATE":"MI","SYMBOL":"R","DAM_NAME":"HIGGINS LAKE LEVEL CONTROL STRUCTURE","id":"7021","DAM_TYPE":"OT","DRAIN_AREA":0.0,"COUNTY":"ROSCOMMON"},"type":"Feature","geometry":{"type":"Point","coordinates":[-84.6716699905197,44.4333300158521]}},{"properties":{"CITY":"OSCODA","NID_HEIGHT":51.0,"NORMAL_STO":30000.0,"SURF_AREA":1800.0,"HAZARD":"H","RIVER":"AU SABLE","OWN_TYPE":"U","MAX_STOR":30000.0,"DAMS00X020":7026,"PURPOSES":"H","OTHER_NAME":null,"NIDID":"MI00169","LONGITUDE":-83.44,"OWN_NAME":"CONSUMERS ENERGY COMPANY","LATITUDE":44.435,"YR_COMPL":"1918","STATE":"MI","SYMBOL":"H","DAM_NAME":"FOOTE","id":"7025","DAM_TYPE":"PGCBRE","DRAIN_AREA":1664.0,"COUNTY":"ALCONA"},"type":"Feature","geometry":{"type":"Point","coordinates":[-83.4399999844672,44.4349999791279]}},{"properties":{"CITY":"OSCODA","NID_HEIGHT":50.0,"NORMAL_STO":30000.0,"SURF_AREA":1700.0,"HAZARD":"H","RIVER":"AU SABLE","OWN_TYPE":"U","MAX_STOR":30000.0,"DAMS00X020":7050,"PURPOSES":"HR","OTHER_NAME":null,"NIDID":"MI00161","LONGITUDE":-83.57333,"OWN_NAME":"CONSUMERS ENERGY COMPANY","LATITUDE":44.47333,"YR_COMPL":"1912","STATE":"MI","SYMBOL":"H","DAM_NAME":"COOKE","id":"7049","DAM_TYPE":"PGCBRE","DRAIN_AREA":1641.0,"COUNTY":"ALCONA"},"type":"Feature","geometry":{"type":"Point","coordinates":[-83.5733299957645,44.4733299975556]}},{"properties":{"CITY":"OSCODA","NID_HEIGHT":40.0,"NORMAL_STO":12600.0,"SURF_AREA":790.0,"HAZARD":"H","RIVER":"AU SABLE","OWN_TYPE":"U","MAX_STOR":12600.0,"DAMS00X020":7053,"PURPOSES":"HR","OTHER_NAME":null,"NIDID":"MI00178","LONGITUDE":-83.72,"OWN_NAME":"CONSUMERS ENERGY COMPANY","LATITUDE":44.48833,"YR_COMPL":"1913","STATE":"MI","SYMBOL":"H","DAM_NAME":"LOUD","id":"7052","DAM_TYPE":"PGRE","DRAIN_AREA":1602.0,"COUNTY":"ALCONA"},"type":"Feature","geometry":{"type":"Point","coordinates":[-83.7200000016863,44.4883299785866]}},{"properties":{"CITY":"OSCODA","NID_HEIGHT":60.0,"NORMAL_STO":25000.0,"SURF_AREA":1075.0,"HAZARD":"H","RIVER":"AU SABLE","OWN_TYPE":"U","MAX_STOR":25000.0,"DAMS00X020":7085,"PURPOSES":"H","OTHER_NAME":null,"NIDID":"MI00150","LONGITUDE":-83.79667,"OWN_NAME":"CONSUMERS ENERGY COMPANY","LATITUDE":44.56167,"YR_COMPL":"1924","STATE":"MI","SYMBOL":"H","DAM_NAME":"ALCONA","id":"7084","DAM_TYPE":"PGRE","DRAIN_AREA":1469.0,"COUNTY":"ALCONA"},"type":"Feature","geometry":{"type":"Point","coordinates":[-83.7966700154112,44.5616699941979]}},{"properties":{"CITY":"ELBERTA","NID_HEIGHT":7.0,"NORMAL_STO":15520.0,"SURF_AREA":9711.0,"HAZARD":"L","RIVER":"CRYSTAL LAKE OUTLET","OWN_TYPE":"P","MAX_STOR":27190.0,"DAMS00X020":7114,"PURPOSES":"RO","OTHER_NAME":null,"NIDID":"MI00349","LONGITUDE":-86.14833,"OWN_NAME":"BENZIE COUNTY ROAD COMMISSION","LATITUDE":44.635,"YR_COMPL":"1976","STATE":"MI","SYMBOL":"R","DAM_NAME":"CRYSTAL LAKE LEVEL CONTROL DAM","id":"7113","DAM_TYPE":"PG","DRAIN_AREA":0.0,"COUNTY":"BENZIE"},"type":"Feature","geometry":{"type":"Point","coordinates":[-86.1483300166078,44.6349999845084]}},{"properties":{"CITY":"CUMINS FLATS","NID_HEIGHT":38.0,"NORMAL_STO":12000.0,"SURF_AREA":860.0,"HAZARD":"H","RIVER":"AU SABLE","OWN_TYPE":"U","MAX_STOR":12000.0,"DAMS00X020":7121,"PURPOSES":"HR","OTHER_NAME":null,"NIDID":"MI00186","LONGITUDE":-84.125,"OWN_NAME":"CONSUMERS ENERGY COMPANY","LATITUDE":44.65833,"YR_COMPL":"1917","STATE":"MI","SYMBOL":"H","DAM_NAME":"MIO","id":"7120","DAM_TYPE":"PGRE","DRAIN_AREA":1100.0,"COUNTY":"OSCODA"},"type":"Feature","geometry":{"type":"Point","coordinates":[-84.1250000222682,44.6583300219052]}},{"properties":{"CITY":"PEMBERTHY CROSSING","NID_HEIGHT":6.0,"NORMAL_STO":5000.0,"SURF_AREA":1306.0,"HAZARD":"L","RIVER":"PORTAGE CREEK","OWN_TYPE":"P","MAX_STOR":12000.0,"DAMS00X020":7123,"PURPOSES":"R","OTHER_NAME":null,"NIDID":"MI00748","LONGITUDE":-84.81834,"OWN_NAME":"MARGRETHE LAKE ASSOCIATION","LATITUDE":44.66,"YR_COMPL":"1960","STATE":"MI","SYMBOL":"R","DAM_NAME":"LAKE MARGRETHE LEVEL CONTROL DAM","id":"7122","DAM_TYPE":"PG","DRAIN_AREA":0.0,"COUNTY":"CRAWFORD"},"type":"Feature","geometry":{"type":"Point","coordinates":[-84.8183399964416,44.659999985181]}},{"properties":{"CITY":"TRAVERSE CITY","NID_HEIGHT":54.0,"NORMAL_STO":1100.0,"SURF_AREA":103.0,"HAZARD":"H","RIVER":"BOARDMAN","OWN_TYPE":"L","MAX_STOR":1510.0,"DAMS00X020":7135,"PURPOSES":"H","OTHER_NAME":null,"NIDID":"MI00512","LONGITUDE":-85.51667,"OWN_NAME":"TRAVERSE CITY LIGHT &amp; POWER BOARD","LATITUDE":44.7,"YR_COMPL":"1894","STATE":"MI","SYMBOL":"H","DAM_NAME":"BOARDMAN","id":"7134","DAM_TYPE":"RE","DRAIN_AREA":267.0,"COUNTY":"GRAND TRAVERSE"},"type":"Feature","geometry":{"type":"Point","coordinates":[-85.5166700035663,44.700000015316]}},{"properties":{"CITY":"TRAVERSE CITY","NID_HEIGHT":21.0,"NORMAL_STO":9000.0,"SURF_AREA":350.0,"HAZARD":"H","RIVER":"BOARDMAN RIVER","OWN_TYPE":"L","MAX_STOR":11200.0,"DAMS00X020":7149,"PURPOSES":"R","OTHER_NAME":null,"NIDID":"MI00511","LONGITUDE":-85.62167,"OWN_NAME":"TRAVERSE CITY OF TRAVERSE CITY","LATITUDE":44.76167,"YR_COMPL":"1867","STATE":"MI","SYMBOL":"R","DAM_NAME":"UNION STREET DAM","id":"7148","DAM_TYPE":"REPG","DRAIN_AREA":276.0,"COUNTY":"GRAND TRAVERSE"},"type":"Feature","geometry":{"type":"Point","coordinates":[-85.6216700160774,44.7616699995785]}},{"properties":{"CITY":"HUBBARD LAKE","NID_HEIGHT":6.0,"NORMAL_STO":57000.0,"SURF_AREA":9280.0,"HAZARD":"L","RIVER":"THUNDER BAY","OWN_TYPE":"U","MAX_STOR":57000.0,"DAMS00X020":7176,"PURPOSES":"HR","OTHER_NAME":null,"NIDID":"MI00176","LONGITUDE":-83.59666,"OWN_NAME":"ALPENA POWER CO","LATITUDE":44.86,"YR_COMPL":"1890","STATE":"MI","SYMBOL":"H","DAM_NAME":"HUBBARD LAKE","id":"7175","DAM_TYPE":"PGRE","DRAIN_AREA":143.0,"COUNTY":"ALPENA"},"type":"Feature","geometry":{"type":"Point","coordinates":[-83.5966599847298,44.8599999905616]}},{"properties":{"CITY":"ELK RAPIDS","NID_HEIGHT":21.0,"NORMAL_STO":75000.0,"SURF_AREA":34.0,"HAZARD":"L","RIVER":"ELK","OWN_TYPE":"L","MAX_STOR":75000.0,"DAMS00X020":7184,"PURPOSES":"H","OTHER_NAME":null,"NIDID":"MI00517","LONGITUDE":-85.4,"OWN_NAME":"ANTRIM COUNTY","LATITUDE":44.9,"YR_COMPL":"1916","STATE":"MI","SYMBOL":"H","DAM_NAME":"ELK RAPIDS","id":"7183","DAM_TYPE":"PG","DRAIN_AREA":513.0,"COUNTY":"ANTRIM"},"type":"Feature","geometry":{"type":"Point","coordinates":[-85.4000000081379,44.9000000206965]}},{"properties":{"CITY":"BELLAIRE","NID_HEIGHT":18.0,"NORMAL_STO":6210.0,"SURF_AREA":1520.0,"HAZARD":"H","RIVER":"INTERMEDIATE RIVER","OWN_TYPE":"P","MAX_STOR":12180.0,"DAMS00X020":7216,"PURPOSES":"O","OTHER_NAME":null,"NIDID":"MI00435","LONGITUDE":-85.20667,"OWN_NAME":"ANTRIM COUNTY BOARD OF PUBLIC WORKS","LATITUDE":44.97667,"YR_COMPL":"1906","STATE":"MI","SYMBOL":"O","DAM_NAME":"BELLAIRE DAM","id":"7215","DAM_TYPE":"REPG","DRAIN_AREA":145.4,"COUNTY":"ANTRIM"},"type":"Feature","geometry":{"type":"Point","coordinates":[-85.2066699758539,44.97666998599]}},{"properties":{"CITY":"LELAND","NID_HEIGHT":19.0,"NORMAL_STO":45150.0,"SURF_AREA":2849.0,"HAZARD":"H","RIVER":"TRIBUTARY TO LAKE MICHIGAN","OWN_TYPE":"P","MAX_STOR":86950.0,"DAMS00X020":7232,"PURPOSES":"O","OTHER_NAME":null,"NIDID":"MI00510","LONGITUDE":-85.76167,"OWN_NAME":"LEELANAU COUNTY DRAIN COMMISSIONER","LATITUDE":45.02333,"YR_COMPL":"1910","STATE":"MI","SYMBOL":"O","DAM_NAME":"LELAND DAM","id":"7231","DAM_TYPE":"CNRE","DRAIN_AREA":140.0,"COUNTY":"LEELANAU"},"type":"Feature","geometry":{"type":"Point","coordinates":[-85.7616700004713,45.0233300123522]}},{"properties":{"CITY":"LACHINE","NID_HEIGHT":20.0,"NORMAL_STO":40100.0,"SURF_AREA":7000.0,"HAZARD":"L","RIVER":"THUNDER BAY","OWN_TYPE":"U","MAX_STOR":40100.0,"DAMS00X020":7233,"PURPOSES":"HR","OTHER_NAME":null,"NIDID":"MI00202","LONGITUDE":-83.79333,"OWN_NAME":"ALPENA POWER CO","LATITUDE":45.02333,"YR_COMPL":"1930","STATE":"MI","SYMBOL":"H","DAM_NAME":"UPPER SOUTH DAM","id":"7232","DAM_TYPE":"PGRE","DRAIN_AREA":182.0,"COUNTY":"ALPENA"},"type":"Feature","geometry":{"type":"Point","coordinates":[-83.7933299919968,45.0233300123522]}},{"properties":{"CITY":"ALPENA","NID_HEIGHT":24.0,"NORMAL_STO":6000.0,"SURF_AREA":700.0,"HAZARD":"S","RIVER":"THUNDER BAY","OWN_TYPE":"U","MAX_STOR":6000.0,"DAMS00X020":7248,"PURPOSES":"HR","OTHER_NAME":null,"NIDID":"MI00188","LONGITUDE":-83.43333,"OWN_NAME":"ALPENA POWER CO","LATITUDE":45.07333,"YR_COMPL":"1910","STATE":"MI","SYMBOL":"H","DAM_NAME":"NINTH STREET","id":"7247","DAM_TYPE":"PG","DRAIN_AREA":1275.0,"COUNTY":"ALPENA"},"type":"Feature","geometry":{"type":"Point","coordinates":[-83.4333300113706,45.0733300136973]}},{"properties":{"CITY":"ALPENA","NID_HEIGHT":43.0,"NORMAL_STO":27550.0,"SURF_AREA":1700.0,"HAZARD":"H","RIVER":"THUNDER BAY","OWN_TYPE":"U","MAX_STOR":27550.0,"DAMS00X020":7254,"PURPOSES":"HR","OTHER_NAME":null,"NIDID":"MI00189","LONGITUDE":-83.52333,"OWN_NAME":"ALPENA POWER CO","LATITUDE":45.09667,"YR_COMPL":"1924","STATE":"MI","SYMBOL":"H","DAM_NAME":"NORWAY POINT","id":"7253","DAM_TYPE":"PGRE","DRAIN_AREA":1260.0,"COUNTY":"ALPENA"},"type":"Feature","geometry":{"type":"Point","coordinates":[-83.5233299944193,45.0966699795321]}},{"properties":{"CITY":"TOWER","NID_HEIGHT":50.0,"NORMAL_STO":620.0,"SURF_AREA":102.0,"HAZARD":"L","RIVER":"BLACK","OWN_TYPE":"U","MAX_STOR":620.0,"DAMS00X020":7322,"PURPOSES":"HR","OTHER_NAME":null,"NIDID":"MI00545","LONGITUDE":-84.3,"OWN_NAME":"WOLVERINE POWER CORP","LATITUDE":45.36666,"YR_COMPL":"1918","STATE":"MI","SYMBOL":"H","DAM_NAME":"TOWER","id":"7321","DAM_TYPE":"PG","DRAIN_AREA":302.0,"COUNTY":"CHEBOYGAN"},"type":"Feature","geometry":{"type":"Point","coordinates":[-84.2999999785448,45.3666600002401]}},{"properties":{"CITY":"NONE-LAKE HURON","NID_HEIGHT":65.0,"NORMAL_STO":1950.0,"SURF_AREA":65.0,"HAZARD":"L","RIVER":"TRIB TO LAKE HURON","OWN_TYPE":"P","MAX_STOR":2275.0,"DAMS00X020":7325,"PURPOSES":"T","OTHER_NAME":null,"NIDID":"MI02606","LONGITUDE":-83.77528,"OWN_NAME":"MICHIGAN LIMESTONE OPERATIONS","LATITUDE":45.40445,"YR_COMPL":"1999","STATE":"MI","SYMBOL":"T","DAM_NAME":"CLYMERS BASIN DAM","id":"7324","DAM_TYPE":"RE","DRAIN_AREA":0.1,"COUNTY":"PRESQUE ISLE"},"type":"Feature","geometry":{"type":"Point","coordinates":[-83.7752799948045,45.4044500085021]}},{"properties":{"CITY":"MARINETTE","NID_HEIGHT":49.0,"NORMAL_STO":5990.0,"SURF_AREA":465.0,"HAZARD":"H","RIVER":"MENOMINEE","OWN_TYPE":"U","MAX_STOR":5990.0,"DAMS00X020":7345,"PURPOSES":"HR","OTHER_NAME":null,"NIDID":"MI00207","LONGITUDE":-87.80334,"OWN_NAME":"WISCONSIN ELECTRIC PWR CO","LATITUDE":45.48,"YR_COMPL":"1927","STATE":"MI","SYMBOL":"H","DAM_NAME":"WHITE RAPIDS","id":"7344","DAM_TYPE":"CNPGRE","DRAIN_AREA":3228.0,"COUNTY":"MENOMINEE"},"type":"Feature","geometry":{"type":"Point","coordinates":[-87.8033399992562,45.479999997555]}},{"properties":{"CITY":"CHEBOYGAN","NID_HEIGHT":19.0,"NORMAL_STO":49496.0,"SURF_AREA":10233.0,"HAZARD":"L","RIVER":"BLACK","OWN_TYPE":"U","MAX_STOR":105034.0,"DAMS00X020":7365,"PURPOSES":"HRF","OTHER_NAME":null,"NIDID":"MI00521","LONGITUDE":-84.395,"OWN_NAME":"BLACK RIVER LTD. PARTNERSHIP","LATITUDE":45.55167,"YR_COMPL":"1902","STATE":"MI","SYMBOL":"H","DAM_NAME":"ALVERNO","id":"7364","DAM_TYPE":"RETCER","DRAIN_AREA":621.0,"COUNTY":"CHEBOYGAN"},"type":"Feature","geometry":{"type":"Point","coordinates":[-84.3950000198457,45.5516700014591]}},{"properties":{"CITY":"CHEBOYGAN","NID_HEIGHT":33.0,"NORMAL_STO":82497.0,"SURF_AREA":18150.0,"HAZARD":"H","RIVER":"CHEBOYGAN RIVER","OWN_TYPE":"S","MAX_STOR":82947.0,"DAMS00X020":7393,"PURPOSES":"H","OTHER_NAME":null,"NIDID":"MI00520","LONGITUDE":-84.47833,"OWN_NAME":"GREAT LAKES TISSUE COMPANY","LATITUDE":45.63694,"YR_COMPL":"1922","STATE":"MI","SYMBOL":"H","DAM_NAME":"CHEBOYGAN DAM","id":"7392","DAM_TYPE":"REPG","DRAIN_AREA":1515.0,"COUNTY":"CHEBOYGAN"},"type":"Feature","geometry":{"type":"Point","coordinates":[-84.4783299813664,45.6369399797699]}},{"properties":{"CITY":"NIAGARA, WI","NID_HEIGHT":65.0,"NORMAL_STO":1400.0,"SURF_AREA":440.0,"HAZARD":"H","RIVER":"MENOMINEE","OWN_TYPE":"P","MAX_STOR":0.0,"DAMS00X020":7429,"PURPOSES":"H","OTHER_NAME":null,"NIDID":"MI00826","LONGITUDE":-87.9875,"OWN_NAME":"NIAGRA OF  WISCONSIN","LATITUDE":45.77083,"YR_COMPL":"1916","STATE":"MI","SYMBOL":"H","DAM_NAME":"LITTLE QUINNESEC FALLS DAM","id":"7428","DAM_TYPE":"PG","DRAIN_AREA":2470.0,"COUNTY":"DICKINSON"},"type":"Feature","geometry":{"type":"Point","coordinates":[-87.9874999808861,45.7708300034032]}},{"properties":{"CITY":"IRON MOUNTAIN","NID_HEIGHT":92.0,"NORMAL_STO":3790.0,"SURF_AREA":272.0,"HAZARD":"H","RIVER":"MENOMINEE","OWN_TYPE":"U","MAX_STOR":3790.0,"DAMS00X020":7434,"PURPOSES":"HR","OTHER_NAME":null,"NIDID":"MI00103","LONGITUDE":-88.04166,"OWN_NAME":"WISCONSIN ELECTRIC PWR CO","LATITUDE":45.78667,"YR_COMPL":"1949","STATE":"MI","SYMBOL":"H","DAM_NAME":"BIG QUINNESEC FALLS","id":"7433","DAM_TYPE":"CNPGRE","DRAIN_AREA":2475.0,"COUNTY":"DICKINSON"},"type":"Feature","geometry":{"type":"Point","coordinates":[-88.0416599977637,45.7866699787224]}},{"properties":{"CITY":"MARINETTE","NID_HEIGHT":57.0,"NORMAL_STO":839.0,"SURF_AREA":248.0,"HAZARD":"S","RIVER":"STURGEON","OWN_TYPE":"U","MAX_STOR":839.0,"DAMS00X020":7437,"PURPOSES":"HR","OTHER_NAME":null,"NIDID":"MI00198","LONGITUDE":-87.78667,"OWN_NAME":"WISCONSIN ELECTRIC PWR CO","LATITUDE":45.79,"YR_COMPL":"1924","STATE":"MI","SYMBOL":"H","DAM_NAME":"STURGEON","id":"7436","DAM_TYPE":"CNVA","DRAIN_AREA":280.0,"COUNTY":"DICKINSON"},"type":"Feature","geometry":{"type":"Point","coordinates":[-87.786670006518,45.789999976836]}},{"properties":{"CITY":"NIAGARA","NID_HEIGHT":38.0,"NORMAL_STO":6891.0,"SURF_AREA":595.0,"HAZARD":"L","RIVER":"MENOMINEE","OWN_TYPE":"U","MAX_STOR":6891.0,"DAMS00X020":7439,"PURPOSES":"HR","OTHER_NAME":null,"NIDID":"MI00177","LONGITUDE":-88.12666,"OWN_NAME":"WISCONSIN ELECTRIC PWR CO","LATITUDE":45.80833,"YR_COMPL":"1924","STATE":"MI","SYMBOL":"H","DAM_NAME":"KINGSFORD","id":"7438","DAM_TYPE":"CNPGRE","DRAIN_AREA":2367.0,"COUNTY":"DICKINSON"},"type":"Feature","geometry":{"type":"Point","coordinates":[-88.126660019423,45.808330004412]}},{"properties":{"CITY":"KINGSFORD MICHIGAN","NID_HEIGHT":6.0,"NORMAL_STO":6891.0,"SURF_AREA":595.0,"HAZARD":"L","RIVER":"MENOMINEE","OWN_TYPE":"U","MAX_STOR":6891.0,"DAMS00X020":7440,"PURPOSES":"HR","OTHER_NAME":null,"NIDID":"MI83014","LONGITUDE":-88.12666,"OWN_NAME":"WISCONSIN ELECTRIC PWR CO","LATITUDE":45.80833,"YR_COMPL":"1924","STATE":"MI","SYMBOL":"H","DAM_NAME":"KINGSFORD REMOTE DIKE","id":"7439","DAM_TYPE":"RE","DRAIN_AREA":0.0,"COUNTY":"DICKINSON"},"type":"Feature","geometry":{"type":"Point","coordinates":[-88.126660019423,45.808330004412]}},{"properties":{"CITY":"AURORA","NID_HEIGHT":56.0,"NORMAL_STO":5600.0,"SURF_AREA":1120.0,"HAZARD":"H","RIVER":"MENOMINEE","OWN_TYPE":"U","MAX_STOR":10000.0,"DAMS00X020":7458,"PURPOSES":"HR","OTHER_NAME":null,"NIDID":"WI05016","LONGITUDE":-88.06971,"OWN_NAME":"WI ELEC POWER CO","LATITUDE":45.87271,"YR_COMPL":null,"STATE":"WI","SYMBOL":"H","DAM_NAME":"TWIN FALLS","id":"7457","DAM_TYPE":"PGOT","DRAIN_AREA":1790.0,"COUNTY":"FLORENCE"},"type":"Feature","geometry":{"type":"Point","coordinates":[-88.0697100145975,45.8727100163727]}},{"properties":{"CITY":"LORETTO","NID_HEIGHT":60.0,"NORMAL_STO":8112.0,"SURF_AREA":390.0,"HAZARD":"L","RIVER":"PINE CREEK","OWN_TYPE":"S","MAX_STOR":11232.0,"DAMS00X020":7476,"PURPOSES":"R","OTHER_NAME":null,"NIDID":"MI00362","LONGITUDE":-87.985,"OWN_NAME":"MDNR FOREST MANAGEMENT DIVISION","LATITUDE":45.945,"YR_COMPL":"1977","STATE":"MI","SYMBOL":"R","DAM_NAME":"GROVELAND DAM #8","id":"7475","DAM_TYPE":"RE","DRAIN_AREA":5.8,"COUNTY":"DICKINSON"},"type":"Feature","geometry":{"type":"Point","coordinates":[-87.9850000001914,45.9449999906923]}},{"properties":{"CITY":"IRON MOUNTAIN","NID_HEIGHT":72.0,"NORMAL_STO":7460.0,"SURF_AREA":505.0,"HAZARD":"H","RIVER":"MICHIGAMME","OWN_TYPE":"U","MAX_STOR":7460.0,"DAMS00X020":7481,"PURPOSES":"HR","OTHER_NAME":null,"NIDID":"MI00184","LONGITUDE":-88.19666,"OWN_NAME":"WISCONSIN ELECTRIC PWR CO","LATITUDE":45.955,"YR_COMPL":"1953","STATE":"MI","SYMBOL":"H","DAM_NAME":"MICHIGAMME FALLS","id":"7480","DAM_TYPE":"CNPGRE","DRAIN_AREA":724.0,"COUNTY":"IRON"},"type":"Feature","geometry":{"type":"Point","coordinates":[-88.1966600116199,45.9550000103338]}},{"properties":{"CITY":"MANISTIQUE","NID_HEIGHT":10.0,"NORMAL_STO":22500.0,"SURF_AREA":8659.0,"HAZARD":"S","RIVER":"INDIAN RIVER","OWN_TYPE":"P","MAX_STOR":34800.0,"DAMS00X020":7483,"PURPOSES":"O","OTHER_NAME":null,"NIDID":"MI00271","LONGITUDE":-86.27333,"OWN_NAME":"SCHOOLCRAFT COUNTY DR. COMMISSIONER","LATITUDE":45.97167,"YR_COMPL":"1878","STATE":"MI","SYMBOL":"O","DAM_NAME":"CARPENTER DAM (INDIAN LAKE DAM)","id":"7482","DAM_TYPE":"CN","DRAIN_AREA":303.0,"COUNTY":"SCHOOLCRAFT"},"type":"Feature","geometry":{"type":"Point","coordinates":[-86.2733300199706,45.971670003072]}},{"properties":{"CITY":"HARDWOOD","NID_HEIGHT":37.0,"NORMAL_STO":7190.0,"SURF_AREA":283.0,"HAZARD":"S","RIVER":"EAST BRANCH STURGEON RIVER","OWN_TYPE":"L","MAX_STOR":19510.0,"DAMS00X020":7485,"PURPOSES":"C","OTHER_NAME":"E BR STURGEON STRUCTURE NO 2","NIDID":"MI00716","LONGITUDE":-87.68333,"OWN_NAME":"DICKINSON CO BOARD OF COMMISSIONERS","LATITUDE":45.97667,"YR_COMPL":"1977","STATE":"MI","SYMBOL":"C","DAM_NAME":"HARDWOOD DAM","id":"7484","DAM_TYPE":"RE","DRAIN_AREA":89.5,"COUNTY":"DICKINSON"},"type":"Feature","geometry":{"type":"Point","coordinates":[-87.6833299804133,45.9766700128928]}},{"properties":{"CITY":"IRON MOUNTAIN","NID_HEIGHT":96.0,"NORMAL_STO":34250.0,"SURF_AREA":3160.0,"HAZARD":"H","RIVER":"MICHIGAMME","OWN_TYPE":"U","MAX_STOR":34250.0,"DAMS00X020":7486,"PURPOSES":"HR","OTHER_NAME":"PEAVY POND","NIDID":"MI00191","LONGITUDE":-88.21,"OWN_NAME":"WISCONSIN ELECTRIC PWR CO","LATITUDE":45.98,"YR_COMPL":"1943","STATE":"MI","SYMBOL":"H","DAM_NAME":"PEAVY FALLS","id":"7485","DAM_TYPE":"CNCB","DRAIN_AREA":715.0,"COUNTY":"IRON"},"type":"Feature","geometry":{"type":"Point","coordinates":[-88.2100000062445,45.9800000110064]}},{"properties":{"CITY":null,"NID_HEIGHT":10.0,"NORMAL_STO":12690.0,"SURF_AREA":3736.0,"HAZARD":"L","RIVER":"BREVOORT RIVER","OWN_TYPE":"F","MAX_STOR":48069.0,"DAMS00X020":7490,"PURPOSES":"RF","OTHER_NAME":"BREVOORT LAKE","NIDID":"MI00155","LONGITUDE":-84.93628,"OWN_NAME":"ST. IGNACE RANGER DISTRICT","LATITUDE":45.98747,"YR_COMPL":"1938","STATE":"MI","SYMBOL":"R","DAM_NAME":"BREVOORT LAKE DAM","id":"7489","DAM_TYPE":"RE","DRAIN_AREA":58.0,"COUNTY":"MACKINAC"},"type":"Feature","geometry":{"type":"Point","coordinates":[-84.9362800086034,45.9874700224822]}},{"properties":{"CITY":"HARDWOOD","NID_HEIGHT":27.0,"NORMAL_STO":6132.0,"SURF_AREA":730.0,"HAZARD":"L","RIVER":"EAST BRANCH STURGEON RIVER","OWN_TYPE":"S","MAX_STOR":9782.0,"DAMS00X020":7507,"PURPOSES":"R","OTHER_NAME":"E. BRANCH STURGEON #1","NIDID":"MI00082","LONGITUDE":-87.85667,"OWN_NAME":"MDNR FISHERIES","LATITUDE":46.05667,"YR_COMPL":"1971","STATE":"MI","SYMBOL":"R","DAM_NAME":"GENE S POND DAM","id":"7506","DAM_TYPE":"RE","DRAIN_AREA":23.8,"COUNTY":"DICKINSON"},"type":"Feature","geometry":{"type":"Point","coordinates":[-87.8566699987149,46.0566699762999]}},{"properties":{"CITY":"IRON MOUNTAIN","NID_HEIGHT":73.0,"NORMAL_STO":100592.0,"SURF_AREA":6400.0,"HAZARD":"H","RIVER":"MICHIGAMME","OWN_TYPE":"U","MAX_STOR":125350.0,"DAMS00X020":7529,"PURPOSES":"HRC","OTHER_NAME":"MICHIGAMME RESERVOIR","NIDID":"MI00205","LONGITUDE":-88.23333,"OWN_NAME":"WISCONSIN ELECTRIC PWR CO","LATITUDE":46.15833,"YR_COMPL":"1941","STATE":"MI","SYMBOL":"H","DAM_NAME":"WAY","id":"7528","DAM_TYPE":"CNVARE","DRAIN_AREA":645.0,"COUNTY":"IRON"},"type":"Feature","geometry":{"type":"Point","coordinates":[-88.2333299952099,46.158330013828]}},{"properties":{"CITY":null,"NID_HEIGHT":25.0,"NORMAL_STO":100592.0,"SURF_AREA":6400.0,"HAZARD":"H","RIVER":"MICHIGAMME","OWN_TYPE":"U","MAX_STOR":125350.0,"DAMS00X020":7530,"PURPOSES":"HRC","OTHER_NAME":null,"NIDID":"MI83004","LONGITUDE":-88.23333,"OWN_NAME":"WISCONSIN ELECTRIC PWR CO","LATITUDE":46.15833,"YR_COMPL":"1941","STATE":"MI","SYMBOL":"H","DAM_NAME":"WAY DIKE B-C","id":"7529","DAM_TYPE":"RE","DRAIN_AREA":0.0,"COUNTY":"IRON"},"type":"Feature","geometry":{"type":"Point","coordinates":[-88.2333299952099,46.158330013828]}},{"properties":{"CITY":null,"NID_HEIGHT":15.0,"NORMAL_STO":100592.0,"SURF_AREA":6400.0,"HAZARD":"H","RIVER":"MICHIGAMME","OWN_TYPE":"U","MAX_STOR":125350.0,"DAMS00X020":7531,"PURPOSES":"HRC","OTHER_NAME":null,"NIDID":"MI83005","LONGITUDE":-88.23333,"OWN_NAME":"WISCONSIN ELECTRIC PWR CO","LATITUDE":46.15833,"YR_COMPL":"1941","STATE":"MI","SYMBOL":"H","DAM_NAME":"WAY DIKE D","id":"7530","DAM_TYPE":"RE","DRAIN_AREA":0.0,"COUNTY":"IRON"},"type":"Feature","geometry":{"type":"Point","coordinates":[-88.2333299952099,46.158330013828]}},{"properties":{"CITY":null,"NID_HEIGHT":15.0,"NORMAL_STO":100592.0,"SURF_AREA":6400.0,"HAZARD":"H","RIVER":"MICHIGAMME","OWN_TYPE":"U","MAX_STOR":125350.0,"DAMS00X020":7532,"PURPOSES":"HRC","OTHER_NAME":null,"NIDID":"MI83006","LONGITUDE":-88.23333,"OWN_NAME":"WISCONSIN ELECTRIC PWR CO","LATITUDE":46.15833,"YR_COMPL":"1941","STATE":"MI","SYMBOL":"H","DAM_NAME":"WAY DIKE E","id":"7531","DAM_TYPE":"RE","DRAIN_AREA":0.0,"COUNTY":"IRON"},"type":"Feature","geometry":{"type":"Point","coordinates":[-88.2333299952099,46.158330013828]}},{"properties":{"CITY":null,"NID_HEIGHT":10.0,"NORMAL_STO":100592.0,"SURF_AREA":6400.0,"HAZARD":"H","RIVER":"MICHIGAMME","OWN_TYPE":"U","MAX_STOR":125350.0,"DAMS00X020":7533,"PURPOSES":"HRC","OTHER_NAME":null,"NIDID":"MI83007","LONGITUDE":-88.23333,"OWN_NAME":"WISCONSIN ELECTRIC PWR CO","LATITUDE":46.15833,"YR_COMPL":"1941","STATE":"MI","SYMBOL":"H","DAM_NAME":"WAY DIKE F","id":"7532","DAM_TYPE":"RE","DRAIN_AREA":0.0,"COUNTY":"IRON"},"type":"Feature","geometry":{"type":"Point","coordinates":[-88.2333299952099,46.158330013828]}},{"properties":{"CITY":null,"NID_HEIGHT":15.0,"NORMAL_STO":100592.0,"SURF_AREA":6400.0,"HAZARD":"H","RIVER":"MICHIGAMME","OWN_TYPE":"U","MAX_STOR":125350.0,"DAMS00X020":7534,"PURPOSES":"HRC","OTHER_NAME":null,"NIDID":"MI83008","LONGITUDE":-88.23333,"OWN_NAME":"WISCONSIN ELECTRIC PWR CO","LATITUDE":46.15833,"YR_COMPL":"1941","STATE":"MI","SYMBOL":"H","DAM_NAME":"WAY DIKE G","id":"7533","DAM_TYPE":"RE","DRAIN_AREA":0.0,"COUNTY":"IRON"},"type":"Feature","geometry":{"type":"Point","coordinates":[-88.2333299952099,46.158330013828]}},{"properties":{"CITY":"MANISTIQUE","NID_HEIGHT":9.5,"NORMAL_STO":10076.0,"SURF_AREA":2239.0,"HAZARD":"L","RIVER":"MARSH CREEK","OWN_TYPE":"F","MAX_STOR":16406.0,"DAMS00X020":7540,"PURPOSES":"O","OTHER_NAME":null,"NIDID":"MI00641","LONGITUDE":-86.05833,"OWN_NAME":"DOI FWS","LATITUDE":46.18667,"YR_COMPL":"1961","STATE":"MI","SYMBOL":"O","DAM_NAME":"MARSH CREEK POOL","id":"7539","DAM_TYPE":"RE","DRAIN_AREA":6703.0,"COUNTY":"SCHOOLCRAFT"},"type":"Feature","geometry":{"type":"Point","coordinates":[-86.0583299851277,46.1866699894836]}},{"properties":{"CITY":"EWEN","NID_HEIGHT":11.0,"NORMAL_STO":10500.0,"SURF_AREA":4025.0,"HAZARD":"L","RIVER":"S BR ONTONAGON","OWN_TYPE":"U","MAX_STOR":10500.0,"DAMS00X020":7548,"PURPOSES":"HR","OTHER_NAME":null,"NIDID":"MI00052","LONGITUDE":-89.41666,"OWN_NAME":"UPPER PENINSULA POWER COMPANY","LATITUDE":46.25,"YR_COMPL":"1931","STATE":"MI","SYMBOL":"H","DAM_NAME":"CISCO","id":"7547","DAM_TYPE":"PGRE","DRAIN_AREA":50.7,"COUNTY":"GOGEBIC"},"type":"Feature","geometry":{"type":"Point","coordinates":[-89.4166599863236,46.2500000085839]}},{"properties":{"CITY":"GERMFASK","NID_HEIGHT":7.0,"NORMAL_STO":20200.0,"SURF_AREA":7214.0,"HAZARD":"L","RIVER":"MANISTIQUE RIVER","OWN_TYPE":"L","MAX_STOR":28000.0,"DAMS00X020":7550,"PURPOSES":"O","OTHER_NAME":null,"NIDID":"MI00334","LONGITUDE":-85.875,"OWN_NAME":"LUCE COUNTY ROAD COMMISSION","LATITUDE":46.25667,"YR_COMPL":"1977","STATE":"MI","SYMBOL":"O","DAM_NAME":"MANISTIQUE LAKE DAM","id":"7549","DAM_TYPE":"PG","DRAIN_AREA":0.0,"COUNTY":"SCHOOLCRAFT"},"type":"Feature","geometry":{"type":"Point","coordinates":[-85.8750000209167,46.2566699816805]}},{"properties":{"CITY":"AU TRAIN","NID_HEIGHT":45.0,"NORMAL_STO":12350.0,"SURF_AREA":1560.0,"HAZARD":"H","RIVER":"AU TRAIN","OWN_TYPE":"U","MAX_STOR":12350.0,"DAMS00X020":7562,"PURPOSES":"HR","OTHER_NAME":null,"NIDID":"MI00152","LONGITUDE":-86.85,"OWN_NAME":"UPPER PENINSULA POWER COMPANY","LATITUDE":46.33333,"YR_COMPL":"1910","STATE":"MI","SYMBOL":"H","DAM_NAME":"AU TRAIN","id":"7561","DAM_TYPE":"PGRE","DRAIN_AREA":80.0,"COUNTY":"ALGER"},"type":"Feature","geometry":{"type":"Point","coordinates":[-86.8499999987155,46.333330018536]}},{"properties":{"CITY":"AU TRAIN","NID_HEIGHT":15.0,"NORMAL_STO":12350.0,"SURF_AREA":1560.0,"HAZARD":"L","RIVER":"AU TRAIN","OWN_TYPE":"U","MAX_STOR":12350.0,"DAMS00X020":7563,"PURPOSES":"HR","OTHER_NAME":null,"NIDID":"MI83026","LONGITUDE":-86.85,"OWN_NAME":"UPPER PENINSULA POWER COMPANY","LATITUDE":46.33333,"YR_COMPL":"1910","STATE":"MI","SYMBOL":"H","DAM_NAME":"AU TRAIN SOUTH LEVEE","id":"7562","DAM_TYPE":"RE","DRAIN_AREA":0.0,"COUNTY":"ALGER"},"type":"Feature","geometry":{"type":"Point","coordinates":[-86.8499999987155,46.333330018536]}},{"properties":{"CITY":"AUSTIN","NID_HEIGHT":52.0,"NORMAL_STO":1382.0,"SURF_AREA":108.0,"HAZARD":"S","RIVER":"GREEN CREEK","OWN_TYPE":"P","MAX_STOR":1685.0,"DAMS00X020":7577,"PURPOSES":"T","OTHER_NAME":null,"NIDID":"MI00810","LONGITUDE":-87.60833,"OWN_NAME":"EMPIRE IRON MINING PARTNERSHIP","LATITUDE":46.37278,"YR_COMPL":"1985","STATE":"MI","SYMBOL":"T","DAM_NAME":"EMPIRE MINE EXPANDED TERTIARY DAM","id":"7576","DAM_TYPE":"RE","DRAIN_AREA":0.0,"COUNTY":"MARQUETTE"},"type":"Feature","geometry":{"type":"Point","coordinates":[-87.6083299783956,46.3727800132043]}},{"properties":{"CITY":"REPUBLIC","NID_HEIGHT":91.0,"NORMAL_STO":8000.0,"SURF_AREA":220.0,"HAZARD":"L","RIVER":"TRIBUTARY TO MICHIGAMME RIVER","OWN_TYPE":"P","MAX_STOR":880.0,"DAMS00X020":7578,"PURPOSES":"T","OTHER_NAME":null,"NIDID":"MI00578","LONGITUDE":-87.95834,"OWN_NAME":"MARQUETTE IRON MINING PARTNERSHIP","LATITUDE":46.37333,"YR_COMPL":"1960","STATE":"MI","SYMBOL":"T","DAM_NAME":"REPUBLIC MINE TAILINGS POND DAMS","id":"7577","DAM_TYPE":"RE","DRAIN_AREA":0.0,"COUNTY":"MARQUETTE"},"type":"Feature","geometry":{"type":"Point","coordinates":[-87.9583400131124,46.3733300002395]}},{"properties":{"CITY":"ONTONAGON","NID_HEIGHT":50.0,"NORMAL_STO":36000.0,"SURF_AREA":2160.0,"HAZARD":"H","RIVER":"M BR ONTONAGON","OWN_TYPE":"U","MAX_STOR":36000.0,"DAMS00X020":7582,"PURPOSES":"HR","OTHER_NAME":null,"NIDID":"MI00153","LONGITUDE":-89.13333,"OWN_NAME":"UPPER PENINSULA POWER COMPANY","LATITUDE":46.38334,"YR_COMPL":"1938","STATE":"MI","SYMBOL":"H","DAM_NAME":"BOND FALLS","id":"7581","DAM_TYPE":"PGRE","DRAIN_AREA":190.0,"COUNTY":"ONTONAGON"},"type":"Feature","geometry":{"type":"Point","coordinates":[-89.1333300194224,46.3833399967505]}},{"properties":{"CITY":"PAULDING","NID_HEIGHT":40.0,"NORMAL_STO":36000.0,"SURF_AREA":2160.0,"HAZARD":"H","RIVER":"M BR ONTONAGON","OWN_TYPE":"U","MAX_STOR":36000.0,"DAMS00X020":7583,"PURPOSES":"HR","OTHER_NAME":null,"NIDID":"MI83010","LONGITUDE":-89.13333,"OWN_NAME":"UPPER PENINSULA POWER COMPANY","LATITUDE":46.38334,"YR_COMPL":"1938","STATE":"MI","SYMBOL":"H","DAM_NAME":"BOND FALLS CONTROL DAM","id":"7582","DAM_TYPE":"RE","DRAIN_AREA":0.0,"COUNTY":"ONTONAGON"},"type":"Feature","geometry":{"type":"Point","coordinates":[-89.1333300194224,46.3833399967505]}},{"properties":{"CITY":null,"NID_HEIGHT":10.0,"NORMAL_STO":36000.0,"SURF_AREA":2160.0,"HAZARD":"L","RIVER":"M BR ONTONAGON","OWN_TYPE":"U","MAX_STOR":36000.0,"DAMS00X020":7584,"PURPOSES":"HR","OTHER_NAME":null,"NIDID":"MI83011","LONGITUDE":-89.13333,"OWN_NAME":"UPPER PENINSULA POWER COMPANY","LATITUDE":46.38334,"YR_COMPL":"1938","STATE":"MI","SYMBOL":"H","DAM_NAME":"BOND FALLS SAND LAKE DIKE","id":"7583","DAM_TYPE":"RE","DRAIN_AREA":0.0,"COUNTY":"ONTONAGON"},"type":"Feature","geometry":{"type":"Point","coordinates":[-89.1333300194224,46.3833399967505]}},{"properties":{"CITY":"GWINN","NID_HEIGHT":30.0,"NORMAL_STO":5000.0,"SURF_AREA":42.0,"HAZARD":"L","RIVER":"GREEN CREEK","OWN_TYPE":"P","MAX_STOR":5800.0,"DAMS00X020":7585,"PURPOSES":"O","OTHER_NAME":null,"NIDID":"MI00720","LONGITUDE":-87.63333,"OWN_NAME":"EMPIRE IRON MINING PARTNERSHIP","LATITUDE":46.38334,"YR_COMPL":"1975","STATE":"MI","SYMBOL":"O","DAM_NAME":"EMPIRE MINE SECONDARY POND DAM","id":"7584","DAM_TYPE":"RE","DRAIN_AREA":0.0,"COUNTY":"MARQUETTE"},"type":"Feature","geometry":{"type":"Point","coordinates":[-87.6333299790682,46.3833399967505]}},{"properties":{"CITY":"GWINN","NID_HEIGHT":90.0,"NORMAL_STO":3348.0,"SURF_AREA":93.0,"HAZARD":"L","RIVER":"GREEN CREEK","OWN_TYPE":"P","MAX_STOR":3348.0,"DAMS00X020":7586,"PURPOSES":"O","OTHER_NAME":null,"NIDID":"MI00101","LONGITUDE":-87.62778,"OWN_NAME":"EMPIRE IRON MINING PARTNERSHIP","LATITUDE":46.38611,"YR_COMPL":"1975","STATE":"MI","SYMBOL":"O","DAM_NAME":"EMPIRE MINE TERTIARY POND DAM","id":"7585","DAM_TYPE":"RE","DRAIN_AREA":5.7,"COUNTY":"MARQUETTE"},"type":"Feature","geometry":{"type":"Point","coordinates":[-87.6277799822122,46.3861099825281]}},{"properties":{"CITY":"GWINN","NID_HEIGHT":163.0,"NORMAL_STO":10000.0,"SURF_AREA":940.0,"HAZARD":"S","RIVER":"GREEN CREEK","OWN_TYPE":"P","MAX_STOR":117000.0,"DAMS00X020":7587,"PURPOSES":"T","OTHER_NAME":null,"NIDID":"MI00719","LONGITUDE":-87.63333,"OWN_NAME":"EMPIRE IRON MINING PARTNERSHIP","LATITUDE":46.38667,"YR_COMPL":"1975","STATE":"MI","SYMBOL":"T","DAM_NAME":"EMPIRE MINE TAILINGS BASIN DAM","id":"7586","DAM_TYPE":"RE","DRAIN_AREA":5.2,"COUNTY":"MARQUETTE"},"type":"Feature","geometry":{"type":"Point","coordinates":[-87.6333299790682,46.3866699948641]}},{"properties":{"CITY":"GWINN","NID_HEIGHT":145.0,"NORMAL_STO":0.0,"SURF_AREA":0.0,"HAZARD":"S","RIVER":null,"OWN_TYPE":"P","MAX_STOR":136300.0,"DAMS00X020":7588,"PURPOSES":"T","OTHER_NAME":null,"NIDID":"MI83473","LONGITUDE":-87.6375,"OWN_NAME":"EMPIRE IRON MINING PARTNERSHIP","LATITUDE":46.39167,"YR_COMPL":null,"STATE":"MI","SYMBOL":"T","DAM_NAME":"EMPIRE MINE TAILINGS BASIN DAM","id":"7587","DAM_TYPE":null,"DRAIN_AREA":4.7,"COUNTY":"MARQUETTE"},"type":"Feature","geometry":{"type":"Point","coordinates":[-87.6375000199015,46.3916700046849]}},{"properties":{"CITY":"GWINN","NID_HEIGHT":62.0,"NORMAL_STO":0.0,"SURF_AREA":0.0,"HAZARD":"S","RIVER":null,"OWN_TYPE":"P","MAX_STOR":17980.0,"DAMS00X020":7590,"PURPOSES":"S","OTHER_NAME":null,"NIDID":"MI83474","LONGITUDE":-87.64167,"OWN_NAME":"EMPIRE IRON MINING PARTNERSHIP","LATITUDE":46.40833,"YR_COMPL":null,"STATE":"MI","SYMBOL":"S","DAM_NAME":"SCHWEITZER DAM","id":"7589","DAM_TYPE":null,"DRAIN_AREA":25.0,"COUNTY":"MARQUETTE"},"type":"Feature","geometry":{"type":"Point","coordinates":[-87.6416700123034,46.4083300205537]}},{"properties":{"CITY":"GWINN","NID_HEIGHT":54.0,"NORMAL_STO":5500.0,"SURF_AREA":255.0,"HAZARD":"S","RIVER":"SCHWEITZER CREEK","OWN_TYPE":"P","MAX_STOR":9000.0,"DAMS00X020":7593,"PURPOSES":"S","OTHER_NAME":null,"NIDID":"MI00612","LONGITUDE":-87.64667,"OWN_NAME":"EMPIRE IRON MINING PRTNP","LATITUDE":46.41333,"YR_COMPL":"1962","STATE":"MI","SYMBOL":"S","DAM_NAME":"SCHWEITZER DAM","id":"7592","DAM_TYPE":"CN","DRAIN_AREA":25.0,"COUNTY":"MARQUETTE"},"type":"Feature","geometry":{"type":"Point","coordinates":[-87.6466700221242,46.4133299819431]}},{"properties":{"CITY":"GWINN","NID_HEIGHT":100.0,"NORMAL_STO":9546.0,"SURF_AREA":600.0,"HAZARD":"H","RIVER":"TRIBUTARY TO SCHWEITZER CREEK","OWN_TYPE":"P","MAX_STOR":0.0,"DAMS00X020":7595,"PURPOSES":"S","OTHER_NAME":null,"NIDID":"MI00611","LONGITUDE":-87.66833,"OWN_NAME":"TILDEN MINING COMPANY LC","LATITUDE":46.425,"YR_COMPL":"1973","STATE":"MI","SYMBOL":"S","DAM_NAME":"TILDEN RECIRCULATION BASIN","id":"7594","DAM_TYPE":"RE","DRAIN_AREA":1.9,"COUNTY":"MARQUETTE"},"type":"Feature","geometry":{"type":"Point","coordinates":[-87.6683299993823,46.4250000132919]}},{"properties":{"CITY":"GWINN","NID_HEIGHT":95.0,"NORMAL_STO":0.0,"SURF_AREA":0.0,"HAZARD":"H","RIVER":null,"OWN_TYPE":"P","MAX_STOR":83600.0,"DAMS00X020":7597,"PURPOSES":"T","OTHER_NAME":null,"NIDID":"MI83476","LONGITUDE":-87.66666,"OWN_NAME":"TILDEN MAGNETITE PARTNERSHIP","LATITUDE":46.43333,"YR_COMPL":null,"STATE":"MI","SYMBOL":"T","DAM_NAME":"TILDEN RECIRCULATION BASIN DAM","id":"7596","DAM_TYPE":null,"DRAIN_AREA":1.4,"COUNTY":"MARQUETTE"},"type":"Feature","geometry":{"type":"Point","coordinates":[-87.6666599876751,46.4333300212263]}},{"properties":{"CITY":"GWINN","NID_HEIGHT":83.0,"NORMAL_STO":19900.0,"SURF_AREA":600.0,"HAZARD":"L","RIVER":"TRIB TO GOOSE LAKE OUTLET","OWN_TYPE":"P","MAX_STOR":15400.0,"DAMS00X020":7598,"PURPOSES":"T","OTHER_NAME":null,"NIDID":"MI00113","LONGITUDE":-87.51667,"OWN_NAME":"TILDEN MINING COMPANY LC","LATITUDE":46.43333,"YR_COMPL":"1977","STATE":"MI","SYMBOL":"T","DAM_NAME":"GRIBBEN NORTH TAILINGS BASIN DAM","id":"7597","DAM_TYPE":"RE","DRAIN_AREA":2.3,"COUNTY":"MARQUETTE"},"type":"Feature","geometry":{"type":"Point","coordinates":[-87.5166700089406,46.4333300212263]}},{"properties":{"CITY":"GWINN","NID_HEIGHT":60.0,"NORMAL_STO":18000.0,"SURF_AREA":1112.0,"HAZARD":"S","RIVER":"M BR ESCANABA RIVER","OWN_TYPE":"P","MAX_STOR":22750.0,"DAMS00X020":7599,"PURPOSES":"S","OTHER_NAME":null,"NIDID":"MI00487","LONGITUDE":-87.79333,"OWN_NAME":"TILDEN MAGNETITE PARTNERSHIP","LATITUDE":46.44,"YR_COMPL":"1973","STATE":"MI","SYMBOL":"S","DAM_NAME":"GREENWOOD RESERVOIR DAM","id":"7598","DAM_TYPE":"RE","DRAIN_AREA":0.0,"COUNTY":"MARQUETTE"},"type":"Feature","geometry":{"type":"Point","coordinates":[-87.7933300027452,46.4399999943229]}},{"properties":{"CITY":"NONE","NID_HEIGHT":57.0,"NORMAL_STO":850.0,"SURF_AREA":26.0,"HAZARD":"H","RIVER":"CARP RIVER","OWN_TYPE":"P","MAX_STOR":1000.0,"DAMS00X020":7611,"PURPOSES":"O","OTHER_NAME":null,"NIDID":"MI00158","LONGITUDE":-88.45834,"OWN_NAME":"A. LINDBERG &amp; SONS, INC.","LATITUDE":46.495,"YR_COMPL":"1912","STATE":"MI","SYMBOL":"O","DAM_NAME":"CARP INTAKE DAM","id":"7610","DAM_TYPE":"CN","DRAIN_AREA":63.5,"COUNTY":"MARQUETTE"},"type":"Feature","geometry":{"type":"Point","coordinates":[-88.4583399781324,46.4950000054888]}},{"properties":{"CITY":"SAULT STE MARIE","NID_HEIGHT":17.0,"NORMAL_STO":9700000000.0,"SURF_AREA":20255000.0,"HAZARD":"H","RIVER":"ST MARY S","OWN_TYPE":"F","MAX_STOR":9700000000.0,"DAMS00X020":7614,"PURPOSES":"NHFS","OTHER_NAME":"SUPERIOR","NIDID":"MI82201","LONGITUDE":-84.35833,"OWN_NAME":"CELRE WITH CANADA","LATITUDE":46.505,"YR_COMPL":"1921","STATE":"MI","SYMBOL":"N","DAM_NAME":"SOO COMPENSATING WORKS","id":"7613","DAM_TYPE":"PGCN","DRAIN_AREA":181000.0,"COUNTY":"CHIPPEWA"},"type":"Feature","geometry":{"type":"Point","coordinates":[-84.3583299878243,46.504999976699]}},{"properties":{"CITY":"SAULT STE MARIE","NID_HEIGHT":14.0,"NORMAL_STO":700000.0,"SURF_AREA":20358400.0,"HAZARD":"S","RIVER":"SAINT MARYS RIVER","OWN_TYPE":"P","MAX_STOR":32000000.0,"DAMS00X020":7615,"PURPOSES":"N","OTHER_NAME":null,"NIDID":"MI00650","LONGITUDE":-84.355,"OWN_NAME":"US ARMY CORPS OF ENGINEERS","LATITUDE":46.505,"YR_COMPL":"1921","STATE":"MI","SYMBOL":"N","DAM_NAME":"COMPENSATING WORKS","id":"7614","DAM_TYPE":"OT","DRAIN_AREA":0.0,"COUNTY":"CHIPPEWA"},"type":"Feature","geometry":{"type":"Point","coordinates":[-84.3549999897107,46.504999976699]}},{"properties":{"CITY":"NONE","NID_HEIGHT":60.0,"NORMAL_STO":22500.0,"SURF_AREA":897.0,"HAZARD":"H","RIVER":"CARP RIVER","OWN_TYPE":"P","MAX_STOR":26140.0,"DAMS00X020":7619,"PURPOSES":"O","OTHER_NAME":null,"NIDID":"MI00159","LONGITUDE":-87.66333,"OWN_NAME":"CLEVELAND CLIFFS IRON COMPANY","LATITUDE":46.53333,"YR_COMPL":"1942","STATE":"MI","SYMBOL":"O","DAM_NAME":"CARP RIVER (DEER LAKE) DAM","id":"7618","DAM_TYPE":"VA","DRAIN_AREA":40.1,"COUNTY":"MARQUETTE"},"type":"Feature","geometry":{"type":"Point","coordinates":[-87.6633299895615,46.5333300239165]}},{"properties":{"CITY":"PAULDING","NID_HEIGHT":25.0,"NORMAL_STO":36000.0,"SURF_AREA":2160.0,"HAZARD":"H","RIVER":"M BR ONTONAGON","OWN_TYPE":"U","MAX_STOR":36000.0,"DAMS00X020":7622,"PURPOSES":"HR","OTHER_NAME":null,"NIDID":"MI83009","LONGITUDE":-89.13333,"OWN_NAME":"UPPER PENINSULA POWER COMPANY","LATITUDE":46.55,"YR_COMPL":"1938","STATE":"MI","SYMBOL":"H","DAM_NAME":"BOND FALLS AUXILIARY DIKE","id":"7621","DAM_TYPE":"RE","DRAIN_AREA":0.0,"COUNTY":"ONTONAGON"},"type":"Feature","geometry":{"type":"Point","coordinates":[-89.1333300194224,46.5500000166547]}},{"properties":{"CITY":null,"NID_HEIGHT":10.0,"NORMAL_STO":36000.0,"SURF_AREA":2160.0,"HAZARD":"L","RIVER":"M BR ONTONAGON","OWN_TYPE":"U","MAX_STOR":36000.0,"DAMS00X020":7623,"PURPOSES":"HR","OTHER_NAME":null,"NIDID":"MI83034","LONGITUDE":-89.13333,"OWN_NAME":"UPPER PENINSULA POWER COMPANY","LATITUDE":46.55,"YR_COMPL":"1938","STATE":"MI","SYMBOL":"H","DAM_NAME":"BOND FALLS SOUTH AUXILIARY DIKE","id":"7622","DAM_TYPE":"RE","DRAIN_AREA":0.0,"COUNTY":"ONTONAGON"},"type":"Feature","geometry":{"type":"Point","coordinates":[-89.1333300194224,46.5500000166547]}},{"properties":{"CITY":"NONE","NID_HEIGHT":138.0,"NORMAL_STO":100.0,"SURF_AREA":21.0,"HAZARD":"L","RIVER":"MONTREAL","OWN_TYPE":"U","MAX_STOR":160.0,"DAMS00X020":7625,"PURPOSES":"H","OTHER_NAME":null,"NIDID":"WI05000","LONGITUDE":-90.41492,"OWN_NAME":"XCEL ENERGY","LATITUDE":46.55975,"YR_COMPL":null,"STATE":"WI","SYMBOL":"H","DAM_NAME":"SUPERIOR FALLS","id":"7624","DAM_TYPE":"PGRE","DRAIN_AREA":280.0,"COUNTY":"IRON"},"type":"Feature","geometry":{"type":"Point","coordinates":[-90.414920018139,46.5597499849523]}},{"properties":{"CITY":"MARQUETTE","NID_HEIGHT":63.0,"NORMAL_STO":31563.0,"SURF_AREA":2429.0,"HAZARD":"H","RIVER":"DEAD","OWN_TYPE":"U","MAX_STOR":41666.0,"DAMS00X020":7626,"PURPOSES":"HR","OTHER_NAME":null,"NIDID":"MI00175","LONGITUDE":-87.56,"OWN_NAME":"UPPER PENINSULA POWER COMPANY","LATITUDE":46.56,"YR_COMPL":"1941","STATE":"MI","SYMBOL":"H","DAM_NAME":"HOIST","id":"7625","DAM_TYPE":"PGRE","DRAIN_AREA":138.0,"COUNTY":"MARQUETTE"},"type":"Feature","geometry":{"type":"Point","coordinates":[-87.5599999887577,46.5599999878649]}},{"properties":{"CITY":"MARQUETTE","NID_HEIGHT":130.0,"NORMAL_STO":2943.0,"SURF_AREA":0.0,"HAZARD":"H","RIVER":"DEAD","OWN_TYPE":"L","MAX_STOR":2943.0,"DAMS00X020":7633,"PURPOSES":"H","OTHER_NAME":"UPPER DEVELOPMENT","NIDID":"MI83018","LONGITUDE":-87.45,"OWN_NAME":"MARQUETTE CITY OF","LATITUDE":46.58,"YR_COMPL":"1912","STATE":"MI","SYMBOL":"H","DAM_NAME":"FORESTVILLE ( DAM 2 )","id":"7632","DAM_TYPE":"VA","DRAIN_AREA":158.0,"COUNTY":"MARQUETTE"},"type":"Feature","geometry":{"type":"Point","coordinates":[-87.4500000148572,46.5799999787167]}},{"properties":{"CITY":"ONTONAGON","NID_HEIGHT":8.0,"NORMAL_STO":35200.0,"SURF_AREA":14080.0,"HAZARD":"L","RIVER":"WEST BRANCH ONTONAGON RIVER","OWN_TYPE":"P","MAX_STOR":276000.0,"DAMS00X020":7635,"PURPOSES":"O","OTHER_NAME":null,"NIDID":"MI00028","LONGITUDE":-89.54166,"OWN_NAME":"UPPER PENINSULA POWER COMPANY","LATITUDE":46.58667,"YR_COMPL":"1906","STATE":"MI","SYMBOL":"O","DAM_NAME":"BERGLAND DAM","id":"7634","DAM_TYPE":"OT","DRAIN_AREA":17.0,"COUNTY":"ONTONAGON"},"type":"Feature","geometry":{"type":"Point","coordinates":[-89.5416599896865,46.5866700002447]}},{"properties":{"CITY":"MARQUETTE","NID_HEIGHT":62.0,"NORMAL_STO":1300.0,"SURF_AREA":85.0,"HAZARD":"H","RIVER":"DEAD","OWN_TYPE":"L","MAX_STOR":1300.0,"DAMS00X020":7636,"PURPOSES":"H","OTHER_NAME":null,"NIDID":"MI00181","LONGITUDE":-87.45,"OWN_NAME":"MARQUETTE CITY OF","LATITUDE":46.58667,"YR_COMPL":"1912","STATE":"MI","SYMBOL":"H","DAM_NAME":"PLANT NO 1","id":"7635","DAM_TYPE":"CNPG","DRAIN_AREA":0.0,"COUNTY":"MARQUETTE"},"type":"Feature","geometry":{"type":"Point","coordinates":[-87.4500000148572,46.5866700002447]}},{"properties":{"CITY":"MARQUETTE","NID_HEIGHT":64.0,"NORMAL_STO":1832.0,"SURF_AREA":95.0,"HAZARD":"H","RIVER":"DEAD","OWN_TYPE":"U","MAX_STOR":1870.0,"DAMS00X020":7640,"PURPOSES":"HR","OTHER_NAME":null,"NIDID":"MI00183","LONGITUDE":-87.51667,"OWN_NAME":"UPPER PENINSULA POWER COMPANY","LATITUDE":46.6,"YR_COMPL":"1919","STATE":"MI","SYMBOL":"H","DAM_NAME":"MC CLURE","id":"7639","DAM_TYPE":"REPG","DRAIN_AREA":140.5,"COUNTY":"MARQUETTE"},"type":"Feature","geometry":{"type":"Point","coordinates":[-87.5166700089406,46.6000000179999]}},{"properties":{"CITY":"MARQUETTE","NID_HEIGHT":30.0,"NORMAL_STO":33513.0,"SURF_AREA":1464.0,"HAZARD":"H","RIVER":"DEAD","OWN_TYPE":"U","MAX_STOR":33513.0,"DAMS00X020":7651,"PURPOSES":"HR","OTHER_NAME":null,"NIDID":"MI00197","LONGITUDE":-87.83,"OWN_NAME":"UPPER PENINSULA POWER COMPANY","LATITUDE":46.65,"YR_COMPL":"1912","STATE":"MI","SYMBOL":"H","DAM_NAME":"SILVER LAKE","id":"7650","DAM_TYPE":"REPG","DRAIN_AREA":24.0,"COUNTY":"MARQUETTE"},"type":"Feature","geometry":{"type":"Point","coordinates":[-87.8299999863352,46.650000019345]}},{"properties":{"CITY":"MARQUETTE","NID_HEIGHT":7.0,"NORMAL_STO":33513.0,"SURF_AREA":1464.0,"HAZARD":"L","RIVER":"DEAD","OWN_TYPE":"U","MAX_STOR":33513.0,"DAMS00X020":7652,"PURPOSES":"HR","OTHER_NAME":null,"NIDID":"MI83022","LONGITUDE":-87.83,"OWN_NAME":"UPPER PENINSULA POWER COMPANY","LATITUDE":46.65,"YR_COMPL":"1912","STATE":"MI","SYMBOL":"H","DAM_NAME":"SILVER LAKE DIKE 2","id":"7651","DAM_TYPE":"RE","DRAIN_AREA":0.0,"COUNTY":"MARQUETTE"},"type":"Feature","geometry":{"type":"Point","coordinates":[-87.8299999863352,46.650000019345]}},{"properties":{"CITY":"MARQUETTE","NID_HEIGHT":6.0,"NORMAL_STO":33513.0,"SURF_AREA":1464.0,"HAZARD":"L","RIVER":"DEAD","OWN_TYPE":"U","MAX_STOR":33513.0,"DAMS00X020":7653,"PURPOSES":"HR","OTHER_NAME":null,"NIDID":"MI83023","LONGITUDE":-87.83,"OWN_NAME":"UPPER PENINSULA POWER COMPANY","LATITUDE":46.65,"YR_COMPL":"1912","STATE":"MI","SYMBOL":"H","DAM_NAME":"SILVER LAKE DIKE 3","id":"7652","DAM_TYPE":"RE","DRAIN_AREA":0.0,"COUNTY":"MARQUETTE"},"type":"Feature","geometry":{"type":"Point","coordinates":[-87.8299999863352,46.650000019345]}},{"properties":{"CITY":"ONTONAGON","NID_HEIGHT":210.0,"NORMAL_STO":10300.0,"SURF_AREA":250.0,"HAZARD":"H","RIVER":"W BR ONTONAGON","OWN_TYPE":"U","MAX_STOR":10300.0,"DAMS00X020":7664,"PURPOSES":"HR","OTHER_NAME":null,"NIDID":"MI00203","LONGITUDE":-89.23,"OWN_NAME":"UPPER PENINSULA POWER COMPANY","LATITUDE":46.68,"YR_COMPL":"1930","STATE":"MI","SYMBOL":"H","DAM_NAME":"VICTORIA","id":"7663","DAM_TYPE":"CNPGRE","DRAIN_AREA":1340.0,"COUNTY":"ONTONAGON"},"type":"Feature","geometry":{"type":"Point","coordinates":[-89.2300000239991,46.679999981407]}},{"properties":{"CITY":"PELKIE","NID_HEIGHT":54.0,"NORMAL_STO":6500.0,"SURF_AREA":773.0,"HAZARD":"H","RIVER":"STURGEON","OWN_TYPE":"U","MAX_STOR":13687.0,"DAMS00X020":7675,"PURPOSES":"HR","OTHER_NAME":null,"NIDID":"MI00193","LONGITUDE":-88.66833,"OWN_NAME":"UPPER PENINSULA POWER COMPANY","LATITUDE":46.72333,"YR_COMPL":"1931","STATE":"MI","SYMBOL":"H","DAM_NAME":"PRICKETT","id":"7674","DAM_TYPE":"CBRE","DRAIN_AREA":400.0,"COUNTY":"BARAGA"},"type":"Feature","geometry":{"type":"Point","coordinates":[-88.6683299778537,46.7233300096555]}},{"properties":{"CITY":"PELKIE","NID_HEIGHT":69.0,"NORMAL_STO":6500.0,"SURF_AREA":773.0,"HAZARD":"H","RIVER":"STURGEON","OWN_TYPE":"U","MAX_STOR":13687.0,"DAMS00X020":7676,"PURPOSES":"HR","OTHER_NAME":null,"NIDID":"MI83037","LONGITUDE":-88.66833,"OWN_NAME":"UPPER PENINSULA POWER COMPANY","LATITUDE":46.72333,"YR_COMPL":"1931","STATE":"MI","SYMBOL":"H","DAM_NAME":"PRICKETT  INTAKE &amp; POWERHOUSE","id":"7675","DAM_TYPE":null,"DRAIN_AREA":400.0,"COUNTY":"BARAGA"},"type":"Feature","geometry":{"type":"Point","coordinates":[-88.6683299778537,46.7233300096555]}},{"properties":{"CITY":"SILVER CITY","NID_HEIGHT":75.0,"NORMAL_STO":0.0,"SURF_AREA":0.0,"HAZARD":"L","RIVER":null,"OWN_TYPE":"P","MAX_STOR":97500.0,"DAMS00X020":7695,"PURPOSES":"T","OTHER_NAME":null,"NIDID":"MI83457","LONGITUDE":-89.525,"OWN_NAME":"COPPER RANGE CO.","LATITUDE":46.79167,"YR_COMPL":null,"STATE":"MI","SYMBOL":"T","DAM_NAME":"SOUTH TAILINGS POND","id":"7694","DAM_TYPE":null,"DRAIN_AREA":2.0,"COUNTY":"ONTONAGON"},"type":"Feature","geometry":{"type":"Point","coordinates":[-89.5250000222491,46.7916700154461]}},{"properties":{"CITY":"NONE","NID_HEIGHT":75.0,"NORMAL_STO":27000.0,"SURF_AREA":900.0,"HAZARD":"S","RIVER":"NATIVE CREEK","OWN_TYPE":"P","MAX_STOR":39000.0,"DAMS00X020":7696,"PURPOSES":"T","OTHER_NAME":null,"NIDID":"MI00269","LONGITUDE":-89.51667,"OWN_NAME":"COPPER RANGE COMPANY","LATITUDE":46.79167,"YR_COMPL":"1971","STATE":"MI","SYMBOL":"T","DAM_NAME":"WHITE PINE MINE NORTH TAILINGS DAM #2","id":"7695","DAM_TYPE":"RE","DRAIN_AREA":13.6,"COUNTY":"ONTONAGON"},"type":"Feature","geometry":{"type":"Point","coordinates":[-89.5166700143147,46.7916700154461]}},{"properties":{"CITY":"NONE-LAKE SUPERIOR","NID_HEIGHT":70.0,"NORMAL_STO":4900.0,"SURF_AREA":1225.0,"HAZARD":"S","RIVER":"BEAR CREEK","OWN_TYPE":"P","MAX_STOR":34300.0,"DAMS00X020":7700,"PURPOSES":"T","OTHER_NAME":null,"NIDID":"MI02314","LONGITUDE":-89.24333,"OWN_NAME":"COPPER RANGE COMPANY","LATITUDE":46.81167,"YR_COMPL":"1958","STATE":"MI","SYMBOL":"T","DAM_NAME":"COPPER RANGE COMPANY DAM","id":"7699","DAM_TYPE":"RE","DRAIN_AREA":2.0,"COUNTY":"ONTONAGON"},"type":"Feature","geometry":{"type":"Point","coordinates":[-89.2433299933228,46.8116700062978]}},{"properties":{"CITY":"NONE","NID_HEIGHT":14.0,"NORMAL_STO":9330.0,"SURF_AREA":2071.0,"HAZARD":"L","RIVER":"IRON RIVER","OWN_TYPE":"P","MAX_STOR":16100.0,"DAMS00X020":7701,"PURPOSES":"O","OTHER_NAME":null,"NIDID":"MI00438","LONGITUDE":-87.68,"OWN_NAME":"MARQUETTE COUNTY DRAIN COMMISSIONER","LATITUDE":46.81222,"YR_COMPL":"1913","STATE":"MI","SYMBOL":"O","DAM_NAME":"LAKE INDEPENDENCE DAM","id":"7700","DAM_TYPE":"REPG","DRAIN_AREA":0.0,"COUNTY":"MARQUETTE"},"type":"Feature","geometry":{"type":"Point","coordinates":[-87.6799999822997,46.812219993333]}},{"properties":{"CITY":"NONE","NID_HEIGHT":11.0,"NORMAL_STO":1120.0,"SURF_AREA":700.0,"HAZARD":"L","RIVER":"STURGEON RIVER","OWN_TYPE":"L","MAX_STOR":30800.0,"DAMS00X020":7722,"PURPOSES":"RC","OTHER_NAME":null,"NIDID":"MI02538","LONGITUDE":-88.55167,"OWN_NAME":"HOUGHTON COUNTY","LATITUDE":46.92305,"YR_COMPL":"1979","STATE":"MI","SYMBOL":"R","DAM_NAME":"OTTER LAKE DIVERSION DAM","id":"7721","DAM_TYPE":"PG","DRAIN_AREA":0.0,"COUNTY":"HOUGHTON"},"type":"Feature","geometry":{"type":"Point","coordinates":[-88.5516700077261,46.9230499846524]}},{"properties":{"CITY":"REDRIDGE","NID_HEIGHT":50.0,"NORMAL_STO":0.0,"SURF_AREA":74.0,"HAZARD":"S","RIVER":"SALMON TROUT RIVER","OWN_TYPE":"L","MAX_STOR":1480.0,"DAMS00X020":7767,"PURPOSES":"R","OTHER_NAME":null,"NIDID":"MI00091","LONGITUDE":-88.765,"OWN_NAME":"STANTON TOWNSHIP","LATITUDE":47.14889,"YR_COMPL":"1902","STATE":"MI","SYMBOL":"R","DAM_NAME":"REDRIDGE DAM","id":"7766","DAM_TYPE":"TC","DRAIN_AREA":35.0,"COUNTY":"HOUGHTON"},"type":"Feature","geometry":{"type":"Point","coordinates":[-88.7649999824304,47.1488899849938]}}],"is_temporal":false,"author":{"url":null,"metadata":null,"contact_name":null,"contact_address":null,"source":null,"contact_phone":null},"source":null,"pagination":{"sort":null,"start":0,"total":123,"limit":1000000},"state":"complete","tags":"","published":"2014-08-13T06:33:43-04:00","id":145577}