{"type":"FeatureCollection","data_type":"Dataset","url_type":null,"permissions":[{"permissions":{"download":true,"view":true},"group_id":"everyone"}],"classification":null,"title":"NAICS_072009","count":52,"stream_id":14593,"contributor":{"url":"http://geocommons.com/users/7542","name":"mariko"},"data_attributes":null,"calculation_params":null,"icon_link":null,"link":"http://geocommons.com/overlays/14593.json","extent":[-155.434,19.5896,88.4641,2127.0],"geometry_types":["point"],"unique_name":null,"name":"NAICS_072009","feature_count":52,"description":"","next_feature":null,"is_raster":false,"short_classification":"Y","stats":{"latitude":{"max":2127.0,"mean":79.8983601568628,"variance":85529.8156532548,"stdev":292.454809591593,"min":19.58964,"median":38.997841},"employee":{"max":68393.0,"mean":7290.39215686274,"variance":98838671.4031373,"stdev":9941.7639985637,"min":19.0,"median":5787.0},"longitude":{"max":88.464119,"mean":-86.3031647450981,"variance":1311.48966041336,"stdev":36.2144951699366,"min":-155.434036,"median":-86.68074}},"features":[{"properties":{"latitude":"","employee":"","longitude":"","id":"a6oqspticd8c","state":""},"type":"Feature","geometry":null},{"properties":{"latitude":32.614471,"employee":1988.0,"longitude":-86.68074,"id":"a6oqspxm90ca","state":"Alabama"},"type":"Feature","geometry":{"type":"Point","coordinates":[-86.68074,32.614471]}},{"properties":{"latitude":62.890301,"employee":28.0,"longitude":-149.054077,"id":"a6oqsptcfvnm","state":"Alaska"},"type":"Feature","geometry":{"type":"Point","coordinates":[-149.054077,62.890301]}},{"properties":{"latitude":34.168091,"employee":4492.0,"longitude":-111.930344,"id":"a6oqsq15cfg6","state":"Arizona"},"type":"Feature","geometry":{"type":"Point","coordinates":[-111.930344,34.168091]}},{"properties":{"latitude":34.751888,"employee":2916.0,"longitude":-92.131348,"id":"a6oqsq2zjmmj","state":"Arkansas"},"type":"Feature","geometry":{"type":"Point","coordinates":[-92.131348,34.751888]}},{"properties":{"latitude":37.271832,"employee":68393.0,"longitude":-119.270203,"id":"a6oqspy7y02o","state":"California"},"type":"Feature","geometry":{"type":"Point","coordinates":[-119.270203,37.271832]}},{"properties":{"latitude":38.997841,"employee":10700.0,"longitude":-105.550911,"id":"a6oqspuiu0lh","state":"Colorado"},"type":"Feature","geometry":{"type":"Point","coordinates":[-105.550911,38.997841]}},{"properties":{"latitude":41.515572,"employee":7036.0,"longitude":-72.757477,"id":"a6oqsptkzsb8","state":"Connecticut"},"type":"Feature","geometry":{"type":"Point","coordinates":[-72.757477,41.515572]}},{"properties":{"latitude":39.145199,"employee":2636.0,"longitude":-75.41861,"id":"a6oqspyps5xo","state":"Delaware"},"type":"Feature","geometry":{"type":"Point","coordinates":[-75.41861,39.145199]}},{"properties":{"latitude":38.8937,"employee":19.0,"longitude":-77.014587,"id":"a6oqsq0peazn","state":"District of Columbia"},"type":"Feature","geometry":{"type":"Point","coordinates":[-77.014587,38.8937]}},{"properties":{"latitude":27.975639,"employee":19564.0,"longitude":-81.541183,"id":"a6oqspw7764h","state":"Florida"},"type":"Feature","geometry":{"type":"Point","coordinates":[-81.541183,27.975639]}},{"properties":{"latitude":32.678131,"employee":6463.0,"longitude":-83.222931,"id":"a6oqsptu108s","state":"Georgia"},"type":"Feature","geometry":{"type":"Point","coordinates":[-83.222931,32.678131]}},{"properties":{"latitude":19.58964,"employee":293.0,"longitude":-155.434036,"id":"a6oqspzymlb4","state":"Hawaii"},"type":"Feature","geometry":{"type":"Point","coordinates":[-155.434036,19.58964]}},{"properties":{"latitude":45.494419,"employee":243.0,"longitude":-114.143219,"id":"a6oqspyqq84m","state":"Idaho"},"type":"Feature","geometry":{"type":"Point","coordinates":[-114.143219,45.494419]}},{"properties":{"latitude":39.739281,"employee":14592.0,"longitude":-89.504128,"id":"a6oqspyuu03w","state":"Illinois"},"type":"Feature","geometry":{"type":"Point","coordinates":[-89.504128,39.739281]}},{"properties":{"latitude":2127.0,"employee":8784.0,"longitude":39.766201,"id":"a6oqsq4yym4h","state":"Indiana"},"type":"Feature","geometry":{"type":"Point","coordinates":[39.766201,2127.0]}},{"properties":{"latitude":41.938221,"employee":4649.0,"longitude":-93.3899,"id":"a6oqspsh09bj","state":"Iowa"},"type":"Feature","geometry":{"type":"Point","coordinates":[-93.3899,41.938221]}},{"properties":{"latitude":38.498058,"employee":2346.0,"longitude":-98.320213,"id":"a6oqspztmw40","state":"Kansas"},"type":"Feature","geometry":{"type":"Point","coordinates":[-98.320213,38.498058]}},{"properties":{"latitude":37.822399,"employee":793.0,"longitude":-85.691101,"id":"a6oqspzqshhy","state":"Kentucky"},"type":"Feature","geometry":{"type":"Point","coordinates":[-85.691101,37.822399]}},{"properties":{"latitude":30.97226,"employee":1441.0,"longitude":-91.521797,"id":"a6oqspqmgj0j","state":"Louisiana"},"type":"Feature","geometry":{"type":"Point","coordinates":[-91.521797,30.97226]}},{"properties":{"latitude":45.262379,"employee":1319.0,"longitude":-69.008301,"id":"a6oqsq0twyla","state":"Maine"},"type":"Feature","geometry":{"type":"Point","coordinates":[-69.008301,45.262379]}},{"properties":{"latitude":38.823399,"employee":5787.0,"longitude":-75.923759,"id":"a6oqspuleq57","state":"Maryland"},"type":"Feature","geometry":{"type":"Point","coordinates":[-75.923759,38.823399]}},{"properties":{"latitude":42.163891,"employee":14700.0,"longitude":-71.717941,"id":"a6oqspuud18s","state":"Massachusetts"},"type":"Feature","geometry":{"type":"Point","coordinates":[-71.717941,42.163891]}},{"properties":{"latitude":43.742691,"employee":13289.0,"longitude":-84.62162,"id":"a6oqsq3lajp4","state":"Michigan"},"type":"Feature","geometry":{"type":"Point","coordinates":[-84.62162,43.742691]}},{"properties":{"latitude":46.441929,"employee":14629.0,"longitude":-93.365471,"id":"a6oqspwzvty9","state":"Minnesota"},"type":"Feature","geometry":{"type":"Point","coordinates":[-93.365471,46.441929]}},{"properties":{"latitude":32.585159,"employee":10293.0,"longitude":-89.876381,"id":"a6oqsq4ob3a0","state":"Mississippi"},"type":"Feature","geometry":{"type":"Point","coordinates":[-89.876381,32.585159]}},{"properties":{"latitude":38.304611,"employee":1971.0,"longitude":-92.436653,"id":"a6oqspvqeh6d","state":"Missouri"},"type":"Feature","geometry":{"type":"Point","coordinates":[-92.436653,38.304611]}},{"properties":{"latitude":46.67944,"employee":2828.0,"longitude":-110.044472,"id":"a6oqspzawj97","state":"Montana"},"type":"Feature","geometry":{"type":"Point","coordinates":[-110.044472,46.67944]}},{"properties":{"latitude":41.500839,"employee":1017.0,"longitude":-99.680771,"id":"a6oqsq1idshr","state":"Nebraska"},"type":"Feature","geometry":{"type":"Point","coordinates":[-99.680771,41.500839]}},{"properties":{"latitude":38.50246,"employee":4753.0,"longitude":-117.02272,"id":"a6oqspzqblly","state":"Nevada"},"type":"Feature","geometry":{"type":"Point","coordinates":[-117.02272,38.50246]}},{"properties":{"latitude":44.001301,"employee":7497.0,"longitude":-71.632828,"id":"a6oqsppuldlf","state":"New Hampshire"},"type":"Feature","geometry":{"type":"Point","coordinates":[-71.632828,44.001301]}},{"properties":{"latitude":40.14278,"employee":7743.0,"longitude":-74.726723,"id":"a6oqsq32q023","state":"New Jersey"},"type":"Feature","geometry":{"type":"Point","coordinates":[-74.726723,40.14278]}},{"properties":{"latitude":34.166161,"employee":6471.0,"longitude":-106.026123,"id":"a6oqspss4z2i","state":"New Mexico"},"type":"Feature","geometry":{"type":"Point","coordinates":[-106.026123,34.166161]}},{"properties":{"latitude":40.71455,"employee":11789.0,"longitude":-74.007124,"id":"a6oqsq4szgui","state":"New York"},"type":"Feature","geometry":{"type":"Point","coordinates":[-74.007124,40.71455]}},{"properties":{"latitude":35.21941,"employee":8363.0,"longitude":-80.018333,"id":"a6oqsq1zpnsq","state":"North Carolina"},"type":"Feature","geometry":{"type":"Point","coordinates":[-80.018333,35.21941]}},{"properties":{"latitude":47.467731,"employee":8044.0,"longitude":-100.301712,"id":"a6oqspt9kbgc","state":"North Dacota"},"type":"Feature","geometry":{"type":"Point","coordinates":[-100.301712,47.467731]}},{"properties":{"latitude":40.190269,"employee":7844.0,"longitude":-82.669403,"id":"a6oqspsh2ftv","state":"Ohio"},"type":"Feature","geometry":{"type":"Point","coordinates":[-82.669403,40.190269]}},{"properties":{"latitude":35.30896,"employee":891.0,"longitude":-98.716942,"id":"a6oqspzxpj4k","state":"Oklahoma"},"type":"Feature","geometry":{"type":"Point","coordinates":[-98.716942,35.30896]}},{"properties":{"latitude":44.114552,"employee":8798.0,"longitude":-120.514908,"id":"a6oqsq1g8o50","state":"Oregon"},"type":"Feature","geometry":{"type":"Point","coordinates":[-120.514908,44.114552]}},{"properties":{"latitude":40.99464,"employee":13404.0,"longitude":-77.604507,"id":"a6oqspqr20m5","state":"Pennsylvania"},"type":"Feature","geometry":{"type":"Point","coordinates":[-77.604507,40.99464]}},{"properties":{"latitude":41.661171,"employee":3025.0,"longitude":-71.555771,"id":"a6oqsq2fp26u","state":"Rhode Island"},"type":"Feature","geometry":{"type":"Point","coordinates":[-71.555771,41.661171]}},{"properties":{"latitude":33.624981,"employee":3332.0,"longitude":-80.947441,"id":"a6oqsq4amz9t","state":"South Carolina"},"type":"Feature","geometry":{"type":"Point","coordinates":[-80.947441,33.624981]}},{"properties":{"latitude":27.33375,"employee":5148.0,"longitude":88.464119,"id":"a6oqsq421ugq","state":"South Dacota"},"type":"Feature","geometry":{"type":"Point","coordinates":[88.464119,27.33375]}},{"properties":{"latitude":35.83062,"employee":8418.0,"longitude":-85.978554,"id":"a6oqsprqnu1u","state":"Tennessee"},"type":"Feature","geometry":{"type":"Point","coordinates":[-85.978554,35.83062]}},{"properties":{"latitude":31.168989,"employee":10178.0,"longitude":-100.07679,"id":"a6oqspus23zv","state":"Texas"},"type":"Feature","geometry":{"type":"Point","coordinates":[-100.07679,31.168989]}},{"properties":{"latitude":39.499611,"employee":8120.0,"longitude":-111.54705,"id":"a6oqspzv106w","state":"Utah"},"type":"Feature","geometry":{"type":"Point","coordinates":[-111.54705,39.499611]}},{"properties":{"latitude":43.871769,"employee":1616.0,"longitude":-72.451218,"id":"a6oqspse5yjd","state":"Vermont"},"type":"Feature","geometry":{"type":"Point","coordinates":[-72.451218,43.871769]}},{"properties":{"latitude":38.003349,"employee":3602.0,"longitude":-79.771446,"id":"a6oqsprcfbxs","state":"Virginia"},"type":"Feature","geometry":{"type":"Point","coordinates":[-79.771446,38.003349]}},{"properties":{"latitude":38.89037,"employee":5995.0,"longitude":-77.031959,"id":"a6oqspz4fiss","state":"Washington"},"type":"Feature","geometry":{"type":"Point","coordinates":[-77.031959,38.89037]}},{"properties":{"latitude":38.920101,"employee":1212.0,"longitude":-80.181808,"id":"a6oqspsflyve","state":"West Virginia"},"type":"Feature","geometry":{"type":"Point","coordinates":[-80.181808,38.920101]}},{"properties":{"latitude":44.727242,"employee":12339.0,"longitude":-90.101562,"id":"a6oqsq4d42mb","state":"Wisconsin"},"type":"Feature","geometry":{"type":"Point","coordinates":[-90.101562,44.727242]}},{"properties":{"latitude":43.00032,"employee":19.0,"longitude":-107.554626,"id":"a6oqspy992e1","state":"Wyoming"},"type":"Feature","geometry":{"type":"Point","coordinates":[-107.554626,43.00032]}}],"is_temporal":false,"author":{"url":"","metadata":"","contact_name":"","contact_address":"","source":"","contact_phone":""},"source":"","pagination":{"sort":null,"start":0,"total":52,"limit":1000000},"state":"complete","tags":"medi","published":"2014-08-10T18:49:17-04:00","id":14593}