{"type":"FeatureCollection","data_type":"Dataset","url_type":null,"permissions":[{"permissions":{"download":true,"view":true},"group_id":"everyone"}],"classification":null,"title":"Energy Company Locations Weighted by Market Cap","count":52,"stream_id":14729,"contributor":{"url":"http://geocommons.com/users/7699","name":"mailimaker"},"data_attributes":null,"calculation_params":null,"icon_link":null,"link":"http://geocommons.com/overlays/14729.json","extent":[-121.96,27.9613,-73.9825,40.7668],"geometry_types":["point"],"unique_name":null,"name":"Energy Company Locations Weighted by Market Cap","feature_count":52,"description":"52 largest public energy corporations.","next_feature":null,"is_raster":false,"short_classification":"Y","stats":{"m cap ($bn)":{"max":349.44,"mean":19.7666538461538,"variance":2693.76553277979,"stdev":51.9014983673862,"min":0.5,"median":6.13},"latitude":{"max":40.76676,"mean":33.7649902353846,"variance":17.5419731984961,"stdev":4.18831388490596,"min":27.961286,"median":32.81378},"postcode":{"max":94583.0,"mean":63732.4038461538,"variance":572594124.912142,"stdev":23928.9390678346,"min":10036.0,"median":76102.0},"id":{"max":52.0,"mean":26.5,"variance":229.666666666667,"stdev":15.1547572288924,"min":1.0,"median":27.0},"longitude":{"max":-73.98254514,"mean":-92.8905966519231,"variance":91.7185462615613,"stdev":9.57698001781153,"min":-121.9600868,"median":-95.418157}},"features":[{"properties":{"name":"Alpha Natural Resources, Inc.","m cap ($bn)":2.42,"city":"Abingdon","latitude":36.7084,"postcode":24212.0,"id":"a62e9pt1dzcm","sub-sector":"Coal","longitude":-81.9688,"sector":"Energy","state":"Virginia"},"type":"Feature","geometry":{"type":"Point","coordinates":[-81.9688,36.7084]}},{"properties":{"name":"Patriot Coal Corporation","m cap ($bn)":0.652,"city":"St. Louis","latitude":38.66257,"postcode":63141.0,"id":"a62e9plhr3vi","sub-sector":"Coal","longitude":-90.459672,"sector":"Energy","state":"Missouri"},"type":"Feature","geometry":{"type":"Point","coordinates":[-90.459672,38.66257]}},{"properties":{"name":"Walter Energy, Inc","m cap ($bn)":2.5,"city":"Tampa","latitude":27.961286,"postcode":33607.0,"id":"a62e9plnn4ke","sub-sector":"Coal","longitude":-82.513172,"sector":"Energy","state":"Florida"},"type":"Feature","geometry":{"type":"Point","coordinates":[-82.513172,27.961286]}},{"properties":{"name":"Foundation Coal Holdings, Inc.","m cap ($bn)":1.57,"city":"Linthicum Heights","latitude":39.207632,"postcode":21090.0,"id":"a62e9pg06klc","sub-sector":"Coal","longitude":-76.670148,"sector":"Energy","state":"Maryland"},"type":"Feature","geometry":{"type":"Point","coordinates":[-76.670148,39.207632]}},{"properties":{"name":"Penn Virginia GP Holdings, L.P.","m cap ($bn)":0.622,"city":"Radnor","latitude":40.046875,"postcode":19087.0,"id":"a62e9psqhyl7","sub-sector":"Coal","longitude":-75.357636,"sector":"Energy","state":"Pennsylvania"},"type":"Feature","geometry":{"type":"Point","coordinates":[-75.357636,40.046875]}},{"properties":{"name":"Massey Energy Company","m cap ($bn)":1.97,"city":"Richmond","latitude":37.541026,"postcode":23219.0,"id":"a62e9pm51sk7","sub-sector":"Coal","longitude":-77.438643,"sector":"Energy","state":"Virginia"},"type":"Feature","geometry":{"type":"Point","coordinates":[-77.438643,37.541026]}},{"properties":{"name":"Arch Coal, Inc.","m cap ($bn)":2.44,"city":"St. Louis","latitude":38.66257,"postcode":63141.0,"id":"a62e9pnf7do2","sub-sector":"Coal","longitude":-90.459672,"sector":"Energy","state":"Missouri"},"type":"Feature","geometry":{"type":"Point","coordinates":[-90.459672,38.66257]}},{"properties":{"name":"CONSOL Energy Inc.","m cap ($bn)":6.13,"city":"Canonsburg","latitude":40.276707,"postcode":15317.0,"id":"a62e9pn6235z","sub-sector":"Coal","longitude":-80.165185,"sector":"Energy","state":"Pennsylvania"},"type":"Feature","geometry":{"type":"Point","coordinates":[-80.165185,40.276707]}},{"properties":{"name":"James River Coal Company","m cap ($bn)":0.512,"city":"Richmond","latitude":37.541026,"postcode":23219.0,"id":"a62e9pktz37p","sub-sector":"Coal","longitude":-77.438643,"sector":"Energy","state":"Virginia"},"type":"Feature","geometry":{"type":"Point","coordinates":[-77.438643,37.541026]}},{"properties":{"name":"Peabody Energy Corporation","m cap ($bn)":8.83,"city":"St. Louis","latitude":38.630539,"postcode":63101.0,"id":"a62e9pj4n70x","sub-sector":"Coal","longitude":-90.192822,"sector":"Energy","state":"Missouri"},"type":"Feature","geometry":{"type":"Point","coordinates":[-90.192822,38.630539]}},{"properties":{"name":"Penn Virginia Resources","m cap ($bn)":0.826,"city":"Radnor","latitude":40.046875,"postcode":19087.0,"id":"a62e9pio92gn","sub-sector":"Coal","longitude":-75.357636,"sector":"Energy","state":"Pennsylvania"},"type":"Feature","geometry":{"type":"Point","coordinates":[-75.357636,40.046875]}},{"properties":{"name":"Alliance Holdings GP, L.P.","m cap ($bn)":1.3,"city":"Tulsa","latitude":36.137356,"postcode":74119.0,"id":"a62e9ps7pq0q","sub-sector":"Coal","longitude":-95.988085,"sector":"Energy","state":"Oklahoma"},"type":"Feature","geometry":{"type":"Point","coordinates":[-95.988085,36.137356]}},{"properties":{"name":"Natural Resource Partners LP","m cap ($bn)":1.48,"city":"Houston","latitude":29.75328447,"postcode":77002.0,"id":"a62e9pek7vfz","sub-sector":"Coal","longitude":-95.37265778,"sector":"Energy","state":"Texas"},"type":"Feature","geometry":{"type":"Point","coordinates":[-95.37265778,29.75328447]}},{"properties":{"name":"Alliance Resource Partners, L.P.","m cap ($bn)":1.35,"city":"Tulsa","latitude":36.137356,"postcode":74119.0,"id":"a62e9pp4b6yz","sub-sector":"Coal","longitude":-95.988085,"sector":"Energy","state":"Oklahoma"},"type":"Feature","geometry":{"type":"Point","coordinates":[-95.988085,36.137356]}},{"properties":{"name":"Calumet Specialty Products Partners, L.P","m cap ($bn)":0.565,"city":"Indianapolis","latitude":39.80467879,"postcode":46214.0,"id":"a62e9piocya4","sub-sector":"Oil &amp; Gas - Integrated","longitude":-86.27834916,"sector":"Energy","state":"Indiana"},"type":"Feature","geometry":{"type":"Point","coordinates":[-86.27834916,39.80467879]}},{"properties":{"name":"Atlas Energy Resources, LLC","m cap ($bn)":1.43,"city":"Moon Township","latitude":40.502058,"postcode":15108.0,"id":"a62e9pnq6fy4","sub-sector":"Oil &amp; Gas - Integrated","longitude":-80.204718,"sector":"Energy","state":"Pennsylvania"},"type":"Feature","geometry":{"type":"Point","coordinates":[-80.204718,40.502058]}},{"properties":{"name":"Marathon Oil Corporation","m cap ($bn)":22.5,"city":"Houston","latitude":29.75016408,"postcode":77056.0,"id":"a62e9pehxv7f","sub-sector":"Oil &amp; Gas - Integrated","longitude":-95.47268271,"sector":"Energy","state":"Texas"},"type":"Feature","geometry":{"type":"Point","coordinates":[-95.47268271,29.75016408]}},{"properties":{"name":"Chevron Corporation","m cap ($bn)":136.1,"city":"San Ramon","latitude":37.76142768,"postcode":94583.0,"id":"a62e9pjw3xzv","sub-sector":"Oil &amp; Gas - Integrated","longitude":-121.9600868,"sector":"Energy","state":"California"},"type":"Feature","geometry":{"type":"Point","coordinates":[-121.9600868,37.76142768]}},{"properties":{"name":"Hess Corp.","m cap ($bn)":17.39,"city":"New York","latitude":40.75796897,"postcode":10036.0,"id":"a62e9pnfigxq","sub-sector":"Oil &amp; Gas - Integrated","longitude":-73.98254514,"sector":"Energy","state":"New York"},"type":"Feature","geometry":{"type":"Point","coordinates":[-73.98254514,40.75796897]}},{"properties":{"name":"ConocoPhillips","m cap ($bn)":65.17,"city":"Houston","latitude":29.787562,"postcode":77079.0,"id":"a62e9ptaevf2","sub-sector":"Oil &amp; Gas - Integrated","longitude":-95.616786,"sector":"Energy","state":"Texas"},"type":"Feature","geometry":{"type":"Point","coordinates":[-95.616786,29.787562]}},{"properties":{"name":"Encore Energy Partners LP","m cap ($bn)":0.5,"city":"Fort Worth","latitude":32.75327319,"postcode":76102.0,"id":"a62e9pqzkrkw","sub-sector":"Oil &amp; Gas - Integrated","longitude":-97.32974768,"sector":"Energy","state":"Texas"},"type":"Feature","geometry":{"type":"Point","coordinates":[-97.32974768,32.75327319]}},{"properties":{"name":"Pioneer Southwest Energy Partners L.P.","m cap ($bn)":0.569,"city":"Irving","latitude":32.870709,"postcode":75039.0,"id":"a62e9pex5nhb","sub-sector":"Oil &amp; Gas - Integrated","longitude":-96.940561,"sector":"Energy","state":"Texas"},"type":"Feature","geometry":{"type":"Point","coordinates":[-96.940561,32.870709]}},{"properties":{"name":"Exxon Mobil Corporation","m cap ($bn)":349.44,"city":"Irving","latitude":32.890885,"postcode":75039.0,"id":"a62e9prq2cz4","sub-sector":"Oil &amp; Gas - Integrated","longitude":-96.947458,"sector":"Energy","state":"Texas"},"type":"Feature","geometry":{"type":"Point","coordinates":[-96.947458,32.890885]}},{"properties":{"name":"Schlumberger Limited","m cap ($bn)":69.12,"city":"Houston","latitude":29.750018,"postcode":77056.0,"id":"a62e9ph9e6en","sub-sector":"Oil Well Services and Equipment","longitude":-95.474419,"sector":"Energy","state":"Texas"},"type":"Feature","geometry":{"type":"Point","coordinates":[-95.474419,29.750018]}},{"properties":{"name":"Occidental Petroleum Corporation","m cap ($bn)":58.32,"city":"Los Angeles","latitude":34.059403,"postcode":90024.0,"id":"a62e9pn9xfuz","sub-sector":"Oil &amp; Gas - Integrated","longitude":-118.443688,"sector":"Energy","state":"California"},"type":"Feature","geometry":{"type":"Point","coordinates":[-118.443688,34.059403]}},{"properties":{"name":"Anadarko Petroleum Corporation","m cap ($bn)":24.03,"city":"The Woodlands","latitude":30.161056,"postcode":77380.0,"id":"a62e9pfjbej7","sub-sector":"Oil &amp; Gas - Integrated","longitude":-95.453191,"sector":"Energy","state":"Texas"},"type":"Feature","geometry":{"type":"Point","coordinates":[-95.453191,30.161056]}},{"properties":{"name":"XTO Energy Inc.","m cap ($bn)":23.21,"city":"Fort Worth","latitude":32.751715,"postcode":76102.0,"id":"a62e9pjgw86o","sub-sector":"Oil &amp; Gas - Integrated","longitude":-97.33063,"sector":"Energy","state":"Texas"},"type":"Feature","geometry":{"type":"Point","coordinates":[-97.33063,32.751715]}},{"properties":{"name":"Halliburton Company","m cap ($bn)":20.64,"city":"Houston","latitude":29.75364773,"postcode":77010.0,"id":"a62e9pgj4j65","sub-sector":"Oil Well Services and Equipment","longitude":-95.35927892,"sector":"Energy","state":"Texas"},"type":"Feature","geometry":{"type":"Point","coordinates":[-95.35927892,29.75364773]}},{"properties":{"name":"EOG Resources, Inc.","m cap ($bn)":18.47,"city":"Houston","latitude":29.752554,"postcode":77002.0,"id":"a62e9pgmtb8d","sub-sector":"Oil &amp; Gas - Integrated","longitude":-95.370401,"sector":"Energy","state":"Texas"},"type":"Feature","geometry":{"type":"Point","coordinates":[-95.370401,29.752554]}},{"properties":{"name":"National-Oilwell Varco, Inc.","m cap ($bn)":15.29,"city":"Houston","latitude":29.729166,"postcode":77042.0,"id":"a62e9pjojbbf","sub-sector":"Oil Well Services and Equipment","longitude":-95.549448,"sector":"Energy","state":"Texas"},"type":"Feature","geometry":{"type":"Point","coordinates":[-95.549448,29.729166]}},{"properties":{"name":"Southwestern Energy Company","m cap ($bn)":14.48,"city":"Houston","latitude":29.93882386,"postcode":77032.0,"id":"a62e9ps24jul","sub-sector":"Oil &amp; Gas - Integrated","longitude":-95.35195112,"sector":"Energy","state":"Texas"},"type":"Feature","geometry":{"type":"Point","coordinates":[-95.35195112,29.93882386]}},{"properties":{"name":"Diamond Offshore Drilling, Inc.","m cap ($bn)":12.83,"city":"Houston","latitude":29.78388,"postcode":77094.0,"id":"a62e9pf31fxe","sub-sector":"Oil Well Services and Equipment","longitude":-95.655709,"sector":"Energy","state":"Texas"},"type":"Feature","geometry":{"type":"Point","coordinates":[-95.655709,29.78388]}},{"properties":{"name":"Enterprise Products Partners L.P.","m cap ($bn)":12.82,"city":"Houston","latitude":29.75777394,"postcode":77002.0,"id":"a62e9pog5142","sub-sector":"Oil &amp; Gas - Integrated","longitude":-95.36883831,"sector":"Energy","state":"Texas"},"type":"Feature","geometry":{"type":"Point","coordinates":[-95.36883831,29.75777394]}},{"properties":{"name":"Baker Hughes Incorporated","m cap ($bn)":12.65,"city":"Houston","latitude":29.76162988,"postcode":77019.0,"id":"a62e9pj38dko","sub-sector":"Oil Well Services and Equipment","longitude":-95.39650798,"sector":"Energy","state":"Texas"},"type":"Feature","geometry":{"type":"Point","coordinates":[-95.39650798,29.76162988]}},{"properties":{"name":"Murphy Oil Corporation","m cap ($bn)":11.18,"city":"El Dorado","latitude":33.214008,"postcode":71731.0,"id":"a62e9pibp29r","sub-sector":"Oil &amp; Gas - Integrated","longitude":-92.662923,"sector":"Energy","state":"Arkansas"},"type":"Feature","geometry":{"type":"Point","coordinates":[-92.662923,33.214008]}},{"properties":{"name":"Noble Energy, Inc.","m cap ($bn)":10.41,"city":"Houston","latitude":29.951045,"postcode":77067.0,"id":"a62e9piyoubf","sub-sector":"Oil &amp; Gas - Integrated","longitude":-95.418157,"sector":"Energy","state":"Texas"},"type":"Feature","geometry":{"type":"Point","coordinates":[-95.418157,29.951045]}},{"properties":{"name":"Williams Companies, Inc.","m cap ($bn)":9.49,"city":"Tulsa","latitude":36.154987,"postcode":74172.0,"id":"a62e9po66e8x","sub-sector":"Oil &amp; Gas - Integrated","longitude":-95.991401,"sector":"Energy","state":"Oklahoma"},"type":"Feature","geometry":{"type":"Point","coordinates":[-95.991401,36.154987]}},{"properties":{"name":"Noble Corporation","m cap ($bn)":8.69,"city":"Sugarland","latitude":29.62474655,"postcode":77478.0,"id":"a62e9pt1wsar","sub-sector":"Oil Well Services and Equipment","longitude":-95.60264111,"sector":"Energy","state":"Texas"},"type":"Feature","geometry":{"type":"Point","coordinates":[-95.60264111,29.62474655]}},{"properties":{"name":"Energy Transfer Partners, L.P.","m cap ($bn)":7.4,"city":"Dallas","latitude":32.81378,"postcode":75219.0,"id":"a62e9prngipd","sub-sector":"Oil Well Services and Equipment","longitude":-96.802907,"sector":"Energy","state":"Texas"},"type":"Feature","geometry":{"type":"Point","coordinates":[-96.802907,32.81378]}},{"properties":{"name":"Range Resources Corp.","m cap ($bn)":7.22,"city":"Fort Worth","latitude":32.755757,"postcode":76102.0,"id":"a62e9pgcyka5","sub-sector":"Oil &amp; Gas - Integrated","longitude":-97.334651,"sector":"Energy","state":"Texas"},"type":"Feature","geometry":{"type":"Point","coordinates":[-97.334651,32.755757]}},{"properties":{"name":"Cameron International Corporation","m cap ($bn)":6.8,"city":"Houston","latitude":29.754839,"postcode":77027.0,"id":"a62e9pdrrzt9","sub-sector":"Oil Well Services and Equipment","longitude":-95.454441,"sector":"Energy","state":"Texas"},"type":"Feature","geometry":{"type":"Point","coordinates":[-95.454441,29.754839]}},{"properties":{"name":"Plains All American Pipeline, L.P.","m cap ($bn)":6.23,"city":"Houston","latitude":29.75741069,"postcode":77002.0,"id":"a62e9plmmn5d","sub-sector":"Oil &amp; Gas - Integrated","longitude":-95.37317276,"sector":"Energy","state":"Texas"},"type":"Feature","geometry":{"type":"Point","coordinates":[-95.37317276,29.75741069]}},{"properties":{"name":"Energy Transfer Equity, L.P.","m cap ($bn)":6.03,"city":"Dallas","latitude":32.81378,"postcode":75219.0,"id":"a62e9pesow2n","sub-sector":"Oil &amp; Gas - Integrated","longitude":-96.802907,"sector":"Energy","state":"Texas"},"type":"Feature","geometry":{"type":"Point","coordinates":[-96.802907,32.81378]}},{"properties":{"name":"Questar Corporation","m cap ($bn)":5.89,"city":"Salt Lake City","latitude":40.76676,"postcode":84145.0,"id":"a62e9ph4ctwq","sub-sector":"Oil &amp; Gas - Integrated","longitude":-111.885979,"sector":"Energy","state":"Texas"},"type":"Feature","geometry":{"type":"Point","coordinates":[-111.885979,40.76676]}},{"properties":{"name":"Smith International, Inc.","m cap ($bn)":5.68,"city":"Houston","latitude":29.93967,"postcode":77060.0,"id":"a62e9ps126qb","sub-sector":"Oil Well Services and Equipment","longitude":-95.393847,"sector":"Energy","state":"Texas"},"type":"Feature","geometry":{"type":"Point","coordinates":[-95.393847,29.93967]}},{"properties":{"name":"Ensco International Incorporated","m cap ($bn)":5.63,"city":"Dallas","latitude":32.783955,"postcode":75201.0,"id":"a62e9pjb4gx3","sub-sector":"Oil Well Services and Equipment","longitude":-96.800344,"sector":"Energy","state":"Texas"},"type":"Feature","geometry":{"type":"Point","coordinates":[-96.800344,32.783955]}},{"properties":{"name":"Continental Resources, Inc.","m cap ($bn)":5.16,"city":"Enid","latitude":36.39912647,"postcode":73701.0,"id":"a62e9prehr91","sub-sector":"Oil &amp; Gas - Integrated","longitude":-97.87993312,"sector":"Energy","state":"Oklahoma"},"type":"Feature","geometry":{"type":"Point","coordinates":[-97.87993312,36.39912647]}},{"properties":{"name":"FMC Technologies, Inc.","m cap ($bn)":5.07,"city":"Houston","latitude":29.945846,"postcode":77067.0,"id":"a62e9poxc1kz","sub-sector":"Oil Well Services and Equipment","longitude":-95.455218,"sector":"Energy","state":"Texas"},"type":"Feature","geometry":{"type":"Point","coordinates":[-95.455218,29.945846]}},{"properties":{"name":"Enbridge Energy Partners, L.P.","m cap ($bn)":5.06,"city":"Houston","latitude":29.75777394,"postcode":77002.0,"id":"a62e9prh5dfa","sub-sector":"Oil Well Services and Equipment","longitude":-95.36883831,"sector":"Energy","state":"Texas"},"type":"Feature","geometry":{"type":"Point","coordinates":[-95.36883831,29.75777394]}},{"properties":{"name":"Pride International, Inc.","m cap ($bn)":4.7,"city":"Houston","latitude":29.749064,"postcode":77057.0,"id":"a62e9plz474e","sub-sector":"Oil Well Services and Equipment","longitude":-95.481912,"sector":"Energy","state":"Texas"},"type":"Feature","geometry":{"type":"Point","coordinates":[-95.481912,29.749064]}},{"properties":{"name":"McDermott International","m cap ($bn)":4.56,"city":"Houston","latitude":29.777527,"postcode":77079.0,"id":"a62e9pehqh2q","sub-sector":"Oil Well Services and Equipment","longitude":-95.619113,"sector":"Energy","state":"Texas"},"type":"Feature","geometry":{"type":"Point","coordinates":[-95.619113,29.777527]}},{"properties":{"name":"CNX Gas Corporation","m cap ($bn)":4.54,"city":"Pittsburgh","latitude":40.42752,"postcode":15276.0,"id":"a62e9pt7most","sub-sector":"Oil &amp; Gas - Integrated","longitude":-80.124787,"sector":"Energy","state":"Pennsylvania"},"type":"Feature","geometry":{"type":"Point","coordinates":[-80.124787,40.42752]}}],"is_temporal":false,"author":{"url":"","metadata":"","contact_name":"","contact_address":"","source":"","contact_phone":""},"source":"","pagination":{"sort":null,"start":0,"total":52,"limit":1000000},"state":"complete","tags":"corporate,energy,locations,oil","published":"2009-07-24T12:00:00Z","id":14729}