{"type":"FeatureCollection","data_type":"Dataset","url_type":null,"permissions":[{"permissions":{"download":true,"view":true},"group_id":"everyone"}],"classification":null,"title":"Washington Post: Best Bets: Best Wine Bars","count":9,"stream_id":14758,"contributor":{"url":"http://geocommons.com/users/6898","name":"Lauren"},"data_attributes":null,"calculation_params":null,"icon_link":null,"link":"http://geocommons.com/overlays/14758.json","extent":[-77.0725,38.8871,-77.0027,38.9969],"geometry_types":["point"],"unique_name":null,"name":"Washington Post: Best Bets: Best Wine Bars","feature_count":9,"description":"Washington Post: Best Bets: Best Wine Bars","next_feature":null,"is_raster":false,"short_classification":"Y","stats":{"zip":{"max":20910.0,"mean":20110.2222222222,"variance":90066.6944444445,"stdev":300.111136821752,"min":20001.0,"median":20009.0},"latitude":{"max":38.996946,"mean":38.9199597777778,"variance":0.000995728769444482,"stdev":0.0315551702490175,"min":38.887073,"median":38.914375},"longitude":{"max":-77.002678,"mean":-77.037855,"variance":0.000494610411499997,"stdev":0.0222398383874523,"min":-77.072541,"median":-77.032047}},"features":[{"properties":{"name":"Adega Wine Cellars &amp; Cafe","city":"Silver Spring","zip":20910.0,"latitude":38.996946,"longitude":-77.025471,"id":"a64fs0n8c4z6","address":"8519 Fenton St.","state":"MD"},"type":"Feature","geometry":{"type":"Point","coordinates":[-77.025471,38.996946]}},{"properties":{"name":"Bistrot Lepic","city":"Washington","zip":20007.0,"latitude":38.914553,"longitude":-77.067263,"id":"a64fs0pnqf57","address":"1736 Wisconsin Ave. NW","state":"DC"},"type":"Feature","geometry":{"type":"Point","coordinates":[-77.067263,38.914553]}},{"properties":{"name":"Cork Wine Bar","city":"Washington","zip":20009.0,"latitude":38.913202,"longitude":-77.032047,"id":"a64fs0yw8xrz","address":"1720 14th St. NW","state":"DC"},"type":"Feature","geometry":{"type":"Point","coordinates":[-77.032047,38.913202]}},{"properties":{"name":"Enology","city":"Washington","zip":20016.0,"latitude":38.933136,"longitude":-77.072541,"id":"a64fs0tw0dag","address":"3238 Wisconsin Ave. NW","state":"DC"},"type":"Feature","geometry":{"type":"Point","coordinates":[-77.072541,38.933136]}},{"properties":{"name":"Proof","city":"Washington","zip":20001.0,"latitude":38.898613,"longitude":-77.02259,"id":"a64fs0pgqen0","address":"775 G St. NW","state":"DC"},"type":"Feature","geometry":{"type":"Point","coordinates":[-77.02259,38.898613]}},{"properties":{"name":"Sonoma","city":"Washington","zip":20003.0,"latitude":38.887073,"longitude":-77.002678,"id":"a64fs104cu4f","address":"223 Pennsylvania Ave. SE","state":"DC"},"type":"Feature","geometry":{"type":"Point","coordinates":[-77.002678,38.887073]}},{"properties":{"name":"Veritas","city":"Washington","zip":20009.0,"latitude":38.914375,"longitude":-77.046282,"id":"a64fs0r8jgbi","address":"2031 Florida Ave. NW","state":"DC"},"type":"Feature","geometry":{"type":"Point","coordinates":[-77.046282,38.914375]}},{"properties":{"name":"Vidalia","city":"Washington","zip":20036.0,"latitude":38.905542,"longitude":-77.044653,"id":"a64fs0x575i6","address":"1990 M St. NW","state":"DC"},"type":"Feature","geometry":{"type":"Point","coordinates":[-77.044653,38.905542]}},{"properties":{"name":"Vinoteca","city":"Washington","zip":20001.0,"latitude":38.916198,"longitude":-77.02717,"id":"a64fs0lylyl4","address":"1940 11th St. NW","state":"DC"},"type":"Feature","geometry":{"type":"Point","coordinates":[-77.02717,38.916198]}}],"is_temporal":false,"author":{"url":"http://www.washingtonpost.com/gog/best-bets/best-bets-dc-lists.html","metadata":"http://www.washingtonpost.com/gog/best-bets/best-bets-dc-lists.html","contact_name":"","contact_address":"","source":"The Washington Post","contact_phone":""},"source":"http://www.washingtonpost.com/gog/best-bets/best-bets-dc-lists.html","pagination":{"sort":null,"start":0,"total":9,"limit":1000000},"state":"complete","tags":"best,booze,dc,drinks,post,washington,wine","published":"2009-01-01T12:00:00Z","id":14758}