{"type":"FeatureCollection","data_type":"Dataset","url_type":null,"permissions":[{"permissions":{"download":true,"view":true},"group_id":"everyone"}],"classification":null,"title":"DFW - New Retail Activity","count":20,"stream_id":147799,"contributor":{"url":"http://geocommons.com/users/29294","name":"jimk"},"data_attributes":null,"calculation_params":null,"icon_link":null,"link":"http://geocommons.com/overlays/147799.json","extent":[-97.4406,32.5949,-96.6243,33.1728],"geometry_types":["point"],"unique_name":null,"name":"DFW - New Retail Activity","feature_count":20,"description":"","next_feature":null,"is_raster":false,"short_classification":"Y","stats":{"latitude":{"max":33.172777,"mean":32.917821,"variance":0.0326918401741052,"stdev":0.180808849822417,"min":32.594878,"median":33.00529},"longitude":{"max":-96.624319,"mean":-96.8938287,"variance":0.0433452823934841,"stdev":0.208195298682473,"min":-97.440615,"median":-96.832698}},"features":[{"properties":{"city":"Plano","latitude":33.029802,"center":"The Shops at Willow Bend","retailer":"Crate &amp; Barrel","longitude":-96.832698,"id":"a62l41tkcly8","address":"NWC Dallas North Tollway and Park Blvd.","comment":"Opened March 2011"},"type":"Feature","geometry":{"type":"Point","coordinates":[-96.832698,33.029802]}},{"properties":{"city":"Plano","latitude":33.029802,"center":"The Shops at Willow Bend","retailer":"Restoration Hardware","longitude":-96.832698,"id":"a62l41x9ujec","address":"NWC Dallas North Tollway and Park Blvd.","comment":"Under Construction"},"type":"Feature","geometry":{"type":"Point","coordinates":[-96.832698,33.029802]}},{"properties":{"city":"Plano","latitude":33.028766,"center":"Preston Park Colonnade","retailer":"Sports Authority","longitude":-96.797065,"id":"a62l41yf18oo","address":"NWC Preston Rd. and Park Blvd.","comment":"Opened Spring 2011 - fmr Linens-n-Things"},"type":"Feature","geometry":{"type":"Point","coordinates":[-96.797065,33.028766]}},{"properties":{"city":"Plano","latitude":33.037855,"center":"Parker Central Plaza","retailer":"Sports Authority","longitude":-96.701581,"id":"a62l41uukuu7","address":"NEC Central Expwy. and Parker Rd.","comment":"Opened Spring 2011 - fmr Circuit City"},"type":"Feature","geometry":{"type":"Point","coordinates":[-96.701581,33.037855]}},{"properties":{"city":"Arlington","latitude":32.677631,"center":"Vicinity / Parks at Arlington","retailer":"The Foundry Big &amp; Tall Supply Co.","longitude":-97.134402,"id":"a62l41jd54q0","address":"NEC I-20 and Cooper Street","comment":"Opened Spring 2011"},"type":"Feature","geometry":{"type":"Point","coordinates":[-97.134402,32.677631]}},{"properties":{"city":"Lewisville","latitude":33.00529,"center":"Vista Ridge Village","retailer":"The Foundry Big &amp; Tall Supply Co.","longitude":-96.975301,"id":"a62l41u4lhmr","address":"NWC FM 3040 and I-35E","comment":"Opened Spring 2011"},"type":"Feature","geometry":{"type":"Point","coordinates":[-96.975301,33.00529]}},{"properties":{"city":"Frisco","latitude":33.105149,"center":"Centre at Preston Ridge","retailer":"The Foundry Big &amp; Tall Supply Co.","longitude":-96.810886,"id":"a62l41orswyq","address":"NWC Preston Rd. and Gaylord Parkway","comment":"Opened Spring 2011"},"type":"Feature","geometry":{"type":"Point","coordinates":[-96.810886,33.105149]}},{"properties":{"city":"Allen","latitude":33.128618,"center":"The Village at Allen","retailer":"The Foundry Big &amp; Tall Supply Co.","longitude":-96.655924,"id":"a62l41kq6452","address":"SEC Central Expwy. And Stacy Road","comment":"Opened Spring 2011"},"type":"Feature","geometry":{"type":"Point","coordinates":[-96.655924,33.128618]}},{"properties":{"city":"Hurst","latitude":32.829836,"center":"Northeast Mall","retailer":"The Foundry Big &amp; Tall Supply Co.","longitude":-97.199694,"id":"a62l41ixjdmp","address":"SEC SH 183 and BedfordEuless Rd","comment":"Opened Spring 2011"},"type":"Feature","geometry":{"type":"Point","coordinates":[-97.199694,32.829836]}},{"properties":{"city":"Cedar Hill","latitude":32.594878,"center":"Cedar Hill Crossing","retailer":"The Foundry Big &amp; Tall Supply Co.","longitude":-96.936861,"id":"a62l41lrl94r","address":"NEC U.S. Hwy 67 and FM 1382","comment":"Opened Spring 2011"},"type":"Feature","geometry":{"type":"Point","coordinates":[-96.936861,32.594878]}},{"properties":{"city":"Arlington","latitude":32.678432,"center":"Parks at Arlington","retailer":"Nordstrom Rack","longitude":-97.128303,"id":"a62l41o5m53t","address":"NEC I-20 and Cooper Street","comment":"Opened March 2011 - fmr Circuit City"},"type":"Feature","geometry":{"type":"Point","coordinates":[-97.128303,32.678432]}},{"properties":{"city":"Dallas","latitude":32.862121,"center":"TimberCreek Crossing","retailer":"JCPenney","longitude":-96.754241,"id":"a62l41ri28on","address":"Northwest Hwy &amp; Skillman Rd.","comment":"Opening Fall 2011"},"type":"Feature","geometry":{"type":"Point","coordinates":[-96.754241,32.862121]}},{"properties":{"city":"Frisco","latitude":33.172777,"center":"Frisco Trails","retailer":"Costco","longitude":-96.837701,"id":"a62l41mr4gze","address":"SEC Dallas North Tollway and Eldorado Pkwy.","comment":"Under Construction"},"type":"Feature","geometry":{"type":"Point","coordinates":[-96.837701,33.172777]}},{"properties":{"city":"Plano","latitude":33.029802,"center":"The Shops at Willow Bend","retailer":"H&amp;M","longitude":-96.832698,"id":"a62l41k77f5e","address":"NWC Dallas North Tollway and Park Blvd.","comment":"Opening Fall 2011"},"type":"Feature","geometry":{"type":"Point","coordinates":[-96.832698,33.029802]}},{"properties":{"city":"Dallas","latitude":32.867333,"center":"Northpark Center","retailer":"H&amp;M","longitude":-96.773894,"id":"a62l41x1put7","address":"NWC Central Expwy. and Northwest Hwy.","comment":"Opening August 2011"},"type":"Feature","geometry":{"type":"Point","coordinates":[-96.773894,32.867333]}},{"properties":{"city":"Mesquite","latitude":32.806953,"center":"Town East Mall","retailer":"H&amp;M","longitude":-96.624319,"id":"a62l41mkv15v","address":"SEC LBJ Fwy and Towne East Blvd.","comment":"Opening TBA"},"type":"Feature","geometry":{"type":"Point","coordinates":[-96.624319,32.806953]}},{"properties":{"city":"Carrollton","latitude":32.988381,"center":"Trinity Valley S/C","retailer":"ULTA","longitude":-96.888977,"id":"a62l41vemuxm","address":"NEC Hwy 190 &amp; Josey Lane","comment":"Opened Summer 2001 - fmr Old Navy"},"type":"Feature","geometry":{"type":"Point","coordinates":[-96.888977,32.988381]}},{"properties":{"city":"Allen","latitude":33.12238,"center":"Freestanding","retailer":"Cabela's","longitude":-96.663626,"id":"a62l41kiv8wu","address":"SEC Central Expwy. And Stacy Road","comment":"Spring 2011"},"type":"Feature","geometry":{"type":"Point","coordinates":[-96.663626,33.12238]}},{"properties":{"city":"Grand Prairie","latitude":32.678854,"center":"Paragon Outlets Grand Prairie","retailer":"Various Outlet Retailers","longitude":-97.05509,"id":"a62l41wf7f18","address":"NEC I-20 and SH 360","comment":"Under Construction"},"type":"Feature","geometry":{"type":"Point","coordinates":[-97.05509,32.678854]}},{"properties":{"city":"Benbrook","latitude":32.68176,"center":"The Trails Town Center","retailer":"Various Retailers","longitude":-97.440615,"id":"a62l41n555bk","address":"SEC I-20 and Winscott","comment":"Planned"},"type":"Feature","geometry":{"type":"Point","coordinates":[-97.440615,32.68176]}}],"is_temporal":false,"author":{"url":"","metadata":"","contact_name":"","contact_address":"","source":"","contact_phone":""},"source":"","pagination":{"sort":null,"start":0,"total":20,"limit":1000000},"state":"complete","tags":"","published":"2014-08-13T09:44:21-04:00","id":147799}