{"type":"FeatureCollection","data_type":"Dataset","url_type":null,"permissions":[{"permissions":{"download":true,"view":true},"group_id":"everyone"}],"classification":null,"title":"maps","count":11,"stream_id":147814,"contributor":{"url":"http://geocommons.com/users/31743","name":"TFTAHQ"},"data_attributes":null,"calculation_params":null,"icon_link":null,"link":"http://geocommons.com/overlays/147814.json","extent":[-149.856,28.6987,-81.7742,60.4856],"geometry_types":["point"],"unique_name":null,"name":"maps","feature_count":11,"description":"","next_feature":null,"is_raster":false,"short_classification":"Y","stats":{},"features":[{"properties":{"city":"Bogot / Cundinamarca","name":"SENA (proveer cursos de IT Essential de CISCO a centros POETA)","title":null,"geo_score":0.0,"country":"COLOMBIA","type":"GOB","tel":"(57 1) 5461500","id":"a67gqyv37xov","geo_precision":"unmatched","address":"Calle 57 No. 8-69, Bogot D.C","person":null},"type":"Feature","geometry":null},{"properties":{"city":null,"name":"Alta Consejeria para la Reinsersion *","title":"Gerente Gestiones de Responsabilidad Social","geo_score":0.231,"country":"COLOMBIA","type":"GOB","tel":"(57 1) 596-5892","id":"a67gqyupbb3u","geo_precision":"street","address":"calle 14 # 7-19 Piso 12","person":"Maria Isabel Ceron"},"type":"Feature","geometry":{"type":"Point","coordinates":[-91.126167,34.955256]}},{"properties":{"city":"Apartad/ Antioquia","name":"Comfamiliar Camacol","title":"Director","geo_score":0.0,"country":"COLOMBIA","type":"LP","tel":"(574) 230 2000             Ext: 231","id":"a67gqytm3riu","geo_precision":"unmatched","address":"Calle 49B # 63-21 Edificio Camacol Piso 2 Medelln\nCarrera 111 N 100C-07 (Apartad)","person":"Aider Triana Perez"},"type":"Feature","geometry":null},{"properties":{"city":"Barrancabermeja/ Santander","name":"Centro de Conviviencia Ciudadana","title":"Director","geo_score":0.285,"country":"COLOMBIA","type":"LP","tel":"(57 7) 619 7854","id":"a67gqyu0rxev","geo_precision":"street","address":"Calle 54 carrera 36E, Esquina Barrio Primero de Mayo","person":"Carlos Alberto Contreras Lopez                      \nGladys Blanco Patio"},"type":"Feature","geometry":{"type":"Point","coordinates":[-91.761569,33.427189]}},{"properties":{"city":"Barranquilla/ Atlntico","name":"FUNDAES","title":"Director","geo_score":0.571,"country":"COLOMBIA","type":"LP","tel":"(575) 344 0090 -  (575) 3609933","id":"a67gqyo3t3fe","geo_precision":"street","address":"CRA 66B No 58-13. Barranquilla","person":"Olga Luca Manrique Hernndez     \nYenny Salazar"},"type":"Feature","geometry":{"type":"Point","coordinates":[-149.855602,60.485621]}},{"properties":{"city":"Buenaventura/ Valle del Cauca","name":"Fundarqu","title":"Director","geo_score":0.571,"country":"COLOMBIA","type":"LP","tel":"(572) 242 3887      (57 2 ) 242 6237","id":"a67gqywxsmzs","geo_precision":"street","address":"Calle 1 No, 6A -45 piso 2, Buenaventura Valle","person":"Edgar Roberto Rodriguez Mafla"},"type":"Feature","geometry":{"type":"Point","coordinates":[-81.774152,28.698704]}},{"properties":{"city":"Ibagu/ Tolima","name":"Corp. Unificada Nacional de Edu. Superior","title":"Director","geo_score":0.0,"country":"COLOMBIA","type":"LP","tel":"(578) 2632079  (578) 2623840  (578) 2623842","id":"a67gqywqrh6b","geo_precision":"unmatched","address":"CRA 5 No 11-65, Ibagu","person":"Victor Manuel Romero     \nLiliana Rodriguez \nJuan Carlos Garca"},"type":"Feature","geometry":null},{"properties":{"city":"Medellin/ Antioquia","name":"Corporacin Microempresas de Antioquia","title":"Director","geo_score":0.469,"country":"COLOMBIA","type":"LP","tel":"(574) 604 46 66 ext. 304\n(57) 314 630 9022","id":"a67gqyj6uey0","geo_precision":"street","address":"Sede Principal: Calle 57 # 48  31\nSede (Centro Digital Mi llave): Carrera 49 # 53  19. Edificio Bancoqua. Oficina 402","person":"Adriana Montoya Escobar"},"type":"Feature","geometry":{"type":"Point","coordinates":[-86.950474,36.955974]}},{"properties":{"city":"Monteria/ Crdoba","name":"Universidad Pontificia Bolivariana","title":"Director","geo_score":0.471,"country":"COLOMBIA","type":"LP","tel":"(057 4) 786 0146 Ext:203","id":"a67gqyu1bwo3","geo_precision":"street","address":"Kilometro 8 va Ceret Montera","person":"Luz Estela Fuentes"},"type":"Feature","geometry":{"type":"Point","coordinates":[-93.125114,40.679455]}},{"properties":{"city":"Santa Marta/ Magdalena","name":"Corp. Unificada Nacional de Edu. Superior","title":"Director","geo_score":0.541,"country":"COLOMBIA","type":"LP","tel":"(57 5 )4331974","id":"a67gqyvy3q8u","geo_precision":"street","address":"Avenida Libertador No. 29-13. Santa Marta. Magdalena","person":"Victor Manuel Romero     \nManolo Chavez Montagno"},"type":"Feature","geometry":{"type":"Point","coordinates":[-84.065675,33.976189]}},{"properties":{"city":"Tierra Alta/ Crdoba","name":"Instituto Educativo Benicio Agudelo","title":"Director","geo_score":0.626,"country":"COLOMBIA","type":"LP","tel":"(574) 777 1200","id":"a67gqyx00gfy","geo_precision":"street","address":"Carrera 8 N 17-19 Barrio Escolar  Tierra Alta","person":"Aider Triana Perez"},"type":"Feature","geometry":{"type":"Point","coordinates":[-83.009498,42.488617]}}],"is_temporal":false,"author":{"url":"","metadata":null,"contact_name":null,"contact_address":null,"source":null,"contact_phone":null},"source":"","pagination":{"sort":null,"start":0,"total":11,"limit":1000000},"state":"complete","tags":"","published":"2014-08-13T09:45:01-04:00","id":147814}