{"type":"FeatureCollection","data_type":"Dataset","url_type":null,"permissions":[{"permissions":{"download":true,"view":true},"group_id":"everyone"}],"classification":null,"title":"FCC, Online, AM Radio stations that carry Rush Limbaugh, USA, 2008","count":523,"stream_id":1483,"contributor":{"url":"http://geocommons.com/users/2","name":"data"},"data_attributes":null,"calculation_params":null,"icon_link":null,"link":"http://geocommons.com/overlays/1483.json","extent":[-157.876,13.3892,-68.0503,61.1661],"geometry_types":["point"],"unique_name":null,"name":"FCC, Online, AM Radio stations that carry Rush Limbaugh, USA, 2008","feature_count":523,"description":"The point shape file shows locations of  523 AM radio stations that carry Rush Limbaugh, i.e., almost 10% of all AM radio stations in the USA. The shape file was generated by combining data scraped from online source (see URL cited) and the geocoded list of 5,097 AM radio stations in the USA (see the URL below). \n","next_feature":null,"is_raster":false,"short_classification":"Y","stats":{"LONDD":{"max":157.8756,"mean":93.5914908221797,"variance":229.439408245011,"stdev":15.1472574496181,"min":68.0503,"median":89.485},"FACID":{"max":161156.0,"mean":39493.4282982792,"variance":551362946.287474,"stdev":23481.1189317603,"min":154.0,"median":36833.0},"LATDD":{"max":61.1661,"mean":38.293668833652,"variance":30.7078918560191,"stdev":5.54147018904001,"min":13.3892,"median":38.3794}},"features":[{"properties":{"CITY":"KINGMAN","LONDD":114.0178,"CALLSIGN":"KAAA","STATE":"AZ","FACID":55492.0,"MarketSt":"Kingman, AZ","LICENSEE":"CAMERON BROADCASTING, INC.","id":"a626i2v4gjhu","LATDD":35.1906,"FREQUENCY":"1230  kHz"},"type":"Feature","geometry":{"type":"Point","coordinates":[-114.0178,35.1906]}},{"properties":{"CITY":"PRESTON","LONDD":111.85,"CALLSIGN":"KACH","STATE":"ID","FACID":74476.0,"MarketSt":"Preston, ID","LICENSEE":"ALAN J. WHITE","id":"a626i32x0fsx","LATDD":42.1292,"FREQUENCY":"1340  kHz"},"type":"Feature","geometry":{"type":"Point","coordinates":[-111.85,42.1292]}},{"properties":{"CITY":"THE DALLES","LONDD":121.1314,"CALLSIGN":"KACI","STATE":"OR","FACID":49857.0,"MarketSt":"The Dalles, OR","LICENSEE":"COLUMBIA GORGE BROADCASTERS, INC.","id":"a626i2qgemcp","LATDD":45.5817,"FREQUENCY":"1300  kHz"},"type":"Feature","geometry":{"type":"Point","coordinates":[-121.1314,45.5817]}},{"properties":{"CITY":"FLAGSTAFF","LONDD":111.6769,"CALLSIGN":"KAFF","STATE":"AZ","FACID":25694.0,"MarketSt":"Flagstaff, AZ","LICENSEE":"GUYANN CORPORATION","id":"a626i2ppgc03","LATDD":35.1906,"FREQUENCY":"930   kHz"},"type":"Feature","geometry":{"type":"Point","coordinates":[-111.6769,35.1906]}},{"properties":{"CITY":"KLAMATH FALLS","LONDD":121.7975,"CALLSIGN":"KAGO","STATE":"OR","FACID":23245.0,"MarketSt":"Klamath Falls, OR","LICENSEE":"NEW NORTHWEST BROADCASTERS, LLC","id":"a626i2r15nli","LATDD":42.2156,"FREQUENCY":"1150  kHz"},"type":"Feature","geometry":{"type":"Point","coordinates":[-121.7975,42.2156]}},{"properties":{"CITY":"KLAMATH FALLS","LONDD":121.7981,"CALLSIGN":"KAGO","STATE":"OR","FACID":23245.0,"MarketSt":"Klamath Falls, OR","LICENSEE":"NEW NORTHWEST BROADCASTERS, LLC","id":"a626i3160ll8","LATDD":42.2156,"FREQUENCY":"1150  kHz"},"type":"Feature","geometry":{"type":"Point","coordinates":[-121.7981,42.2156]}},{"properties":{"CITY":"GRANTS PASS","LONDD":123.3575,"CALLSIGN":"KAJO","STATE":"OR","FACID":24822.0,"MarketSt":"Grants Pass, OR","LICENSEE":"GRANTS PASS BROADCASTING CORPORATION","id":"a626i31lbfxw","LATDD":42.4378,"FREQUENCY":"1270  kHz"},"type":"Feature","geometry":{"type":"Point","coordinates":[-123.3575,42.4378]}},{"properties":{"CITY":"COZAD","LONDD":99.9389,"CALLSIGN":"KAMI","STATE":"NE","FACID":69845.0,"MarketSt":"Cozad, NE","LICENSEE":"COMMUNITY BROADCASTING, INC.","id":"a626i2p4xrd2","LATDD":40.8383,"FREQUENCY":"1580  kHz"},"type":"Feature","geometry":{"type":"Point","coordinates":[-99.9389,40.8383]}},{"properties":{"CITY":"LAKE CHARLES","LONDD":93.1672,"CALLSIGN":"KAOK","STATE":"LA","FACID":67330.0,"MarketSt":"Lake Charles, LA","LICENSEE":"CUMULUS LICENSING LLC","id":"a626i2twlwka","LATDD":30.2361,"FREQUENCY":"1400  kHz"},"type":"Feature","geometry":{"type":"Point","coordinates":[-93.1672,30.2361]}},{"properties":{"CITY":"LITTLE ROCK","LONDD":92.2458,"CALLSIGN":"KARN","STATE":"AR","FACID":60703.0,"MarketSt":"Little Rock, AR","LICENSEE":"CITADEL BROADCASTING COMPANY","id":"a626i2rwi3l8","LATDD":34.7722,"FREQUENCY":"920   kHz"},"type":"Feature","geometry":{"type":"Point","coordinates":[-92.2458,34.7722]}},{"properties":{"CITY":"JEROME","LONDD":114.5381,"CALLSIGN":"KART","STATE":"ID","FACID":33445.0,"MarketSt":"Jerome, ID","LICENSEE":"KART BROADCASTING CO., INC.","id":"a626i2y2zl8c","LATDD":42.7308,"FREQUENCY":"1400  kHz"},"type":"Feature","geometry":{"type":"Point","coordinates":[-114.5381,42.7308]}},{"properties":{"CITY":"ASTORIA","LONDD":123.8472,"CALLSIGN":"KAST","STATE":"OR","FACID":74433.0,"MarketSt":"Astoria, OR","LICENSEE":"NEW NORTHWEST BROADCASTERS, LLC","id":"a626i2xif3hi","LATDD":46.175,"FREQUENCY":"1370  kHz"},"type":"Feature","geometry":{"type":"Point","coordinates":[-123.8472,46.175]}},{"properties":{"CITY":"SAFFORD","LONDD":109.7544,"CALLSIGN":"KATO","STATE":"AZ","FACID":40914.0,"MarketSt":"Safford, AZ","LICENSEE":"MCMURRAY COMMUNICATIONS, INC.","id":"a626i2x822rj","LATDD":32.8294,"FREQUENCY":"1230  kHz"},"type":"Feature","geometry":{"type":"Point","coordinates":[-109.7544,32.8294]}},{"properties":{"CITY":"YORK","LONDD":97.5878,"CALLSIGN":"KAWL","STATE":"NE","FACID":9932.0,"MarketSt":"York, NE","LICENSEE":"MWB BROADCASTING LLC","id":"a626i2xifp84","LATDD":40.8417,"FREQUENCY":"1370  kHz"},"type":"Feature","geometry":{"type":"Point","coordinates":[-97.5878,40.8417]}},{"properties":{"CITY":"BONNERS FERRY","LONDD":116.3344,"CALLSIGN":"KBFI","STATE":"ID","FACID":54500.0,"MarketSt":"Bonners Ferry, ID","LICENSEE":"RADIO BONNERS FERRY, INC.","id":"a626i2si5czc","LATDD":48.6889,"FREQUENCY":"1450  kHz"},"type":"Feature","geometry":{"type":"Point","coordinates":[-116.3344,48.6889]}},{"properties":{"CITY":"ROSWELL","LONDD":104.5264,"CALLSIGN":"KBIM","STATE":"NM","FACID":34871.0,"MarketSt":"Roswell, NM","LICENSEE":"KING BROADCASTING COMPANY, INC.","id":"a626i2r4omf3","LATDD":33.4406,"FREQUENCY":"910   kHz"},"type":"Feature","geometry":{"type":"Point","coordinates":[-104.5264,33.4406]}},{"properties":{"CITY":"FORT MADISON","LONDD":91.2722,"CALLSIGN":"KBKB","STATE":"IA","FACID":64567.0,"MarketSt":"Fort Madison, IA","LICENSEE":"CITICASTERS LICENSES, L.P.","id":"a626i3319obu","LATDD":40.6583,"FREQUENCY":"1360  kHz"},"type":"Feature","geometry":{"type":"Point","coordinates":[-91.2722,40.6583]}},{"properties":{"CITY":"ABERDEEN","LONDD":123.8203,"CALLSIGN":"KBKW","STATE":"WA","FACID":33623.0,"MarketSt":"Aberdeen, WA","LICENSEE":"JODESHA BROADCASTING, INC.","id":"a626i2vxsvrn","LATDD":46.9497,"FREQUENCY":"1450  kHz"},"type":"Feature","geometry":{"type":"Point","coordinates":[-123.8203,46.9497]}},{"properties":{"CITY":"BILLINGS","LONDD":108.5161,"CALLSIGN":"KBLG","STATE":"MT","FACID":63873.0,"MarketSt":"Billings, MT","LICENSEE":"CCR-BILLINGS IV, LLC","id":"a626i2sm885p","LATDD":45.7536,"FREQUENCY":"910   kHz"},"type":"Feature","geometry":{"type":"Point","coordinates":[-108.5161,45.7536]}},{"properties":{"CITY":"HELENA","LONDD":112.0164,"CALLSIGN":"KBLL","STATE":"MT","FACID":27515.0,"MarketSt":"Helena, MT","LICENSEE":"CCR-HELENA IV, LLC","id":"a626i3218fz0","LATDD":46.59,"FREQUENCY":"1240  kHz"},"type":"Feature","geometry":{"type":"Point","coordinates":[-112.0164,46.59]}},{"properties":{"CITY":"HELENA","LONDD":112.0536,"CALLSIGN":"KBLL","STATE":"MT","FACID":27515.0,"MarketSt":"Helena, MT","LICENSEE":"CCR-HELENA IV, LLC","id":"a626i33grv59","LATDD":46.6119,"FREQUENCY":"1240  kHz"},"type":"Feature","geometry":{"type":"Point","coordinates":[-112.0536,46.6119]}},{"properties":{"CITY":"YUMA","LONDD":114.6442,"CALLSIGN":"KBLU","STATE":"AZ","FACID":62233.0,"MarketSt":"Yuma, AZ","LICENSEE":"CAPSTAR TX LIMITED PARTNERSHIP","id":"a626i2uaknio","LATDD":32.7236,"FREQUENCY":"560   kHz"},"type":"Feature","geometry":{"type":"Point","coordinates":[-114.6442,32.7236]}},{"properties":{"CITY":"BEND","LONDD":121.2442,"CALLSIGN":"KBND","STATE":"OR","FACID":9943.0,"MarketSt":"Bend, OR","LICENSEE":"COMBINED COMMUNICATIONS, INC.","id":"a626i331leds","LATDD":44.1069,"FREQUENCY":"1110  kHz"},"type":"Feature","geometry":{"type":"Point","coordinates":[-121.2442,44.1069]}},{"properties":{"CITY":"BEND","LONDD":121.2442,"CALLSIGN":"KBND","STATE":"OR","FACID":9943.0,"MarketSt":"Bend, OR","LICENSEE":"COMBINED COMMUNICATIONS, INC.","id":"a626i2wvnz96","LATDD":44.1069,"FREQUENCY":"1110  kHz"},"type":"Feature","geometry":{"type":"Point","coordinates":[-121.2442,44.1069]}},{"properties":{"CITY":"MOSES LAKE","LONDD":119.2922,"CALLSIGN":"KBSN","STATE":"WA","FACID":35597.0,"MarketSt":"Moses Lake, WA","LICENSEE":"KSEM, INC.","id":"a626i2xq6lnz","LATDD":47.1044,"FREQUENCY":"1470  kHz"},"type":"Feature","geometry":{"type":"Point","coordinates":[-119.2922,47.1044]}},{"properties":{"CITY":"BIG SPRING","LONDD":101.4603,"CALLSIGN":"KBST","STATE":"TX","FACID":33684.0,"MarketSt":"Big Spring, TX","LICENSEE":"RHATTIGAN BROADCASTING (TEXAS), LP","id":"a626i2todnh2","LATDD":32.2622,"FREQUENCY":"1490  kHz"},"type":"Feature","geometry":{"type":"Point","coordinates":[-101.4603,32.2622]}},{"properties":{"CITY":"JONESBORO","LONDD":90.6622,"CALLSIGN":"KBTM","STATE":"AR","FACID":17692.0,"MarketSt":"Jonesboro, AR","LICENSEE":"EAST ARKANSAS BROADCASTERS OF JONESBORO, LLC","id":"a626i2qfurc2","LATDD":35.8411,"FREQUENCY":"1230  kHz"},"type":"Feature","geometry":{"type":"Point","coordinates":[-90.6622,35.8411]}},{"properties":{"CITY":"HOLCOMB","LONDD":100.8983,"CALLSIGN":"KBUF","STATE":"KS","FACID":33689.0,"MarketSt":"Garden City, KS","LICENSEE":"KBUF PARTNERSHIP","id":"a626i2tukuw9","LATDD":38.0003,"FREQUENCY":"1030  kHz"},"type":"Feature","geometry":{"type":"Point","coordinates":[-100.8983,38.0003]}},{"properties":{"CITY":"DARDANELLE","LONDD":93.1689,"CALLSIGN":"KCAB","STATE":"AR","FACID":31885.0,"MarketSt":"Dardanelle, AR","LICENSEE":"MMA LICENSE LLC","id":"a626i2rk8z8b","LATDD":35.2222,"FREQUENCY":"980   kHz"},"type":"Feature","geometry":{"type":"Point","coordinates":[-93.1689,35.2222]}},{"properties":{"CITY":"PHOENIX","LONDD":122.8114,"CALLSIGN":"KCMX","STATE":"OR","FACID":60314.0,"MarketSt":"Medford, OR","LICENSEE":"MAPLETON COMMUNICATIONS, LLC","id":"a626i2z88azf","LATDD":42.31,"FREQUENCY":"880   kHz"},"type":"Feature","geometry":{"type":"Point","coordinates":[-122.8114,42.31]}},{"properties":{"CITY":"EAST GRAND FORKS","LONDD":97.0067,"CALLSIGN":"KCNN","STATE":"MN","FACID":33000.0,"MarketSt":"E. Grand Forks, MN","LICENSEE":"LEIGHTON ENTERPRISES, INC.","id":"a626i2u4lqio","LATDD":47.8781,"FREQUENCY":"1590  kHz"},"type":"Feature","geometry":{"type":"Point","coordinates":[-97.0067,47.8781]}},{"properties":{"CITY":"WELLINGTON","LONDD":105.0475,"CALLSIGN":"KCOL","STATE":"CO","FACID":68685.0,"MarketSt":"Ft. Collins, CO","LICENSEE":"JACOR BROADCASTING OF COLORADO, INC.","id":"a626i2xfe3c1","LATDD":40.65,"FREQUENCY":"600   kHz"},"type":"Feature","geometry":{"type":"Point","coordinates":[-105.0475,40.65]}},{"properties":{"CITY":"TRINIDAD","LONDD":104.5117,"CALLSIGN":"KCRT","STATE":"CO","FACID":52475.0,"MarketSt":"Trinidad, CO","LICENSEE":"PHILLIPS BROADCASTING, INC.","id":"a626i2upbnjy","LATDD":37.1458,"FREQUENCY":"1240  kHz"},"type":"Feature","geometry":{"type":"Point","coordinates":[-104.5117,37.1458]}},{"properties":{"CITY":"PUEBLO","LONDD":104.6369,"CALLSIGN":"KCSJ","STATE":"CO","FACID":53846.0,"MarketSt":"Pueblo, CO","LICENSEE":"CC LICENSES, LLC","id":"a626i2u3c934","LATDD":38.3583,"FREQUENCY":"590   kHz"},"type":"Feature","geometry":{"type":"Point","coordinates":[-104.6369,38.3583]}},{"properties":{"CITY":"MARSHALL","LONDD":94.3644,"CALLSIGN":"KCUL","STATE":"TX","FACID":18262.0,"MarketSt":"Marshall, TX","LICENSEE":"ACCESS.1 TEXAS LICENSE COMPANY LLC","id":"a626i2q9rdgb","LATDD":32.4917,"FREQUENCY":"1410  kHz"},"type":"Feature","geometry":{"type":"Point","coordinates":[-94.3644,32.4917]}},{"properties":{"CITY":"PITTSBURGH","LONDD":79.9531,"CALLSIGN":"KDKA","STATE":"PA","FACID":25443.0,"MarketSt":"Pittsburgh, PA","LICENSEE":"CBS RADIO EAST INC.","id":"a626i2y5q2qf","LATDD":40.5592,"FREQUENCY":"1020  kHz"},"type":"Feature","geometry":{"type":"Point","coordinates":[-79.9531,40.5592]}},{"properties":{"CITY":"ST. GEORGE","LONDD":113.5189,"CALLSIGN":"KDXU","STATE":"UT","FACID":60454.0,"MarketSt":"St. George, UT","LICENSEE":"CCR-ST. GEORGE IV, LLC","id":"a626i2rsv3uj","LATDD":37.0681,"FREQUENCY":"890   kHz"},"type":"Feature","geometry":{"type":"Point","coordinates":[-113.5189,37.0681]}},{"properties":{"CITY":"SHREVEPORT","LONDD":93.8597,"CALLSIGN":"KEEL","STATE":"LA","FACID":46983.0,"MarketSt":"Shreveport, LA","LICENSEE":"GAP BROADCASTING SHREVEPORT LICENSE, LLC","id":"a626i2vtooii","LATDD":32.6764,"FREQUENCY":"710   kHz"},"type":"Feature","geometry":{"type":"Point","coordinates":[-93.8597,32.6764]}},{"properties":{"CITY":"GLADEWATER","LONDD":94.8806,"CALLSIGN":"KEES","STATE":"TX","FACID":72781.0,"MarketSt":"Longview, TX","LICENSEE":"GLEISER COMMUNICATIONS, LLC","id":"a626i2thdmor","LATDD":32.5294,"FREQUENCY":"1430  kHz"},"type":"Feature","geometry":{"type":"Point","coordinates":[-94.8806,32.5294]}},{"properties":{"CITY":"CENTRALIA-CHEHALIS","LONDD":122.9564,"CALLSIGN":"KELA","STATE":"WA","FACID":32996.0,"MarketSt":"Centralia, WA","LICENSEE":"CITICASTERS LICENSES, L.P.","id":"a626i326cygi","LATDD":46.6964,"FREQUENCY":"1470  kHz"},"type":"Feature","geometry":{"type":"Point","coordinates":[-122.9564,46.6964]}},{"properties":{"CITY":"EL DORADO","LONDD":92.665,"CALLSIGN":"KELD","STATE":"AR","FACID":48945.0,"MarketSt":"El Dorado, AR","LICENSEE":"NOALMARK BROADCASTING CORPORATION","id":"a626i2xw5w9l","LATDD":33.2372,"FREQUENCY":"1400  kHz"},"type":"Feature","geometry":{"type":"Point","coordinates":[-92.665,33.2372]}},{"properties":{"CITY":"ELY","LONDD":114.8628,"CALLSIGN":"KELY","STATE":"NV","FACID":55462.0,"MarketSt":"Ely, NV","LICENSEE":"ELY RADIO, LLC","id":"a626i3467nnl","LATDD":39.2625,"FREQUENCY":"1230  kHz"},"type":"Feature","geometry":{"type":"Point","coordinates":[-114.8628,39.2625]}},{"properties":{"CITY":"ANCHORAGE","LONDD":149.8261,"CALLSIGN":"KENI","STATE":"AK","FACID":12516.0,"MarketSt":"Anchorage, AK","LICENSEE":"CAPSTAR TX LIMITED PARTNERSHIP","id":"a626i2rufis9","LATDD":61.1661,"FREQUENCY":"650   kHz"},"type":"Feature","geometry":{"type":"Point","coordinates":[-149.8261,61.1661]}},{"properties":{"CITY":"FARMINGTON","LONDD":108.1472,"CALLSIGN":"KENN","STATE":"NM","FACID":33953.0,"MarketSt":"Farmington, NM","LICENSEE":"WINTON ROAD BROADCASTING CO., LLC","id":"a626i2r7tx67","LATDD":36.7075,"FREQUENCY":"1390  kHz"},"type":"Feature","geometry":{"type":"Point","coordinates":[-108.1472,36.7075]}},{"properties":{"CITY":"BAKERSFIELD","LONDD":118.9581,"CALLSIGN":"KERN","STATE":"CA","FACID":6640.0,"MarketSt":"Bakersfield, CA","LICENSEE":"AGM CALIFORNIA","id":"a626i32b6c89","LATDD":35.3519,"FREQUENCY":"1410  kHz"},"type":"Feature","geometry":{"type":"Point","coordinates":[-118.9581,35.3519]}},{"properties":{"CITY":"PORTLAND","LONDD":122.5658,"CALLSIGN":"KEX","STATE":"OR","FACID":11271.0,"MarketSt":"Portland, OR","LICENSEE":"CITICASTERS LICENSES, L.P.","id":"a626i2yhehf0","LATDD":45.4222,"FREQUENCY":"1190  kHz"},"type":"Feature","geometry":{"type":"Point","coordinates":[-122.5658,45.4222]}},{"properties":{"CITY":"CORPUS CHRISTI","LONDD":97.4581,"CALLSIGN":"KEYS","STATE":"TX","FACID":39715.0,"MarketSt":"Corpus Christi, TX","LICENSEE":"MALKAN AM ASSOCIATES, L.P.","id":"a626i2w6d2ct","LATDD":27.7839,"FREQUENCY":"1440  kHz"},"type":"Feature","geometry":{"type":"Point","coordinates":[-97.4581,27.7839]}},{"properties":{"CITY":"FARMINGTON","LONDD":94.1831,"CALLSIGN":"KFAY","STATE":"AR","FACID":16573.0,"MarketSt":"Fayetteville, AR","LICENSEE":"CUMULUS LICENSING LLC","id":"a626i2yz3mpp","LATDD":36.1094,"FREQUENCY":"1030  kHz"},"type":"Feature","geometry":{"type":"Point","coordinates":[-94.1831,36.1094]}},{"properties":{"CITY":"SACRAMENTO","LONDD":121.4828,"CALLSIGN":"KFBK","STATE":"CA","FACID":10145.0,"MarketSt":"Sacramento, CA","LICENSEE":"AMFM BROADCASTING LICENSES, LLC","id":"a626i2pkavfs","LATDD":38.8483,"FREQUENCY":"1530  kHz"},"type":"Feature","geometry":{"type":"Point","coordinates":[-121.4828,38.8483]}},{"properties":{"CITY":"ST. JOSEPH","LONDD":94.8056,"CALLSIGN":"KFEQ","STATE":"MO","FACID":34419.0,"MarketSt":"St.Joseph, MO","LICENSEE":"EAGLE COMMUNICATIONS, INC.","id":"a626i2pyu3ws","LATDD":39.8286,"FREQUENCY":"680   kHz"},"type":"Feature","geometry":{"type":"Point","coordinates":[-94.8056,39.8286]}},{"properties":{"CITY":"LOS ANGELES","LONDD":118.0131,"CALLSIGN":"KFI","STATE":"CA","FACID":34425.0,"MarketSt":"LosAngeles, CA","LICENSEE":"CAPSTAR TX LIMITED PARTNERSHIP","id":"a626i3377eae","LATDD":33.8797,"FREQUENCY":"640   kHz"},"type":"Feature","geometry":{"type":"Point","coordinates":[-118.0131,33.8797]}},{"properties":{"CITY":"MODESTO","LONDD":120.9533,"CALLSIGN":"KFIV","STATE":"CA","FACID":12959.0,"MarketSt":"Modesto, CA","LICENSEE":"CAPSTAR TX LIMITED PARTNERSHIP","id":"a626i34g1nj9","LATDD":37.6897,"FREQUENCY":"1360  kHz"},"type":"Feature","geometry":{"type":"Point","coordinates":[-120.9533,37.6897]}},{"properties":{"CITY":"GREELEY","LONDD":104.7322,"CALLSIGN":"KFKA","STATE":"CO","FACID":71443.0,"MarketSt":"Greeley, CO","LICENSEE":"MUSIC VENTURES, LLC, DBA BROADCAST MEDIA LLC","id":"a626i2wylqsp","LATDD":40.3656,"FREQUENCY":"1310  kHz"},"type":"Feature","geometry":{"type":"Point","coordinates":[-104.7322,40.3656]}},{"properties":{"CITY":"COLUMBIA","LONDD":92.3039,"CALLSIGN":"KFRU","STATE":"MO","FACID":12396.0,"MarketSt":"Columbia, MO","LICENSEE":"CUMULUS LICENSING LLC","id":"a626i335szf4","LATDD":38.9625,"FREQUENCY":"1400  kHz"},"type":"Feature","geometry":{"type":"Point","coordinates":[-92.3039,38.9625]}},{"properties":{"CITY":"PHOENIX","LONDD":112.0061,"CALLSIGN":"KFYI","STATE":"AZ","FACID":63918.0,"MarketSt":"Phoenix, AZ","LICENSEE":"AMFM RADIO LICENSES, L.L.C.","id":"a626i2ui0z0a","LATDD":33.3881,"FREQUENCY":"550   kHz"},"type":"Feature","geometry":{"type":"Point","coordinates":[-112.0061,33.3881]}},{"properties":{"CITY":"LUBBOCK","LONDD":101.925,"CALLSIGN":"KFYO","STATE":"TX","FACID":61151.0,"MarketSt":"Lubbock, TX","LICENSEE":"GAP BROADCASTING LUBBOCK LICENSE, LLC","id":"a626i2usxtnu","LATDD":33.4639,"FREQUENCY":"790   kHz"},"type":"Feature","geometry":{"type":"Point","coordinates":[-101.925,33.4639]}},{"properties":{"CITY":"SPOKANE","LONDD":117.385,"CALLSIGN":"KGA","STATE":"WA","FACID":11234.0,"MarketSt":"Spokane, WA","LICENSEE":"CITADEL BROADCASTING COMPANY","id":"a626i31x1ism","LATDD":47.5022,"FREQUENCY":"1510  kHz"},"type":"Feature","geometry":{"type":"Point","coordinates":[-117.385,47.5022]}},{"properties":{"CITY":"ORCHARD VALLEY","LONDD":104.8314,"CALLSIGN":"KGAB","STATE":"WY","FACID":30224.0,"MarketSt":"Cheyenne, WY","LICENSEE":"CITICASTERS LICENSES, L.P.","id":"a626i2pw7n1e","LATDD":41.0525,"FREQUENCY":"650   kHz"},"type":"Feature","geometry":{"type":"Point","coordinates":[-104.8314,41.0525]}},{"properties":{"CITY":"CLINTON","LONDD":92.4589,"CALLSIGN":"KGFL","STATE":"AR","FACID":71396.0,"MarketSt":"Clinton, AR","LICENSEE":"KING-SULLIVAN RADIO","id":"a626i2rzn4xy","LATDD":35.5583,"FREQUENCY":"1110  kHz"},"type":"Feature","geometry":{"type":"Point","coordinates":[-92.4589,35.5583]}},{"properties":{"CITY":"KEARNEY","LONDD":99.0811,"CALLSIGN":"KGFW","STATE":"NE","FACID":9933.0,"MarketSt":"Kearney, NE","LICENSEE":"NRG LICENSE SUB, LLC","id":"a626i2tpgx5w","LATDD":40.6681,"FREQUENCY":"1340  kHz"},"type":"Feature","geometry":{"type":"Point","coordinates":[-99.0811,40.6681]}},{"properties":{"CITY":"PIERRE","LONDD":100.3383,"CALLSIGN":"KGFX","STATE":"SD","FACID":30209.0,"MarketSt":"Pierre, SD","LICENSEE":"JAMES RIVER BROADCASTING COMPANY","id":"a626i33xh9bo","LATDD":44.2867,"FREQUENCY":"1060  kHz"},"type":"Feature","geometry":{"type":"Point","coordinates":[-100.3383,44.2867]}},{"properties":{"CITY":"MASON CITY","LONDD":93.2047,"CALLSIGN":"KGLO","STATE":"IA","FACID":30114.0,"MarketSt":"Mason City, IA","LICENSEE":"THREE EAGLES COMMUNICATIONS, INC.","id":"a626i2qnkvbw","LATDD":43.0542,"FREQUENCY":"1300  kHz"},"type":"Feature","geometry":{"type":"Point","coordinates":[-93.2047,43.0542]}},{"properties":{"CITY":"BELLINGHAM","LONDD":122.4453,"CALLSIGN":"KGMI","STATE":"WA","FACID":34467.0,"MarketSt":"Bellingham, WA","LICENSEE":"SAGA BROADCASTING, LLC","id":"a626i32ltcoi","LATDD":48.7192,"FREQUENCY":"790   kHz"},"type":"Feature","geometry":{"type":"Point","coordinates":[-122.4453,48.7192]}},{"properties":{"CITY":"AMARILLO","LONDD":101.5556,"CALLSIGN":"KGNC","STATE":"TX","FACID":63159.0,"MarketSt":"Amarillo, TX","LICENSEE":"MCC RADIO, LLC","id":"a626i2srzhrk","LATDD":35.42,"FREQUENCY":"710   kHz"},"type":"Feature","geometry":{"type":"Point","coordinates":[-101.5556,35.42]}},{"properties":{"CITY":"AGANA","LONDD":144.7594,"CALLSIGN":"KGUM","STATE":"GU","FACID":60853.0,"MarketSt":"Agana, GM","LICENSEE":"SORENSEN PACIFIC BROADCASTING INC","id":"a626i2v9b8d9","LATDD":13.3892,"FREQUENCY":"567   kHz"},"type":"Feature","geometry":{"type":"Point","coordinates":[-144.7594,13.3892]}},{"properties":{"CITY":"GREENVILLE","LONDD":96.0986,"CALLSIGN":"KGVL","STATE":"TX","FACID":21598.0,"MarketSt":"Greenville, TX","LICENSEE":"KRBE LICO, INC.","id":"a626i2vmzvud","LATDD":33.1672,"FREQUENCY":"1400  kHz"},"type":"Feature","geometry":{"type":"Point","coordinates":[-96.0986,33.1672]}},{"properties":{"CITY":"MISSOULA","LONDD":114.0792,"CALLSIGN":"KGVO","STATE":"MT","FACID":71751.0,"MarketSt":"Missoula, MT","LICENSEE":"CAPSTAR TX LIMITED PARTNERSHIP","id":"a626i2w6sbew","LATDD":46.8297,"FREQUENCY":"1290  kHz"},"type":"Feature","geometry":{"type":"Point","coordinates":[-114.0792,46.8297]}},{"properties":{"CITY":"MISSOULA","LONDD":114.0792,"CALLSIGN":"KGVO","STATE":"MT","FACID":71751.0,"MarketSt":"Missoula, MT","LICENSEE":"CAPSTAR TX LIMITED PARTNERSHIP","id":"a626i325inid","LATDD":46.8297,"FREQUENCY":"1290  kHz"},"type":"Feature","geometry":{"type":"Point","coordinates":[-114.0792,46.8297]}},{"properties":{"CITY":"ENID","LONDD":97.9211,"CALLSIGN":"KGWA","STATE":"OK","FACID":25899.0,"MarketSt":"Enid, OK","LICENSEE":"WILLIAMS BROADCASTING LLC","id":"a626i309xquj","LATDD":36.4369,"FREQUENCY":"960   kHz"},"type":"Feature","geometry":{"type":"Point","coordinates":[-97.9211,36.4369]}},{"properties":{"CITY":"HANNIBAL","LONDD":91.3758,"CALLSIGN":"KHMO","STATE":"MO","FACID":5205.0,"MarketSt":"Hannibal, MO","LICENSEE":"DOUBLE O MISSOURI CORPORATION","id":"a626i2yxnhdd","LATDD":39.6294,"FREQUENCY":"1070  kHz"},"type":"Feature","geometry":{"type":"Point","coordinates":[-91.3758,39.6294]}},{"properties":{"CITY":"HONOLULU","LONDD":157.8756,"CALLSIGN":"KHVH","STATE":"HI","FACID":34591.0,"MarketSt":"Honolulu, Oahu, HI","LICENSEE":"CAPSTAR TX LIMITED PARTNERSHIP","id":"a626i2xafgxt","LATDD":21.3239,"FREQUENCY":"830   kHz"},"type":"Feature","geometry":{"type":"Point","coordinates":[-157.8756,21.3239]}},{"properties":{"CITY":"IDAHO FALLS","LONDD":111.9208,"CALLSIGN":"KID","STATE":"ID","FACID":22194.0,"MarketSt":"Idaho Falls, ID","LICENSEE":"CITICASTERS LICENSES, L.P.","id":"a626i2uaifp1","LATDD":43.5597,"FREQUENCY":"590   kHz"},"type":"Feature","geometry":{"type":"Point","coordinates":[-111.9208,43.5597]}},{"properties":{"CITY":"NAMPA","LONDD":116.4006,"CALLSIGN":"KIDO","STATE":"ID","FACID":17396.0,"MarketSt":"Boise, ID","LICENSEE":"PEAK BROADCASTING OF BOISE LICENSES, LLC","id":"a626i2zo3ini","LATDD":43.5597,"FREQUENCY":"580   kHz"},"type":"Feature","geometry":{"type":"Point","coordinates":[-116.4006,43.5597]}},{"properties":{"CITY":"ESTHERVILLE","LONDD":94.8231,"CALLSIGN":"KILR","STATE":"IA","FACID":29726.0,"MarketSt":"Estherville, IA","LICENSEE":"JACOBSON BROADCASTING COMPANY, INC.","id":"a626i2sf192v","LATDD":43.4292,"FREQUENCY":"1070  kHz"},"type":"Feature","geometry":{"type":"Point","coordinates":[-94.8231,43.4292]}},{"properties":{"CITY":"EUREKA","LONDD":124.1275,"CALLSIGN":"KINS","STATE":"CA","FACID":19841.0,"MarketSt":"Eureka, CA","LICENSEE":"EUREKA BROADCASTING CO., INC.","id":"a626i2ptf959","LATDD":40.8006,"FREQUENCY":"980   kHz"},"type":"Feature","geometry":{"type":"Point","coordinates":[-124.1275,40.8006]}},{"properties":{"CITY":"YAKIMA","LONDD":120.4947,"CALLSIGN":"KIT","STATE":"WA","FACID":64398.0,"MarketSt":"Yakima, WA","LICENSEE":"CITICASTERS LICENSES, L.P.","id":"a626i2r5hv39","LATDD":46.5719,"FREQUENCY":"1280  kHz"},"type":"Feature","geometry":{"type":"Point","coordinates":[-120.4947,46.5719]}},{"properties":{"CITY":"GLOBE","LONDD":110.7569,"CALLSIGN":"KJAA","STATE":"AZ","FACID":24161.0,"MarketSt":"Globe, AZ","LICENSEE":"GOOD MUSIC, INC.","id":"a626i2vc457n","LATDD":33.3808,"FREQUENCY":"1240  kHz"},"type":"Feature","geometry":{"type":"Point","coordinates":[-110.7569,33.3808]}},{"properties":{"CITY":"WHITEFISH","LONDD":114.3197,"CALLSIGN":"KJJR","STATE":"MT","FACID":4578.0,"MarketSt":"Whitefish, MT","LICENSEE":"BEE BROADCASTING, INC.","id":"a626i2t0vv63","LATDD":48.3956,"FREQUENCY":"880   kHz"},"type":"Feature","geometry":{"type":"Point","coordinates":[-114.3197,48.3956]}},{"properties":{"CITY":"JUNEAU","LONDD":134.4714,"CALLSIGN":"KJNO","STATE":"AK","FACID":61235.0,"MarketSt":"Juneau, AK","LICENSEE":"ALASKA BROADCAST COMMUNICATIONS, INC","id":"a626i2t7vsrv","LATDD":58.3297,"FREQUENCY":"630   kHz"},"type":"Feature","geometry":{"type":"Point","coordinates":[-134.4714,58.3297]}},{"properties":{"CITY":"WAYNESVILLE","LONDD":92.1517,"CALLSIGN":"KJPW","STATE":"MO","FACID":53877.0,"MarketSt":"Waynesville, MO","LICENSEE":"WAYNESVILLE/ LEBANON LICENSE CO, LLC","id":"a626i32elp0j","LATDD":37.8192,"FREQUENCY":"1390  kHz"},"type":"Feature","geometry":{"type":"Point","coordinates":[-92.1517,37.8192]}},{"properties":{"CITY":"WAYNESVILLE","LONDD":92.1517,"CALLSIGN":"KJPW","STATE":"MO","FACID":53877.0,"MarketSt":"Waynesville, MO","LICENSEE":"WAYNESVILLE/ LEBANON LICENSE CO, LLC","id":"a626i2rfi6oi","LATDD":37.8192,"FREQUENCY":"1390  kHz"},"type":"Feature","geometry":{"type":"Point","coordinates":[-92.1517,37.8192]}},{"properties":{"CITY":"OMAHA","LONDD":96.0058,"CALLSIGN":"KKAR","STATE":"NE","FACID":542.0,"MarketSt":"Omaha, NE","LICENSEE":"WAITT OMAHA, LLC","id":"a626i32h6vi2","LATDD":41.1889,"FREQUENCY":"1290  kHz"},"type":"Feature","geometry":{"type":"Point","coordinates":[-96.0058,41.1889]}},{"properties":{"CITY":"BEMIDJI","LONDD":94.8658,"CALLSIGN":"KKBJ","STATE":"MN","FACID":9665.0,"MarketSt":"Bemidji, MN","LICENSEE":"R.P. BROADCASTING","id":"a626i2pjh5np","LATDD":47.4422,"FREQUENCY":"1360  kHz"},"type":"Feature","geometry":{"type":"Point","coordinates":[-94.8658,47.4422]}},{"properties":{"CITY":"ALBUQUERQUE","LONDD":106.6114,"CALLSIGN":"KKOB","STATE":"NM","FACID":11251.0,"MarketSt":"Albuquerque, NM","LICENSEE":"CITADEL BROADCASTING COMPANY","id":"a626i33un2x7","LATDD":35.2025,"FREQUENCY":"770   kHz"},"type":"Feature","geometry":{"type":"Point","coordinates":[-106.6114,35.2025]}},{"properties":{"CITY":"SANTA FE","LONDD":105.9725,"CALLSIGN":"KKOB","STATE":"NM","FACID":11251.0,"MarketSt":"Albuquerque, NM","LICENSEE":"CITADEL BROADCASTING COMPANY","id":"a626i2xt5cvm","LATDD":35.6822,"FREQUENCY":"770   kHz"},"type":"Feature","geometry":{"type":"Point","coordinates":[-105.9725,35.6822]}},{"properties":{"CITY":"CHANUTE","LONDD":95.4689,"CALLSIGN":"KKOY","STATE":"KS","FACID":48292.0,"MarketSt":"Chanute, KS","LICENSEE":"SOUTHEAST KANSAS BROADCASTING COMPANY, INC.","id":"a626i2r2c3av","LATDD":37.6903,"FREQUENCY":"1460  kHz"},"type":"Feature","geometry":{"type":"Point","coordinates":[-95.4689,37.6903]}},{"properties":{"CITY":"SAN ANGELO","LONDD":100.4492,"CALLSIGN":"KKSA","STATE":"TX","FACID":22156.0,"MarketSt":"San Angelo, TX","LICENSEE":"FOSTER COMMUNICATIONS COMPANY, INC.","id":"a626i2rcbmnu","LATDD":31.4872,"FREQUENCY":"1260  kHz"},"type":"Feature","geometry":{"type":"Point","coordinates":[-100.4492,31.4872]}},{"properties":{"CITY":"AUSTIN","LONDD":97.6297,"CALLSIGN":"KLBJ","STATE":"TX","FACID":65791.0,"MarketSt":"Austin, TX","LICENSEE":"EMMIS AUSTIN RADIO BROADCASTING COMPANY, L.P.","id":"a626i30fdt5d","LATDD":30.2378,"FREQUENCY":"590   kHz"},"type":"Feature","geometry":{"type":"Point","coordinates":[-97.6297,30.2378]}},{"properties":{"CITY":"LA GRANDE","LONDD":118.0667,"CALLSIGN":"KLBM","STATE":"OR","FACID":35047.0,"MarketSt":"LaGrande, OR","LICENSEE":"PACIFIC EMPIRE RADIO CORP","id":"a626i34kup0j","LATDD":45.3292,"FREQUENCY":"1450  kHz"},"type":"Feature","geometry":{"type":"Point","coordinates":[-118.0667,45.3292]}},{"properties":{"CITY":"OTTUMWA","LONDD":92.4822,"CALLSIGN":"KLEE","STATE":"IA","FACID":21915.0,"MarketSt":"Ottumwa, IA","LICENSEE":"FMC BROADCASTING, INC.","id":"a626i3300vd6","LATDD":41.0244,"FREQUENCY":"1480  kHz"},"type":"Feature","geometry":{"type":"Point","coordinates":[-92.4822,41.0244]}},{"properties":{"CITY":"LINCOLN","LONDD":96.6747,"CALLSIGN":"KLIN","STATE":"NE","FACID":35064.0,"MarketSt":"Lincoln, NE","LICENSEE":"MONTEREY LICENSES, LLC","id":"a626i2w3gnzx","LATDD":40.8483,"FREQUENCY":"1400  kHz"},"type":"Feature","geometry":{"type":"Point","coordinates":[-96.6747,40.8483]}},{"properties":{"CITY":"LAMAR","LONDD":102.6211,"CALLSIGN":"KLMR","STATE":"CO","FACID":174.0,"MarketSt":"Lamar, CO","LICENSEE":"CCR-LAMAR IV, LLC","id":"a626i30fzzpl","LATDD":38.1147,"FREQUENCY":"920   kHz"},"type":"Feature","geometry":{"type":"Point","coordinates":[-102.6211,38.1147]}},{"properties":{"CITY":"RIDGECREST","LONDD":117.6708,"CALLSIGN":"KLOA","STATE":"CA","FACID":459.0,"MarketSt":"Ridgecrest, CA","LICENSEE":"ADELMAN BROADCASTING, INC.","id":"a626i2sv25av","LATDD":35.6344,"FREQUENCY":"1240  kHz"},"type":"Feature","geometry":{"type":"Point","coordinates":[-117.6708,35.6344]}},{"properties":{"CITY":"CORVALLIS","LONDD":123.225,"CALLSIGN":"KLOO","STATE":"OR","FACID":67594.0,"MarketSt":"Corvallis, OR","LICENSEE":"BICOASTAL MEDIA LICENSES V, LLC","id":"a626i2z3h7p4","LATDD":44.5939,"FREQUENCY":"1340  kHz"},"type":"Feature","geometry":{"type":"Point","coordinates":[-123.225,44.5939]}},{"properties":{"CITY":"PARKER","LONDD":114.2875,"CALLSIGN":"KLPZ","STATE":"AZ","FACID":66361.0,"MarketSt":"Parker, AZ","LICENSEE":"KEITH DOUGLAS LEARN","id":"a626i2sw4goa","LATDD":34.1539,"FREQUENCY":"1380  kHz"},"type":"Feature","geometry":{"type":"Point","coordinates":[-114.2875,34.1539]}},{"properties":{"CITY":"DICKINSON","LONDD":102.8303,"CALLSIGN":"KLTC","STATE":"ND","FACID":71870.0,"MarketSt":"Dickinson, ND","LICENSEE":"CC LICENSES, LLC","id":"a626i2qpbh5e","LATDD":46.8483,"FREQUENCY":"1460  kHz"},"type":"Feature","geometry":{"type":"Point","coordinates":[-102.8303,46.8483]}},{"properties":{"CITY":"BEAUMONT","LONDD":93.8708,"CALLSIGN":"KLVI","STATE":"TX","FACID":25580.0,"MarketSt":"Beaumont, TX","LICENSEE":"CAPSTAR TX LIMITED PARTNERSHIP","id":"a626i2tvpj6l","LATDD":30.0453,"FREQUENCY":"560   kHz"},"type":"Feature","geometry":{"type":"Point","coordinates":[-93.8708,30.0453]}},{"properties":{"CITY":"BEAUMONT","LONDD":93.8686,"CALLSIGN":"KLVI","STATE":"TX","FACID":25580.0,"MarketSt":"Beaumont, TX","LICENSEE":"CAPSTAR TX LIMITED PARTNERSHIP","id":"a626i2vh8467","LATDD":30.0456,"FREQUENCY":"560   kHz"},"type":"Feature","geometry":{"type":"Point","coordinates":[-93.8686,30.0456]}},{"properties":{"CITY":"BISMARCK-MANDAN","LONDD":100.8361,"CALLSIGN":"KLXX","STATE":"ND","FACID":43223.0,"MarketSt":"Bismarck, ND","LICENSEE":"CUMULUS LICENSING LLC","id":"a626i32pcfqq","LATDD":46.8103,"FREQUENCY":"1270  kHz"},"type":"Feature","geometry":{"type":"Point","coordinates":[-100.8361,46.8103]}},{"properties":{"CITY":"TOPEKA","LONDD":95.5708,"CALLSIGN":"KMAJ","STATE":"KS","FACID":42014.0,"MarketSt":"Topeka, KS","LICENSEE":"CUMULUS LICENSING LLC","id":"a626i2ukyx4x","LATDD":39.0214,"FREQUENCY":"1440  kHz"},"type":"Feature","geometry":{"type":"Point","coordinates":[-95.5708,39.0214]}},{"properties":{"CITY":"MANHATTAN","LONDD":96.5583,"CALLSIGN":"KMAN","STATE":"KS","FACID":39783.0,"MarketSt":"Manhattan, KS","LICENSEE":"MANHATTAN BROADCASTING CO., INC.","id":"a626i2zw3ztm","LATDD":39.2167,"FREQUENCY":"1350  kHz"},"type":"Feature","geometry":{"type":"Point","coordinates":[-96.5583,39.2167]}},{"properties":{"CITY":"KANSAS CITY","LONDD":94.6153,"CALLSIGN":"KMBZ","STATE":"MO","FACID":6382.0,"MarketSt":"Kansas City, MO","LICENSEE":"ENTERCOM KANSAS CITY LICENSE, LLC","id":"a626i2v9eia8","LATDD":39.0381,"FREQUENCY":"980   kHz"},"type":"Feature","geometry":{"type":"Point","coordinates":[-94.6153,39.0381]}},{"properties":{"CITY":"FRESNO","LONDD":119.3464,"CALLSIGN":"KMJ","STATE":"CA","FACID":26923.0,"MarketSt":"Fresno, CA","LICENSEE":"PEAK BROADCASTING OF FRESNO LICENSES, LLC","id":"a626i2rnefly","LATDD":36.6592,"FREQUENCY":"580   kHz"},"type":"Feature","geometry":{"type":"Point","coordinates":[-119.3464,36.6592]}},{"properties":{"CITY":"MONROE","LONDD":92.0733,"CALLSIGN":"KMLB","STATE":"LA","FACID":48636.0,"MarketSt":"Monroe, LA","LICENSEE":"HOLLADAY BROADCASTING OF LOUISIANA, LLC","id":"a626i2zolwvg","LATDD":32.5528,"FREQUENCY":"1440  kHz"},"type":"Feature","geometry":{"type":"Point","coordinates":[-92.0733,32.5528]}},{"properties":{"CITY":"BOZEMAN","LONDD":111.0281,"CALLSIGN":"KMMS","STATE":"MT","FACID":24170.0,"MarketSt":"Bozeman, MT","LICENSEE":"CAPSTAR TX LIMITED PARTNERSHIP","id":"a626i2x39vbj","LATDD":45.6983,"FREQUENCY":"1450  kHz"},"type":"Feature","geometry":{"type":"Point","coordinates":[-111.0281,45.6983]}},{"properties":{"CITY":"MIDLAND","LONDD":102.0814,"CALLSIGN":"KMND","STATE":"TX","FACID":28201.0,"MarketSt":"Midland, TX","LICENSEE":"CUMULUS LICENSING LLC","id":"a626i2x835mv","LATDD":31.9636,"FREQUENCY":"1510  kHz"},"type":"Feature","geometry":{"type":"Point","coordinates":[-102.0814,31.9636]}},{"properties":{"CITY":"ST. LOUIS","LONDD":90.055,"CALLSIGN":"KMOX","STATE":"MO","FACID":9638.0,"MarketSt":"St.Louis, MO","LICENSEE":"CBS RADIO EAST INC.","id":"a626i31h6790","LATDD":38.7225,"FREQUENCY":"1120  kHz"},"type":"Feature","geometry":{"type":"Point","coordinates":[-90.055,38.7225]}},{"properties":{"CITY":"MORRIS","LONDD":95.8872,"CALLSIGN":"KMRS","STATE":"MN","FACID":71877.0,"MarketSt":"Morris, MN","LICENSEE":"IOWA CITY BROADCASTING COMPANY","id":"a626i2pkpnf0","LATDD":45.6031,"FREQUENCY":"1230  kHz"},"type":"Feature","geometry":{"type":"Point","coordinates":[-95.8872,45.6031]}},{"properties":{"CITY":"FREDERICKSBURG","LONDD":98.8828,"CALLSIGN":"KNAF","STATE":"TX","FACID":22670.0,"MarketSt":"Fredericksburg, TX","LICENSEE":"J. &amp; J. FRITZ MEDIA, LTD.","id":"a626i2qgzu8p","LATDD":30.2867,"FREQUENCY":"910   kHz"},"type":"Feature","geometry":{"type":"Point","coordinates":[-98.8828,30.2867]}},{"properties":{"CITY":"DELTA","LONDD":112.5558,"CALLSIGN":"KNAK","STATE":"UT","FACID":35207.0,"MarketSt":"Delta, UT","LICENSEE":"ACCENT RADIO, INC.","id":"a626i2x6ikxa","LATDD":39.3367,"FREQUENCY":"540   kHz"},"type":"Feature","geometry":{"type":"Point","coordinates":[-112.5558,39.3367]}},{"properties":{"CITY":"SAN FRANCISCO","LONDD":122.2333,"CALLSIGN":"KNBR","STATE":"CA","FACID":35208.0,"MarketSt":"San Francisco, CA","LICENSEE":"KNBR LICO, INC.","id":"a626i31szek9","LATDD":37.5472,"FREQUENCY":"680   kHz"},"type":"Feature","geometry":{"type":"Point","coordinates":[-122.2333,37.5472]}},{"properties":{"CITY":"GRASS VALLEY","LONDD":121.0133,"CALLSIGN":"KNCO","STATE":"CA","FACID":47885.0,"MarketSt":"Grass Valley, CA","LICENSEE":"NEVADA COUNTY BROADCASTERS, INC.","id":"a626i32v6pya","LATDD":39.215,"FREQUENCY":"830   kHz"},"type":"Feature","geometry":{"type":"Point","coordinates":[-121.0133,39.215]}},{"properties":{"CITY":"NATCHITOCHES","LONDD":93.0631,"CALLSIGN":"KNOC","STATE":"LA","FACID":8518.0,"MarketSt":"Natchitoches, LA","LICENSEE":"NORTH FACE BROADCASTING, L.L.C.","id":"a626i2xp73nx","LATDD":31.7631,"FREQUENCY":"1450  kHz"},"type":"Feature","geometry":{"type":"Point","coordinates":[-93.0631,31.7631]}},{"properties":{"CITY":"SALT LAKE CITY","LONDD":111.9322,"CALLSIGN":"KNRS","STATE":"UT","FACID":63818.0,"MarketSt":"Salt Lake City, UT","LICENSEE":"CITICASTERS LICENSES, L.P.","id":"a626i2ywlwcl","LATDD":40.8192,"FREQUENCY":"570   kHz"},"type":"Feature","geometry":{"type":"Point","coordinates":[-111.9322,40.8192]}},{"properties":{"CITY":"ST. CLOUD","LONDD":94.1681,"CALLSIGN":"KNSI","STATE":"MN","FACID":37002.0,"MarketSt":"St. Cloud, MN","LICENSEE":"LEIGHTON ENTERPRISES, INC.","id":"a626i34c5orx","LATDD":45.5392,"FREQUENCY":"1450  kHz"},"type":"Feature","geometry":{"type":"Point","coordinates":[-94.1681,45.5392]}},{"properties":{"CITY":"WICHITA","LONDD":97.2475,"CALLSIGN":"KNSS","STATE":"KS","FACID":53152.0,"MarketSt":"Wichita, KS","LICENSEE":"ENTERCOM WICHITA LICENSE, LLC","id":"a626i2ycxeut","LATDD":37.7131,"FREQUENCY":"1330  kHz"},"type":"Feature","geometry":{"type":"Point","coordinates":[-97.2475,37.7131]}},{"properties":{"CITY":"TUCSON","LONDD":111.0083,"CALLSIGN":"KNST","STATE":"AZ","FACID":53589.0,"MarketSt":"Tucson, AZ","LICENSEE":"CAPSTAR TX LIMITED PARTNERSHIP","id":"a626i2qzs8tb","LATDD":32.2483,"FREQUENCY":"790   kHz"},"type":"Feature","geometry":{"type":"Point","coordinates":[-111.0083,32.2483]}},{"properties":{"CITY":"GRAND JUNCTION","LONDD":108.4194,"CALLSIGN":"KNZZ","STATE":"CO","FACID":39465.0,"MarketSt":"Grand Junction, CO","LICENSEE":"MBC GRAND BROADCASTING, INC.","id":"a626i2zha71k","LATDD":38.9517,"FREQUENCY":"1100  kHz"},"type":"Feature","geometry":{"type":"Point","coordinates":[-108.4194,38.9517]}},{"properties":{"CITY":"DENVER","LONDD":104.7658,"CALLSIGN":"KOA","STATE":"CO","FACID":29738.0,"MarketSt":"Denver, CO","LICENSEE":"JACOR BROADCASTING OF COLORADO, INC.","id":"a626i33gqsff","LATDD":39.5061,"FREQUENCY":"850   kHz"},"type":"Feature","geometry":{"type":"Point","coordinates":[-104.7658,39.5061]}},{"properties":{"CITY":"LAS CRUCES","LONDD":106.8022,"CALLSIGN":"KOBE","STATE":"NM","FACID":54945.0,"MarketSt":"Las Cruces, NM","LICENSEE":"BRAVO MIC COMMUNICATIONS II, LLC","id":"a626i30v2783","LATDD":32.3019,"FREQUENCY":"1450  kHz"},"type":"Feature","geometry":{"type":"Point","coordinates":[-106.8022,32.3019]}},{"properties":{"CITY":"CODY","LONDD":109.0556,"CALLSIGN":"KODI","STATE":"WY","FACID":74351.0,"MarketSt":"Cody, WY","LICENSEE":"LEGEND COMMUNICATIONS OF WYOMING, LLC","id":"a626i2plmg30","LATDD":44.5128,"FREQUENCY":"1400  kHz"},"type":"Feature","geometry":{"type":"Point","coordinates":[-109.0556,44.5128]}},{"properties":{"CITY":"NORTH PLATTE","LONDD":100.7731,"CALLSIGN":"KODY","STATE":"NE","FACID":9931.0,"MarketSt":"North Platte, NE","LICENSEE":"NRG LICENSE SUB, LLC","id":"a626i2z4iknj","LATDD":41.1539,"FREQUENCY":"1240  kHz"},"type":"Feature","geometry":{"type":"Point","coordinates":[-100.7731,41.1539]}},{"properties":{"CITY":"SAN DIEGO","LONDD":117.0697,"CALLSIGN":"KOGO","STATE":"CA","FACID":51514.0,"MarketSt":"San Diego, CA","LICENSEE":"CITICASTERS LICENSES, L.P.","id":"a626i2pmlnvx","LATDD":32.7214,"FREQUENCY":"600   kHz"},"type":"Feature","geometry":{"type":"Point","coordinates":[-117.0697,32.7214]}},{"properties":{"CITY":"SCOTTSBLUFF","LONDD":103.7056,"CALLSIGN":"KOLT","STATE":"NE","FACID":67471.0,"MarketSt":"Scottsbluff, NE","LICENSEE":"TRACY BROADCASTING CORPORATION","id":"a626i2za9vzl","LATDD":41.8639,"FREQUENCY":"1320  kHz"},"type":"Feature","geometry":{"type":"Point","coordinates":[-103.7056,41.8639]}},{"properties":{"CITY":"OMAK","LONDD":119.5333,"CALLSIGN":"KOMW","STATE":"WA","FACID":49163.0,"MarketSt":"Omak, WA","LICENSEE":"NORTH CASCADES BROADCASTING, INC.","id":"a626i2rzvp90","LATDD":48.3944,"FREQUENCY":"680   kHz"},"type":"Feature","geometry":{"type":"Point","coordinates":[-119.5333,48.3944]}},{"properties":{"CITY":"PORT ANGELES","LONDD":123.4369,"CALLSIGN":"KONP","STATE":"WA","FACID":54717.0,"MarketSt":"Port Angeles, WA","LICENSEE":"RADIO PACIFIC, INC.","id":"a626i2xlchuv","LATDD":48.1219,"FREQUENCY":"1450  kHz"},"type":"Feature","geometry":{"type":"Point","coordinates":[-123.4369,48.1219]}},{"properties":{"CITY":"RAPID CITY","LONDD":103.1875,"CALLSIGN":"KOTA","STATE":"SD","FACID":17678.0,"MarketSt":"Rapid City, SD","LICENSEE":"DUHAMEL BROADCASTING ENTERPRISES","id":"a626i2ytpajw","LATDD":44.0333,"FREQUENCY":"1380  kHz"},"type":"Feature","geometry":{"type":"Point","coordinates":[-103.1875,44.0333]}},{"properties":{"CITY":"LARAMIE","LONDD":105.5808,"CALLSIGN":"KOWB","STATE":"WY","FACID":24700.0,"MarketSt":"Laramie, WY","LICENSEE":"CLEAR CHANNEL BROADCASTING LICENSES, INC.","id":"a626i34dzynl","LATDD":41.2839,"FREQUENCY":"1290  kHz"},"type":"Feature","geometry":{"type":"Point","coordinates":[-105.5808,41.2839]}},{"properties":{"CITY":"CHICO","LONDD":121.7878,"CALLSIGN":"KPAY","STATE":"CA","FACID":22975.0,"MarketSt":"Chico, CA","LICENSEE":"DEER CREEK BROADCASTING, LLC","id":"a626i2utl7yo","LATDD":39.7106,"FREQUENCY":"1290  kHz"},"type":"Feature","geometry":{"type":"Point","coordinates":[-121.7878,39.7106]}},{"properties":{"CITY":"QUINCY","LONDD":120.8983,"CALLSIGN":"KPCO","STATE":"CA","FACID":54978.0,"MarketSt":"Quincy, CA","LICENSEE":"TOM F. HUTH","id":"a626i31b1hjw","LATDD":39.9483,"FREQUENCY":"1370  kHz"},"type":"Feature","geometry":{"type":"Point","coordinates":[-120.8983,39.9483]}},{"properties":{"CITY":"MENDOCINO","LONDD":123.7808,"CALLSIGN":"KPMO","STATE":"CA","FACID":31596.0,"MarketSt":"Mendocino, CA","LICENSEE":"JPR FOUNDATION INC.","id":"a626i305dka4","LATDD":39.3425,"FREQUENCY":"1300  kHz"},"type":"Feature","geometry":{"type":"Point","coordinates":[-123.7808,39.3425]}},{"properties":{"CITY":"EUGENE","LONDD":123.0361,"CALLSIGN":"KPNW","STATE":"OR","FACID":40846.0,"MarketSt":"Eugene, OR","LICENSEE":"BICOASTAL MEDIA LICENSES V, LLC","id":"a626i2obiohv","LATDD":43.9567,"FREQUENCY":"1120  kHz"},"type":"Feature","geometry":{"type":"Point","coordinates":[-123.0361,43.9567]}},{"properties":{"CITY":"WENATCHEE","LONDD":120.3286,"CALLSIGN":"KPQ","STATE":"WA","FACID":71715.0,"MarketSt":"Wenatachee, WA","LICENSEE":"CCR-WESCOAST IV, LLC","id":"a626i2x9lxiq","LATDD":47.4533,"FREQUENCY":"560   kHz"},"type":"Feature","geometry":{"type":"Point","coordinates":[-120.3286,47.4533]}},{"properties":{"CITY":"HOUSTON","LONDD":95.2783,"CALLSIGN":"KPRC","STATE":"TX","FACID":9644.0,"MarketSt":"Houston, TX","LICENSEE":"CCB TEXAS LICENSES, L.P.","id":"a626i306g6z4","LATDD":29.805,"FREQUENCY":"950   kHz"},"type":"Feature","geometry":{"type":"Point","coordinates":[-95.2783,29.805]}},{"properties":{"CITY":"PASO ROBLES","LONDD":120.6811,"CALLSIGN":"KPRL","STATE":"CA","FACID":64342.0,"MarketSt":"PasoRobles, CA","LICENSEE":"NORTH COUNTY COMMUNICATIONS, LLC","id":"a626i2yxgstk","LATDD":35.6542,"FREQUENCY":"1230  kHz"},"type":"Feature","geometry":{"type":"Point","coordinates":[-120.6811,35.6542]}},{"properties":{"CITY":"PARK RAPIDS","LONDD":95.0178,"CALLSIGN":"KPRM","STATE":"MN","FACID":15975.0,"MarketSt":"Park Rapids, MN","LICENSEE":"DE LA HUNT BROADCASTING CORP.","id":"a626i2rdxx7x","LATDD":46.905,"FREQUENCY":"870   kHz"},"type":"Feature","geometry":{"type":"Point","coordinates":[-95.0178,46.905]}},{"properties":{"CITY":"PARK RAPIDS","LONDD":95.0061,"CALLSIGN":"KPRM","STATE":"MN","FACID":15975.0,"MarketSt":"Park Rapids, MN","LICENSEE":"DE LA HUNT BROADCASTING CORP.","id":"a626i2yjzdm5","LATDD":46.9283,"FREQUENCY":"870   kHz"},"type":"Feature","geometry":{"type":"Point","coordinates":[-95.0061,46.9283]}},{"properties":{"CITY":"PALM SPRINGS","LONDD":116.4942,"CALLSIGN":"KPSI","STATE":"CA","FACID":67355.0,"MarketSt":"Palm Springs, CA","LICENSEE":"R &amp; R RADIO CORPORATION","id":"a626i2t73u2y","LATDD":33.8581,"FREQUENCY":"920   kHz"},"type":"Feature","geometry":{"type":"Point","coordinates":[-116.4942,33.8581]}},{"properties":{"CITY":"PALM SPRINGS","LONDD":116.4942,"CALLSIGN":"KPSI","STATE":"CA","FACID":67355.0,"MarketSt":"Palm Springs, CA","LICENSEE":"R &amp; R RADIO CORPORATION","id":"a626i2umapup","LATDD":33.8581,"FREQUENCY":"920   kHz"},"type":"Feature","geometry":{"type":"Point","coordinates":[-116.4942,33.8581]}},{"properties":{"CITY":"HILO","LONDD":155.0903,"CALLSIGN":"KPUA","STATE":"HI","FACID":48678.0,"MarketSt":"Hilo, Big Island, HI","LICENSEE":"NEW WEST BROADCASTING CORP.","id":"a626i2xxwfex","LATDD":19.7839,"FREQUENCY":"670   kHz"},"type":"Feature","geometry":{"type":"Point","coordinates":[-155.0903,19.7839]}},{"properties":{"CITY":"GREAT FALLS","LONDD":111.3228,"CALLSIGN":"KQDI","STATE":"MT","FACID":32387.0,"MarketSt":"Great Falls, MT","LICENSEE":"FISHER RADIO REGIONAL GROUP, INC.","id":"a626i32bbp1h","LATDD":47.4656,"FREQUENCY":"1450  kHz"},"type":"Feature","geometry":{"type":"Point","coordinates":[-111.3228,47.4656]}},{"properties":{"CITY":"JAMESTOWN","LONDD":98.6889,"CALLSIGN":"KQDJ","STATE":"ND","FACID":68626.0,"MarketSt":"Jamestown, ND","LICENSEE":"TWO RIVERS BROADCASTING, INC.","id":"a626i32umkiv","LATDD":46.8936,"FREQUENCY":"1400  kHz"},"type":"Feature","geometry":{"type":"Point","coordinates":[-98.6889,46.8936]}},{"properties":{"CITY":"ROSEBURG","LONDD":123.3608,"CALLSIGN":"KQEN","STATE":"OR","FACID":40386.0,"MarketSt":"Roseburg, OR","LICENSEE":"BROOKE COMMUNICATIONS, INC.","id":"a626i32t8fui","LATDD":43.1931,"FREQUENCY":"1240  kHz"},"type":"Feature","geometry":{"type":"Point","coordinates":[-123.3608,43.1931]}},{"properties":{"CITY":"REDDING","LONDD":122.33,"CALLSIGN":"KQMS","STATE":"CA","FACID":51639.0,"MarketSt":"Redding, CA","LICENSEE":"MAPLETON COMMUNICATIONS, LLC","id":"a626i2r13hfz","LATDD":40.5586,"FREQUENCY":"1400  kHz"},"type":"Feature","geometry":{"type":"Point","coordinates":[-122.33,40.5586]}},{"properties":{"CITY":"PULLMAN","LONDD":117.2064,"CALLSIGN":"KQQQ","STATE":"WA","FACID":54724.0,"MarketSt":"Pullman, WA","LICENSEE":"RADIO PALOUSE, INC.","id":"a626i30slmxc","LATDD":46.7267,"FREQUENCY":"1150  kHz"},"type":"Feature","geometry":{"type":"Point","coordinates":[-117.2064,46.7267]}},{"properties":{"CITY":"JOPLIN","LONDD":94.5406,"CALLSIGN":"KQYX","STATE":"MO","FACID":5268.0,"MarketSt":"Joplin, MO","LICENSEE":"FFD HOLDINGS I, INC.","id":"a626i33zcbvl","LATDD":37.0786,"FREQUENCY":"1450  kHz"},"type":"Feature","geometry":{"type":"Point","coordinates":[-94.5406,37.0786]}},{"properties":{"CITY":"FARMINGTON","LONDD":90.41,"CALLSIGN":"KREI","STATE":"MO","FACID":35531.0,"MarketSt":"Farmington, MO","LICENSEE":"FESTUS/ FARMINGTON LICENSE CO, LLC","id":"a626i2rtw2vg","LATDD":37.7922,"FREQUENCY":"800   kHz"},"type":"Feature","geometry":{"type":"Point","coordinates":[-90.41,37.7922]}},{"properties":{"CITY":"TULSA","LONDD":96.2858,"CALLSIGN":"KRMG","STATE":"OK","FACID":48729.0,"MarketSt":"Tulsa, OK","LICENSEE":"COX RADIO, INC.","id":"a626i2toho1c","LATDD":36.0806,"FREQUENCY":"740   kHz"},"type":"Feature","geometry":{"type":"Point","coordinates":[-96.2858,36.0806]}},{"properties":{"CITY":"TULSA","LONDD":96.2858,"CALLSIGN":"KRMG","STATE":"OK","FACID":48729.0,"MarketSt":"Tulsa, OK","LICENSEE":"COX RADIO, INC.","id":"a626i3376o2h","LATDD":36.0806,"FREQUENCY":"740   kHz"},"type":"Feature","geometry":{"type":"Point","coordinates":[-96.2858,36.0806]}},{"properties":{"CITY":"OSAGE BEACH","LONDD":92.6775,"CALLSIGN":"KRMS","STATE":"MO","FACID":35554.0,"MarketSt":"Osage Beach, MO","LICENSEE":"VIPER COMMUNICATIONS, INC","id":"a626i2wlxpnn","LATDD":38.1247,"FREQUENCY":"1150  kHz"},"type":"Feature","geometry":{"type":"Point","coordinates":[-92.6775,38.1247]}},{"properties":{"CITY":"ROCHESTER","LONDD":92.4919,"CALLSIGN":"KROC","STATE":"MN","FACID":61321.0,"MarketSt":"Rochester, MN","LICENSEE":"CUMULUS LICENSING LLC","id":"a626i2ty53n9","LATDD":44.0297,"FREQUENCY":"1340  kHz"},"type":"Feature","geometry":{"type":"Point","coordinates":[-92.4919,44.0297]}},{"properties":{"CITY":"MINOT","LONDD":101.2417,"CALLSIGN":"KRRZ","STATE":"ND","FACID":9679.0,"MarketSt":"Minot, ND","LICENSEE":"CC LICENSES, LLC","id":"a626i2t8guzf","LATDD":48.2125,"FREQUENCY":"1390  kHz"},"type":"Feature","geometry":{"type":"Point","coordinates":[-101.2417,48.2125]}},{"properties":{"CITY":"WACO","LONDD":97.2106,"CALLSIGN":"KRZI","STATE":"TX","FACID":87179.0,"MarketSt":"Waco, TX","LICENSEE":"SIMMONS AUSTIN, LS, LLC","id":"a626i2vr8lko","LATDD":31.4128,"FREQUENCY":"1660  kHz"},"type":"Feature","geometry":{"type":"Point","coordinates":[-97.2106,31.4128]}},{"properties":{"CITY":"SALINA","LONDD":97.5172,"CALLSIGN":"KSAL","STATE":"KS","FACID":28471.0,"MarketSt":"Salina, KS","LICENSEE":"MCC RADIO, LLC","id":"a626i2vlaq2z","LATDD":38.8842,"FREQUENCY":"1150  kHz"},"type":"Feature","geometry":{"type":"Point","coordinates":[-97.5172,38.8842]}},{"properties":{"CITY":"LIBERAL","LONDD":100.9014,"CALLSIGN":"KSCB","STATE":"KS","FACID":59803.0,"MarketSt":"Liberal, KS","LICENSEE":"SEWARD COUNTY BROADCASTING CO., INC.","id":"a626i2pluqb9","LATDD":37.0594,"FREQUENCY":"1270  kHz"},"type":"Feature","geometry":{"type":"Point","coordinates":[-100.9014,37.0594]}},{"properties":{"CITY":"SIOUX CITY","LONDD":96.3367,"CALLSIGN":"KSCJ","STATE":"IA","FACID":21691.0,"MarketSt":"SiouxCity, IA","LICENSEE":"KSUX/KSCJ RADIO BROADCASTING CO","id":"a626i30nwkd0","LATDD":42.5567,"FREQUENCY":"1360  kHz"},"type":"Feature","geometry":{"type":"Point","coordinates":[-96.3367,42.5567]}},{"properties":{"CITY":"SANTA CRUZ","LONDD":121.9808,"CALLSIGN":"KSCO","STATE":"CA","FACID":41594.0,"MarketSt":"Santa Cruz, CA","LICENSEE":"ZWERLING BROADCASTING SYSTEM, LTD","id":"a626i2ulzbaz","LATDD":36.9619,"FREQUENCY":"1080  kHz"},"type":"Feature","geometry":{"type":"Point","coordinates":[-121.9808,36.9619]}},{"properties":{"CITY":"WATERTOWN","LONDD":97.1053,"CALLSIGN":"KSDR","STATE":"SD","FACID":20432.0,"MarketSt":"Watertown, SD","LICENSEE":"THREE EAGLES OF BROOKINGS, INC.","id":"a626i2w18jve","LATDD":44.9328,"FREQUENCY":"1480  kHz"},"type":"Feature","geometry":{"type":"Point","coordinates":[-97.1053,44.9328]}},{"properties":{"CITY":"TOMBALL","LONDD":95.5944,"CALLSIGN":"KSEV","STATE":"TX","FACID":9645.0,"MarketSt":"Houston, TX","LICENSEE":"LIBERMAN BROADCASTING OF HOUSTON LICENSE LLC","id":"a626i2solxu8","LATDD":30.1928,"FREQUENCY":"700   kHz"},"type":"Feature","geometry":{"type":"Point","coordinates":[-95.5944,30.1928]}},{"properties":{"CITY":"TOMBALL","LONDD":95.5944,"CALLSIGN":"KSEV","STATE":"TX","FACID":9645.0,"MarketSt":"Houston, TX","LICENSEE":"LIBERMAN BROADCASTING OF HOUSTON LICENSE LLC","id":"a626i33bb8sw","LATDD":30.1928,"FREQUENCY":"700   kHz"},"type":"Feature","geometry":{"type":"Point","coordinates":[-95.5944,30.1928]}},{"properties":{"CITY":"BRUSH","LONDD":103.5917,"CALLSIGN":"KSIR","STATE":"CO","FACID":48396.0,"MarketSt":"Ft. Morgan /Brush, CO","LICENSEE":"NORTHEAST COLORADO BROADCASTING LLC","id":"a626i32slz10","LATDD":40.3139,"FREQUENCY":"1010  kHz"},"type":"Feature","geometry":{"type":"Point","coordinates":[-103.5917,40.3139]}},{"properties":{"CITY":"SEDALIA","LONDD":93.2253,"CALLSIGN":"KSIS","STATE":"MO","FACID":5202.0,"MarketSt":"Sedalia, MO","LICENSEE":"DOUBLE O MISSOURI CORPORATION","id":"a626i333k3w6","LATDD":38.7342,"FREQUENCY":"1050  kHz"},"type":"Feature","geometry":{"type":"Point","coordinates":[-93.2253,38.7342]}},{"properties":{"CITY":"BUENA VISTA","LONDD":106.1503,"CALLSIGN":"KSKE","STATE":"CO","FACID":1153.0,"MarketSt":"Vail, CO","LICENSEE":"PILGRIM COMMUNICATIONS, INC.","id":"a626i32fd3rc","LATDD":38.8186,"FREQUENCY":"1450  kHz"},"type":"Feature","geometry":{"type":"Point","coordinates":[-106.1503,38.8186]}},{"properties":{"CITY":"BUENA VISTA","LONDD":106.1594,"CALLSIGN":"KSKE","STATE":"CO","FACID":1153.0,"MarketSt":"Vail, CO","LICENSEE":"PILGRIM COMMUNICATIONS, INC.","id":"a626i2won9e8","LATDD":38.8186,"FREQUENCY":"1450  kHz"},"type":"Feature","geometry":{"type":"Point","coordinates":[-106.1594,38.8186]}},{"properties":{"CITY":"ONTARIO","LONDD":116.9728,"CALLSIGN":"KSRV","STATE":"OR","FACID":35637.0,"MarketSt":"Ontario, OR","LICENSEE":"FM IDAHO CO., LLC","id":"a626i2zodmfh","LATDD":44.0431,"FREQUENCY":"1380  kHz"},"type":"Feature","geometry":{"type":"Point","coordinates":[-116.9728,44.0431]}},{"properties":{"CITY":"STOCKTON","LONDD":121.2456,"CALLSIGN":"KSTN","STATE":"CA","FACID":58838.0,"MarketSt":"Elko, NV","LICENSEE":"SAN JOAQUIN BROADCASTING CO.","id":"a626i2s2qlut","LATDD":37.9256,"FREQUENCY":"1420  kHz"},"type":"Feature","geometry":{"type":"Point","coordinates":[-121.2456,37.9256]}},{"properties":{"CITY":"ST. PAUL","LONDD":93.0439,"CALLSIGN":"KSTP","STATE":"MN","FACID":35641.0,"MarketSt":"Mpls./St.Paul, MN","LICENSEE":"KSTP-AM, LLC","id":"a626i2u5gu7m","LATDD":45.0256,"FREQUENCY":"1500  kHz"},"type":"Feature","geometry":{"type":"Point","coordinates":[-93.0439,45.0256]}},{"properties":{"CITY":"ST. PAUL","LONDD":93.0517,"CALLSIGN":"KSTP","STATE":"MN","FACID":35641.0,"MarketSt":"Mpls./St.Paul, MN","LICENSEE":"KSTP-AM, LLC","id":"a626i2xbedt4","LATDD":45.0256,"FREQUENCY":"1500  kHz"},"type":"Feature","geometry":{"type":"Point","coordinates":[-93.0517,45.0256]}},{"properties":{"CITY":"CEDAR CITY","LONDD":113.1831,"CALLSIGN":"KSUB","STATE":"UT","FACID":61384.0,"MarketSt":"Cedar City, UT","LICENSEE":"CCR-ST. GEORGE IV, LLC","id":"a626i34f4twa","LATDD":37.6972,"FREQUENCY":"590   kHz"},"type":"Feature","geometry":{"type":"Point","coordinates":[-113.1831,37.6972]}},{"properties":{"CITY":"CEDAR CITY","LONDD":113.1811,"CALLSIGN":"KSUB","STATE":"UT","FACID":61384.0,"MarketSt":"Cedar City, UT","LICENSEE":"CCR-ST. GEORGE IV, LLC","id":"a626i32srxx0","LATDD":37.6975,"FREQUENCY":"590   kHz"},"type":"Feature","geometry":{"type":"Point","coordinates":[-113.1811,37.6975]}},{"properties":{"CITY":"RICHFIELD","LONDD":112.0764,"CALLSIGN":"KSVC","STATE":"UT","FACID":41897.0,"MarketSt":"Richfield, UT","LICENSEE":"MID-UTAH RADIO, INC.","id":"a626i30oouqb","LATDD":38.7611,"FREQUENCY":"980   kHz"},"type":"Feature","geometry":{"type":"Point","coordinates":[-112.0764,38.7611]}},{"properties":{"CITY":"RICHFIELD","LONDD":112.0114,"CALLSIGN":"KSVC","STATE":"UT","FACID":41897.0,"MarketSt":"Richfield, UT","LICENSEE":"MID-UTAH RADIO, INC.","id":"a626i2q6dbuv","LATDD":38.7881,"FREQUENCY":"980   kHz"},"type":"Feature","geometry":{"type":"Point","coordinates":[-112.0114,38.7881]}},{"properties":{"CITY":"ARTESIA","LONDD":104.3997,"CALLSIGN":"KSVP","STATE":"NM","FACID":52065.0,"MarketSt":"Artesia, NM","LICENSEE":"PECOS VALLEY BROADCASTING COMPANY","id":"a626i2urn5n4","LATDD":32.8247,"FREQUENCY":"990   kHz"},"type":"Feature","geometry":{"type":"Point","coordinates":[-104.3997,32.8247]}},{"properties":{"CITY":"YREKA","LONDD":122.65,"CALLSIGN":"KSYC","STATE":"CA","FACID":15313.0,"MarketSt":"Yreka, CA","LICENSEE":"JPR FOUNDATION INC.","id":"a626i2u2wp5a","LATDD":41.7244,"FREQUENCY":"1490  kHz"},"type":"Feature","geometry":{"type":"Point","coordinates":[-122.65,41.7244]}},{"properties":{"CITY":"ALEXANDRIA","LONDD":92.4881,"CALLSIGN":"KSYL","STATE":"LA","FACID":9750.0,"MarketSt":"Alexandria, LA","LICENSEE":"CENLA BROADCASTING LICENSING COMPANY, LLC","id":"a626i2r43kqi","LATDD":31.3258,"FREQUENCY":"970   kHz"},"type":"Feature","geometry":{"type":"Point","coordinates":[-92.4881,31.3258]}},{"properties":{"CITY":"BARSTOW","LONDD":117.0275,"CALLSIGN":"KSZL","STATE":"CA","FACID":21496.0,"MarketSt":"Barstow, CA","LICENSEE":"DOS COSTAS COMMUNICATIONS CORPORATION","id":"a626i31e8bov","LATDD":34.9122,"FREQUENCY":"1230  kHz"},"type":"Feature","geometry":{"type":"Point","coordinates":[-117.0275,34.9122]}},{"properties":{"CITY":"KENNEWICK","LONDD":119.1861,"CALLSIGN":"KTCR","STATE":"WA","FACID":53139.0,"MarketSt":"Kennewick, WA","LICENSEE":"NEW NORTHWEST BROADCASTERS, LLC","id":"a626i2we9d93","LATDD":46.2217,"FREQUENCY":"1340  kHz"},"type":"Feature","geometry":{"type":"Point","coordinates":[-119.1861,46.2217]}},{"properties":{"CITY":"WALLA WALLA","LONDD":118.3333,"CALLSIGN":"KTEL","STATE":"WA","FACID":12511.0,"MarketSt":"Walla-Walla, WA","LICENSEE":"WW2, L.L.C.","id":"a626i33w8ixk","LATDD":46.0425,"FREQUENCY":"1490  kHz"},"type":"Feature","geometry":{"type":"Point","coordinates":[-118.3333,46.0425]}},{"properties":{"CITY":"TEMPLE","LONDD":97.3992,"CALLSIGN":"KTEM","STATE":"TX","FACID":63200.0,"MarketSt":"Temple, TX","LICENSEE":"CUMULUS LICENSING LLC","id":"a626i2ufwump","LATDD":31.0669,"FREQUENCY":"1400  kHz"},"type":"Feature","geometry":{"type":"Point","coordinates":[-97.3992,31.0669]}},{"properties":{"CITY":"TIOGA","LONDD":102.9367,"CALLSIGN":"KTGO","STATE":"ND","FACID":67183.0,"MarketSt":"Tioga, ND","LICENSEE":"TIOGA BROADCASTING CORP.","id":"a626i314pyp5","LATDD":48.3917,"FREQUENCY":"1090  kHz"},"type":"Feature","geometry":{"type":"Point","coordinates":[-102.9367,48.3917]}},{"properties":{"CITY":"THERMOPOLIS","LONDD":108.2267,"CALLSIGN":"KTHE","STATE":"WY","FACID":33664.0,"MarketSt":"Thermopolis, WY","LICENSEE":"CARJIM, LLC","id":"a626i2qqlfd7","LATDD":43.6322,"FREQUENCY":"1240  kHz"},"type":"Feature","geometry":{"type":"Point","coordinates":[-108.2267,43.6322]}},{"properties":{"CITY":"SOUTH LAKE TAHOE","LONDD":119.9628,"CALLSIGN":"KTHO","STATE":"CA","FACID":51528.0,"MarketSt":"South Lake Tahoe, CA","LICENSEE":"LIVE WIRE MEDIA PARTNERS LLC","id":"a626i33fahi7","LATDD":38.9167,"FREQUENCY":"590   kHz"},"type":"Feature","geometry":{"type":"Point","coordinates":[-119.9628,38.9167]}},{"properties":{"CITY":"PENDLETON","LONDD":118.8547,"CALLSIGN":"KTIX","STATE":"OR","FACID":643.0,"MarketSt":"Pendleton, OR","LICENSEE":"KSRV, INC.","id":"a626i2swy09v","LATDD":45.685,"FREQUENCY":"1240  kHz"},"type":"Feature","geometry":{"type":"Point","coordinates":[-118.8547,45.685]}},{"properties":{"CITY":"KETCHIKAN","LONDD":131.6367,"CALLSIGN":"KTKN","STATE":"AK","FACID":788.0,"MarketSt":"Ketchican, AK","LICENSEE":"ALASKA BROADCAST COMMUNICATIONS, INC","id":"a626i3166lel","LATDD":55.3394,"FREQUENCY":"930   kHz"},"type":"Feature","geometry":{"type":"Point","coordinates":[-131.6367,55.3394]}},{"properties":{"CITY":"LOS ANGELES","LONDD":117.9833,"CALLSIGN":"KTLK","STATE":"CA","FACID":19219.0,"MarketSt":"Southwest City, MO","LICENSEE":"CITICASTERS LICENSES, L.P.","id":"a626i2p25dwp","LATDD":34.0333,"FREQUENCY":"1150  kHz"},"type":"Feature","geometry":{"type":"Point","coordinates":[-117.9833,34.0333]}},{"properties":{"CITY":"OKLAHOMA CITY","LONDD":97.4633,"CALLSIGN":"KTOK","STATE":"OK","FACID":11925.0,"MarketSt":"Oklahoma City, OK","LICENSEE":"CLEAR CHANNEL BROADCASTING LICENSES, INC.","id":"a626i2pc2w7e","LATDD":35.3581,"FREQUENCY":"1000  kHz"},"type":"Feature","geometry":{"type":"Point","coordinates":[-97.4633,35.3581]}},{"properties":{"CITY":"EL PASO","LONDD":106.3542,"CALLSIGN":"KTSM","STATE":"TX","FACID":69561.0,"MarketSt":"El Paso, TX","LICENSEE":"CCB TEXAS LICENSES, L.P.","id":"a626i2vhw32k","LATDD":31.9697,"FREQUENCY":"690   kHz"},"type":"Feature","geometry":{"type":"Point","coordinates":[-106.3542,31.9697]}},{"properties":{"CITY":"CASPER","LONDD":106.2186,"CALLSIGN":"KTWO","STATE":"WY","FACID":11924.0,"MarketSt":"Casper, WY","LICENSEE":"CITICASTERS LICENSES, L.P.","id":"a626i2vnvvbh","LATDD":42.8428,"FREQUENCY":"1030  kHz"},"type":"Feature","geometry":{"type":"Point","coordinates":[-106.2186,42.8428]}},{"properties":{"CITY":"LOMPOC","LONDD":120.3828,"CALLSIGN":"KUHL","STATE":"CA","FACID":51263.0,"MarketSt":"Santa Maria, CA","LICENSEE":"KNIGHT BROADCASTING, INC.","id":"a626i30l9jo4","LATDD":34.6631,"FREQUENCY":"1410  kHz"},"type":"Feature","geometry":{"type":"Point","coordinates":[-120.3828,34.6631]}},{"properties":{"CITY":"UKIAH","LONDD":123.2125,"CALLSIGN":"KUKI","STATE":"CA","FACID":31619.0,"MarketSt":"Ukiah, CA","LICENSEE":"BICOASTAL MEDIA LICENSES, LLC","id":"a626i2rrf2ir","LATDD":39.1686,"FREQUENCY":"1400  kHz"},"type":"Feature","geometry":{"type":"Point","coordinates":[-123.2125,39.1686]}},{"properties":{"CITY":"UKIAH","LONDD":123.2128,"CALLSIGN":"KUKI","STATE":"CA","FACID":31619.0,"MarketSt":"Ukiah, CA","LICENSEE":"BICOASTAL MEDIA LICENSES, LLC","id":"a626i2p57fad","LATDD":39.1683,"FREQUENCY":"1400  kHz"},"type":"Feature","geometry":{"type":"Point","coordinates":[-123.2128,39.1683]}},{"properties":{"CITY":"EDINBURG","LONDD":98.1597,"CALLSIGN":"KURV","STATE":"TX","FACID":70463.0,"MarketSt":"Edinburg, TX","LICENSEE":"BMP RGV LICENSE COMPANY, L.P.","id":"a626i33uoke3","LATDD":26.3286,"FREQUENCY":"710   kHz"},"type":"Feature","geometry":{"type":"Point","coordinates":[-98.1597,26.3286]}},{"properties":{"CITY":"EDINBURG","LONDD":98.16,"CALLSIGN":"KURV","STATE":"TX","FACID":70463.0,"MarketSt":"Edinburg, TX","LICENSEE":"BMP RGV LICENSE COMPANY, L.P.","id":"a626i2uaozdp","LATDD":26.3283,"FREQUENCY":"710   kHz"},"type":"Feature","geometry":{"type":"Point","coordinates":[-98.16,26.3283]}},{"properties":{"CITY":"VERNAL","LONDD":109.5292,"CALLSIGN":"KVEL","STATE":"UT","FACID":2934.0,"MarketSt":"Vernal, UT","LICENSEE":"ASHLEY COMMUNICATIONS, INC.","id":"a626i33gd7c1","LATDD":40.4917,"FREQUENCY":"920   kHz"},"type":"Feature","geometry":{"type":"Point","coordinates":[-109.5292,40.4917]}},{"properties":{"CITY":"GREAT BEND","LONDD":98.7931,"CALLSIGN":"KVGB","STATE":"KS","FACID":22150.0,"MarketSt":"Great Bend, KS","LICENSEE":"EAGLE COMMUNICATIONS, INC.","id":"a626i2vx7l5u","LATDD":38.3139,"FREQUENCY":"1590  kHz"},"type":"Feature","geometry":{"type":"Point","coordinates":[-98.7931,38.3139]}},{"properties":{"CITY":"SEATTLE","LONDD":122.4289,"CALLSIGN":"KVI","STATE":"WA","FACID":35853.0,"MarketSt":"Seattle, WA","LICENSEE":"FISHER BROADCASTING - SEATTLE RADIO, L.L.C.","id":"a626i33qdvpc","LATDD":47.4219,"FREQUENCY":"570   kHz"},"type":"Feature","geometry":{"type":"Point","coordinates":[-122.4289,47.4219]}},{"properties":{"CITY":"SONORA","LONDD":120.3625,"CALLSIGN":"KVML","STATE":"CA","FACID":11711.0,"MarketSt":"Sonora, CA","LICENSEE":"CLARKE BROADCASTING CORPORATION","id":"a626i2vpg91h","LATDD":38.0083,"FREQUENCY":"1450  kHz"},"type":"Feature","geometry":{"type":"Point","coordinates":[-120.3625,38.0083]}},{"properties":{"CITY":"LOGAN","LONDD":111.935,"CALLSIGN":"KVNU","STATE":"UT","FACID":55459.0,"MarketSt":"Logan, UT","LICENSEE":"SUN VALLEY RADIO, INC.","id":"a626i2v1f8bg","LATDD":41.675,"FREQUENCY":"610   kHz"},"type":"Feature","geometry":{"type":"Point","coordinates":[-111.935,41.675]}},{"properties":{"CITY":"COLORADO SPRINGS","LONDD":104.7114,"CALLSIGN":"KVOR","STATE":"CO","FACID":35869.0,"MarketSt":"Colorado Springs, CO","LICENSEE":"CITADEL BROADCASTING COMPANY","id":"a626i2zjpehk","LATDD":39.0839,"FREQUENCY":"740   kHz"},"type":"Feature","geometry":{"type":"Point","coordinates":[-104.7114,39.0839]}},{"properties":{"CITY":"HUTCHINSON","LONDD":97.9647,"CALLSIGN":"KWBW","STATE":"KS","FACID":18069.0,"MarketSt":"Hutchinson, KS","LICENSEE":"EAGLE COMMUNICATIONS, INC.","id":"a626i2t9d0eh","LATDD":38.0728,"FREQUENCY":"1450  kHz"},"type":"Feature","geometry":{"type":"Point","coordinates":[-97.9647,38.0728]}},{"properties":{"CITY":"SEARCY","LONDD":91.7303,"CALLSIGN":"KWCK","STATE":"AR","FACID":11743.0,"MarketSt":"Searcy, AR","LICENSEE":"CRAIN MEDIA GROUP, LLC","id":"a626i2qo56cb","LATDD":35.2575,"FREQUENCY":"1300  kHz"},"type":"Feature","geometry":{"type":"Point","coordinates":[-91.7303,35.2575]}},{"properties":{"CITY":"BRENHAM","LONDD":96.4222,"CALLSIGN":"KWHI","STATE":"TX","FACID":67300.0,"MarketSt":"Brenham, TX","LICENSEE":"TOM S. WHITEHEAD, INC.","id":"a626i2tepik2","LATDD":30.1681,"FREQUENCY":"1280  kHz"},"type":"Feature","geometry":{"type":"Point","coordinates":[-96.4222,30.1681]}},{"properties":{"CITY":"FT. SMITH","LONDD":94.4597,"CALLSIGN":"KWHN","STATE":"AR","FACID":87114.0,"MarketSt":"Ft. Smith, AR","LICENSEE":"CAPSTAR TX LIMITED PARTNERSHIP","id":"a626i2zcov4t","LATDD":35.2747,"FREQUENCY":"1650  kHz"},"type":"Feature","geometry":{"type":"Point","coordinates":[-94.4597,35.2747]}},{"properties":{"CITY":"POCATELLO","LONDD":112.4547,"CALLSIGN":"KWIK","STATE":"ID","FACID":35885.0,"MarketSt":"Pocatello, ID","LICENSEE":"CITICASTERS LICENSES, L.P.","id":"a626i2o4g9d5","LATDD":42.9206,"FREQUENCY":"1240  kHz"},"type":"Feature","geometry":{"type":"Point","coordinates":[-112.4547,42.9206]}},{"properties":{"CITY":"POCATELLO","LONDD":112.4586,"CALLSIGN":"KWIK","STATE":"ID","FACID":35885.0,"MarketSt":"Pocatello, ID","LICENSEE":"CITICASTERS LICENSES, L.P.","id":"a626i33ggiwm","LATDD":42.9242,"FREQUENCY":"1240  kHz"},"type":"Feature","geometry":{"type":"Point","coordinates":[-112.4586,42.9242]}},{"properties":{"CITY":"MOBERLY","LONDD":92.4325,"CALLSIGN":"KWIX","STATE":"MO","FACID":35889.0,"MarketSt":"Moberly, MO","LICENSEE":"MOBERLY/ MACON LICENSE CO, LLC","id":"a626i3222pha","LATDD":39.4031,"FREQUENCY":"1230  kHz"},"type":"Feature","geometry":{"type":"Point","coordinates":[-92.4325,39.4031]}},{"properties":{"CITY":"WINONA","LONDD":91.6419,"CALLSIGN":"KWNO","STATE":"MN","FACID":72152.0,"MarketSt":"Winona, MN","LICENSEE":"KAGE, INC.","id":"a626i2oxyiko","LATDD":44.0311,"FREQUENCY":"1230  kHz"},"type":"Feature","geometry":{"type":"Point","coordinates":[-91.6419,44.0311]}},{"properties":{"CITY":"WORTHINGTON","LONDD":95.6756,"CALLSIGN":"KWOA","STATE":"MN","FACID":48971.0,"MarketSt":"Worthington, MN","LICENSEE":"THREE EAGLES OF LUVERNE, INC.","id":"a626i2sxm412","LATDD":43.63,"FREQUENCY":"730   kHz"},"type":"Feature","geometry":{"type":"Point","coordinates":[-95.6756,43.63]}},{"properties":{"CITY":"POPLAR BLUFF","LONDD":90.3678,"CALLSIGN":"KWOC","STATE":"MO","FACID":6015.0,"MarketSt":"Poplar Bluff, MO","LICENSEE":"MRR LICENSE LLC","id":"a626i2r0wdlw","LATDD":36.7208,"FREQUENCY":"930   kHz"},"type":"Feature","geometry":{"type":"Point","coordinates":[-90.3678,36.7208]}},{"properties":{"CITY":"BARTLESVILLE","LONDD":95.9597,"CALLSIGN":"KWON","STATE":"OK","FACID":36004.0,"MarketSt":"Bartlesville, OK","LICENSEE":"KCD ENTERPRISES, INC.","id":"a626i2vhlfz7","LATDD":36.7647,"FREQUENCY":"1400  kHz"},"type":"Feature","geometry":{"type":"Point","coordinates":[-95.9597,36.7647]}},{"properties":{"CITY":"JEFFERSON CITY","LONDD":92.1783,"CALLSIGN":"KWOS","STATE":"MO","FACID":9927.0,"MarketSt":"Jefferson City, MO","LICENSEE":"ZIMMER RADIO OF MID-MISSOURI, INC","id":"a626i2ydhcyy","LATDD":38.5203,"FREQUENCY":"950   kHz"},"type":"Feature","geometry":{"type":"Point","coordinates":[-92.1783,38.5203]}},{"properties":{"CITY":"COQUILLE","LONDD":124.1983,"CALLSIGN":"KWRO","STATE":"OR","FACID":13874.0,"MarketSt":"Coquille, OR","LICENSEE":"BICOASTAL MEDIA LICENSES III, LLC","id":"a626i32ja1yu","LATDD":43.1714,"FREQUENCY":"630   kHz"},"type":"Feature","geometry":{"type":"Point","coordinates":[-124.1983,43.1714]}},{"properties":{"CITY":"SIOUX FALLS","LONDD":96.6706,"CALLSIGN":"KWSN","STATE":"SD","FACID":59813.0,"MarketSt":"Sioux Falls, SD","LICENSEE":"BACKYARD BROADCASTING SOUTH DAKOTA LICENSEE, LLC","id":"a626i2yp0a5l","LATDD":43.4578,"FREQUENCY":"1230  kHz"},"type":"Feature","geometry":{"type":"Point","coordinates":[-96.6706,43.4578]}},{"properties":{"CITY":"SPRINGFIELD","LONDD":93.2214,"CALLSIGN":"KWTO","STATE":"MO","FACID":35900.0,"MarketSt":"Springfield, MO","LICENSEE":"KWTO, INC.","id":"a626i2rx6coz","LATDD":36.9444,"FREQUENCY":"560   kHz"},"type":"Feature","geometry":{"type":"Point","coordinates":[-93.2214,36.9444]}},{"properties":{"CITY":"ENTERPRISE","LONDD":117.2917,"CALLSIGN":"KWVR","STATE":"OR","FACID":70744.0,"MarketSt":"Enterprise, OR","LICENSEE":"WALLOWA VALLEY RADIO BROADCASTING CORP.","id":"a626i339ox67","LATDD":45.4372,"FREQUENCY":"1340  kHz"},"type":"Feature","geometry":{"type":"Point","coordinates":[-117.2917,45.4372]}},{"properties":{"CITY":"SHERIDAN","LONDD":106.9308,"CALLSIGN":"KWYO","STATE":"WY","FACID":12942.0,"MarketSt":"Sheridan, WY","LICENSEE":"LOVCOM, INC.","id":"a626i31vmt9e","LATDD":44.7983,"FREQUENCY":"1410  kHz"},"type":"Feature","geometry":{"type":"Point","coordinates":[-106.9308,44.7983]}},{"properties":{"CITY":"WATERLOO","LONDD":92.3106,"CALLSIGN":"KXEL","STATE":"IA","FACID":35950.0,"MarketSt":"Waterloo, IA","LICENSEE":"KXEL BROADCASTING COMPANY, INC.","id":"a626i31ehqm3","LATDD":42.1797,"FREQUENCY":"1540  kHz"},"type":"Feature","geometry":{"type":"Point","coordinates":[-92.3106,42.1797]}},{"properties":{"CITY":"WATERLOO","LONDD":92.3106,"CALLSIGN":"KXEL","STATE":"IA","FACID":35950.0,"MarketSt":"Waterloo, IA","LICENSEE":"KXEL BROADCASTING COMPANY, INC.","id":"a626i31t00wf","LATDD":42.18,"FREQUENCY":"1540  kHz"},"type":"Feature","geometry":{"type":"Point","coordinates":[-92.3106,42.18]}},{"properties":{"CITY":"NORTH LAS VEGAS","LONDD":114.9158,"CALLSIGN":"KXNT","STATE":"NV","FACID":33068.0,"MarketSt":"Las Vegas, NV","LICENSEE":"CBS RADIO STATIONS INC.","id":"a626i2owz93n","LATDD":36.3981,"FREQUENCY":"840   kHz"},"type":"Feature","geometry":{"type":"Point","coordinates":[-114.9158,36.3981]}},{"properties":{"CITY":"ALEXANDRIA","LONDD":95.3631,"CALLSIGN":"KXRA","STATE":"MN","FACID":51523.0,"MarketSt":"Alexandria, MN","LICENSEE":"PARADIS BROADCASTING OF ALEXANDRIA, INC.","id":"a626i2s7bx6v","LATDD":45.8683,"FREQUENCY":"1490  kHz"},"type":"Feature","geometry":{"type":"Point","coordinates":[-95.3631,45.8683]}},{"properties":{"CITY":"PRESCOTT","LONDD":112.4625,"CALLSIGN":"KYCA","STATE":"AZ","FACID":61433.0,"MarketSt":"Prescott, AZ","LICENSEE":"SOUTHWEST BROADCASTING CO.","id":"a626i2ypmp92","LATDD":34.5508,"FREQUENCY":"1490  kHz"},"type":"Feature","geometry":{"type":"Point","coordinates":[-112.4625,34.5508]}},{"properties":{"CITY":"HUMBLE CITY","LONDD":103.2322,"CALLSIGN":"KYKK","STATE":"NM","FACID":48953.0,"MarketSt":"Hobbs, NM","LICENSEE":"NOALMARK BROADCASTING CORPORATION","id":"a626i32ujx7d","LATDD":32.8164,"FREQUENCY":"1110  kHz"},"type":"Feature","geometry":{"type":"Point","coordinates":[-103.2322,32.8164]}},{"properties":{"CITY":"KEIZER","LONDD":122.9553,"CALLSIGN":"KYKN","STATE":"OR","FACID":72474.0,"MarketSt":"Salem, OR","LICENSEE":"WILLAMETTE BROADCASTING CO., INC.","id":"a626i2r21u6r","LATDD":44.9267,"FREQUENCY":"1430  kHz"},"type":"Feature","geometry":{"type":"Point","coordinates":[-122.9553,44.9267]}},{"properties":{"CITY":"YANKTON","LONDD":97.4194,"CALLSIGN":"KYNT","STATE":"SD","FACID":60857.0,"MarketSt":"Yankton, SD","LICENSEE":"SORENSON BROADCASTING CORPN.","id":"a626i328c6dr","LATDD":42.8917,"FREQUENCY":"1450  kHz"},"type":"Feature","geometry":{"type":"Point","coordinates":[-97.4194,42.8917]}},{"properties":{"CITY":"MERCED","LONDD":120.4597,"CALLSIGN":"KYOS","STATE":"CA","FACID":41174.0,"MarketSt":"Merced, CA","LICENSEE":"MAPLETON COMMUNICATIONS, LLC","id":"a626i2seb03y","LATDD":37.375,"FREQUENCY":"1480  kHz"},"type":"Feature","geometry":{"type":"Point","coordinates":[-120.4597,37.375]}},{"properties":{"CITY":"TYLER","LONDD":95.2733,"CALLSIGN":"KYZS","STATE":"TX","FACID":72779.0,"MarketSt":"Tyler, TX","LICENSEE":"GLEISER COMMUNICATIONS, LLC","id":"a626i2xei0oy","LATDD":32.3744,"FREQUENCY":"1490  kHz"},"type":"Feature","geometry":{"type":"Point","coordinates":[-95.2733,32.3744]}},{"properties":{"CITY":"CAPE GIRARDEAU","LONDD":89.485,"CALLSIGN":"KZIM","STATE":"MO","FACID":74582.0,"MarketSt":"Cape Girardeau, MO","LICENSEE":"MRR LICENSE LLC","id":"a626i2x8xa2d","LATDD":37.3164,"FREQUENCY":"960   kHz"},"type":"Feature","geometry":{"type":"Point","coordinates":[-89.485,37.3164]}},{"properties":{"CITY":"HOT SPRINGS","LONDD":93.0242,"CALLSIGN":"KZNG","STATE":"AR","FACID":16570.0,"MarketSt":"Hot Springs, AR","LICENSEE":"US STATIONS, LLC","id":"a626i2qy383z","LATDD":34.4953,"FREQUENCY":"1340  kHz"},"type":"Feature","geometry":{"type":"Point","coordinates":[-93.0242,34.4953]}},{"properties":{"CITY":"LELAND","LONDD":78.0017,"CALLSIGN":"WAAV","STATE":"NC","FACID":25999.0,"MarketSt":"Wilmington, NC","LICENSEE":"CUMULUS LICENSING LLC","id":"a626i2vz36lz","LATDD":34.2483,"FREQUENCY":"980   kHz"},"type":"Feature","geometry":{"type":"Point","coordinates":[-78.0017,34.2483]}},{"properties":{"CITY":"GADSDEN","LONDD":86.0025,"CALLSIGN":"WAAX","STATE":"AL","FACID":22996.0,"MarketSt":"Gadsden, AL","LICENSEE":"CAPSTAR TX LIMITED PARTNERSHIP","id":"a626i2tg5hhd","LATDD":33.9792,"FREQUENCY":"570   kHz"},"type":"Feature","geometry":{"type":"Point","coordinates":[-86.0025,33.9792]}},{"properties":{"CITY":"NEW YORK","LONDD":74.0697,"CALLSIGN":"WABC","STATE":"NY","FACID":70658.0,"MarketSt":"New York, NY","LICENSEE":"RADIO LICENSE HOLDING X, LLC","id":"a626i2o78sr1","LATDD":40.8806,"FREQUENCY":"770   kHz"},"type":"Feature","geometry":{"type":"Point","coordinates":[-74.0697,40.8806]}},{"properties":{"CITY":"GREENWOOD","LONDD":90.2056,"CALLSIGN":"WABG","STATE":"MS","FACID":25238.0,"MarketSt":"Greenwood, MS","LICENSEE":"GREENWOOD BROADCASTING CO., INC.","id":"a626i2wqid9s","LATDD":33.555,"FREQUENCY":"960   kHz"},"type":"Feature","geometry":{"type":"Point","coordinates":[-90.2056,33.555]}},{"properties":{"CITY":"ADRIAN","LONDD":84.0142,"CALLSIGN":"WABJ","STATE":"MI","FACID":22648.0,"MarketSt":"Adrian, MI","LICENSEE":"FRIENDS COMMUNICATIONS OF MI, INC.","id":"a626i2sbq8im","LATDD":41.9006,"FREQUENCY":"1490  kHz"},"type":"Feature","geometry":{"type":"Point","coordinates":[-84.0142,41.9006]}},{"properties":{"CITY":"MONTGOMERY","LONDD":86.2892,"CALLSIGN":"WACV","STATE":"AL","FACID":43633.0,"MarketSt":"Montgomery, AL","LICENSEE":"BLUEWATER BROADCASTING COMPANY, LLC","id":"a626i2qfvqwu","LATDD":32.4544,"FREQUENCY":"1170  kHz"},"type":"Feature","geometry":{"type":"Point","coordinates":[-86.2892,32.4544]}},{"properties":{"CITY":"SHELBY","LONDD":81.5333,"CALLSIGN":"WADA","STATE":"NC","FACID":70669.0,"MarketSt":"Shelby, NC","LICENSEE":"HRN BROADCASTING, INC.","id":"a626i2r8tuvv","LATDD":35.3244,"FREQUENCY":"1390  kHz"},"type":"Feature","geometry":{"type":"Point","coordinates":[-81.5333,35.3244]}},{"properties":{"CITY":"ALLENTOWN","LONDD":75.5139,"CALLSIGN":"WAEB","STATE":"PA","FACID":14371.0,"MarketSt":"Allentown, PA","LICENSEE":"CAPSTAR TX LIMITED PARTNERSHIP","id":"a626i31a1xih","LATDD":40.6603,"FREQUENCY":"790   kHz"},"type":"Feature","geometry":{"type":"Point","coordinates":[-75.5139,40.6603]}},{"properties":{"CITY":"CROSSVILLE","LONDD":85.0358,"CALLSIGN":"WAEW","STATE":"TN","FACID":14619.0,"MarketSt":"Crossville, TN","LICENSEE":"PEG BROADCASTING CROSSVILLE, LLC","id":"a626i2p1llif","LATDD":35.9503,"FREQUENCY":"1330  kHz"},"type":"Feature","geometry":{"type":"Point","coordinates":[-85.0358,35.9503]}},{"properties":{"CITY":"ANDERSON","LONDD":82.6139,"CALLSIGN":"WAIM","STATE":"SC","FACID":51346.0,"MarketSt":"Anderson, SC","LICENSEE":"PALMETTO BROADCASTING COMPANY, INC.","id":"a626i2ts2w56","LATDD":34.5311,"FREQUENCY":"1230  kHz"},"type":"Feature","geometry":{"type":"Point","coordinates":[-82.6139,34.5311]}},{"properties":{"CITY":"MORGANTOWN","LONDD":80.0033,"CALLSIGN":"WAJR","STATE":"WV","FACID":71671.0,"MarketSt":"Morgantown, WV","LICENSEE":"WEST VIRGINIA RADIO CORPORATION","id":"a626i2x02djv","LATDD":39.6761,"FREQUENCY":"1440  kHz"},"type":"Feature","geometry":{"type":"Point","coordinates":[-80.0033,39.6761]}},{"properties":{"CITY":"MCMINNVILLE","LONDD":85.7764,"CALLSIGN":"WAKI","STATE":"TN","FACID":17758.0,"MarketSt":"McMinnville, TN","LICENSEE":"CITICASTERS LICENSES, L.P.","id":"a626i320nwyp","LATDD":35.6667,"FREQUENCY":"1230  kHz"},"type":"Feature","geometry":{"type":"Point","coordinates":[-85.7764,35.6667]}},{"properties":{"CITY":"ALBANY","LONDD":84.1525,"CALLSIGN":"WALG","STATE":"GA","FACID":54703.0,"MarketSt":"Albany, GA","LICENSEE":"CUMULUS LICENSING LLC","id":"a626i31uhpic","LATDD":31.6219,"FREQUENCY":"1590  kHz"},"type":"Feature","geometry":{"type":"Point","coordinates":[-84.1525,31.6219]}},{"properties":{"CITY":"VINCENNES","LONDD":87.495,"CALLSIGN":"WAOV","STATE":"IN","FACID":50238.0,"MarketSt":"Vincennes, IN","LICENSEE":"OLD NORTHWEST BROADCASTING, INC.","id":"a626i2pqgy8d","LATDD":38.7072,"FREQUENCY":"1450  kHz"},"type":"Feature","geometry":{"type":"Point","coordinates":[-87.495,38.7072]}},{"properties":{"CITY":"AKRON","LONDD":81.5125,"CALLSIGN":"WARF","STATE":"OH","FACID":49951.0,"MarketSt":"Jasper, AL","LICENSEE":"CAPSTAR TX LIMITED PARTNERSHIP","id":"a626i2o5vdk6","LATDD":41.1681,"FREQUENCY":"1350  kHz"},"type":"Feature","geometry":{"type":"Point","coordinates":[-81.5125,41.1681]}},{"properties":{"CITY":"ATHENS","LONDD":82.1058,"CALLSIGN":"WATH","STATE":"OH","FACID":71096.0,"MarketSt":"Athens, OH","LICENSEE":"WATH, INC.","id":"a626i2wv6f6b","LATDD":39.3444,"FREQUENCY":"970   kHz"},"type":"Feature","geometry":{"type":"Point","coordinates":[-82.1058,39.3444]}},{"properties":{"CITY":"ALPENA","LONDD":83.485,"CALLSIGN":"WATZ","STATE":"MI","FACID":71109.0,"MarketSt":"Alpena, MI","LICENSEE":"WATZ RADIO, INC.","id":"a626i2y6ab2j","LATDD":45.0661,"FREQUENCY":"1450  kHz"},"type":"Feature","geometry":{"type":"Point","coordinates":[-83.485,45.0661]}},{"properties":{"CITY":"BALTIMORE","LONDD":76.7725,"CALLSIGN":"WBAL","STATE":"MD","FACID":65679.0,"MarketSt":"Baltimore, MD","LICENSEE":"HEARST RADIO, INC.","id":"a626i2se8jel","LATDD":39.3758,"FREQUENCY":"1090  kHz"},"type":"Feature","geometry":{"type":"Point","coordinates":[-76.7725,39.3758]}},{"properties":{"CITY":"FORT WORTH","LONDD":97.1667,"CALLSIGN":"WBAP","STATE":"TX","FACID":71200.0,"MarketSt":"Dallas, TX","LICENSEE":"RADIO LICENSE HOLDING IV, LLC","id":"a626i32vv0as","LATDD":32.6106,"FREQUENCY":"820   kHz"},"type":"Feature","geometry":{"type":"Point","coordinates":[-97.1667,32.6106]}},{"properties":{"CITY":"BATTLE CREEK","LONDD":85.1833,"CALLSIGN":"WBCK","STATE":"MI","FACID":37459.0,"MarketSt":"Battle Creek, MI","LICENSEE":"CAPSTAR TX LIMITED PARTNERSHIP","id":"a626i2p0ptwy","LATDD":42.2919,"FREQUENCY":"930   kHz"},"type":"Feature","geometry":{"type":"Point","coordinates":[-85.1833,42.2919]}},{"properties":{"CITY":"BUFFALO","LONDD":78.9575,"CALLSIGN":"WBEN","STATE":"NY","FACID":34381.0,"MarketSt":"Buffalo, NY","LICENSEE":"ENTERCOM BUFFALO LICENSE, LLC","id":"a626i34bjkiu","LATDD":42.9783,"FREQUENCY":"930   kHz"},"type":"Feature","geometry":{"type":"Point","coordinates":[-78.9575,42.9783]}},{"properties":{"CITY":"CHILLICOTHE","LONDD":82.9969,"CALLSIGN":"WBEX","STATE":"OH","FACID":52041.0,"MarketSt":"Chillicothe, OH","LICENSEE":"CITICASTERS LICENSES, L.P.","id":"a626i2o35zvq","LATDD":39.3311,"FREQUENCY":"1490  kHz"},"type":"Feature","geometry":{"type":"Point","coordinates":[-82.9969,39.3311]}},{"properties":{"CITY":"BOWLING GREEN","LONDD":86.4525,"CALLSIGN":"WBGN","STATE":"KY","FACID":27243.0,"MarketSt":"Bowling Green, KY","LICENSEE":"FOREVER COMMUNICATIONS, INC.","id":"a626i2r737gi","LATDD":37.0094,"FREQUENCY":"1340  kHz"},"type":"Feature","geometry":{"type":"Point","coordinates":[-86.4525,37.0094]}},{"properties":{"CITY":"DALTON","LONDD":84.9506,"CALLSIGN":"WBLJ","STATE":"GA","FACID":49233.0,"MarketSt":"Dalton, GA","LICENSEE":"NORTH GEORGIA RADIO GROUP, L.P.","id":"a626i333gih5","LATDD":34.7564,"FREQUENCY":"1230  kHz"},"type":"Feature","geometry":{"type":"Point","coordinates":[-84.9506,34.7564]}},{"properties":{"CITY":"SAVANNAH","LONDD":81.0714,"CALLSIGN":"WBMQ","STATE":"GA","FACID":54800.0,"MarketSt":"Savannah, GA","LICENSEE":"CUMULUS LICENSING LLC","id":"a626i33hstvk","LATDD":32.0753,"FREQUENCY":"630   kHz"},"type":"Feature","geometry":{"type":"Point","coordinates":[-81.0714,32.0753]}},{"properties":{"CITY":"PALMETTO","LONDD":82.5744,"CALLSIGN":"WBRD","STATE":"FL","FACID":63985.0,"MarketSt":"Bradenton, FL","LICENSEE":"BIRACH BROADCASTING CORPORATION","id":"a626i2tfopgy","LATDD":27.545,"FREQUENCY":"1420  kHz"},"type":"Feature","geometry":{"type":"Point","coordinates":[-82.5744,27.545]}},{"properties":{"CITY":"CHARLOTTE","LONDD":80.8897,"CALLSIGN":"WBT","STATE":"NC","FACID":30830.0,"MarketSt":"Charlotte, NC","LICENSEE":"LINCOLN FINANCIAL MEDIA COMPANY OF NORTH CAROLINA","id":"a626i2wm23ht","LATDD":35.1322,"FREQUENCY":"1110  kHz"},"type":"Feature","geometry":{"type":"Point","coordinates":[-80.8897,35.1322]}},{"properties":{"CITY":"DANVILLE","LONDD":79.4297,"CALLSIGN":"WBTM","STATE":"VA","FACID":52544.0,"MarketSt":"Danville, VA","LICENSEE":"PIEDMONT BROADCASTING CORP.","id":"a626i2qyhdnc","LATDD":36.61,"FREQUENCY":"1330  kHz"},"type":"Feature","geometry":{"type":"Point","coordinates":[-79.4297,36.61]}},{"properties":{"CITY":"POMPANO BEACH","LONDD":80.1469,"CALLSIGN":"WBZT","STATE":"FL","FACID":20439.0,"MarketSt":"West Palm Beach, FL","LICENSEE":"CAPSTAR TX LIMITED PARTNERSHIP","id":"a626i2ue2int","LATDD":26.255,"FREQUENCY":"1230  kHz"},"type":"Feature","geometry":{"type":"Point","coordinates":[-80.1469,26.255]}},{"properties":{"CITY":"WEST PALM BEACH","LONDD":80.1444,"CALLSIGN":"WBZT","STATE":"FL","FACID":20439.0,"MarketSt":"West Palm Beach, FL","LICENSEE":"CAPSTAR TX LIMITED PARTNERSHIP","id":"a626i317pvbn","LATDD":26.7592,"FREQUENCY":"1230  kHz"},"type":"Feature","geometry":{"type":"Point","coordinates":[-80.1444,26.7592]}},{"properties":{"CITY":"RUTHERFORDTON","LONDD":81.9231,"CALLSIGN":"WCAB","STATE":"NC","FACID":29261.0,"MarketSt":"Rutherfordton, NC","LICENSEE":"ISOTHERMAL BROADCASTING COMPANY, INC","id":"a626i2wakw7c","LATDD":35.3931,"FREQUENCY":"590   kHz"},"type":"Feature","geometry":{"type":"Point","coordinates":[-81.9231,35.3931]}},{"properties":{"CITY":"PUNTA GORDA","LONDD":82.0508,"CALLSIGN":"WCCF","STATE":"FL","FACID":28897.0,"MarketSt":"Punta Gorda, FL","LICENSEE":"CITICASTERS LICENSES, L.P.","id":"a626i2z7t7rg","LATDD":26.8936,"FREQUENCY":"1580  kHz"},"type":"Feature","geometry":{"type":"Point","coordinates":[-82.0508,26.8936]}},{"properties":{"CITY":"BROOKHAVEN","LONDD":90.4475,"CALLSIGN":"WCHJ","STATE":"MS","FACID":6315.0,"MarketSt":"Brookhaven, MS","LICENSEE":"TILLMAN BROADCASTING NETWORK, INC.","id":"a626i2ueygh2","LATDD":31.5628,"FREQUENCY":"1470  kHz"},"type":"Feature","geometry":{"type":"Point","coordinates":[-90.4475,31.5628]}},{"properties":{"CITY":"CHARLESTON","LONDD":81.7681,"CALLSIGN":"WCHS","STATE":"WV","FACID":71660.0,"MarketSt":"Charleston, WV","LICENSEE":"WEST VIRGINIA RADIO CORPORATION OF CHARLESTON","id":"a626i2v8uvrh","LATDD":38.3642,"FREQUENCY":"580   kHz"},"type":"Feature","geometry":{"type":"Point","coordinates":[-81.7681,38.3642]}},{"properties":{"CITY":"ESCANABA","LONDD":87.1703,"CALLSIGN":"WCHT","STATE":"MI","FACID":47119.0,"MarketSt":"Escanaba, MI","LICENSEE":"LAKE RADIO, INC.","id":"a626i30xrpyr","LATDD":45.8053,"FREQUENCY":"600   kHz"},"type":"Feature","geometry":{"type":"Point","coordinates":[-87.1703,45.8053]}},{"properties":{"CITY":"COLUMBIA","LONDD":89.84,"CALLSIGN":"WCJU","STATE":"MS","FACID":71281.0,"MarketSt":"Columbia, MS","LICENSEE":"WCJU, INCORPORATED","id":"a626i2uvmjg6","LATDD":31.2372,"FREQUENCY":"1450  kHz"},"type":"Feature","geometry":{"type":"Point","coordinates":[-89.84,31.2372]}},{"properties":{"CITY":"NEWARK","LONDD":82.4022,"CALLSIGN":"WCLT","STATE":"OH","FACID":71284.0,"MarketSt":"Newark, OH","LICENSEE":"WCLT RADIO, INC.","id":"a626i2x4e22i","LATDD":40.0339,"FREQUENCY":"1430  kHz"},"type":"Feature","geometry":{"type":"Point","coordinates":[-82.4022,40.0339]}},{"properties":{"CITY":"MARTIN","LONDD":88.8492,"CALLSIGN":"WCMT","STATE":"TN","FACID":67054.0,"MarketSt":"Martin, TN","LICENSEE":"THUNDERBOLT BROADCASTING COMPANY","id":"a626i33k7fxr","LATDD":36.3625,"FREQUENCY":"1410  kHz"},"type":"Feature","geometry":{"type":"Point","coordinates":[-88.8492,36.3625]}},{"properties":{"CITY":"PENSACOLA","LONDD":87.2628,"CALLSIGN":"WCOA","STATE":"FL","FACID":12142.0,"MarketSt":"Pensacola, FL","LICENSEE":"CUMULUS LICENSING LLC","id":"a626i2q8m7km","LATDD":30.4492,"FREQUENCY":"1370  kHz"},"type":"Feature","geometry":{"type":"Point","coordinates":[-87.2628,30.4492]}},{"properties":{"CITY":"CLEARFIELD","LONDD":78.4483,"CALLSIGN":"WCPA","STATE":"PA","FACID":11982.0,"MarketSt":"Clearfield, PA","LICENSEE":"FIRST MEDIA RADIO, LLC","id":"a626i30a8s4d","LATDD":41.0422,"FREQUENCY":"900   kHz"},"type":"Feature","geometry":{"type":"Point","coordinates":[-78.4483,41.0422]}},{"properties":{"CITY":"TARBORO","LONDD":77.5708,"CALLSIGN":"WCPS","STATE":"NC","FACID":14004.0,"MarketSt":"Tarboro, NC","LICENSEE":"JOHNSON BROADCAST VENTURES, LTD","id":"a626i307jzdq","LATDD":35.9278,"FREQUENCY":"760   kHz"},"type":"Feature","geometry":{"type":"Point","coordinates":[-77.5708,35.9278]}},{"properties":{"CITY":"GREENWOOD","LONDD":82.1514,"CALLSIGN":"WCRS","STATE":"SC","FACID":25239.0,"MarketSt":"Greenwood, SC","LICENSEE":"PRO-COM COMMUNICATIONS, LLC","id":"a626i3321pwe","LATDD":34.2094,"FREQUENCY":"1450  kHz"},"type":"Feature","geometry":{"type":"Point","coordinates":[-82.1514,34.2094]}},{"properties":{"CITY":"COLUMBUS","LONDD":85.95,"CALLSIGN":"WCSI","STATE":"IN","FACID":72261.0,"MarketSt":"Columbus, IN","LICENSEE":"WHITE RIVER BROADCASTING CO., INC.","id":"a626i2vzcjve","LATDD":39.1867,"FREQUENCY":"1010  kHz"},"type":"Feature","geometry":{"type":"Point","coordinates":[-85.95,39.1867]}},{"properties":{"CITY":"CHESTERTOWN","LONDD":76.0889,"CALLSIGN":"WCTR","STATE":"MD","FACID":34030.0,"MarketSt":"Chestertown, MD","LICENSEE":"WCTR BROADCASTING, LLC","id":"a626i32wlxcd","LATDD":39.2264,"FREQUENCY":"1530  kHz"},"type":"Feature","geometry":{"type":"Point","coordinates":[-76.0889,39.2264]}},{"properties":{"CITY":"CUTHBERT","LONDD":84.8378,"CALLSIGN":"WCUG","STATE":"GA","FACID":46952.0,"MarketSt":"Cuthbert, GA","LICENSEE":"MULLIS COMMUNICATIONS, INC.","id":"a626i2pl17t8","LATDD":31.7739,"FREQUENCY":"850   kHz"},"type":"Feature","geometry":{"type":"Point","coordinates":[-84.8378,31.7739]}},{"properties":{"CITY":"DANVILLE","LONDD":87.6264,"CALLSIGN":"WDAN","STATE":"IL","FACID":48330.0,"MarketSt":"Danville, IL","LICENSEE":"NEUHOFF FAMILY LIMITED PARTNERSHIP","id":"a626i2ujrnft","LATDD":40.1494,"FREQUENCY":"1490  kHz"},"type":"Feature","geometry":{"type":"Point","coordinates":[-87.6264,40.1494]}},{"properties":{"CITY":"FARGO","LONDD":96.8844,"CALLSIGN":"WDAY","STATE":"ND","FACID":22126.0,"MarketSt":"Fargo, ND","LICENSEE":"FORUM COMMUNICATIONS COMPANY","id":"a626i309d4q0","LATDD":46.8789,"FREQUENCY":"970   kHz"},"type":"Feature","geometry":{"type":"Point","coordinates":[-96.8844,46.8789]}},{"properties":{"CITY":"ORLANDO","LONDD":81.4097,"CALLSIGN":"WDBO","STATE":"FL","FACID":48726.0,"MarketSt":"Orlando, FL","LICENSEE":"COX RADIO, INC.","id":"a626i2ub7yle","LATDD":28.6197,"FREQUENCY":"580   kHz"},"type":"Feature","geometry":{"type":"Point","coordinates":[-81.4097,28.6197]}},{"properties":{"CITY":"DUBUQUE","LONDD":90.7067,"CALLSIGN":"WDBQ","STATE":"IA","FACID":12705.0,"MarketSt":"Dubuque, IA","LICENSEE":"CUMULUS LICENSING LLC","id":"a626i343ymj8","LATDD":42.5028,"FREQUENCY":"1490  kHz"},"type":"Feature","geometry":{"type":"Point","coordinates":[-90.7067,42.5028]}},{"properties":{"CITY":"DADEVILLE","LONDD":85.7694,"CALLSIGN":"WDLK","STATE":"AL","FACID":15281.0,"MarketSt":"Dadeville, AL","LICENSEE":"PROGRESSIVE UNITED COMMUNICATIONS, INC.","id":"a626i2rf1fs6","LATDD":32.8489,"FREQUENCY":"1450  kHz"},"type":"Feature","geometry":{"type":"Point","coordinates":[-85.7694,32.8489]}},{"properties":{"CITY":"WASHINGTON","LONDD":77.0753,"CALLSIGN":"WDLX","STATE":"NC","FACID":64610.0,"MarketSt":"Washington, NC","LICENSEE":"PIRATE MEDIA GROUP, LLC","id":"a626i30n164x","LATDD":35.5267,"FREQUENCY":"930   kHz"},"type":"Feature","geometry":{"type":"Point","coordinates":[-77.0753,35.5267]}},{"properties":{"CITY":"MARQUETTE","LONDD":87.4444,"CALLSIGN":"WDMJ","STATE":"MI","FACID":24448.0,"MarketSt":"Marquette, MI","LICENSEE":"NORTHERN STAR BROADCASTING, L.L.C.","id":"a626i2pkc05d","LATDD":46.5453,"FREQUENCY":"1320  kHz"},"type":"Feature","geometry":{"type":"Point","coordinates":[-87.4444,46.5453]}},{"properties":{"CITY":"DOVER","LONDD":75.5653,"CALLSIGN":"WDOV","STATE":"DE","FACID":4670.0,"MarketSt":"Dover, DE","LICENSEE":"CAPSTAR TX LIMITED PARTNERSHIP","id":"a626i32r8ayy","LATDD":39.2008,"FREQUENCY":"1410  kHz"},"type":"Feature","geometry":{"type":"Point","coordinates":[-75.5653,39.2008]}},{"properties":{"CITY":"CLEVELAND","LONDD":90.7114,"CALLSIGN":"WDSK","STATE":"MS","FACID":16554.0,"MarketSt":"Cleveland, MS","LICENSEE":"M.R.S. VENTURES, INC.","id":"a626i2vnn4vz","LATDD":33.7656,"FREQUENCY":"1410  kHz"},"type":"Feature","geometry":{"type":"Point","coordinates":[-90.7114,33.7656]}},{"properties":{"CITY":"SUMTER","LONDD":80.3236,"CALLSIGN":"WDXY","STATE":"SC","FACID":55267.0,"MarketSt":"Sumter, SC","LICENSEE":"MILLER COMMUNICATIONS, INC.","id":"a626i2vxdnco","LATDD":33.9044,"FREQUENCY":"1240  kHz"},"type":"Feature","geometry":{"type":"Point","coordinates":[-80.3236,33.9044]}},{"properties":{"CITY":"GAFFNEY","LONDD":81.6444,"CALLSIGN":"WEAC","STATE":"SC","FACID":23005.0,"MarketSt":"Gaffney, SC","LICENSEE":"GAFFNEY BROADCASTING, INCORPORATED","id":"a626i2vmhwln","LATDD":35.0883,"FREQUENCY":"1500  kHz"},"type":"Feature","geometry":{"type":"Point","coordinates":[-81.6444,35.0883]}},{"properties":{"CITY":"DULUTH","LONDD":91.9858,"CALLSIGN":"WEBC","STATE":"MN","FACID":49689.0,"MarketSt":"Duluth, MN","LICENSEE":"CC LICENSES, LLC","id":"a626i2y5ls7p","LATDD":46.6436,"FREQUENCY":"560   kHz"},"type":"Feature","geometry":{"type":"Point","coordinates":[-91.9858,46.6436]}},{"properties":{"CITY":"PUNXSUTAWNEY","LONDD":79.0022,"CALLSIGN":"WECZ","STATE":"PA","FACID":55710.0,"MarketSt":"Punxsutawney, PA","LICENSEE":"RENDA RADIO, INC.","id":"a626i32bfbqt","LATDD":40.96,"FREQUENCY":"1540  kHz"},"type":"Feature","geometry":{"type":"Point","coordinates":[-79.0022,40.96]}},{"properties":{"CITY":"READING","LONDD":76.1233,"CALLSIGN":"WEEU","STATE":"PA","FACID":70508.0,"MarketSt":"Reading, PA","LICENSEE":"WEEU BROADCASTING COMPANY","id":"a626i2u2buei","LATDD":40.515,"FREQUENCY":"830   kHz"},"type":"Feature","geometry":{"type":"Point","coordinates":[-76.1233,40.515]}},{"properties":{"CITY":"PRESQUE ISLE","LONDD":68.0503,"CALLSIGN":"WEGP","STATE":"ME","FACID":9423.0,"MarketSt":"Presque Isle, ME","LICENSEE":"DECELLES/SMITH MEDIA, INC.","id":"a626i344chp0","LATDD":46.6547,"FREQUENCY":"1390  kHz"},"type":"Feature","geometry":{"type":"Point","coordinates":[-68.0503,46.6547]}},{"properties":{"CITY":"LACONIA","LONDD":71.4625,"CALLSIGN":"WEMJ","STATE":"NH","FACID":67270.0,"MarketSt":"Laconia, NH","LICENSEE":"NASSAU BROADCASTING III, LLC","id":"a626i2yzwi0d","LATDD":43.5414,"FREQUENCY":"1490  kHz"},"type":"Feature","geometry":{"type":"Point","coordinates":[-71.4625,43.5414]}},{"properties":{"CITY":"BIRMINGHAM","LONDD":86.8519,"CALLSIGN":"WERC","STATE":"AL","FACID":2112.0,"MarketSt":"Birmingham, AL","LICENSEE":"CAPSTAR TX LIMITED PARTNERSHIP","id":"a626i30xmhm6","LATDD":33.5339,"FREQUENCY":"960   kHz"},"type":"Feature","geometry":{"type":"Point","coordinates":[-86.8519,33.5339]}},{"properties":{"CITY":"ONLEY-ONANCOCK","LONDD":75.6836,"CALLSIGN":"WESR","STATE":"VA","FACID":18385.0,"MarketSt":"Onley, VA","LICENSEE":"EASTERN SHORE RADIO, INC.","id":"a626i32wh10n","LATDD":37.7172,"FREQUENCY":"1330  kHz"},"type":"Feature","geometry":{"type":"Point","coordinates":[-75.6836,37.7172]}},{"properties":{"CITY":"ONLEY-ONANCOCK","LONDD":75.6836,"CALLSIGN":"WESR","STATE":"VA","FACID":18385.0,"MarketSt":"Onley, VA","LICENSEE":"EASTERN SHORE RADIO, INC.","id":"a626i2qw8b4w","LATDD":37.7172,"FREQUENCY":"1330  kHz"},"type":"Feature","geometry":{"type":"Point","coordinates":[-75.6836,37.7172]}},{"properties":{"CITY":"LAURINBURG","LONDD":79.5111,"CALLSIGN":"WEWO","STATE":"NC","FACID":9077.0,"MarketSt":"Laurinburg, NC","LICENSEE":"SERVICE MEDIA, INC.","id":"a626i2ulmumg","LATDD":34.7833,"FREQUENCY":"1460  kHz"},"type":"Feature","geometry":{"type":"Point","coordinates":[-79.5111,34.7833]}},{"properties":{"CITY":"MIDDLEBURY","LONDD":73.1597,"CALLSIGN":"WFAD","STATE":"VT","FACID":53612.0,"MarketSt":"Middlebury, VT","LICENSEE":"RADIO BROADCASTING SERVICES, INC.","id":"a626i2t9if3k","LATDD":43.9992,"FREQUENCY":"1490  kHz"},"type":"Feature","geometry":{"type":"Point","coordinates":[-73.1597,43.9992]}},{"properties":{"CITY":"MANCHESTER","LONDD":84.5983,"CALLSIGN":"WFDR","STATE":"GA","FACID":53678.0,"MarketSt":"Manchester, GA","LICENSEE":"PLOENER RADIO GROUP, LLC","id":"a626i2xe7x6u","LATDD":32.8872,"FREQUENCY":"1370  kHz"},"type":"Feature","geometry":{"type":"Point","coordinates":[-84.5983,32.8872]}},{"properties":{"CITY":"SYLACAUGA","LONDD":86.2325,"CALLSIGN":"WFEB","STATE":"AL","FACID":700.0,"MarketSt":"Sylacauga, AL","LICENSEE":"ALABAMA BROADCASTING COMPANY, INC.","id":"a626i2qcqwhi","LATDD":33.1711,"FREQUENCY":"1340  kHz"},"type":"Feature","geometry":{"type":"Point","coordinates":[-86.2325,33.1711]}},{"properties":{"CITY":"MARATHON","LONDD":81.1083,"CALLSIGN":"WFFG","STATE":"FL","FACID":65664.0,"MarketSt":"Marathon, FL","LICENSEE":"THE GREAT MARATHON RADIO COMPANY","id":"a626i33z4bs4","LATDD":24.6911,"FREQUENCY":"1300  kHz"},"type":"Feature","geometry":{"type":"Point","coordinates":[-81.1083,24.6911]}},{"properties":{"CITY":"FINDLAY","LONDD":83.6353,"CALLSIGN":"WFIN","STATE":"OH","FACID":5848.0,"MarketSt":"Findlay, OH","LICENSEE":"BLANCHARD RIVER BROADCASTING COMPANY","id":"a626i2uitwhx","LATDD":41.0083,"FREQUENCY":"1330  kHz"},"type":"Feature","geometry":{"type":"Point","coordinates":[-83.6353,41.0083]}},{"properties":{"CITY":"ROANOKE","LONDD":79.9594,"CALLSIGN":"WFIR","STATE":"VA","FACID":31138.0,"MarketSt":"Roanoke, VA","LICENSEE":"MEL WHEELER, INC.","id":"a626i3060luf","LATDD":37.2553,"FREQUENCY":"960   kHz"},"type":"Feature","geometry":{"type":"Point","coordinates":[-79.9594,37.2553]}},{"properties":{"CITY":"FAIRFIELD","LONDD":88.3258,"CALLSIGN":"WFIW","STATE":"IL","FACID":71167.0,"MarketSt":"Fairfield, IL","LICENSEE":"WAYNE COUNTY BROADCASTING CO., INC.","id":"a626i2sd2s0a","LATDD":38.3794,"FREQUENCY":"1390  kHz"},"type":"Feature","geometry":{"type":"Point","coordinates":[-88.3258,38.3794]}},{"properties":{"CITY":"TAMPA","LONDD":82.6094,"CALLSIGN":"WFLA","STATE":"FL","FACID":29729.0,"MarketSt":"Tampa, FL","LICENSEE":"CITICASTERS LICENSES, L.P.","id":"a626i34haxcc","LATDD":28.0206,"FREQUENCY":"970   kHz"},"type":"Feature","geometry":{"type":"Point","coordinates":[-82.6094,28.0206]}},{"properties":{"CITY":"FREDERICK","LONDD":77.4614,"CALLSIGN":"WFMD","STATE":"MD","FACID":31136.0,"MarketSt":"Frederick, MD","LICENSEE":"CAPSTAR TX LIMITED PARTNERSHIP","id":"a626i34gzqq7","LATDD":39.4153,"FREQUENCY":"930   kHz"},"type":"Feature","geometry":{"type":"Point","coordinates":[-77.4614,39.4153]}},{"properties":{"CITY":"BLACKSBURG","LONDD":80.355,"CALLSIGN":"WFNR","STATE":"VA","FACID":67588.0,"MarketSt":"Blacksburg, VA","LICENSEE":"CUMULUS LICENSING LLC","id":"a626i2v47wxd","LATDD":37.1336,"FREQUENCY":"710   kHz"},"type":"Feature","geometry":{"type":"Point","coordinates":[-80.355,37.1336]}},{"properties":{"CITY":"FLINT","LONDD":83.64,"CALLSIGN":"WFNT","STATE":"MI","FACID":20447.0,"MarketSt":"Flint, MI","LICENSEE":"REGENT BROADCASTING OF FLINT INC","id":"a626i2xdzcaz","LATDD":42.9728,"FREQUENCY":"1470  kHz"},"type":"Feature","geometry":{"type":"Point","coordinates":[-83.64,42.9728]}},{"properties":{"CITY":"ST. AUGUSTINE","LONDD":81.3306,"CALLSIGN":"WFOY","STATE":"FL","FACID":60271.0,"MarketSt":"St. Augustine, FL","LICENSEE":"PHILLIPS BROADCASTING, LLC","id":"a626i31kbas1","LATDD":29.85,"FREQUENCY":"1240  kHz"},"type":"Feature","geometry":{"type":"Point","coordinates":[-81.3306,29.85]}},{"properties":{"CITY":"FROSTBURG","LONDD":78.9658,"CALLSIGN":"WFRB","STATE":"MD","FACID":71868.0,"MarketSt":"Frostburg, MD","LICENSEE":"WTBO-WKGO CORPORATION, L.L.C.","id":"a626i2zmc6fi","LATDD":39.6839,"FREQUENCY":"560   kHz"},"type":"Feature","geometry":{"type":"Point","coordinates":[-78.9658,39.6839]}},{"properties":{"CITY":"FROSTBURG","LONDD":78.9658,"CALLSIGN":"WFRB","STATE":"MD","FACID":71868.0,"MarketSt":"Frostburg, MD","LICENSEE":"WTBO-WKGO CORPORATION, L.L.C.","id":"a626i32cf1zb","LATDD":39.6839,"FREQUENCY":"560   kHz"},"type":"Feature","geometry":{"type":"Point","coordinates":[-78.9658,39.6839]}},{"properties":{"CITY":"FORT WALTON BEACH","LONDD":86.6278,"CALLSIGN":"WFTW","STATE":"FL","FACID":27466.0,"MarketSt":"Ft. Walton Beach, FL","LICENSEE":"CUMULUS LICENSING LLC","id":"a626i32p39xe","LATDD":30.4136,"FREQUENCY":"1260  kHz"},"type":"Feature","geometry":{"type":"Point","coordinates":[-86.6278,30.4136]}},{"properties":{"CITY":"ASHTABULA","LONDD":80.7792,"CALLSIGN":"WFUN","STATE":"OH","FACID":54565.0,"MarketSt":"Ashtabula, OH","LICENSEE":"SWEET HOME ASHTABULA, LLC","id":"a626i2s4yhhu","LATDD":41.8144,"FREQUENCY":"970   kHz"},"type":"Feature","geometry":{"type":"Point","coordinates":[-80.7792,41.8144]}},{"properties":{"CITY":"FREDERICKSBURG","LONDD":77.4364,"CALLSIGN":"WFVA","STATE":"VA","FACID":41813.0,"MarketSt":"Fredericksburg, VA","LICENSEE":"MID ATLANTIC NETWORK, INC.","id":"a626i2v4wmoi","LATDD":38.2806,"FREQUENCY":"1230  kHz"},"type":"Feature","geometry":{"type":"Point","coordinates":[-77.4364,38.2806]}},{"properties":{"CITY":"AUGUSTA","LONDD":82.08,"CALLSIGN":"WGAC","STATE":"GA","FACID":4435.0,"MarketSt":"Augusta, GA","LICENSEE":"WAEC LICENSE LIMITED PARTNERSHIP","id":"a626i33cfnzx","LATDD":33.5122,"FREQUENCY":"580   kHz"},"type":"Feature","geometry":{"type":"Point","coordinates":[-82.08,33.5122]}},{"properties":{"CITY":"AUGUSTA","LONDD":81.9086,"CALLSIGN":"WGAC","STATE":"GA","FACID":4435.0,"MarketSt":"Augusta, GA","LICENSEE":"WAEC LICENSE LIMITED PARTNERSHIP","id":"a626i2xcvmlr","LATDD":33.5247,"FREQUENCY":"580   kHz"},"type":"Feature","geometry":{"type":"Point","coordinates":[-81.9086,33.5247]}},{"properties":{"CITY":"PORTLAND","LONDD":70.3167,"CALLSIGN":"WGAN","STATE":"ME","FACID":58544.0,"MarketSt":"Portland, ME","LICENSEE":"SAGA COMMUNICATIONS OF NEW ENGLAND, LLC","id":"a626i2txy8zy","LATDD":43.6894,"FREQUENCY":"560   kHz"},"type":"Feature","geometry":{"type":"Point","coordinates":[-70.3167,43.6894]}},{"properties":{"CITY":"ATHENS","LONDD":83.3986,"CALLSIGN":"WGAU","STATE":"GA","FACID":11709.0,"MarketSt":"Athens, GA","LICENSEE":"SOUTHERN BROADCASTING OF PENSACOLA, INC","id":"a626i34i01zb","LATDD":33.9411,"FREQUENCY":"1340  kHz"},"type":"Feature","geometry":{"type":"Point","coordinates":[-83.3986,33.9411]}},{"properties":{"CITY":"EVANSVILLE","LONDD":87.4767,"CALLSIGN":"WGBF","STATE":"IN","FACID":660.0,"MarketSt":"Evansville, IN","LICENSEE":"REGENT BROADCASTING OF EVANSVILLE/OWENSBORO, INC.","id":"a626i33v3oll","LATDD":37.9958,"FREQUENCY":"1280  kHz"},"type":"Feature","geometry":{"type":"Point","coordinates":[-87.4767,37.9958]}},{"properties":{"CITY":"GOLDSBORO","LONDD":78.0117,"CALLSIGN":"WGBR","STATE":"NC","FACID":48370.0,"MarketSt":"Goldsboro, NC","LICENSEE":"NEW AGE COMMUNICATIONS, LTD.","id":"a626i2t8tkqc","LATDD":35.3739,"FREQUENCY":"1150  kHz"},"type":"Feature","geometry":{"type":"Point","coordinates":[-78.0117,35.3739]}},{"properties":{"CITY":"BLOOMINGTON","LONDD":86.6339,"CALLSIGN":"WGCL","STATE":"IN","FACID":59131.0,"MarketSt":"Bloomington, IN","LICENSEE":"SARKES TARZIAN, INC,","id":"a626i2skmjnd","LATDD":39.1903,"FREQUENCY":"1370  kHz"},"type":"Feature","geometry":{"type":"Point","coordinates":[-86.6339,39.1903]}},{"properties":{"CITY":"BELOIT","LONDD":89.0175,"CALLSIGN":"WGEZ","STATE":"WI","FACID":24995.0,"MarketSt":"Beloit, WI","LICENSEE":"ALLIANCE COMMUNICATIONS, INC.","id":"a626i2z1rw3h","LATDD":42.4958,"FREQUENCY":"1490  kHz"},"type":"Feature","geometry":{"type":"Point","coordinates":[-89.0175,42.4958]}},{"properties":{"CITY":"GAINESVILLE","LONDD":83.8292,"CALLSIGN":"WGGA","STATE":"GA","FACID":32977.0,"MarketSt":"Gainesville, GA","LICENSEE":"JWJ PROPERTIES, INC.","id":"a626i328mc0w","LATDD":34.3169,"FREQUENCY":"1240  kHz"},"type":"Feature","geometry":{"type":"Point","coordinates":[-83.8292,34.3169]}},{"properties":{"CITY":"BRUNSWICK","LONDD":81.5372,"CALLSIGN":"WGIG","STATE":"GA","FACID":63432.0,"MarketSt":"Brunswick, GA","LICENSEE":"QANTUM OF BRUNSWICK LICENSE COMPANY, LLC","id":"a626i2v0rrlc","LATDD":31.1686,"FREQUENCY":"1440  kHz"},"type":"Feature","geometry":{"type":"Point","coordinates":[-81.5372,31.1686]}},{"properties":{"CITY":"GALESBURG","LONDD":90.3442,"CALLSIGN":"WGIL","STATE":"IL","FACID":23039.0,"MarketSt":"Galesburg, IL","LICENSEE":"GALESBURG BROADCASTING COMPANY","id":"a626i335853x","LATDD":40.9428,"FREQUENCY":"1400  kHz"},"type":"Feature","geometry":{"type":"Point","coordinates":[-90.3442,40.9428]}},{"properties":{"CITY":"MANCHESTER","LONDD":71.48,"CALLSIGN":"WGIR","STATE":"NH","FACID":35237.0,"MarketSt":"Manchester, NH","LICENSEE":"CAPSTAR TX LIMITED PARTNERSHIP","id":"a626i2v99wyp","LATDD":43.0158,"FREQUENCY":"610   kHz"},"type":"Feature","geometry":{"type":"Point","coordinates":[-71.48,43.0158]}},{"properties":{"CITY":"CHATTANOOGA","LONDD":85.3344,"CALLSIGN":"WGOW","STATE":"TN","FACID":54526.0,"MarketSt":"Chattanooga, TN","LICENSEE":"CITADEL BROADCASTING COMPANY","id":"a626i2qczs9z","LATDD":35.0681,"FREQUENCY":"1150  kHz"},"type":"Feature","geometry":{"type":"Point","coordinates":[-85.3344,35.0681]}},{"properties":{"CITY":"LAKE CITY","LONDD":82.68,"CALLSIGN":"WGRO","STATE":"FL","FACID":72125.0,"MarketSt":"Lake City, FL","LICENSEE":"POWER COUNTRY, INC","id":"a626i2wd9o82","LATDD":30.1964,"FREQUENCY":"960   kHz"},"type":"Feature","geometry":{"type":"Point","coordinates":[-82.68,30.1964]}},{"properties":{"CITY":"ATLANTA","LONDD":84.4581,"CALLSIGN":"WGST","STATE":"GA","FACID":29730.0,"MarketSt":"Atlanta, GA","LICENSEE":"CITICASTERS LICENSES, L.P.","id":"a626i2y362mr","LATDD":33.7619,"FREQUENCY":"640   kHz"},"type":"Feature","geometry":{"type":"Point","coordinates":[-84.4581,33.7619]}},{"properties":{"CITY":"GUNTERSVILLE","LONDD":86.2956,"CALLSIGN":"WGSV","STATE":"AL","FACID":25675.0,"MarketSt":"Guntersville, AL","LICENSEE":"GUNTERSVILLE BROADCASTING COMPANY, INC.","id":"a626i33ckibb","LATDD":34.3086,"FREQUENCY":"1270  kHz"},"type":"Feature","geometry":{"type":"Point","coordinates":[-86.2956,34.3086]}},{"properties":{"CITY":"SCHENECTADY","LONDD":74.01,"CALLSIGN":"WGY","STATE":"NY","FACID":15329.0,"MarketSt":"Schenectady, NY","LICENSEE":"CC LICENSES, LLC","id":"a626i2p4lgih","LATDD":42.7936,"FREQUENCY":"810   kHz"},"type":"Feature","geometry":{"type":"Point","coordinates":[-74.01,42.7936]}},{"properties":{"CITY":"GREENVILLE","LONDD":86.6019,"CALLSIGN":"WGYV","STATE":"AL","FACID":7902.0,"MarketSt":"Greenville, AL","LICENSEE":"ROBERT JOHN WILLIAMSON","id":"a626i2ozewvb","LATDD":31.8336,"FREQUENCY":"1380  kHz"},"type":"Feature","geometry":{"type":"Point","coordinates":[-86.6019,31.8336]}},{"properties":{"CITY":"HALFWAY","LONDD":77.7381,"CALLSIGN":"WHAG","STATE":"MD","FACID":23466.0,"MarketSt":"Hagerstown, MD","LICENSEE":"MLB - HAGERSTOWN - CHAMBERSBURG IV, LLC","id":"a626i2s2ueo0","LATDD":39.6175,"FREQUENCY":"1410  kHz"},"type":"Feature","geometry":{"type":"Point","coordinates":[-77.7381,39.6175]}},{"properties":{"CITY":"ROCHESTER","LONDD":77.725,"CALLSIGN":"WHAM","STATE":"NY","FACID":37545.0,"MarketSt":"Rochester, NY","LICENSEE":"CITICASTERS LICENSES, L.P.","id":"a626i345yrgw","LATDD":43.0819,"FREQUENCY":"1180  kHz"},"type":"Feature","geometry":{"type":"Point","coordinates":[-77.725,43.0819]}},{"properties":{"CITY":"LOUISVILLE","LONDD":85.4286,"CALLSIGN":"WHAS","STATE":"KY","FACID":11934.0,"MarketSt":"Louisville, KY","LICENSEE":"CC LICENSES, LLC","id":"a626i34jn7wp","LATDD":38.2611,"FREQUENCY":"840   kHz"},"type":"Feature","geometry":{"type":"Point","coordinates":[-85.4286,38.2611]}},{"properties":{"CITY":"SELMA","LONDD":87.0111,"CALLSIGN":"WHBB","STATE":"AL","FACID":27454.0,"MarketSt":"Selma, AL","LICENSEE":"BROADSOUTH COMMUNICATIONS, INC.","id":"a626i2qqtakl","LATDD":32.4339,"FREQUENCY":"1490  kHz"},"type":"Feature","geometry":{"type":"Point","coordinates":[-87.0111,32.4339]}},{"properties":{"CITY":"ANDERSON","LONDD":85.6994,"CALLSIGN":"WHBU","STATE":"IN","FACID":2212.0,"MarketSt":"Anderson, IN","LICENSEE":"BACKYARD BROADCASTING INDIANA LICENSEE, LLC","id":"a626i2r6npds","LATDD":40.0736,"FREQUENCY":"1240  kHz"},"type":"Feature","geometry":{"type":"Point","coordinates":[-85.6994,40.0736]}},{"properties":{"CITY":"MARTINSVILLE","LONDD":79.9039,"CALLSIGN":"WHEE","STATE":"VA","FACID":51825.0,"MarketSt":"Martinsville, VA","LICENSEE":"MARTINSVILLE MEDIA, INC.","id":"a626i2r09r5s","LATDD":36.6858,"FREQUENCY":"1370  kHz"},"type":"Feature","geometry":{"type":"Point","coordinates":[-79.9039,36.6858]}},{"properties":{"CITY":"DAYTON","LONDD":84.1303,"CALLSIGN":"WHIO","STATE":"OH","FACID":14244.0,"MarketSt":"Dayton, OH","LICENSEE":"COX RADIO, INC.","id":"a626i2qzm7gh","LATDD":39.6789,"FREQUENCY":"1290  kHz"},"type":"Feature","geometry":{"type":"Point","coordinates":[-84.1303,39.6789]}},{"properties":{"CITY":"BLUEFIELD","LONDD":81.2517,"CALLSIGN":"WHIS","STATE":"WV","FACID":502.0,"MarketSt":"Bluefield, WV","LICENSEE":"MONTEREY LICENSES, LLC","id":"a626i2w8lrvk","LATDD":37.2758,"FREQUENCY":"1440  kHz"},"type":"Feature","geometry":{"type":"Point","coordinates":[-81.2517,37.2758]}},{"properties":{"CITY":"HENDERSONVILLE","LONDD":82.4556,"CALLSIGN":"WHKP","STATE":"NC","FACID":54615.0,"MarketSt":"Hendersonville, NC","LICENSEE":"RADIO HENDERSONVILLE, INC.","id":"a626i2xg7q1c","LATDD":35.3389,"FREQUENCY":"1450  kHz"},"type":"Feature","geometry":{"type":"Point","coordinates":[-82.4556,35.3389]}},{"properties":{"CITY":"HENDERSONVILLE","LONDD":82.4556,"CALLSIGN":"WHKP","STATE":"NC","FACID":54615.0,"MarketSt":"Hendersonville, NC","LICENSEE":"RADIO HENDERSONVILLE, INC.","id":"a626i2r2n2ew","LATDD":35.3389,"FREQUENCY":"1450  kHz"},"type":"Feature","geometry":{"type":"Point","coordinates":[-82.4556,35.3389]}},{"properties":{"CITY":"HICKORY","LONDD":81.3006,"CALLSIGN":"WHKY","STATE":"NC","FACID":65918.0,"MarketSt":"Hickory, NC","LICENSEE":"LONG COMMUNICATIONS, LLC.","id":"a626i33jl0rl","LATDD":35.7264,"FREQUENCY":"1290  kHz"},"type":"Feature","geometry":{"type":"Point","coordinates":[-81.3006,35.7264]}},{"properties":{"CITY":"DES MOINES","LONDD":93.3503,"CALLSIGN":"WHO","STATE":"IA","FACID":51331.0,"MarketSt":"Des Moines, IA","LICENSEE":"CITICASTERS LICENSES, L.P.","id":"a626i305lpsa","LATDD":41.6528,"FREQUENCY":"1040  kHz"},"type":"Feature","geometry":{"type":"Point","coordinates":[-93.3503,41.6528]}},{"properties":{"CITY":"CENTERVILLE","LONDD":84.9358,"CALLSIGN":"WHON","STATE":"IN","FACID":6746.0,"MarketSt":"Centerville, IN","LICENSEE":"BREWER BROADCASTING CORPORATION","id":"a626i2zozy3m","LATDD":39.8925,"FREQUENCY":"930   kHz"},"type":"Feature","geometry":{"type":"Point","coordinates":[-84.9358,39.8925]}},{"properties":{"CITY":"HOPKINSVILLE","LONDD":87.5122,"CALLSIGN":"WHOP","STATE":"KY","FACID":27634.0,"MarketSt":"Hopkinsville, KY","LICENSEE":"HOP BROADCASTING, INC.","id":"a626i2pnszou","LATDD":36.8817,"FREQUENCY":"1230  kHz"},"type":"Feature","geometry":{"type":"Point","coordinates":[-87.5122,36.8817]}},{"properties":{"CITY":"HARRISBURG","LONDD":76.9519,"CALLSIGN":"WHP","STATE":"PA","FACID":15322.0,"MarketSt":"Harrisburg, PA","LICENSEE":"CLEAR CHANNEL BROADCASTING LICENSES, INC.","id":"a626i2xwzq99","LATDD":40.3031,"FREQUENCY":"580   kHz"},"type":"Feature","geometry":{"type":"Point","coordinates":[-76.9519,40.3031]}},{"properties":{"CITY":"SPRINGFIELD","LONDD":72.6839,"CALLSIGN":"WHYN","STATE":"MA","FACID":55757.0,"MarketSt":"Springfield, MA","LICENSEE":"CC LICENSES, LLC","id":"a626i2q0akd1","LATDD":42.1936,"FREQUENCY":"560   kHz"},"type":"Feature","geometry":{"type":"Point","coordinates":[-72.6839,42.1936]}},{"properties":{"CITY":"INDIANAPOLIS","LONDD":86.3583,"CALLSIGN":"WIBC","STATE":"IN","FACID":19521.0,"MarketSt":"Indianapolis, IN","LICENSEE":"EMMIS RADIO LICENSE, LLC","id":"a626i2tq6uyn","LATDD":39.9558,"FREQUENCY":"1070  kHz"},"type":"Feature","geometry":{"type":"Point","coordinates":[-86.3583,39.9558]}},{"properties":{"CITY":"UTICA","LONDD":75.3419,"CALLSIGN":"WIBX","STATE":"NY","FACID":168.0,"MarketSt":"Utica, NY","LICENSEE":"REGENT LICENSEE OF UTICA/ROME, INC.","id":"a626i2xypltc","LATDD":43.1033,"FREQUENCY":"950   kHz"},"type":"Feature","geometry":{"type":"Point","coordinates":[-75.3419,43.1033]}},{"properties":{"CITY":"SALISBURY","LONDD":75.6167,"CALLSIGN":"WICO","STATE":"MD","FACID":53485.0,"MarketSt":"Salisbury, MD","LICENSEE":"DELMARVA BROADCASTING COMPANY","id":"a626i33itns6","LATDD":38.3608,"FREQUENCY":"1320  kHz"},"type":"Feature","geometry":{"type":"Point","coordinates":[-75.6167,38.3608]}},{"properties":{"CITY":"LEWISTOWN","LONDD":77.5792,"CALLSIGN":"WIEZ","STATE":"PA","FACID":42134.0,"MarketSt":"Lewistown, PA","LICENSEE":"FIRST MEDIA RADIO, LLC","id":"a626i30x3bji","LATDD":40.6083,"FREQUENCY":"670   kHz"},"type":"Feature","geometry":{"type":"Point","coordinates":[-77.5792,40.6083]}},{"properties":{"CITY":"WILKES-BARRE","LONDD":75.9481,"CALLSIGN":"WILK","STATE":"PA","FACID":34380.0,"MarketSt":"Wilkes-Barre, PA","LICENSEE":"ENTERCOM WILKES-BARRE SCRANTON,","id":"a626i2pnkwk1","LATDD":41.2283,"FREQUENCY":"980   kHz"},"type":"Feature","geometry":{"type":"Point","coordinates":[-75.9481,41.2283]}},{"properties":{"CITY":"CHARLOTTESVILLE","LONDD":78.5039,"CALLSIGN":"WINA","STATE":"VA","FACID":10649.0,"MarketSt":"Charlottesville, VA","LICENSEE":"SAGA COMMUNICATIONS OF CHARLOTTESVILLE, LLC","id":"a626i2s4afin","LATDD":38.0894,"FREQUENCY":"1070  kHz"},"type":"Feature","geometry":{"type":"Point","coordinates":[-78.5039,38.0894]}},{"properties":{"CITY":"WINCHESTER","LONDD":78.1517,"CALLSIGN":"WINC","STATE":"VA","FACID":41809.0,"MarketSt":"Winchester, VA","LICENSEE":"MID ATLANTIC NETWORK, INC.","id":"a626i2wgtvq6","LATDD":39.1867,"FREQUENCY":"1400  kHz"},"type":"Feature","geometry":{"type":"Point","coordinates":[-78.1517,39.1867]}},{"properties":{"CITY":"FORT MYERS","LONDD":81.8311,"CALLSIGN":"WINK","STATE":"FL","FACID":2882.0,"MarketSt":"Ft. Myers, FL","LICENSEE":"MERIDIAN BROADCASTING, INC.","id":"a626i33h24jl","LATDD":26.6244,"FREQUENCY":"1240  kHz"},"type":"Feature","geometry":{"type":"Point","coordinates":[-81.8311,26.6244]}},{"properties":{"CITY":"MIAMI","LONDD":80.155,"CALLSIGN":"WIOD","STATE":"FL","FACID":14242.0,"MarketSt":"Miami, FL","LICENSEE":"CLEAR CHANNEL BROADCASTING LICENSES, INC.","id":"a626i2r18u3p","LATDD":25.8494,"FREQUENCY":"610   kHz"},"type":"Feature","geometry":{"type":"Point","coordinates":[-80.155,25.8494]}},{"properties":{"CITY":"TAWAS CITY-EAST TAWA","LONDD":83.545,"CALLSIGN":"WIOS","STATE":"MI","FACID":31477.0,"MarketSt":"Tawas City, MI","LICENSEE":"CARROLL ENTERPRISES, INC","id":"a626i33zdqwo","LATDD":44.2633,"FREQUENCY":"1480  kHz"},"type":"Feature","geometry":{"type":"Point","coordinates":[-83.545,44.2633]}},{"properties":{"CITY":"KOKOMO","LONDD":86.1136,"CALLSIGN":"WIOU","STATE":"IN","FACID":41849.0,"MarketSt":"Kokomo, IN","LICENSEE":"MID-AMERICA RADIO GROUP OF KOKOMO, INC.","id":"a626i2t0ieiv","LATDD":40.4167,"FREQUENCY":"1350  kHz"},"type":"Feature","geometry":{"type":"Point","coordinates":[-86.1136,40.4167]}},{"properties":{"CITY":"LAKE PLACID","LONDD":74.0228,"CALLSIGN":"WIRD","STATE":"NY","FACID":54652.0,"MarketSt":"Lake Placid, NY","LICENSEE":"RADIO LAKE PLACID, INC.","id":"a626i2z4msby","LATDD":44.26,"FREQUENCY":"920   kHz"},"type":"Feature","geometry":{"type":"Point","coordinates":[-74.0228,44.26]}},{"properties":{"CITY":"AMERICUS","LONDD":84.2556,"CALLSIGN":"WISK","STATE":"GA","FACID":63785.0,"MarketSt":"Americus, GA","LICENSEE":"SUMTER BROADCASTING CO., INC.","id":"a626i2y6914l","LATDD":32.0808,"FREQUENCY":"1390  kHz"},"type":"Feature","geometry":{"type":"Point","coordinates":[-84.2556,32.0808]}},{"properties":{"CITY":"MILWAUKEE","LONDD":88.0814,"CALLSIGN":"WISN","STATE":"WI","FACID":65695.0,"MarketSt":"Milwaukee, WI","LICENSEE":"CAPSTAR TX LIMITED PARTNERSHIP","id":"a626i30ok4ia","LATDD":42.755,"FREQUENCY":"1130  kHz"},"type":"Feature","geometry":{"type":"Point","coordinates":[-88.0814,42.755]}},{"properties":{"CITY":"JASPER","LONDD":86.9406,"CALLSIGN":"WITZ","STATE":"IN","FACID":30583.0,"MarketSt":"Jasper, IN","LICENSEE":"JASPER ON THE AIR, INC.","id":"a626i2ui07gk","LATDD":38.3506,"FREQUENCY":"990   kHz"},"type":"Feature","geometry":{"type":"Point","coordinates":[-86.9406,38.3506]}},{"properties":{"CITY":"PALATKA","LONDD":81.6406,"CALLSIGN":"WIYD","STATE":"FL","FACID":25862.0,"MarketSt":"Palatka, FL","LICENSEE":"HALL BROADCASTING COMPANY","id":"a626i2sf7fip","LATDD":29.6397,"FREQUENCY":"1260  kHz"},"type":"Feature","geometry":{"type":"Point","coordinates":[-81.6406,29.6397]}},{"properties":{"CITY":"LA CROSSE","LONDD":91.2175,"CALLSIGN":"WIZM","STATE":"WI","FACID":20667.0,"MarketSt":"La Crosse, WI","LICENSEE":"FAMILY RADIO, INC.","id":"a626i2oe8jwz","LATDD":43.8467,"FREQUENCY":"1410  kHz"},"type":"Feature","geometry":{"type":"Point","coordinates":[-91.2175,43.8467]}},{"properties":{"CITY":"BATON ROUGE","LONDD":91.2694,"CALLSIGN":"WJBO","STATE":"LA","FACID":4054.0,"MarketSt":"Baton Rouge, LA","LICENSEE":"CAPSTAR TX LIMITED PARTNERSHIP","id":"a626i2pujixb","LATDD":30.4631,"FREQUENCY":"1150  kHz"},"type":"Feature","geometry":{"type":"Point","coordinates":[-91.2694,30.4631]}},{"properties":{"CITY":"JOHNSON CITY","LONDD":82.4536,"CALLSIGN":"WJCW","STATE":"TN","FACID":67672.0,"MarketSt":"Johnson City, TN","LICENSEE":"CITADEL BROADCASTING COMPANY","id":"a626i2vywvdu","LATDD":36.4103,"FREQUENCY":"910   kHz"},"type":"Feature","geometry":{"type":"Point","coordinates":[-82.4536,36.4103]}},{"properties":{"CITY":"THOMASVILLE","LONDD":87.745,"CALLSIGN":"WJDB","STATE":"AL","FACID":25379.0,"MarketSt":"Thomasville, AL","LICENSEE":"GRIFFIN BROADCASTING CORPORATION","id":"a626i30tghyc","LATDD":31.8828,"FREQUENCY":"630   kHz"},"type":"Feature","geometry":{"type":"Point","coordinates":[-87.745,31.8828]}},{"properties":{"CITY":"GALLIPOLIS","LONDD":82.2231,"CALLSIGN":"WJEH","STATE":"OH","FACID":70692.0,"MarketSt":"Gallipolis, OH","LICENSEE":"SUNNY BROADCASTING, LLC","id":"a626i2zemw6n","LATDD":38.8056,"FREQUENCY":"990   kHz"},"type":"Feature","geometry":{"type":"Point","coordinates":[-82.2231,38.8056]}},{"properties":{"CITY":"LANSING","LONDD":84.5197,"CALLSIGN":"WJIM","STATE":"MI","FACID":17382.0,"MarketSt":"Lansing, MI","LICENSEE":"CITADEL BROADCASTING COMPANY","id":"a626i2yr9ykh","LATDD":42.72,"FREQUENCY":"1240  kHz"},"type":"Feature","geometry":{"type":"Point","coordinates":[-84.5197,42.72]}},{"properties":{"CITY":"IRONWOOD","LONDD":90.2083,"CALLSIGN":"WJMS","STATE":"MI","FACID":57223.0,"MarketSt":"Ironwood, MI","LICENSEE":"MAGELLAN BROADCASTING, LLC","id":"a626i2pevkuu","LATDD":46.4236,"FREQUENCY":"590   kHz"},"type":"Feature","geometry":{"type":"Point","coordinates":[-90.2083,46.4236]}},{"properties":{"CITY":"FLORENCE","LONDD":79.7817,"CALLSIGN":"WJMX","STATE":"SC","FACID":3112.0,"MarketSt":"Florence, SC","LICENSEE":"QANTUM OF FLORENCE LICENSE COMPANY, LLC","id":"a626i33e6hyg","LATDD":34.2339,"FREQUENCY":"970   kHz"},"type":"Feature","geometry":{"type":"Point","coordinates":[-79.7817,34.2339]}},{"properties":{"CITY":"JACKSONVILLE","LONDD":77.4142,"CALLSIGN":"WJNC","STATE":"NC","FACID":73143.0,"MarketSt":"Jacksonville, NC","LICENSEE":"HERITAGE BROADCASTING, LLC","id":"a626i2txxwf2","LATDD":34.7489,"FREQUENCY":"1240  kHz"},"type":"Feature","geometry":{"type":"Point","coordinates":[-77.4142,34.7489]}},{"properties":{"CITY":"PEARL","LONDD":90.115,"CALLSIGN":"WJNT","STATE":"MS","FACID":7691.0,"MarketSt":"Jackson, MS","LICENSEE":"URBAN RADIO II, L.L.C.","id":"a626i2w33hb9","LATDD":32.2953,"FREQUENCY":"1180  kHz"},"type":"Feature","geometry":{"type":"Point","coordinates":[-90.115,32.2953]}},{"properties":{"CITY":"PEARL","LONDD":90.115,"CALLSIGN":"WJNT","STATE":"MS","FACID":7691.0,"MarketSt":"Jackson, MS","LICENSEE":"URBAN RADIO II, L.L.C.","id":"a626i2t1jabz","LATDD":32.2953,"FREQUENCY":"1180  kHz"},"type":"Feature","geometry":{"type":"Point","coordinates":[-90.115,32.2953]}},{"properties":{"CITY":"HERRIN","LONDD":89.0278,"CALLSIGN":"WJPF","STATE":"IL","FACID":19058.0,"MarketSt":"Herrin, IL","LICENSEE":"MRR LICENSE LLC","id":"a626i31ds0du","LATDD":37.8344,"FREQUENCY":"1340  kHz"},"type":"Feature","geometry":{"type":"Point","coordinates":[-89.0278,37.8344]}},{"properties":{"CITY":"KEENE","LONDD":72.3092,"CALLSIGN":"WKBK","STATE":"NH","FACID":36833.0,"MarketSt":"Keene, NH","LICENSEE":"SAGA COMMUNICATIONS OF NEW ENGLAND, LLC","id":"a626i2uvvxz5","LATDD":42.9461,"FREQUENCY":"1290  kHz"},"type":"Feature","geometry":{"type":"Point","coordinates":[-72.3092,42.9461]}},{"properties":{"CITY":"YOUNGSTOWN","LONDD":80.6,"CALLSIGN":"WKBN","STATE":"OH","FACID":70519.0,"MarketSt":"Youngstown, OH","LICENSEE":"CITICASTERS LICENSES, L.P.","id":"a626i2pcqfid","LATDD":40.985,"FREQUENCY":"570   kHz"},"type":"Feature","geometry":{"type":"Point","coordinates":[-80.6,40.985]}},{"properties":{"CITY":"YOUNGSTOWN","LONDD":80.6006,"CALLSIGN":"WKBN","STATE":"OH","FACID":70519.0,"MarketSt":"Youngstown, OH","LICENSEE":"CITICASTERS LICENSES, L.P.","id":"a626i2ygawpm","LATDD":40.9853,"FREQUENCY":"570   kHz"},"type":"Feature","geometry":{"type":"Point","coordinates":[-80.6006,40.9853]}},{"properties":{"CITY":"MUSKEGON","LONDD":86.2539,"CALLSIGN":"WKBZ","STATE":"MI","FACID":25087.0,"MarketSt":"Muskegon, MI","LICENSEE":"CC LICENSES, LLC","id":"a626i2wscc6t","LATDD":43.2767,"FREQUENCY":"1090  kHz"},"type":"Feature","geometry":{"type":"Point","coordinates":[-86.2539,43.2767]}},{"properties":{"CITY":"CORBIN","LONDD":84.0789,"CALLSIGN":"WKDP","STATE":"KY","FACID":19815.0,"MarketSt":"Corbin, KY","LICENSEE":"EUBANKS BROADCASTING, INC.","id":"a626i320srh1","LATDD":36.9389,"FREQUENCY":"1330  kHz"},"type":"Feature","geometry":{"type":"Point","coordinates":[-84.0789,36.9389]}},{"properties":{"CITY":"JACKSON","LONDD":84.4306,"CALLSIGN":"WKHM","STATE":"MI","FACID":9246.0,"MarketSt":"Jackson, MI","LICENSEE":"JACKSON RADIO WORKS, INC.","id":"a626i33deew9","LATDD":42.1942,"FREQUENCY":"970   kHz"},"type":"Feature","geometry":{"type":"Point","coordinates":[-84.4306,42.1942]}},{"properties":{"CITY":"KALAMAZOO","LONDD":85.5258,"CALLSIGN":"WKMI","STATE":"MI","FACID":14659.0,"MarketSt":"Kalamazoo, MI","LICENSEE":"CUMULUS LICENSING LLC","id":"a626i30p85n4","LATDD":42.3267,"FREQUENCY":"1360  kHz"},"type":"Feature","geometry":{"type":"Point","coordinates":[-85.5258,42.3267]}},{"properties":{"CITY":"SAULT SAINTE MARIE","LONDD":84.3292,"CALLSIGN":"WKNW","STATE":"MI","FACID":978.0,"MarketSt":"Sault Ste Marie, MI","LICENSEE":"NORTHERN STAR BROADCASTING, L.L.C.","id":"a626i2zj0ohf","LATDD":46.4883,"FREQUENCY":"1400  kHz"},"type":"Feature","geometry":{"type":"Point","coordinates":[-84.3292,46.4883]}},{"properties":{"CITY":"KOSCIUSKO","LONDD":89.6033,"CALLSIGN":"WKOZ","STATE":"MS","FACID":6480.0,"MarketSt":"Kosciusko, MS","LICENSEE":"BOSWELL MEDIA, LLC","id":"a626i2ymaayu","LATDD":33.0642,"FREQUENCY":"1340  kHz"},"type":"Feature","geometry":{"type":"Point","coordinates":[-89.6033,33.0642]}},{"properties":{"CITY":"CINCINNATI","LONDD":84.4442,"CALLSIGN":"WKRC","STATE":"OH","FACID":29737.0,"MarketSt":"Cincinnati, OH","LICENSEE":"JACOR BROADCASTING CORPORATION","id":"a626i2zk8gx9","LATDD":39.0081,"FREQUENCY":"550   kHz"},"type":"Feature","geometry":{"type":"Point","coordinates":[-84.4442,39.0081]}},{"properties":{"CITY":"COLUMBIA","LONDD":87.0561,"CALLSIGN":"WKRM","STATE":"TN","FACID":41995.0,"MarketSt":"Columbia, TN","LICENSEE":"MIDDLE TENNESSEE BROADCASTING CO., INC.","id":"a626i2swafos","LATDD":35.6106,"FREQUENCY":"1340  kHz"},"type":"Feature","geometry":{"type":"Point","coordinates":[-87.0561,35.6106]}},{"properties":{"CITY":"SOUTH PARIS","LONDD":70.5286,"CALLSIGN":"WKTQ","STATE":"ME","FACID":52176.0,"MarketSt":"South Paris, ME","LICENSEE":"MOUNTAIN VALLEY BROADCASTING, INC.","id":"a626i2z92ebi","LATDD":44.2211,"FREQUENCY":"1450  kHz"},"type":"Feature","geometry":{"type":"Point","coordinates":[-70.5286,44.2211]}},{"properties":{"CITY":"WOOSTER","LONDD":81.9047,"CALLSIGN":"WKVX","STATE":"OH","FACID":74202.0,"MarketSt":"Wooster, OH","LICENSEE":"WWST CORPORATION, L.L.C.","id":"a626i2xbvvt7","LATDD":40.7919,"FREQUENCY":"960   kHz"},"type":"Feature","geometry":{"type":"Point","coordinates":[-81.9047,40.7919]}},{"properties":{"CITY":"PADUCAH","LONDD":88.6128,"CALLSIGN":"WKYX","STATE":"KY","FACID":6874.0,"MarketSt":"Paducah, KY","LICENSEE":"BRISTOL BROADCASTING COMPANY, INC.","id":"a626i34lkthk","LATDD":37.0147,"FREQUENCY":"570   kHz"},"type":"Feature","geometry":{"type":"Point","coordinates":[-88.6128,37.0147]}},{"properties":{"CITY":"NASHVILLE","LONDD":86.7567,"CALLSIGN":"WLAC","STATE":"TN","FACID":34391.0,"MarketSt":"Nashville, TN","LICENSEE":"CAPSTAR TX LIMITED PARTNERSHIP","id":"a626i2tlpswa","LATDD":36.2708,"FREQUENCY":"1510  kHz"},"type":"Feature","geometry":{"type":"Point","coordinates":[-86.7567,36.2708]}},{"properties":{"CITY":"LEXINGTON","LONDD":84.4458,"CALLSIGN":"WLAP","STATE":"KY","FACID":68209.0,"MarketSt":"Lexington, KY","LICENSEE":"CITICASTERS LICENSES, L.P.","id":"a626i2uha38r","LATDD":38.1236,"FREQUENCY":"630   kHz"},"type":"Feature","geometry":{"type":"Point","coordinates":[-84.4458,38.1236]}},{"properties":{"CITY":"ROME","LONDD":85.2061,"CALLSIGN":"WLAQ","STATE":"GA","FACID":14502.0,"MarketSt":"Rome, GA","LICENSEE":"CRIPPLE CREEK BROADCASTING COMPANY","id":"a626i2vd1of5","LATDD":34.2619,"FREQUENCY":"1410  kHz"},"type":"Feature","geometry":{"type":"Point","coordinates":[-85.2061,34.2619]}},{"properties":{"CITY":"LAKELAND","LONDD":81.9356,"CALLSIGN":"WLKF","STATE":"FL","FACID":10341.0,"MarketSt":"Lakeland, FL","LICENSEE":"HALL COMMUNICATIONS, INC.","id":"a626i2vx8dr2","LATDD":28.0408,"FREQUENCY":"1430  kHz"},"type":"Feature","geometry":{"type":"Point","coordinates":[-81.9356,28.0408]}},{"properties":{"CITY":"JESUP","LONDD":81.9333,"CALLSIGN":"WLOP","STATE":"GA","FACID":31095.0,"MarketSt":"Jessup, GA","LICENSEE":"JESUP BROADCASTING CORP.","id":"a626i338d9mo","LATDD":31.6017,"FREQUENCY":"1370  kHz"},"type":"Feature","geometry":{"type":"Point","coordinates":[-81.9333,31.6017]}},{"properties":{"CITY":"LEBANON","LONDD":82.1044,"CALLSIGN":"WLRV","STATE":"VA","FACID":29514.0,"MarketSt":"Lebanon, VA","LICENSEE":"GARY W. WARD BRAODCASTING CORPORATION","id":"a626i2z0iz78","LATDD":36.9217,"FREQUENCY":"1380  kHz"},"type":"Feature","geometry":{"type":"Point","coordinates":[-82.1044,36.9217]}},{"properties":{"CITY":"PANAMA CITY","LONDD":85.5886,"CALLSIGN":"WLTG","STATE":"FL","FACID":27694.0,"MarketSt":"Panama City, FL","LICENSEE":"HOUR GROUP BROADCASTING, INC.","id":"a626i2tfw876","LATDD":30.1653,"FREQUENCY":"1430  kHz"},"type":"Feature","geometry":{"type":"Point","coordinates":[-85.5886,30.1653]}},{"properties":{"CITY":"LITTLETON","LONDD":71.7689,"CALLSIGN":"WLTN","STATE":"NH","FACID":53635.0,"MarketSt":"Littleton, NH","LICENSEE":"BARRY P. LUNDERVILLE, L.L.C.","id":"a626i2ys1hts","LATDD":44.3131,"FREQUENCY":"1400  kHz"},"type":"Feature","geometry":{"type":"Point","coordinates":[-71.7689,44.3131]}},{"properties":{"CITY":"MARIETTA","LONDD":81.5267,"CALLSIGN":"WLTP","STATE":"OH","FACID":55182.0,"MarketSt":"Parkersburg, WV","LICENSEE":"CC LICENSES, LLC","id":"a626i30ef1sq","LATDD":39.2897,"FREQUENCY":"910   kHz"},"type":"Feature","geometry":{"type":"Point","coordinates":[-81.5267,39.2897]}},{"properties":{"CITY":"MARIETTA","LONDD":81.5028,"CALLSIGN":"WLTP","STATE":"OH","FACID":55182.0,"MarketSt":"Parkersburg, WV","LICENSEE":"CC LICENSES, LLC","id":"a626i2swsraf","LATDD":39.3633,"FREQUENCY":"910   kHz"},"type":"Feature","geometry":{"type":"Point","coordinates":[-81.5028,39.3633]}},{"properties":{"CITY":"LYNCHBURG","LONDD":79.2231,"CALLSIGN":"WLVA","STATE":"VA","FACID":39579.0,"MarketSt":"Lynchburg, VA","LICENSEE":"TRUTH BROADCASTING CORPORATION","id":"a626i3001dfr","LATDD":37.4275,"FREQUENCY":"590   kHz"},"type":"Feature","geometry":{"type":"Point","coordinates":[-79.2231,37.4275]}},{"properties":{"CITY":"STATE COLLEGE","LONDD":77.8411,"CALLSIGN":"WMAJ","STATE":"PA","FACID":48923.0,"MarketSt":"State College, PA","LICENSEE":"FOREVER BROADCASTING, LLC","id":"a626i2oxijza","LATDD":40.8089,"FREQUENCY":"1450  kHz"},"type":"Feature","geometry":{"type":"Point","coordinates":[-77.8411,40.8089]}},{"properties":{"CITY":"WASHINGTON","LONDD":77.1417,"CALLSIGN":"WMAL","STATE":"DC","FACID":73250.0,"MarketSt":"Washington, DC","LICENSEE":"RADIO LICENSE HOLDING VII, LLC","id":"a626i2vr2270","LATDD":39.0153,"FREQUENCY":"630   kHz"},"type":"Feature","geometry":{"type":"Point","coordinates":[-77.1417,39.0153]}},{"properties":{"CITY":"MARINETTE","LONDD":87.625,"CALLSIGN":"WMAM","STATE":"WI","FACID":40149.0,"MarketSt":"Marinette, WI","LICENSEE":"ARMADA MEDIA-MENOMINEE, INC.","id":"a626i2pzdn34","LATDD":45.1006,"FREQUENCY":"570   kHz"},"type":"Feature","geometry":{"type":"Point","coordinates":[-87.625,45.1006]}},{"properties":{"CITY":"MANSFIELD","LONDD":82.5433,"CALLSIGN":"WMAN","STATE":"OH","FACID":67609.0,"MarketSt":"Mansfield, OH","LICENSEE":"CAPSTAR TX LIMITED PARTNERSHIP","id":"a626i31pli3b","LATDD":40.7703,"FREQUENCY":"1400  kHz"},"type":"Feature","geometry":{"type":"Point","coordinates":[-82.5433,40.7703]}},{"properties":{"CITY":"MANSFIELD","LONDD":82.5467,"CALLSIGN":"WMAN","STATE":"OH","FACID":67609.0,"MarketSt":"Mansfield, OH","LICENSEE":"CAPSTAR TX LIMITED PARTNERSHIP","id":"a626i2vpoq0r","LATDD":40.7667,"FREQUENCY":"1400  kHz"},"type":"Feature","geometry":{"type":"Point","coordinates":[-82.5467,40.7667]}},{"properties":{"CITY":"PEORIA","LONDD":89.5333,"CALLSIGN":"WMBD","STATE":"IL","FACID":42119.0,"MarketSt":"Peoria, IL","LICENSEE":"MONTEREY LICENSES, LLC","id":"a626i2z4vc73","LATDD":40.5728,"FREQUENCY":"1470  kHz"},"type":"Feature","geometry":{"type":"Point","coordinates":[-89.5333,40.5728]}},{"properties":{"CITY":"MELBOURNE","LONDD":80.6889,"CALLSIGN":"WMEL","STATE":"FL","FACID":68615.0,"MarketSt":"Melbourne, FL","LICENSEE":"DAVID RYDER, RECEIVER","id":"a626i2oy8yfv","LATDD":28.1364,"FREQUENCY":"920   kHz"},"type":"Feature","geometry":{"type":"Point","coordinates":[-80.6889,28.1364]}},{"properties":{"CITY":"MELBOURNE","LONDD":80.6889,"CALLSIGN":"WMEL","STATE":"FL","FACID":68615.0,"MarketSt":"Melbourne, FL","LICENSEE":"DAVID RYDER, RECEIVER","id":"a626i2zi9s5a","LATDD":28.1364,"FREQUENCY":"920   kHz"},"type":"Feature","geometry":{"type":"Point","coordinates":[-80.6889,28.1364]}},{"properties":{"CITY":"MENOMONIE","LONDD":91.8458,"CALLSIGN":"WMEQ","STATE":"WI","FACID":52474.0,"MarketSt":"Menomonie, WI","LICENSEE":"CAPSTAR TX LIMITED PARTNERSHIP","id":"a626i2ohugfz","LATDD":44.8456,"FREQUENCY":"880   kHz"},"type":"Feature","geometry":{"type":"Point","coordinates":[-91.8458,44.8456]}},{"properties":{"CITY":"BAINBRIDGE","LONDD":84.5506,"CALLSIGN":"WMGR","STATE":"GA","FACID":52401.0,"MarketSt":"Bainbridge, GA","LICENSEE":"DECATUR BROADCASTING, INC.","id":"a626i2xx2syl","LATDD":30.9069,"FREQUENCY":"930   kHz"},"type":"Feature","geometry":{"type":"Point","coordinates":[-84.5506,30.9069]}},{"properties":{"CITY":"MEADVILLE","LONDD":80.1769,"CALLSIGN":"WMGW","STATE":"PA","FACID":24942.0,"MarketSt":"Meadville, PA","LICENSEE":"FOREVER BROADCASTING, LLC","id":"a626i2pdtl9m","LATDD":41.6314,"FREQUENCY":"1490  kHz"},"type":"Feature","geometry":{"type":"Point","coordinates":[-80.1769,41.6314]}},{"properties":{"CITY":"SANDUSKY","LONDD":82.8325,"CALLSIGN":"WMIC","STATE":"MI","FACID":59026.0,"MarketSt":"Sandusky, MI","LICENSEE":"SANILAC BROADCASTING COMPANY","id":"a626i2z3qkhg","LATDD":43.3928,"FREQUENCY":"660   kHz"},"type":"Feature","geometry":{"type":"Point","coordinates":[-82.8325,43.3928]}},{"properties":{"CITY":"IRON MOUNTAIN","LONDD":88.0544,"CALLSIGN":"WMIQ","STATE":"MI","FACID":64026.0,"MarketSt":"Iron Mountain, MI","LICENSEE":"NORTHERN STAR BROADCASTING, L.L.C.","id":"a626i32wdioq","LATDD":45.8211,"FREQUENCY":"1450  kHz"},"type":"Feature","geometry":{"type":"Point","coordinates":[-88.0544,45.8211]}},{"properties":{"CITY":"ATLANTIC BEACH","LONDD":78.7842,"CALLSIGN":"WMIR","STATE":"SC","FACID":41499.0,"MarketSt":"Lake Geneva, WI","LICENSEE":"CUMBERLAND A &amp; A CORPORATION","id":"a626i2ywif07","LATDD":33.8367,"FREQUENCY":"1200  kHz"},"type":"Feature","geometry":{"type":"Point","coordinates":[-78.7842,33.8367]}},{"properties":{"CITY":"MOUNT VERNON","LONDD":89.0081,"CALLSIGN":"WMIX","STATE":"IL","FACID":73096.0,"MarketSt":"Mt.Vernon, IL","LICENSEE":"WITHERS BROADCASTING COMPANY OF ILLINOIS, LLC","id":"a626i2yp9ful","LATDD":38.3542,"FREQUENCY":"940   kHz"},"type":"Feature","geometry":{"type":"Point","coordinates":[-89.0081,38.3542]}},{"properties":{"CITY":"MOUNT VERNON","LONDD":88.9233,"CALLSIGN":"WMIX","STATE":"IL","FACID":73096.0,"MarketSt":"Mt.Vernon, IL","LICENSEE":"WITHERS BROADCASTING COMPANY OF ILLINOIS, LLC","id":"a626i2yxjv2x","LATDD":38.3706,"FREQUENCY":"940   kHz"},"type":"Feature","geometry":{"type":"Point","coordinates":[-88.9233,38.3706]}},{"properties":{"CITY":"MILTON","LONDD":76.8714,"CALLSIGN":"WMLP","STATE":"PA","FACID":73271.0,"MarketSt":"Milton, PA","LICENSEE":"SUNBURY BROADCASTING CORPORATION","id":"a626i2vrjqrb","LATDD":40.9978,"FREQUENCY":"1380  kHz"},"type":"Feature","geometry":{"type":"Point","coordinates":[-76.8714,40.9978]}},{"properties":{"CITY":"MARION","LONDD":83.1297,"CALLSIGN":"WMRN","STATE":"OH","FACID":40169.0,"MarketSt":"Marion, OH","LICENSEE":"CITICASTERS LICENSES, L.P.","id":"a626i2qzqyr5","LATDD":40.6139,"FREQUENCY":"1490  kHz"},"type":"Feature","geometry":{"type":"Point","coordinates":[-83.1297,40.6139]}},{"properties":{"CITY":"CEDAR RAPIDS","LONDD":91.5456,"CALLSIGN":"WMT","STATE":"IA","FACID":73593.0,"MarketSt":"Cedar Rapids, IA","LICENSEE":"CITICASTERS LICENSES, L.P.","id":"a626i2pa9sm3","LATDD":42.0611,"FREQUENCY":"600   kHz"},"type":"Feature","geometry":{"type":"Point","coordinates":[-91.5456,42.0611]}},{"properties":{"CITY":"MORRISTOWN","LONDD":83.3325,"CALLSIGN":"WMTN","STATE":"TN","FACID":22338.0,"MarketSt":"Morristown, TN","LICENSEE":"RADIO ACQUISITION CORP.","id":"a626i2s065rf","LATDD":36.2042,"FREQUENCY":"1300  kHz"},"type":"Feature","geometry":{"type":"Point","coordinates":[-83.3325,36.2042]}},{"properties":{"CITY":"NATCHEZ","LONDD":91.3917,"CALLSIGN":"WNAT","STATE":"MS","FACID":21605.0,"MarketSt":"Natchez, MS","LICENSEE":"FIRST NATCHEZ RADIO GROUP INC","id":"a626i2zv8con","LATDD":31.5592,"FREQUENCY":"1450  kHz"},"type":"Feature","geometry":{"type":"Point","coordinates":[-91.3917,31.5592]}},{"properties":{"CITY":"BINGHAMTON","LONDD":75.9542,"CALLSIGN":"WNBF","STATE":"NY","FACID":72372.0,"MarketSt":"Binghamton, NY","LICENSEE":"CITADEL BROADCASTING COMPANY","id":"a626i332x1qs","LATDD":42.0581,"FREQUENCY":"1290  kHz"},"type":"Feature","geometry":{"type":"Point","coordinates":[-75.9542,42.0581]}},{"properties":{"CITY":"DAYTONA BEACH","LONDD":81.0719,"CALLSIGN":"WNDB","STATE":"FL","FACID":10342.0,"MarketSt":"Daytona Beach, FL","LICENSEE":"BLACK CROW RADIO, LLC","id":"a626i2taz472","LATDD":29.235,"FREQUENCY":"1150  kHz"},"type":"Feature","geometry":{"type":"Point","coordinates":[-81.0719,29.235]}},{"properties":{"CITY":"GREEN BAY","LONDD":88.0,"CALLSIGN":"WNFL","STATE":"WI","FACID":9966.0,"MarketSt":"Green Bay, WI","LICENSEE":"MIDWEST COMMUNICATIONS, INC.","id":"a626i311o82n","LATDD":44.4778,"FREQUENCY":"1440  kHz"},"type":"Feature","geometry":{"type":"Point","coordinates":[-88.0,44.4778]}},{"properties":{"CITY":"NORFOLK","LONDD":76.2919,"CALLSIGN":"WNIS","STATE":"VA","FACID":4671.0,"MarketSt":"Norfolk, VA","LICENSEE":"COMMONWEALTH RADIO, L.L.C.","id":"a626i2w56rfu","LATDD":37.0736,"FREQUENCY":"790   kHz"},"type":"Feature","geometry":{"type":"Point","coordinates":[-76.2919,37.0736]}},{"properties":{"CITY":"NASHWAUK","LONDD":93.0156,"CALLSIGN":"WNMT","STATE":"MN","FACID":73173.0,"MarketSt":"Hibbing, MN","LICENSEE":"MIDWEST COMMUNICATIONS, INC.","id":"a626i2q3szni","LATDD":47.3753,"FREQUENCY":"650   kHz"},"type":"Feature","geometry":{"type":"Point","coordinates":[-93.0156,47.3753]}},{"properties":{"CITY":"NAPLES","LONDD":81.6758,"CALLSIGN":"WNOG","STATE":"FL","FACID":51333.0,"MarketSt":"Naples, FL","LICENSEE":"MERIDIAN BROADCASTING, INC.","id":"a626i2unbtdv","LATDD":26.2572,"FREQUENCY":"1270  kHz"},"type":"Feature","geometry":{"type":"Point","coordinates":[-81.6758,26.2572]}},{"properties":{"CITY":"JOHNSTOWN","LONDD":78.8889,"CALLSIGN":"WNTJ","STATE":"PA","FACID":72964.0,"MarketSt":"Johnstown, PA","LICENSEE":"FOREVER BROADCASTING, LLC","id":"a626i2xztpqu","LATDD":40.1817,"FREQUENCY":"850   kHz"},"type":"Feature","geometry":{"type":"Point","coordinates":[-78.8889,40.1817]}},{"properties":{"CITY":"MOBILE","LONDD":88.0594,"CALLSIGN":"WNTM","STATE":"AL","FACID":8695.0,"MarketSt":"Mobile, AL","LICENSEE":"CC LICENSES, LLC","id":"a626i2u5cfub","LATDD":30.7203,"FREQUENCY":"710   kHz"},"type":"Feature","geometry":{"type":"Point","coordinates":[-88.0594,30.7203]}},{"properties":{"CITY":"MOBILE","LONDD":88.0594,"CALLSIGN":"WNTM","STATE":"AL","FACID":8695.0,"MarketSt":"Mobile, AL","LICENSEE":"CC LICENSES, LLC","id":"a626i2xllllc","LATDD":30.7203,"FREQUENCY":"710   kHz"},"type":"Feature","geometry":{"type":"Point","coordinates":[-88.0594,30.7203]}},{"properties":{"CITY":"SAN ANTONIO","LONDD":98.1286,"CALLSIGN":"WOAI","STATE":"TX","FACID":11952.0,"MarketSt":"San Antonio, TX","LICENSEE":"CCB TEXAS LICENSES, L.P.","id":"a626i2val8v8","LATDD":29.5019,"FREQUENCY":"1200  kHz"},"type":"Feature","geometry":{"type":"Point","coordinates":[-98.1286,29.5019]}},{"properties":{"CITY":"DAVENPORT","LONDD":90.4769,"CALLSIGN":"WOC","STATE":"IA","FACID":60360.0,"MarketSt":"Davenport, IA","LICENSEE":"CITICASTERS LICENSES, L.P.","id":"a626i2scxf40","LATDD":41.55,"FREQUENCY":"1420  kHz"},"type":"Feature","geometry":{"type":"Point","coordinates":[-90.4769,41.55]}},{"properties":{"CITY":"OCALA","LONDD":82.1519,"CALLSIGN":"WOCA","STATE":"FL","FACID":57064.0,"MarketSt":"Ocala, FL","LICENSEE":"WESTSHORE BROADCASTING, INC.","id":"a626i2prxqel","LATDD":29.2011,"FREQUENCY":"1370  kHz"},"type":"Feature","geometry":{"type":"Point","coordinates":[-82.1519,29.2011]}},{"properties":{"CITY":"JACKSONVILLE","LONDD":81.9397,"CALLSIGN":"WOKV","STATE":"FL","FACID":53601.0,"MarketSt":"Jacksonville, FL","LICENSEE":"COX RADIO, INC.","id":"a626i2pj6zgv","LATDD":30.3078,"FREQUENCY":"690   kHz"},"type":"Feature","geometry":{"type":"Point","coordinates":[-81.9397,30.3078]}},{"properties":{"CITY":"JACKSONVILLE","LONDD":81.7,"CALLSIGN":"WOKV","STATE":"FL","FACID":53601.0,"MarketSt":"Jacksonville, FL","LICENSEE":"COX RADIO, INC.","id":"a626i2zdb93i","LATDD":30.1322,"FREQUENCY":"690   kHz"},"type":"Feature","geometry":{"type":"Point","coordinates":[-81.7,30.1322]}},{"properties":{"CITY":"OWENSBORO","LONDD":87.1161,"CALLSIGN":"WOMI","STATE":"KY","FACID":67777.0,"MarketSt":"Owenboro, KY","LICENSEE":"REGENT BROADCASTING OF EVANSVILLE/OWENSBORO, INC.","id":"a626i2rla9kr","LATDD":37.7414,"FREQUENCY":"1490  kHz"},"type":"Feature","geometry":{"type":"Point","coordinates":[-87.1161,37.7414]}},{"properties":{"CITY":"BELLAIRE","LONDD":80.7711,"CALLSIGN":"WOMP","STATE":"OH","FACID":3038.0,"MarketSt":"Wheeling, WV","LICENSEE":"KEYMARKET LICENSES, LLC","id":"a626i2up9nze","LATDD":40.0358,"FREQUENCY":"1290  kHz"},"type":"Feature","geometry":{"type":"Point","coordinates":[-80.7711,40.0358]}},{"properties":{"CITY":"PLEASANTVILLE","LONDD":74.5125,"CALLSIGN":"WOND","STATE":"NJ","FACID":61102.0,"MarketSt":"Pleasantville, NJ","LICENSEE":"ACCESS.1 NEW JERSEY LICENSE COMPANY","id":"a626i2wg9mot","LATDD":39.39,"FREQUENCY":"1400  kHz"},"type":"Feature","geometry":{"type":"Point","coordinates":[-74.5125,39.39]}},{"properties":{"CITY":"DEFIANCE","LONDD":84.3972,"CALLSIGN":"WONW","STATE":"OH","FACID":40710.0,"MarketSt":"Defiance, OH","LICENSEE":"CC LICENSES, LLC","id":"a626i2sjm17w","LATDD":41.2789,"FREQUENCY":"1280  kHz"},"type":"Feature","geometry":{"type":"Point","coordinates":[-84.3972,41.2789]}},{"properties":{"CITY":"GRAND RAPIDS","LONDD":85.6567,"CALLSIGN":"WOOD","STATE":"MI","FACID":73604.0,"MarketSt":"Grand Rapids, MI","LICENSEE":"CC LICENSES, LLC","id":"a626i310vmw6","LATDD":42.7561,"FREQUENCY":"1300  kHz"},"type":"Feature","geometry":{"type":"Point","coordinates":[-85.6567,42.7561]}},{"properties":{"CITY":"SPARTANBURG","LONDD":81.9872,"CALLSIGN":"WORD","STATE":"SC","FACID":66390.0,"MarketSt":"Spartanburg, SC","LICENSEE":"ENTERCOM GREENVILLE LICENSE, LLC","id":"a626i2z0syvw","LATDD":34.9814,"FREQUENCY":"950   kHz"},"type":"Feature","geometry":{"type":"Point","coordinates":[-81.9872,34.9814]}},{"properties":{"CITY":"OSHKOSH","LONDD":88.5289,"CALLSIGN":"WOSH","STATE":"WI","FACID":69780.0,"MarketSt":"Oshkosh, WI","LICENSEE":"CUMULUS LICENSING LLC","id":"a626i2x21fv5","LATDD":44.0461,"FREQUENCY":"1490  kHz"},"type":"Feature","geometry":{"type":"Point","coordinates":[-88.5289,44.0461]}},{"properties":{"CITY":"FORT WAYNE","LONDD":85.3517,"CALLSIGN":"WOWO","STATE":"IN","FACID":28205.0,"MarketSt":"Fort Wayne, IN","LICENSEE":"PATHFINDER COMMUNICATIONS CORPORATION","id":"a626i2o5wxof","LATDD":40.9964,"FREQUENCY":"1190  kHz"},"type":"Feature","geometry":{"type":"Point","coordinates":[-85.3517,40.9964]}},{"properties":{"CITY":"OIL CITY","LONDD":79.7147,"CALLSIGN":"WOYL","STATE":"PA","FACID":21420.0,"MarketSt":"Oil City, PA","LICENSEE":"FOREVER BROADCASTING, LLC","id":"a626i2ud9ba8","LATDD":41.4178,"FREQUENCY":"1340  kHz"},"type":"Feature","geometry":{"type":"Point","coordinates":[-79.7147,41.4178]}},{"properties":{"CITY":"POTTSVILLE","LONDD":76.1953,"CALLSIGN":"WPPA","STATE":"PA","FACID":53134.0,"MarketSt":"Pottsville, PA","LICENSEE":"POTTSVILLE BROADCASTING CO.","id":"a626i2sp48ug","LATDD":40.6989,"FREQUENCY":"1360  kHz"},"type":"Feature","geometry":{"type":"Point","coordinates":[-76.1953,40.6989]}},{"properties":{"CITY":"PROVIDENCE","LONDD":71.3231,"CALLSIGN":"WPRO","STATE":"RI","FACID":64843.0,"MarketSt":"Providence, RI","LICENSEE":"CITADEL BROADCASTING COMPANY","id":"a626i2wmaqr8","LATDD":41.7744,"FREQUENCY":"630   kHz"},"type":"Feature","geometry":{"type":"Point","coordinates":[-71.3231,41.7744]}},{"properties":{"CITY":"RALEIGH","LONDD":78.7614,"CALLSIGN":"WPTF","STATE":"NC","FACID":21630.0,"MarketSt":"Raleigh-Durham, NC","LICENSEE":"FIRST STATE COMMUNICATIONS","id":"a626i2wij1k8","LATDD":35.7939,"FREQUENCY":"680   kHz"},"type":"Feature","geometry":{"type":"Point","coordinates":[-78.7614,35.7939]}},{"properties":{"CITY":"RALEIGH","LONDD":78.7614,"CALLSIGN":"WPTF","STATE":"NC","FACID":21630.0,"MarketSt":"Raleigh-Durham, NC","LICENSEE":"FIRST STATE COMMUNICATIONS","id":"a626i30wo4bw","LATDD":35.7939,"FREQUENCY":"680   kHz"},"type":"Feature","geometry":{"type":"Point","coordinates":[-78.7614,35.7939]}},{"properties":{"CITY":"COOKEVILLE","LONDD":85.5208,"CALLSIGN":"WPTN","STATE":"TN","FACID":13820.0,"MarketSt":"Cookeville, TN","LICENSEE":"CC LICENSES, LLC","id":"a626i2uhp38w","LATDD":36.1583,"FREQUENCY":"780   kHz"},"type":"Feature","geometry":{"type":"Point","coordinates":[-85.5208,36.1583]}},{"properties":{"CITY":"VICKSBURG","LONDD":90.85,"CALLSIGN":"WQBC","STATE":"MS","FACID":60000.0,"MarketSt":"Vicksburg, MS","LICENSEE":"GRACE MEDIA INTERNATIONAL, LLC","id":"a626i33loyiq","LATDD":32.3322,"FREQUENCY":"1420  kHz"},"type":"Feature","geometry":{"type":"Point","coordinates":[-90.85,32.3322]}},{"properties":{"CITY":"CARROLLTON","LONDD":88.0967,"CALLSIGN":"WRAG","STATE":"AL","FACID":70262.0,"MarketSt":"Carrollton, AL","LICENSEE":"KINGDOM RADIO OF CHATTANOOGA, LLC","id":"a626i315jkny","LATDD":33.2178,"FREQUENCY":"590   kHz"},"type":"Feature","geometry":{"type":"Point","coordinates":[-88.0967,33.2178]}},{"properties":{"CITY":"TAPPAHANNOCK","LONDD":76.7269,"CALLSIGN":"WRAR","STATE":"VA","FACID":55170.0,"MarketSt":"Tappahannock, VA","LICENSEE":"A.C.T.I.O.N., INCORPORATED","id":"a626i2w9uwty","LATDD":37.8742,"FREQUENCY":"1000  kHz"},"type":"Feature","geometry":{"type":"Point","coordinates":[-76.7269,37.8742]}},{"properties":{"CITY":"COLUMBUS","LONDD":85.0467,"CALLSIGN":"WRCG","STATE":"GA","FACID":72090.0,"MarketSt":"Columbus, GA","LICENSEE":"ABG GEORGIA LICENSES, LLC","id":"a626i2qvup3w","LATDD":32.4978,"FREQUENCY":"1420  kHz"},"type":"Feature","geometry":{"type":"Point","coordinates":[-85.0467,32.4978]}},{"properties":{"CITY":"MEMPHIS","LONDD":90.0086,"CALLSIGN":"WREC","STATE":"TN","FACID":58396.0,"MarketSt":"Memphis, TN","LICENSEE":"CC LICENSES, LLC","id":"a626i2x15l0z","LATDD":35.1975,"FREQUENCY":"600   kHz"},"type":"Feature","geometry":{"type":"Point","coordinates":[-90.0086,35.1975]}},{"properties":{"CITY":"MEMPHIS","LONDD":90.0086,"CALLSIGN":"WREC","STATE":"TN","FACID":58396.0,"MarketSt":"Memphis, TN","LICENSEE":"CC LICENSES, LLC","id":"a626i2svplq5","LATDD":35.1975,"FREQUENCY":"600   kHz"},"type":"Feature","geometry":{"type":"Point","coordinates":[-90.0086,35.1975]}},{"properties":{"CITY":"LEXINGTON","LONDD":79.4322,"CALLSIGN":"WREL","STATE":"VA","FACID":19671.0,"MarketSt":"Lexington, VA","LICENSEE":"FIRST MEDIA RADIO, LLC","id":"a626i2to7iu4","LATDD":37.7667,"FREQUENCY":"1450  kHz"},"type":"Feature","geometry":{"type":"Point","coordinates":[-79.4322,37.7667]}},{"properties":{"CITY":"MAUSTON","LONDD":90.0808,"CALLSIGN":"WRJC","STATE":"WI","FACID":73957.0,"MarketSt":"Mauston, WI","LICENSEE":"WRJC BROADCASTING COMPANY","id":"a626i343vmkk","LATDD":43.8311,"FREQUENCY":"1270  kHz"},"type":"Feature","geometry":{"type":"Point","coordinates":[-90.0808,43.8311]}},{"properties":{"CITY":"BOSTON","LONDD":71.2181,"CALLSIGN":"WRKO","STATE":"MA","FACID":1902.0,"MarketSt":"Boston, MA","LICENSEE":"ENTERCOM BOSTON LICENSE, LLC","id":"a626i326pxao","LATDD":42.4903,"FREQUENCY":"680   kHz"},"type":"Feature","geometry":{"type":"Point","coordinates":[-71.2181,42.4903]}},{"properties":{"CITY":"ROCKFORD","LONDD":89.0378,"CALLSIGN":"WROK","STATE":"IL","FACID":48987.0,"MarketSt":"Rockford, IL","LICENSEE":"CUMULUS LICENSING LLC","id":"a626i2yfuxwv","LATDD":42.2806,"FREQUENCY":"1440  kHz"},"type":"Feature","geometry":{"type":"Point","coordinates":[-89.0378,42.2806]}},{"properties":{"CITY":"RONCEVERTE","LONDD":80.455,"CALLSIGN":"WRON","STATE":"WV","FACID":54596.0,"MarketSt":"Lewisburg, WV","LICENSEE":"MICHAEL J. KIDD DBA GREENBRIER RADIO","id":"a626i2ylnoyd","LATDD":37.76,"FREQUENCY":"1400  kHz"},"type":"Feature","geometry":{"type":"Point","coordinates":[-80.455,37.76]}},{"properties":{"CITY":"CLARKSDALE","LONDD":90.5783,"CALLSIGN":"WROX","STATE":"MS","FACID":11611.0,"MarketSt":"Clarksdale, MS","LICENSEE":"DELTA RADIO LLC","id":"a626i2unkomo","LATDD":34.2111,"FREQUENCY":"1450  kHz"},"type":"Feature","geometry":{"type":"Point","coordinates":[-90.5783,34.2111]}},{"properties":{"CITY":"RUSSELLVILLE","LONDD":86.9225,"CALLSIGN":"WRUS","STATE":"KY","FACID":73971.0,"MarketSt":"Russellville, KY","LICENSEE":"LOGAN RADIO INCORPORATED","id":"a626i2vttzii","LATDD":36.8444,"FREQUENCY":"610   kHz"},"type":"Feature","geometry":{"type":"Point","coordinates":[-86.9225,36.8444]}},{"properties":{"CITY":"RICHMOND","LONDD":77.3164,"CALLSIGN":"WRVA","STATE":"VA","FACID":11914.0,"MarketSt":"Richmond, VA","LICENSEE":"CC LICENSES, LLC","id":"a626i2sgbhup","LATDD":37.4036,"FREQUENCY":"1140  kHz"},"type":"Feature","geometry":{"type":"Point","coordinates":[-77.3164,37.4036]}},{"properties":{"CITY":"LOGANSPORT","LONDD":86.3111,"CALLSIGN":"WSAL","STATE":"IN","FACID":38277.0,"MarketSt":"Logansport, IN","LICENSEE":"LOGANSPORT RADIO CORP","id":"a626i2tt91o6","LATDD":40.7544,"FREQUENCY":"1230  kHz"},"type":"Feature","geometry":{"type":"Point","coordinates":[-86.3111,40.7544]}},{"properties":{"CITY":"YORK","LONDD":76.745,"CALLSIGN":"WSBA","STATE":"PA","FACID":73979.0,"MarketSt":"York, PA","LICENSEE":"WSBA LICO, INC.","id":"a626i2uyg3qq","LATDD":39.9981,"FREQUENCY":"910   kHz"},"type":"Feature","geometry":{"type":"Point","coordinates":[-76.745,39.9981]}},{"properties":{"CITY":"SOUTH BEND","LONDD":86.2169,"CALLSIGN":"WSBT","STATE":"IN","FACID":73985.0,"MarketSt":"South Bend, IN","LICENSEE":"WSBT, INC.","id":"a626i33eogzt","LATDD":41.6167,"FREQUENCY":"960   kHz"},"type":"Feature","geometry":{"type":"Point","coordinates":[-86.2169,41.6167]}},{"properties":{"CITY":"STERLING","LONDD":89.6703,"CALLSIGN":"WSDR","STATE":"IL","FACID":37207.0,"MarketSt":"Sterling, IL","LICENSEE":"WITHERS BROADCASTING COMPANY OF ROCK RIVER, LLC","id":"a626i2zv80rv","LATDD":41.8164,"FREQUENCY":"1240  kHz"},"type":"Feature","geometry":{"type":"Point","coordinates":[-89.6703,41.8164]}},{"properties":{"CITY":"SOMERSET","LONDD":84.6122,"CALLSIGN":"WSFC","STATE":"KY","FACID":21626.0,"MarketSt":"Somerset, KY","LICENSEE":"CAPSTAR TX LIMITED PARTNERSHIP","id":"a626i2p4d4ws","LATDD":37.1183,"FREQUENCY":"1240  kHz"},"type":"Feature","geometry":{"type":"Point","coordinates":[-84.6122,37.1183]}},{"properties":{"CITY":"SAGINAW","LONDD":83.8133,"CALLSIGN":"WSGW","STATE":"MI","FACID":22674.0,"MarketSt":"Saginaw, MI","LICENSEE":"NM LICENSING LLC","id":"a626i2xakdar","LATDD":43.4611,"FREQUENCY":"790   kHz"},"type":"Feature","geometry":{"type":"Point","coordinates":[-83.8133,43.4611]}},{"properties":{"CITY":"STATESVILLE","LONDD":80.8917,"CALLSIGN":"WSIC","STATE":"NC","FACID":503.0,"MarketSt":"Statesville, NC","LICENSEE":"IREDELL BROADCASTING, INC.","id":"a626i2vbgkhx","LATDD":35.8025,"FREQUENCY":"1400  kHz"},"type":"Feature","geometry":{"type":"Point","coordinates":[-80.8917,35.8025]}},{"properties":{"CITY":"ST. JOSEPH","LONDD":86.4444,"CALLSIGN":"WSJM","STATE":"MI","FACID":74004.0,"MarketSt":"Benton Harbor, MI","LICENSEE":"WSJM, INC.","id":"a626i2u8gpk7","LATDD":42.0867,"FREQUENCY":"1400  kHz"},"type":"Feature","geometry":{"type":"Point","coordinates":[-86.4444,42.0867]}},{"properties":{"CITY":"WINSTON-SALEM","LONDD":80.3572,"CALLSIGN":"WSJS","STATE":"NC","FACID":58391.0,"MarketSt":"Greenboro, NC","LICENSEE":"CRESCENT MEDIA GROUP LLC","id":"a626i3477opc","LATDD":36.1167,"FREQUENCY":"600   kHz"},"type":"Feature","geometry":{"type":"Point","coordinates":[-80.3572,36.1167]}},{"properties":{"CITY":"ASHEVILLE","LONDD":82.5658,"CALLSIGN":"WSKY","STATE":"NC","FACID":56521.0,"MarketSt":"Gainesville, FL","LICENSEE":"MACON MEDIA, INC.","id":"a626i2xww1jx","LATDD":35.5953,"FREQUENCY":"1230  kHz"},"type":"Feature","geometry":{"type":"Point","coordinates":[-82.5658,35.5953]}},{"properties":{"CITY":"DECATUR","LONDD":88.9422,"CALLSIGN":"WSOY","STATE":"IL","FACID":36945.0,"MarketSt":"Decatur, IL","LICENSEE":"ABG ILLINOIS LICENSES, LLC","id":"a626i2rrmdjj","LATDD":39.8781,"FREQUENCY":"1340  kHz"},"type":"Feature","geometry":{"type":"Point","coordinates":[-88.9422,39.8781]}},{"properties":{"CITY":"TOLEDO","LONDD":83.5364,"CALLSIGN":"WSPD","STATE":"OH","FACID":62187.0,"MarketSt":"Toledo, OH","LICENSEE":"CITICASTERS LICENSES, L.P.","id":"a626i2vm64t4","LATDD":41.6008,"FREQUENCY":"1370  kHz"},"type":"Feature","geometry":{"type":"Point","coordinates":[-83.5364,41.6008]}},{"properties":{"CITY":"STEVENS POINT","LONDD":89.5953,"CALLSIGN":"WSPT","STATE":"WI","FACID":2106.0,"MarketSt":"Stevens Point, WI","LICENSEE":"AMERICUS COMMUNICATIONS, LLC.","id":"a626i2zavnve","LATDD":44.5381,"FREQUENCY":"1010  kHz"},"type":"Feature","geometry":{"type":"Point","coordinates":[-89.5953,44.5381]}},{"properties":{"CITY":"BREVARD","LONDD":82.7056,"CALLSIGN":"WSQL","STATE":"NC","FACID":54616.0,"MarketSt":"Brevard, NC","LICENSEE":"A &amp; L BROADCASTING, INC.","id":"a626i2y7ung7","LATDD":35.2231,"FREQUENCY":"1240  kHz"},"type":"Feature","geometry":{"type":"Point","coordinates":[-82.7056,35.2231]}},{"properties":{"CITY":"THOMASVILLE","LONDD":84.1389,"CALLSIGN":"WSTT","STATE":"GA","FACID":39735.0,"MarketSt":"Thomasville, FL","LICENSEE":"MARION R. WILLIAMS","id":"a626i32ur1z3","LATDD":30.7131,"FREQUENCY":"730   kHz"},"type":"Feature","geometry":{"type":"Point","coordinates":[-84.1389,30.7131]}},{"properties":{"CITY":"STEUBENVILLE","LONDD":80.6189,"CALLSIGN":"WSTV","STATE":"OH","FACID":65407.0,"MarketSt":"Steubenville, OH","LICENSEE":"KEYMARKET LICENSES, LLC","id":"a626i2t0u6gc","LATDD":40.3417,"FREQUENCY":"1340  kHz"},"type":"Feature","geometry":{"type":"Point","coordinates":[-80.6189,40.3417]}},{"properties":{"CITY":"GROTON","LONDD":72.0703,"CALLSIGN":"WSUB","STATE":"CT","FACID":10454.0,"MarketSt":"Groton, CT","LICENSEE":"CITADEL BROADCASTING COMPANY","id":"a626i31caa4h","LATDD":41.3847,"FREQUENCY":"980   kHz"},"type":"Feature","geometry":{"type":"Point","coordinates":[-72.0703,41.3847]}},{"properties":{"CITY":"HARRISONBURG","LONDD":78.9081,"CALLSIGN":"WSVA","STATE":"VA","FACID":39493.0,"MarketSt":"Harrisonburg, VA","LICENSEE":"M. BELMONT VERSTANDIG, INC.","id":"a626i2q7c9d9","LATDD":38.4511,"FREQUENCY":"550   kHz"},"type":"Feature","geometry":{"type":"Point","coordinates":[-78.9081,38.4511]}},{"properties":{"CITY":"SYRACUSE","LONDD":76.1525,"CALLSIGN":"WSYR","STATE":"NY","FACID":48720.0,"MarketSt":"Syracuse, NY","LICENSEE":"CC LICENSES, LLC","id":"a626i2plu7cg","LATDD":42.9869,"FREQUENCY":"570   kHz"},"type":"Feature","geometry":{"type":"Point","coordinates":[-76.1525,42.9869]}},{"properties":{"CITY":"WORCESTER","LONDD":71.8208,"CALLSIGN":"WTAG","STATE":"MA","FACID":35230.0,"MarketSt":"Worcester, MA","LICENSEE":"CAPSTAR TX LIMITED PARTNERSHIP","id":"a626i341ri18","LATDD":42.3369,"FREQUENCY":"580   kHz"},"type":"Feature","geometry":{"type":"Point","coordinates":[-71.8208,42.3369]}},{"properties":{"CITY":"TALLAHASSEE","LONDD":84.2453,"CALLSIGN":"WTAL","STATE":"FL","FACID":55330.0,"MarketSt":"Tallahassee, FL","LICENSEE":"LIVE COMMUNICATIONS, INC.","id":"a626i2v9xt2p","LATDD":30.4272,"FREQUENCY":"1450  kHz"},"type":"Feature","geometry":{"type":"Point","coordinates":[-84.2453,30.4272]}},{"properties":{"CITY":"CLEVELAND","LONDD":81.6228,"CALLSIGN":"WTAM","STATE":"OH","FACID":59595.0,"MarketSt":"Cleveland, OH","LICENSEE":"JACOR BROADCASTING CORPORATION","id":"a626i303cpqu","LATDD":41.2806,"FREQUENCY":"1100  kHz"},"type":"Feature","geometry":{"type":"Point","coordinates":[-81.6228,41.2806]}},{"properties":{"CITY":"COLLEGE STATION","LONDD":96.2544,"CALLSIGN":"WTAW","STATE":"TX","FACID":87145.0,"MarketSt":"College Station, TX","LICENSEE":"BRYAN BROADCASTING CORPORATION","id":"a626i3145bxh","LATDD":30.6208,"FREQUENCY":"1620  kHz"},"type":"Feature","geometry":{"type":"Point","coordinates":[-96.2544,30.6208]}},{"properties":{"CITY":"SPRINGFIELD","LONDD":89.605,"CALLSIGN":"WTAX","STATE":"IL","FACID":9961.0,"MarketSt":"Springfield, IL","LICENSEE":"SAGA COMMUNICATIONS OF ILLINOIS, LLC","id":"a626i2pmzlfn","LATDD":39.7933,"FREQUENCY":"1240  kHz"},"type":"Feature","geometry":{"type":"Point","coordinates":[-89.605,39.7933]}},{"properties":{"CITY":"TROY","LONDD":85.9328,"CALLSIGN":"WTBF","STATE":"AL","FACID":68179.0,"MarketSt":"Troy, AL","LICENSEE":"TROY BROADCASTING CORP.","id":"a626i2tld435","LATDD":31.8353,"FREQUENCY":"970   kHz"},"type":"Feature","geometry":{"type":"Point","coordinates":[-85.9328,31.8353]}},{"properties":{"CITY":"TRAVERSE CITY","LONDD":85.705,"CALLSIGN":"WTCM","STATE":"MI","FACID":70524.0,"MarketSt":"Traverse City, MI","LICENSEE":"WTCM RADIO, INC.","id":"a626i311rmf0","LATDD":44.7217,"FREQUENCY":"580   kHz"},"type":"Feature","geometry":{"type":"Point","coordinates":[-85.705,44.7217]}},{"properties":{"CITY":"CAMPBELLSVILLE","LONDD":85.3758,"CALLSIGN":"WTCO","STATE":"KY","FACID":26641.0,"MarketSt":"Campbellsville, KY","LICENSEE":"CBC OF MARION &amp; TAYLOR COUNTIES INC","id":"a626i2zcr28x","LATDD":37.3353,"FREQUENCY":"1450  kHz"},"type":"Feature","geometry":{"type":"Point","coordinates":[-85.3758,37.3353]}},{"properties":{"CITY":"MADISON","LONDD":89.3961,"CALLSIGN":"WTDY","STATE":"WI","FACID":87154.0,"MarketSt":"Madison, WI","LICENSEE":"MID-WEST MANAGEMENT, INC.","id":"a626i2qo6c2e","LATDD":43.0253,"FREQUENCY":"1670  kHz"},"type":"Feature","geometry":{"type":"Point","coordinates":[-89.3961,43.0253]}},{"properties":{"CITY":"HARTFORD","LONDD":72.8053,"CALLSIGN":"WTIC","STATE":"CT","FACID":66464.0,"MarketSt":"Hartford, CT","LICENSEE":"CBS RADIO STATIONS INC.","id":"a626i2uykzle","LATDD":41.7775,"FREQUENCY":"1080  kHz"},"type":"Feature","geometry":{"type":"Point","coordinates":[-72.8053,41.7775]}},{"properties":{"CITY":"TIFTON","LONDD":83.4867,"CALLSIGN":"WTIF","STATE":"GA","FACID":67097.0,"MarketSt":"Tifton, GA","LICENSEE":"THREE TREES COMMUNICATIONS, INC.","id":"a626i2zt17ij","LATDD":31.4711,"FREQUENCY":"1340  kHz"},"type":"Feature","geometry":{"type":"Point","coordinates":[-83.4867,31.4711]}},{"properties":{"CITY":"MANISTIQUE","LONDD":86.2769,"CALLSIGN":"WTIQ","STATE":"MI","FACID":73992.0,"MarketSt":"Manistique, MI","LICENSEE":"LAKES RADIO, INC.","id":"a626i2oy1iwt","LATDD":45.9642,"FREQUENCY":"1490  kHz"},"type":"Feature","geometry":{"type":"Point","coordinates":[-86.2769,45.9642]}},{"properties":{"CITY":"JACKSON","LONDD":88.8333,"CALLSIGN":"WTJS","STATE":"TN","FACID":14742.0,"MarketSt":"Jackson, TN","LICENSEE":"FOREVER SOUTH","id":"a626i2zaao34","LATDD":35.6472,"FREQUENCY":"1390  kHz"},"type":"Feature","geometry":{"type":"Point","coordinates":[-88.8333,35.6472]}},{"properties":{"CITY":"JACKSON","LONDD":88.8325,"CALLSIGN":"WTJS","STATE":"TN","FACID":14742.0,"MarketSt":"Jackson, TN","LICENSEE":"FOREVER SOUTH","id":"a626i2v4atcl","LATDD":35.6461,"FREQUENCY":"1390  kHz"},"type":"Feature","geometry":{"type":"Point","coordinates":[-88.8325,35.6461]}},{"properties":{"CITY":"WATERTOWN","LONDD":75.9483,"CALLSIGN":"WTNY","STATE":"NY","FACID":154.0,"MarketSt":"Watertown, NY","LICENSEE":"REGENT LICENSEE OF WATERTOWN, INC.","id":"a626i2ya55mg","LATDD":43.9456,"FREQUENCY":"790   kHz"},"type":"Feature","geometry":{"type":"Point","coordinates":[-75.9483,43.9456]}},{"properties":{"CITY":"DYERSBURG","LONDD":89.3686,"CALLSIGN":"WTRO","STATE":"TN","FACID":57203.0,"MarketSt":"Dyersburg, TN","LICENSEE":"DR PEPPER/PEPSI COLA BTL. CO. INC. OF DYERSBURG, TN","id":"a626i322a7nx","LATDD":36.0506,"FREQUENCY":"1450  kHz"},"type":"Feature","geometry":{"type":"Point","coordinates":[-89.3686,36.0506]}},{"properties":{"CITY":"LA GRANGE","LONDD":85.0278,"CALLSIGN":"WTRP","STATE":"GA","FACID":66959.0,"MarketSt":"LaGrange, GA","LICENSEE":"TIGER COMMUNICATIONS, INC.","id":"a626i2wf9fhd","LATDD":33.0592,"FREQUENCY":"620   kHz"},"type":"Feature","geometry":{"type":"Point","coordinates":[-85.0278,33.0592]}},{"properties":{"CITY":"MADISONVILLE","LONDD":87.5447,"CALLSIGN":"WTTL","STATE":"KY","FACID":13799.0,"MarketSt":"Madisonville, KY","LICENSEE":"MADISONVILLE CBC, INC.","id":"a626i2pfw5fl","LATDD":37.3367,"FREQUENCY":"1310  kHz"},"type":"Feature","geometry":{"type":"Point","coordinates":[-87.5447,37.3367]}},{"properties":{"CITY":"MADISONVILLE","LONDD":87.5447,"CALLSIGN":"WTTL","STATE":"KY","FACID":13799.0,"MarketSt":"Madisonville, KY","LICENSEE":"MADISONVILLE CBC, INC.","id":"a626i31r6svu","LATDD":37.3367,"FREQUENCY":"1310  kHz"},"type":"Feature","geometry":{"type":"Point","coordinates":[-87.5447,37.3367]}},{"properties":{"CITY":"COLUMBUS","LONDD":82.9767,"CALLSIGN":"WTVN","STATE":"OH","FACID":11269.0,"MarketSt":"Columbus, OH","LICENSEE":"CITICASTERS LICENSES, L.P.","id":"a626i2wnuauq","LATDD":39.8739,"FREQUENCY":"610   kHz"},"type":"Feature","geometry":{"type":"Point","coordinates":[-82.9767,39.8739]}},{"properties":{"CITY":"WHITEVILLE","LONDD":78.7131,"CALLSIGN":"WTXY","STATE":"NC","FACID":62232.0,"MarketSt":"Whiteville, NC","LICENSEE":"MILLIKEN BROADCASTING, LLC","id":"a626i2swm2il","LATDD":34.3231,"FREQUENCY":"1540  kHz"},"type":"Feature","geometry":{"type":"Point","coordinates":[-78.7131,34.3231]}},{"properties":{"CITY":"CHARLOTTESVILLE","LONDD":78.47,"CALLSIGN":"WVAX","STATE":"VA","FACID":161156.0,"MarketSt":"Lincoln, IL","LICENSEE":"SAGA COMMUNICATIONS OF CHARLOTTESVILLE, LLC","id":"a626i2xtyskw","LATDD":38.0483,"FREQUENCY":"1450  kHz"},"type":"Feature","geometry":{"type":"Point","coordinates":[-78.47,38.0483]}},{"properties":{"CITY":"TUSCUMBIA","LONDD":87.6861,"CALLSIGN":"WVNA","STATE":"AL","FACID":19457.0,"MarketSt":"Tuscumbia, AL","LICENSEE":"URBAN RADIO LICENSES, LLC","id":"a626i2vjxg9p","LATDD":34.7567,"FREQUENCY":"1590  kHz"},"type":"Feature","geometry":{"type":"Point","coordinates":[-87.6861,34.7567]}},{"properties":{"CITY":"ATHENS","LONDD":86.7986,"CALLSIGN":"WVNN","STATE":"AL","FACID":3084.0,"MarketSt":"Athens, AL","LICENSEE":"CUMULUS LICENSING LLC","id":"a626i303n018","LATDD":34.7497,"FREQUENCY":"770   kHz"},"type":"Feature","geometry":{"type":"Point","coordinates":[-86.7986,34.7497]}},{"properties":{"CITY":"ATHENS","LONDD":86.9289,"CALLSIGN":"WVNN","STATE":"AL","FACID":3084.0,"MarketSt":"Athens, AL","LICENSEE":"CUMULUS LICENSING LLC","id":"a626i2quilbp","LATDD":34.8392,"FREQUENCY":"770   kHz"},"type":"Feature","geometry":{"type":"Point","coordinates":[-86.9289,34.8392]}},{"properties":{"CITY":"COLUMBIA","LONDD":81.1422,"CALLSIGN":"WVOC","STATE":"SC","FACID":11902.0,"MarketSt":"Columbia, SC","LICENSEE":"CAPSTAR TX LIMITED PARTNERSHIP","id":"a626i2rulogu","LATDD":34.0333,"FREQUENCY":"560   kHz"},"type":"Feature","geometry":{"type":"Point","coordinates":[-81.1422,34.0333]}},{"properties":{"CITY":"LOGAN","LONDD":81.9711,"CALLSIGN":"WVOW","STATE":"WV","FACID":38268.0,"MarketSt":"Logan, WV","LICENSEE":"LOGAN BROADCASTING CORPORATION","id":"a626i2p5if92","LATDD":37.8578,"FREQUENCY":"1290  kHz"},"type":"Feature","geometry":{"type":"Point","coordinates":[-81.9711,37.8578]}},{"properties":{"CITY":"BLACK RIVER FALLS","LONDD":90.8919,"CALLSIGN":"WWIS","STATE":"WI","FACID":74188.0,"MarketSt":"Black River Falls, WI","LICENSEE":"WWIS RADIO, INC.","id":"a626i2xckg7h","LATDD":44.3197,"FREQUENCY":"1260  kHz"},"type":"Feature","geometry":{"type":"Point","coordinates":[-90.8919,44.3197]}},{"properties":{"CITY":"NEW ORLEANS","LONDD":90.1319,"CALLSIGN":"WWL","STATE":"LA","FACID":34377.0,"MarketSt":"New Orleans, LA","LICENSEE":"ENTERCOM NEW ORLEANS LICENSE, LLC","id":"a626i2t4vfoo","LATDD":29.8372,"FREQUENCY":"870   kHz"},"type":"Feature","geometry":{"type":"Point","coordinates":[-90.1319,29.8372]}},{"properties":{"CITY":"BECKLEY","LONDD":81.2367,"CALLSIGN":"WWNR","STATE":"WV","FACID":40501.0,"MarketSt":"Beckley, WV","LICENSEE":"SOUTHERN COMMUNICATIONS CORPORATION","id":"a626i2odq4ot","LATDD":37.755,"FREQUENCY":"620   kHz"},"type":"Feature","geometry":{"type":"Point","coordinates":[-81.2367,37.755]}},{"properties":{"CITY":"STATESBORO","LONDD":81.7744,"CALLSIGN":"WWNS","STATE":"GA","FACID":54804.0,"MarketSt":"Stateboro, GA","LICENSEE":"GEORGIA EAGLE BROADCASTING, INC.","id":"a626i31ojl5l","LATDD":32.4553,"FREQUENCY":"1240  kHz"},"type":"Feature","geometry":{"type":"Point","coordinates":[-81.7744,32.4553]}},{"properties":{"CITY":"DOTHAN","LONDD":85.3706,"CALLSIGN":"WWNT","STATE":"AL","FACID":17461.0,"MarketSt":"Dothan, AL","LICENSEE":"DOVE BROADCASTING, INC.","id":"a626i2yw2gci","LATDD":31.2194,"FREQUENCY":"1450  kHz"},"type":"Feature","geometry":{"type":"Point","coordinates":[-85.3706,31.2194]}},{"properties":{"CITY":"LAKE PLACID","LONDD":81.4322,"CALLSIGN":"WWTK","STATE":"FL","FACID":27194.0,"MarketSt":"Sebring, FL","LICENSEE":"COHAN RADIO GROUP, INC.","id":"a626i34eh2rj","LATDD":27.4069,"FREQUENCY":"730   kHz"},"type":"Feature","geometry":{"type":"Point","coordinates":[-81.4322,27.4069]}},{"properties":{"CITY":"DEMOPOLIS","LONDD":87.8186,"CALLSIGN":"WXAL","STATE":"AL","FACID":61425.0,"MarketSt":"Demopolis, AL","LICENSEE":"WEST ALABAMA RADIO, INC.","id":"a626i33j8kat","LATDD":32.5022,"FREQUENCY":"1400  kHz"},"type":"Feature","geometry":{"type":"Point","coordinates":[-87.8186,32.5022]}},{"properties":{"CITY":"WAUSAU","LONDD":89.6069,"CALLSIGN":"WXCO","STATE":"WI","FACID":59611.0,"MarketSt":"Wausau, WI","LICENSEE":"SEEHAFER BROADCASTING CORPORATION","id":"a626i2s4rysv","LATDD":44.9694,"FREQUENCY":"1230  kHz"},"type":"Feature","geometry":{"type":"Point","coordinates":[-89.6069,44.9694]}},{"properties":{"CITY":"DETROIT","LONDD":83.345,"CALLSIGN":"WXYT","STATE":"MI","FACID":28627.0,"MarketSt":"Detroit, MI","LICENSEE":"CBS RADIO INC. OF DETROIT","id":"a626i30p1d9f","LATDD":42.0275,"FREQUENCY":"1270  kHz"},"type":"Feature","geometry":{"type":"Point","coordinates":[-83.345,42.0275]}},{"properties":{"CITY":"MASSENA","LONDD":74.9347,"CALLSIGN":"WYBG","STATE":"NY","FACID":70680.0,"MarketSt":"Massena, NY","LICENSEE":"WADE COMMUNICATIONS, INC.","id":"a626i2sisnbq","LATDD":44.895,"FREQUENCY":"1050  kHz"},"type":"Feature","geometry":{"type":"Point","coordinates":[-74.9347,44.895]}},{"properties":{"CITY":"GREENVILLE","LONDD":82.4233,"CALLSIGN":"WYRD","STATE":"SC","FACID":34389.0,"MarketSt":"Greenville, SC","LICENSEE":"ENTERCOM GREENVILLE LICENSE, LLC","id":"a626i2vq7s9b","LATDD":34.855,"FREQUENCY":"1330  kHz"},"type":"Feature","geometry":{"type":"Point","coordinates":[-82.4233,34.855]}},{"properties":{"CITY":"MILFORD","LONDD":75.4889,"CALLSIGN":"WYUS","STATE":"DE","FACID":53483.0,"MarketSt":"Milford, DE","LICENSEE":"DELMARVA BROADCASTING COMPANY","id":"a626i2qs34d1","LATDD":38.9275,"FREQUENCY":"930   kHz"},"type":"Feature","geometry":{"type":"Point","coordinates":[-75.4889,38.9275]}},{"properties":{"CITY":"ATHENS","LONDD":84.5719,"CALLSIGN":"WYXI","STATE":"TN","FACID":13931.0,"MarketSt":"Athens, TN","LICENSEE":"CORNERSTONE BROADCASTING, INC.","id":"a626i2zu6ag8","LATDD":35.4467,"FREQUENCY":"1390  kHz"},"type":"Feature","geometry":{"type":"Point","coordinates":[-84.5719,35.4467]}},{"properties":{"CITY":"ATHENS","LONDD":84.5719,"CALLSIGN":"WYXI","STATE":"TN","FACID":13931.0,"MarketSt":"Athens, TN","LICENSEE":"CORNERSTONE BROADCASTING, INC.","id":"a626i2oe1k4l","LATDD":35.4467,"FREQUENCY":"1390  kHz"},"type":"Feature","geometry":{"type":"Point","coordinates":[-84.5719,35.4467]}},{"properties":{"CITY":"EDENTON","LONDD":76.6,"CALLSIGN":"WZBO","STATE":"NC","FACID":36765.0,"MarketSt":"Edenton, NC","LICENSEE":"LAWRENCE LOESCH &amp; MARGARET LOESCH","id":"a626i2rx20vb","LATDD":36.0833,"FREQUENCY":"1260  kHz"},"type":"Feature","geometry":{"type":"Point","coordinates":[-76.6,36.0833]}},{"properties":{"CITY":"ALBEMARLE","LONDD":80.1775,"CALLSIGN":"WZKY","STATE":"NC","FACID":49044.0,"MarketSt":"Albemarle, NC","LICENSEE":"STANLY COMMUNICATIONS, INC.","id":"a626i30jlwsi","LATDD":35.3606,"FREQUENCY":"1580  kHz"},"type":"Feature","geometry":{"type":"Point","coordinates":[-80.1775,35.3606]}},{"properties":{"CITY":"PRINCETON","LONDD":89.4681,"CALLSIGN":"WZOE","STATE":"IL","FACID":74289.0,"MarketSt":"Princeton, IL","LICENSEE":"WZOE, INC.","id":"a626i3086kxb","LATDD":41.3522,"FREQUENCY":"1490  kHz"},"type":"Feature","geometry":{"type":"Point","coordinates":[-89.4681,41.3522]}}],"is_temporal":false,"author":{"url":"http://www.fcc.gov/mb/; http://www.rushlimbaugh.com/home/menu/rush.guest.all.html; http://www.rtis.com/nat/pol/rush/radio.html","metadata":"","contact_name":"","contact_address":"","source":"Online sources and FCC","contact_phone":""},"source":"http://www.fcc.gov/mb/; http://www.rushlimbaugh.com/home/menu/rush.guest.all.html; http://www.rtis.com/nat/pol/rush/radio.html","pagination":{"sort":null,"start":0,"total":523,"limit":1000000},"state":"complete","tags":"","published":"2008-05-20T12:00:00Z","id":1483}