{"type":"FeatureCollection","data_type":"Dataset","url_type":null,"permissions":[{"permissions":{"download":true,"view":true},"group_id":"everyone"}],"classification":null,"title":"atttowersOHwestern","count":225,"stream_id":149693,"contributor":{"url":"http://geocommons.com/users/12008","name":"pantheon"},"data_attributes":null,"calculation_params":null,"icon_link":null,"link":"http://geocommons.com/overlays/149693.json","extent":[-84.7917,38.7869,-79.8269,41.9234],"geometry_types":["point"],"unique_name":null,"name":"atttowersOHwestern","feature_count":225,"description":"","next_feature":null,"is_raster":false,"short_classification":"Y","stats":{"latitude":{"max":41.923389,"mean":40.5663323955556,"variance":0.65531687137049,"stdev":0.809516442927807,"min":38.78686,"median":40.62822},"longitude":{"max":-79.826944,"mean":-83.4416201955556,"variance":0.488956607973069,"stdev":0.699254322813287,"min":-84.79167,"median":-83.43444}},"features":[{"properties":{"column_20":null,"city":"WINCHESTER","column_21":null,"column_10":null,"latitude":38.93556,"zip":"45697","column_11":null,"column_12":null,"county":"ADAMS","column_13":null,"column_8":null,"column_14":null,"column_9":null,"column_15":null,"column_16":null,"column_17":null,"longitude":-83.61378,"id":"a6jeq0t9ob63","column_18":null,"address":"639 REED ROAD","column_19":null,"state":"OH"},"type":"Feature","geometry":{"type":"Point","coordinates":[-83.61378,38.93556]}},{"properties":{"column_20":null,"city":"WEST UNION","column_21":null,"column_10":null,"latitude":38.78686,"zip":"45693","column_11":null,"column_12":null,"county":"ADAMS","column_13":null,"column_8":null,"column_14":null,"column_9":null,"column_15":null,"column_16":null,"column_17":null,"longitude":-83.55021,"id":"a6jeq10a7ls7","column_18":null,"address":"4999 PUMPKIN RIDGE ROAD","column_19":null,"state":"OH"},"type":"Feature","geometry":{"type":"Point","coordinates":[-83.55021,38.78686]}},{"properties":{"column_20":null,"city":"PEEBLES","column_21":null,"column_10":null,"latitude":38.9798,"zip":"45660","column_11":null,"column_12":null,"county":"ADAMS","column_13":null,"column_8":null,"column_14":null,"column_9":null,"column_15":null,"column_16":null,"column_17":null,"longitude":-83.39201,"id":"a6jeq0x2enf8","column_18":null,"address":"2107 CEMETERY ROAD","column_19":null,"state":"OH"},"type":"Feature","geometry":{"type":"Point","coordinates":[-83.39201,38.9798]}},{"properties":{"column_20":null,"city":"BLUFFTON","column_21":null,"column_10":null,"latitude":40.89778,"zip":"45817","column_11":null,"column_12":null,"county":"ALLEN","column_13":null,"column_8":null,"column_14":null,"column_9":null,"column_15":null,"column_16":null,"column_17":null,"longitude":-83.88189,"id":"a6jeq17fov0d","column_18":null,"address":"210 LAKE STREET","column_19":null,"state":"OH"},"type":"Feature","geometry":{"type":"Point","coordinates":[-83.88189,40.89778]}},{"properties":{"column_20":null,"city":"BLUFFTON","column_21":null,"column_10":null,"latitude":40.837,"zip":"45817","column_11":null,"column_12":null,"county":"ALLEN","column_13":null,"column_8":null,"column_14":null,"column_9":null,"column_15":null,"column_16":null,"column_17":null,"longitude":-83.96948,"id":"a6jeq10ldam1","column_18":null,"address":"6805 NORTH DIXIE HIGHWAY","column_19":null,"state":"OH"},"type":"Feature","geometry":{"type":"Point","coordinates":[-83.96948,40.837]}},{"properties":{"column_20":null,"city":"LIMA","column_21":null,"column_10":null,"latitude":40.70145,"zip":"45804","column_11":null,"column_12":null,"county":"ALLEN","column_13":null,"column_8":null,"column_14":null,"column_9":null,"column_15":null,"column_16":null,"column_17":null,"longitude":-84.1067,"id":"a6jeq10rs43j","column_18":null,"address":"205 W. HANTON RD.","column_19":null,"state":"OH"},"type":"Feature","geometry":{"type":"Point","coordinates":[-84.1067,40.70145]}},{"properties":{"column_20":null,"city":"LIMA","column_21":null,"column_10":null,"latitude":40.78857,"zip":"45801","column_11":null,"column_12":null,"county":"ALLEN","column_13":null,"column_8":null,"column_14":null,"column_9":null,"column_15":null,"column_16":null,"column_17":null,"longitude":-84.04062,"id":"a6jeq0x3dazi","column_18":null,"address":"3550 EAST BLUELICK ROAD","column_19":null,"state":"OH"},"type":"Feature","geometry":{"type":"Point","coordinates":[-84.04062,40.78857]}},{"properties":{"column_20":null,"city":"LIMA","column_21":null,"column_10":null,"latitude":40.76266,"zip":"45801","column_11":null,"column_12":null,"county":"ALLEN","column_13":null,"column_8":null,"column_14":null,"column_9":null,"column_15":null,"column_16":null,"column_17":null,"longitude":-84.08642,"id":"a6jeq0tk45yv","column_18":null,"address":"1620 NORTH SUGAR CREEK ROAD","column_19":null,"state":"OH"},"type":"Feature","geometry":{"type":"Point","coordinates":[-84.08642,40.76266]}},{"properties":{"column_20":null,"city":"LIMA","column_21":null,"column_10":null,"latitude":40.70097,"zip":"45806","column_11":null,"column_12":null,"county":"ALLEN","column_13":null,"column_8":null,"column_14":null,"column_9":null,"column_15":null,"column_16":null,"column_17":null,"longitude":-84.14972,"id":"a6jeq13cz2ol","column_18":null,"address":"2800 BLUE JACKET COURT","column_19":null,"state":"OH"},"type":"Feature","geometry":{"type":"Point","coordinates":[-84.14972,40.70097]}},{"properties":{"column_20":null,"city":"LIMA","column_21":null,"column_10":null,"latitude":40.78361,"zip":"45801","column_11":null,"column_12":null,"county":"ALLEN","column_13":null,"column_8":null,"column_14":null,"column_9":null,"column_15":null,"column_16":null,"column_17":null,"longitude":-84.12361,"id":"a6jeq1662y6t","column_18":null,"address":"3226 COLE STREET","column_19":null,"state":"OH"},"type":"Feature","geometry":{"type":"Point","coordinates":[-84.12361,40.78361]}},{"properties":{"column_20":null,"city":"HARROD","column_21":null,"column_10":null,"latitude":40.77139,"zip":"45850","column_11":null,"column_12":null,"county":"ALLEN","column_13":null,"column_8":null,"column_14":null,"column_9":null,"column_15":null,"column_16":null,"column_17":null,"longitude":-83.96389,"id":"a6jeq15rtm9s","column_18":null,"address":"2370 NORTH NAPOLEON ROAD","column_19":null,"state":"OH"},"type":"Feature","geometry":{"type":"Point","coordinates":[-83.96389,40.77139]}},{"properties":{"column_20":null,"city":"LIMA","column_21":null,"column_10":null,"latitude":40.73472,"zip":"45806","column_11":null,"column_12":null,"county":"ALLEN","column_13":null,"column_8":null,"column_14":null,"column_9":null,"column_15":null,"column_16":null,"column_17":null,"longitude":-84.00972,"id":"a6jeq0xlinz9","column_18":null,"address":"295 SOUTH THAYER ROAD","column_19":null,"state":"OH"},"type":"Feature","geometry":{"type":"Point","coordinates":[-84.00972,40.73472]}},{"properties":{"column_20":null,"city":"LIMA","column_21":null,"column_10":null,"latitude":40.73889,"zip":"45801","column_11":null,"column_12":null,"county":"ALLEN","column_13":null,"column_8":null,"column_14":null,"column_9":null,"column_15":null,"column_16":null,"column_17":null,"longitude":-84.10739,"id":"a6jeq18bxhz2","column_18":null,"address":"122 SOUTH ELIZABETH STREET","column_19":null,"state":"OH"},"type":"Feature","geometry":{"type":"Point","coordinates":[-84.10739,40.73889]}},{"properties":{"column_20":null,"city":"LIMA","column_21":null,"column_10":null,"latitude":40.70389,"zip":"45806","column_11":null,"column_12":null,"county":"ALLEN","column_13":null,"column_8":null,"column_14":null,"column_9":null,"column_15":null,"column_16":null,"column_17":null,"longitude":-84.23722,"id":"a6jeq0vxadec","column_18":null,"address":"2479 COON ROAD","column_19":null,"state":"OH"},"type":"Feature","geometry":{"type":"Point","coordinates":[-84.23722,40.70389]}},{"properties":{"column_20":null,"city":"HARROD","column_21":null,"column_10":null,"latitude":40.72556,"zip":"45850","column_11":null,"column_12":null,"county":"ALLEN","column_13":null,"column_8":null,"column_14":null,"column_9":null,"column_15":null,"column_16":null,"column_17":null,"longitude":-83.93,"id":"a6jeq103qokq","column_18":null,"address":"1075 NAPOLEON ROAD","column_19":null,"state":"OH"},"type":"Feature","geometry":{"type":"Point","coordinates":[-83.93,40.72556]}},{"properties":{"column_20":null,"city":"LIMA","column_21":null,"column_10":null,"latitude":40.84944,"zip":"45807","column_11":null,"column_12":null,"county":"ALLEN","column_13":null,"column_8":null,"column_14":null,"column_9":null,"column_15":null,"column_16":null,"column_17":null,"longitude":-84.08194,"id":"a6jeq0tk0g2w","column_18":null,"address":"7580 OTTAWA ROAD","column_19":null,"state":"OH"},"type":"Feature","geometry":{"type":"Point","coordinates":[-84.08194,40.84944]}},{"properties":{"column_20":null,"city":"LIMA","column_21":null,"column_10":null,"latitude":40.77111,"zip":"45807","column_11":null,"column_12":null,"county":"ALLEN","column_13":null,"column_8":null,"column_14":null,"column_9":null,"column_15":null,"column_16":null,"column_17":null,"longitude":-84.20778,"id":"a6jeq16q6moh","column_18":null,"address":"5591 NESBITT ROAD","column_19":null,"state":"OH"},"type":"Feature","geometry":{"type":"Point","coordinates":[-84.20778,40.77111]}},{"properties":{"column_20":null,"city":"LIMA","column_21":null,"column_10":null,"latitude":40.75639,"zip":"45805","column_11":null,"column_12":null,"county":"ALLEN","column_13":null,"column_8":null,"column_14":null,"column_9":null,"column_15":null,"column_16":null,"column_17":null,"longitude":-84.12972,"id":"a6jeq0yfw5we","column_18":null,"address":"1460 ROSEDALE AVENUE","column_19":null,"state":"OH"},"type":"Feature","geometry":{"type":"Point","coordinates":[-84.12972,40.75639]}},{"properties":{"column_20":null,"city":"WAPAKONETA","column_21":null,"column_10":null,"latitude":40.62822,"zip":"45895","column_11":null,"column_12":null,"county":"AUGLAIZE","column_13":null,"column_8":null,"column_14":null,"column_9":null,"column_15":null,"column_16":null,"column_17":null,"longitude":-84.13059,"id":"a6jeq13w1dle","column_18":null,"address":"16784 BUCKLAND HOLDEN ROAD","column_19":null,"state":"OH"},"type":"Feature","geometry":{"type":"Point","coordinates":[-84.13059,40.62822]}},{"properties":{"column_20":null,"city":"WAPAKONETA","column_21":null,"column_10":null,"latitude":40.5166,"zip":"45895","column_11":null,"column_12":null,"county":"AUGLAIZE","column_13":null,"column_8":null,"column_14":null,"column_9":null,"column_15":null,"column_16":null,"column_17":null,"longitude":-84.16652,"id":"a6jeq12df4b1","column_18":null,"address":"11293 CEMETARY ROAD","column_19":null,"state":"OH"},"type":"Feature","geometry":{"type":"Point","coordinates":[-84.16652,40.5166]}},{"properties":{"column_20":null,"city":"SARDINIA","column_21":null,"column_10":null,"latitude":39.01156,"zip":"45171","column_11":null,"column_12":null,"county":"BROWN","column_13":null,"column_8":null,"column_14":null,"column_9":null,"column_15":null,"column_16":null,"column_17":null,"longitude":-83.79953,"id":"a6jeq0trf7qt","column_18":null,"address":"7427 SARDINIA MOWRYSTOWN ROAD","column_19":null,"state":"OH"},"type":"Feature","geometry":{"type":"Point","coordinates":[-83.79953,39.01156]}},{"properties":{"column_20":null,"city":"FAYETTEVILLE","column_21":null,"column_10":null,"latitude":39.17528,"zip":"45118","column_11":null,"column_12":null,"county":"BROWN","column_13":null,"column_8":null,"column_14":null,"column_9":null,"column_15":null,"column_16":null,"column_17":null,"longitude":-83.95361,"id":"a6jeq0x9kl5m","column_18":null,"address":"3032-A US ROUTE 50","column_19":null,"state":"OH"},"type":"Feature","geometry":{"type":"Point","coordinates":[-83.95361,39.17528]}},{"properties":{"column_20":null,"city":"OXFORD","column_21":null,"column_10":null,"latitude":39.52028,"zip":"45056","column_11":null,"column_12":null,"county":"BUTLER","column_13":null,"column_8":null,"column_14":null,"column_9":null,"column_15":null,"column_16":null,"column_17":null,"longitude":-84.68972,"id":"a6jeq140mjlf","column_18":null,"address":"3951 HARRIS ROAD","column_19":null,"state":"OH"},"type":"Feature","geometry":{"type":"Point","coordinates":[-84.68972,39.52028]}},{"properties":{"column_20":null,"city":"HAMILTON","column_21":null,"column_10":null,"latitude":39.32239,"zip":"45013","column_11":null,"column_12":null,"county":"BUTLER","column_13":null,"column_8":null,"column_14":null,"column_9":null,"column_15":null,"column_16":null,"column_17":null,"longitude":-84.68308,"id":"a6jeq0z3x445","column_18":null,"address":"3374 HAMILTON NEW LONDON ROAD","column_19":null,"state":"OH"},"type":"Feature","geometry":{"type":"Point","coordinates":[-84.68308,39.32239]}},{"properties":{"column_20":null,"city":"OXFORD","column_21":null,"column_10":null,"latitude":39.49139,"zip":"45056","column_11":null,"column_12":null,"county":"BUTLER","column_13":null,"column_8":null,"column_14":null,"column_9":null,"column_15":null,"column_16":null,"column_17":null,"longitude":-84.74219,"id":"a6jeq11b8qwe","column_18":null,"address":"6040-B BOOTH ROAD","column_19":null,"state":"OH"},"type":"Feature","geometry":{"type":"Point","coordinates":[-84.74219,39.49139]}},{"properties":{"column_20":null,"city":"OXFORD","column_21":null,"column_10":null,"latitude":39.51803,"zip":"45056","column_11":null,"column_12":null,"county":"BUTLER","column_13":null,"column_8":null,"column_14":null,"column_9":null,"column_15":null,"column_16":null,"column_17":null,"longitude":-84.74282,"id":"a6jeq0xgqgba","column_18":null,"address":"5221 C MORNING SUN ROAD","column_19":null,"state":"OH"},"type":"Feature","geometry":{"type":"Point","coordinates":[-84.74282,39.51803]}},{"properties":{"column_20":null,"city":"SAINT PARIS","column_21":null,"column_10":null,"latitude":40.15644,"zip":"43072","column_11":null,"column_12":null,"county":"CHAMPAIGN","column_13":null,"column_8":null,"column_14":null,"column_9":null,"column_15":null,"column_16":null,"column_17":null,"longitude":-83.96964,"id":"a6jeq0vg3qc6","column_18":null,"address":"2171 MOUNT PLEASANT CEMETERY ROAD","column_19":null,"state":"OH"},"type":"Feature","geometry":{"type":"Point","coordinates":[-83.96964,40.15644]}},{"properties":{"column_20":null,"city":"URBANA","column_21":null,"column_10":null,"latitude":40.08861,"zip":"43078","column_11":null,"column_12":null,"county":"CHAMPAIGN","column_13":null,"column_8":null,"column_14":null,"column_9":null,"column_15":null,"column_16":null,"column_17":null,"longitude":-83.75639,"id":"a6jeq14598iw","column_18":null,"address":"1509 SOUTH RT 68","column_19":null,"state":"OH"},"type":"Feature","geometry":{"type":"Point","coordinates":[-83.75639,40.08861]}},{"properties":{"column_20":null,"city":"CABLE","column_21":null,"column_10":null,"latitude":40.16904,"zip":"43009","column_11":null,"column_12":null,"county":"CHAMPAIGN","column_13":null,"column_8":null,"column_14":null,"column_9":null,"column_15":null,"column_16":null,"column_17":null,"longitude":-83.6466,"id":"a6jeq10af6s8","column_18":null,"address":"5173 CABLE ROAD","column_19":null,"state":"OH"},"type":"Feature","geometry":{"type":"Point","coordinates":[-83.6466,40.16904]}},{"properties":{"column_20":null,"city":"URBANA","column_21":null,"column_10":null,"latitude":40.11669,"zip":"43078","column_11":null,"column_12":null,"county":"CHAMPAIGN","column_13":null,"column_8":null,"column_14":null,"column_9":null,"column_15":null,"column_16":null,"column_17":null,"longitude":-83.71069,"id":"a6jeq0x33rjm","column_18":null,"address":"1063 DUGAN ROAD","column_19":null,"state":"OH"},"type":"Feature","geometry":{"type":"Point","coordinates":[-83.71069,40.11669]}},{"properties":{"column_20":null,"city":"WEST LIBERTY","column_21":null,"column_10":null,"latitude":40.22722,"zip":"43357","column_11":null,"column_12":null,"county":"CHAMPAIGN","column_13":null,"column_8":null,"column_14":null,"column_9":null,"column_15":null,"column_16":null,"column_17":null,"longitude":-83.77819,"id":"a6jeq13lxeni","column_18":null,"address":"7744 TOWNSHIP RD 208","column_19":null,"state":"OH"},"type":"Feature","geometry":{"type":"Point","coordinates":[-83.77819,40.22722]}},{"properties":{"column_20":null,"city":"WILMINGTON","column_21":null,"column_10":null,"latitude":39.44194,"zip":"45177","column_11":null,"column_12":null,"county":"CLINTON","column_13":null,"column_8":null,"column_14":null,"column_9":null,"column_15":null,"column_16":null,"column_17":null,"longitude":-83.88694,"id":"a6jeq136uehb","column_18":null,"address":"3327 WEST STATE ROAD 3 &amp; US 22","column_19":null,"state":"OH"},"type":"Feature","geometry":{"type":"Point","coordinates":[-83.88694,39.44194]}},{"properties":{"column_20":null,"city":"WILMINGTON","column_21":null,"column_10":null,"latitude":39.4505,"zip":"45177","column_11":null,"column_12":null,"county":"CLINTON","column_13":null,"column_8":null,"column_14":null,"column_9":null,"column_15":null,"column_16":null,"column_17":null,"longitude":-83.80569,"id":"a6jeq17myp2x","column_18":null,"address":"1425 ROMBACH AVE","column_19":null,"state":"OH"},"type":"Feature","geometry":{"type":"Point","coordinates":[-83.80569,39.4505]}},{"properties":{"column_20":null,"city":"CRESTLINE","column_21":null,"column_10":null,"latitude":40.83504,"zip":"44827","column_11":null,"column_12":null,"county":"CRAWFORD","column_13":null,"column_8":null,"column_14":null,"column_9":null,"column_15":null,"column_16":null,"column_17":null,"longitude":-82.78343,"id":"a6jeq131e5xh","column_18":null,"address":"7043 KLAHN ROAD","column_19":null,"state":"OH"},"type":"Feature","geometry":{"type":"Point","coordinates":[-82.78343,40.83504]}},{"properties":{"column_20":null,"city":"CRESTLINE","column_21":null,"column_10":null,"latitude":40.77989,"zip":"44827","column_11":null,"column_12":null,"county":"CRAWFORD","column_13":null,"column_8":null,"column_14":null,"column_9":null,"column_15":null,"column_16":null,"column_17":null,"longitude":-82.76204,"id":"a6jeq0us4iew","column_18":null,"address":"1171 GLEDHILL ROAD","column_19":null,"state":"OH"},"type":"Feature","geometry":{"type":"Point","coordinates":[-82.76204,40.77989]}},{"properties":{"column_20":null,"city":"VERSAILLES","column_21":null,"column_10":null,"latitude":40.23142,"zip":"45380","column_11":null,"column_12":null,"county":"DARKE","column_13":null,"column_8":null,"column_14":null,"column_9":null,"column_15":null,"column_16":null,"column_17":null,"longitude":-84.48217,"id":"a6jeq11uulur","column_18":null,"address":"10707 REED ROAD","column_19":null,"state":"OH"},"type":"Feature","geometry":{"type":"Point","coordinates":[-84.48217,40.23142]}},{"properties":{"column_20":null,"city":"GREENVILLE","column_21":null,"column_10":null,"latitude":40.07589,"zip":"45331","column_11":null,"column_12":null,"county":"DARKE","column_13":null,"column_8":null,"column_14":null,"column_9":null,"column_15":null,"column_16":null,"column_17":null,"longitude":-84.61378,"id":"a6jeq0tlifx5","column_18":null,"address":"5121 SEBRING-WARNER ROAD","column_19":null,"state":"OH"},"type":"Feature","geometry":{"type":"Point","coordinates":[-84.61378,40.07589]}},{"properties":{"column_20":null,"city":"ARCANUM","column_21":null,"column_10":null,"latitude":39.97972,"zip":"45304","column_11":null,"column_12":null,"county":"DARKE","column_13":null,"column_8":null,"column_14":null,"column_9":null,"column_15":null,"column_16":null,"column_17":null,"longitude":-84.51633,"id":"a6jeq0vy99e8","column_18":null,"address":"2140 GORDON LANDIS ROAD","column_19":null,"state":"OH"},"type":"Feature","geometry":{"type":"Point","coordinates":[-84.51633,39.97972]}},{"properties":{"column_20":null,"city":"GREENVILLE","column_21":null,"column_10":null,"latitude":40.13908,"zip":"45331","column_11":null,"column_12":null,"county":"DARKE","column_13":null,"column_8":null,"column_14":null,"column_9":null,"column_15":null,"column_16":null,"column_17":null,"longitude":-84.61775,"id":"a6jeq16rdshu","column_18":null,"address":"7670 CELINA RD","column_19":null,"state":"OH"},"type":"Feature","geometry":{"type":"Point","coordinates":[-84.61775,40.13908]}},{"properties":{"column_20":null,"city":"UNION CITY","column_21":null,"column_10":null,"latitude":41.923389,"zip":"45390","column_11":null,"column_12":null,"county":"DARKE","column_13":null,"column_8":null,"column_14":null,"column_9":null,"column_15":null,"column_16":null,"column_17":null,"longitude":-79.826944,"id":"a6jeq166na67","column_18":null,"address":"330 SE DEERFIELD ROAD","column_19":null,"state":"OH"},"type":"Feature","geometry":{"type":"Point","coordinates":[-79.826944,41.923389]}},{"properties":{"column_20":null,"city":"DELAWARE","column_21":null,"column_10":null,"latitude":40.34614,"zip":"43015","column_11":null,"column_12":null,"county":"DELAWARE","column_13":null,"column_8":null,"column_14":null,"column_9":null,"column_15":null,"column_16":null,"column_17":null,"longitude":-82.99677,"id":"a6jeq0z67svt","column_18":null,"address":"4884 PITTMAN ROAD","column_19":null,"state":"OH"},"type":"Feature","geometry":{"type":"Point","coordinates":[-82.99677,40.34614]}},{"properties":{"column_20":null,"city":"DELAWARE","column_21":null,"column_10":null,"latitude":40.21972,"zip":"43015","column_11":null,"column_12":null,"county":"DELAWARE","column_13":null,"column_8":null,"column_14":null,"column_9":null,"column_15":null,"column_16":null,"column_17":null,"longitude":-83.16861,"id":"a6jeq17w1u67","column_18":null,"address":"6500 CONCORD ROAD","column_19":null,"state":"OH"},"type":"Feature","geometry":{"type":"Point","coordinates":[-83.16861,40.21972]}},{"properties":{"column_20":null,"city":"GALENA","column_21":null,"column_10":null,"latitude":40.20139,"zip":"43021","column_11":null,"column_12":null,"county":"DELAWARE","column_13":null,"column_8":null,"column_14":null,"column_9":null,"column_15":null,"column_16":null,"column_17":null,"longitude":-82.91528,"id":"a6jeq0ztjkv8","column_18":null,"address":"3990 ROME CORNERS ROAD","column_19":null,"state":"OH"},"type":"Feature","geometry":{"type":"Point","coordinates":[-82.91528,40.20139]}},{"properties":{"column_20":null,"city":"DELAWARE","column_21":null,"column_10":null,"latitude":40.23306,"zip":"43015","column_11":null,"column_12":null,"county":"DELAWARE","column_13":null,"column_8":null,"column_14":null,"column_9":null,"column_15":null,"column_16":null,"column_17":null,"longitude":-83.03806,"id":"a6jeq0yntola","column_18":null,"address":"4569 COLUMBUS PIKE","column_19":null,"state":"OH"},"type":"Feature","geometry":{"type":"Point","coordinates":[-83.03806,40.23306]}},{"properties":{"column_20":null,"city":"SUNBURY","column_21":null,"column_10":null,"latitude":40.21106,"zip":"43074","column_11":null,"column_12":null,"county":"DELAWARE","column_13":null,"column_8":null,"column_14":null,"column_9":null,"column_15":null,"column_16":null,"column_17":null,"longitude":-82.79194,"id":"a6jeq0uhgee2","column_18":null,"address":"15150 STATE ROUTE 37 EAST","column_19":null,"state":"OH"},"type":"Feature","geometry":{"type":"Point","coordinates":[-82.79194,40.21106]}},{"properties":{"column_20":null,"city":"SUNBURY","column_21":null,"column_10":null,"latitude":40.2895,"zip":"43074","column_11":null,"column_12":null,"county":"DELAWARE","column_13":null,"column_8":null,"column_14":null,"column_9":null,"column_15":null,"column_16":null,"column_17":null,"longitude":-82.84292,"id":"a6jeq18xyuno","column_18":null,"address":"12092 MONKEY HOLLOW ROAD","column_19":null,"state":"OH"},"type":"Feature","geometry":{"type":"Point","coordinates":[-82.84292,40.2895]}},{"properties":{"column_20":null,"city":"SUNBURY","column_21":null,"column_10":null,"latitude":40.24111,"zip":"43074","column_11":null,"column_12":null,"county":"DELAWARE","column_13":null,"column_8":null,"column_14":null,"column_9":null,"column_15":null,"column_16":null,"column_17":null,"longitude":-82.86722,"id":"a6jeq0uvpvcj","column_18":null,"address":"283 WEST GRANVILLE STREET","column_19":null,"state":"OH"},"type":"Feature","geometry":{"type":"Point","coordinates":[-82.86722,40.24111]}},{"properties":{"column_20":null,"city":"SUNBURY","column_21":null,"column_10":null,"latitude":40.32514,"zip":"43074","column_11":null,"column_12":null,"county":"DELAWARE","column_13":null,"column_8":null,"column_14":null,"column_9":null,"column_15":null,"column_16":null,"column_17":null,"longitude":-82.89706,"id":"a6jeq0txw1l5","column_18":null,"address":"9120 STATE ROUTE 521","column_19":null,"state":"OH"},"type":"Feature","geometry":{"type":"Point","coordinates":[-82.89706,40.32514]}},{"properties":{"column_20":null,"city":"DELAWARE","column_21":null,"column_10":null,"latitude":40.31903,"zip":"43015","column_11":null,"column_12":null,"county":"DELAWARE","column_13":null,"column_8":null,"column_14":null,"column_9":null,"column_15":null,"column_16":null,"column_17":null,"longitude":-83.13831,"id":"a6jeq0t29y1j","column_18":null,"address":"3751 STATE ROAD 37 WEST","column_19":null,"state":"OH"},"type":"Feature","geometry":{"type":"Point","coordinates":[-83.13831,40.31903]}},{"properties":{"column_20":null,"city":"DELAWARE","column_21":null,"column_10":null,"latitude":40.3014,"zip":"43015","column_11":null,"column_12":null,"county":"DELAWARE","column_13":null,"column_8":null,"column_14":null,"column_9":null,"column_15":null,"column_16":null,"column_17":null,"longitude":-83.0581,"id":"a6jeq0w1wgvm","column_18":null,"address":"88 LAKE STREET","column_19":null,"state":"OH"},"type":"Feature","geometry":{"type":"Point","coordinates":[-83.0581,40.3014]}},{"properties":{"column_20":null,"city":"DELAWARE","column_21":null,"column_10":null,"latitude":40.38166,"zip":"43015","column_11":null,"column_12":null,"county":"DELAWARE","column_13":null,"column_8":null,"column_14":null,"column_9":null,"column_15":null,"column_16":null,"column_17":null,"longitude":-83.07909,"id":"a6jeq18au24m","column_18":null,"address":"152 TROUTMAN ROAD","column_19":null,"state":"OH"},"type":"Feature","geometry":{"type":"Point","coordinates":[-83.07909,40.38166]}},{"properties":{"column_20":null,"city":"VERMILION","column_21":null,"column_10":null,"latitude":41.39028,"zip":"44089","column_11":null,"column_12":null,"county":"ERIE","column_13":null,"column_8":null,"column_14":null,"column_9":null,"column_15":null,"column_16":null,"column_17":null,"longitude":-82.36572,"id":"a6jeq17kkmsy","column_18":null,"address":"2713 STATE RD","column_19":null,"state":"OH"},"type":"Feature","geometry":{"type":"Point","coordinates":[-82.36572,41.39028]}},{"properties":{"column_20":null,"city":"BIRMINGHAM","column_21":null,"column_10":null,"latitude":41.33288,"zip":"44816","column_11":null,"column_12":null,"county":"ERIE","column_13":null,"column_8":null,"column_14":null,"column_9":null,"column_15":null,"column_16":null,"column_17":null,"longitude":-82.36343,"id":"a6jeq17g6ox4","column_18":null,"address":"6921 SAVANNAH VERMILION RD","column_19":null,"state":"OH"},"type":"Feature","geometry":{"type":"Point","coordinates":[-82.36343,41.33288]}},{"properties":{"column_20":null,"city":"VERMILION","column_21":null,"column_10":null,"latitude":41.41462,"zip":"44089","column_11":null,"column_12":null,"county":"ERIE","column_13":null,"column_8":null,"column_14":null,"column_9":null,"column_15":null,"column_16":null,"column_17":null,"longitude":-82.36085,"id":"a6jeq168iczi","column_18":null,"address":"1100 DOUGLAS DRIVE","column_19":null,"state":"OH"},"type":"Feature","geometry":{"type":"Point","coordinates":[-82.36085,41.41462]}},{"properties":{"column_20":null,"city":"VERMILION","column_21":null,"column_10":null,"latitude":41.38306,"zip":"44089","column_11":null,"column_12":null,"county":"ERIE","column_13":null,"column_8":null,"column_14":null,"column_9":null,"column_15":null,"column_16":null,"column_17":null,"longitude":-82.42537,"id":"a6jeq11imujh","column_18":null,"address":"1115 STANLEY RD","column_19":null,"state":"OH"},"type":"Feature","geometry":{"type":"Point","coordinates":[-82.42537,41.38306]}},{"properties":{"column_20":null,"city":"WAKEMAN","column_21":null,"column_10":null,"latitude":41.34361,"zip":"44889","column_11":null,"column_12":null,"county":"ERIE","column_13":null,"column_8":null,"column_14":null,"column_9":null,"column_15":null,"column_16":null,"column_17":null,"longitude":-82.34695,"id":"a6jeq0xyhjma","column_18":null,"address":"10118 DEAN RD","column_19":null,"state":"OH"},"type":"Feature","geometry":{"type":"Point","coordinates":[-82.34695,41.34361]}},{"properties":{"column_20":null,"city":"WAKEMAN","column_21":null,"column_10":null,"latitude":41.32889,"zip":"44889","column_11":null,"column_12":null,"county":"ERIE","column_13":null,"column_8":null,"column_14":null,"column_9":null,"column_15":null,"column_16":null,"column_17":null,"longitude":-82.40694,"id":"a6jeq0tgpf48","column_18":null,"address":"11300 ANGLING RD","column_19":null,"state":"OH"},"type":"Feature","geometry":{"type":"Point","coordinates":[-82.40694,41.32889]}},{"properties":{"column_20":null,"city":"MILAN","column_21":null,"column_10":null,"latitude":41.33058,"zip":"44846","column_11":null,"column_12":null,"county":"ERIE","column_13":null,"column_8":null,"column_14":null,"column_9":null,"column_15":null,"column_16":null,"column_17":null,"longitude":-82.60133,"id":"a6jeq18mmuwe","column_18":null,"address":"11016 HOOVER ROAD","column_19":null,"state":"OH"},"type":"Feature","geometry":{"type":"Point","coordinates":[-82.60133,41.33058]}},{"properties":{"column_20":null,"city":"BERLIN HEIGHTS","column_21":null,"column_10":null,"latitude":41.352,"zip":"44814","column_11":null,"column_12":null,"county":"ERIE","column_13":null,"column_8":null,"column_14":null,"column_9":null,"column_15":null,"column_16":null,"column_17":null,"longitude":-82.49258,"id":"a6jeq130je6r","column_18":null,"address":"7306 DRIVER ROAD","column_19":null,"state":"OH"},"type":"Feature","geometry":{"type":"Point","coordinates":[-82.49258,41.352]}},{"properties":{"column_20":null,"city":"CASTALIA","column_21":null,"column_10":null,"latitude":41.33974,"zip":"44824","column_11":null,"column_12":null,"county":"ERIE","column_13":null,"column_8":null,"column_14":null,"column_9":null,"column_15":null,"column_16":null,"column_17":null,"longitude":-82.79004,"id":"a6jeq159yhdc","column_18":null,"address":"9414 PORTLAND RD","column_19":null,"state":"OH"},"type":"Feature","geometry":{"type":"Point","coordinates":[-82.79004,41.33974]}},{"properties":{"column_20":null,"city":"KELLEYS ISLAND","column_21":null,"column_10":null,"latitude":41.59667,"zip":"43438","column_11":null,"column_12":null,"county":"ERIE","column_13":null,"column_8":null,"column_14":null,"column_9":null,"column_15":null,"column_16":null,"column_17":null,"longitude":-82.70983,"id":"a6jeq14npbad","column_18":null,"address":"106 CHAPPEL STREET","column_19":null,"state":"OH"},"type":"Feature","geometry":{"type":"Point","coordinates":[-82.70983,41.59667]}},{"properties":{"column_20":null,"city":"HURON","column_21":null,"column_10":null,"latitude":41.39889,"zip":"44839","column_11":null,"column_12":null,"county":"ERIE","column_13":null,"column_8":null,"column_14":null,"column_9":null,"column_15":null,"column_16":null,"column_17":null,"longitude":-82.57945,"id":"a6jeq133c04t","column_18":null,"address":"1529 SAWMILL PARKWAY","column_19":null,"state":"OH"},"type":"Feature","geometry":{"type":"Point","coordinates":[-82.57945,41.39889]}},{"properties":{"column_20":null,"city":"BERLIN HEIGHTS","column_21":null,"column_10":null,"latitude":41.32414,"zip":"44814","column_11":null,"column_12":null,"county":"ERIE","column_13":null,"column_8":null,"column_14":null,"column_9":null,"column_15":null,"column_16":null,"column_17":null,"longitude":-82.50342,"id":"a6jeq11p0t8q","column_18":null,"address":"11349 BERLIN ROAD","column_19":null,"state":"OH"},"type":"Feature","geometry":{"type":"Point","coordinates":[-82.50342,41.32414]}},{"properties":{"column_20":null,"city":"BERLIN HEIGHTS","column_21":null,"column_10":null,"latitude":41.28442,"zip":"44814","column_11":null,"column_12":null,"county":"ERIE","column_13":null,"column_8":null,"column_14":null,"column_9":null,"column_15":null,"column_16":null,"column_17":null,"longitude":-82.45812,"id":"a6jeq0yzjwh0","column_18":null,"address":"9091 NASH ROAD","column_19":null,"state":"OH"},"type":"Feature","geometry":{"type":"Point","coordinates":[-82.45812,41.28442]}},{"properties":{"column_20":null,"city":"NORWALK","column_21":null,"column_10":null,"latitude":41.28884,"zip":"44857","column_11":null,"column_12":null,"county":"ERIE","column_13":null,"column_8":null,"column_14":null,"column_9":null,"column_15":null,"column_16":null,"column_17":null,"longitude":-82.53339,"id":"a6jeq0zv3vpv","column_18":null,"address":"14214 STATE ROUTE 61 EAST","column_19":null,"state":"OH"},"type":"Feature","geometry":{"type":"Point","coordinates":[-82.53339,41.28884]}},{"properties":{"column_20":null,"city":"ARCHBOLD","column_21":null,"column_10":null,"latitude":41.588,"zip":"43502","column_11":null,"column_12":null,"county":"FULTON","column_13":null,"column_8":null,"column_14":null,"column_9":null,"column_15":null,"column_16":null,"column_17":null,"longitude":-84.34319,"id":"a6jeq143oy2c","column_18":null,"address":"8179 COUNTY ROAD 25","column_19":null,"state":"OH"},"type":"Feature","geometry":{"type":"Point","coordinates":[-84.34319,41.588]}},{"properties":{"column_20":null,"city":"SWANTON","column_21":null,"column_10":null,"latitude":41.60389,"zip":"43558","column_11":null,"column_12":null,"county":"FULTON","column_13":null,"column_8":null,"column_14":null,"column_9":null,"column_15":null,"column_16":null,"column_17":null,"longitude":-83.90562,"id":"a6jeq19j7h1q","column_18":null,"address":"9201 STATE ROUTE 64","column_19":null,"state":"OH"},"type":"Feature","geometry":{"type":"Point","coordinates":[-83.90562,41.60389]}},{"properties":{"column_20":null,"city":"DELTA","column_21":null,"column_10":null,"latitude":41.59219,"zip":"43515","column_11":null,"column_12":null,"county":"FULTON","column_13":null,"column_8":null,"column_14":null,"column_9":null,"column_15":null,"column_16":null,"column_17":null,"longitude":-84.02478,"id":"a6jeq135pp9x","column_18":null,"address":"8292 COUNTY ROAD 81","column_19":null,"state":"OH"},"type":"Feature","geometry":{"type":"Point","coordinates":[-84.02478,41.59219]}},{"properties":{"column_20":null,"city":"WAUSEON","column_21":null,"column_10":null,"latitude":41.56219,"zip":"43567","column_11":null,"column_12":null,"county":"FULTON","column_13":null,"column_8":null,"column_14":null,"column_9":null,"column_15":null,"column_16":null,"column_17":null,"longitude":-84.1505,"id":"a6jeq15qczob","column_18":null,"address":"550 WEST LINFOOT STREET","column_19":null,"state":"OH"},"type":"Feature","geometry":{"type":"Point","coordinates":[-84.1505,41.56219]}},{"properties":{"column_20":null,"city":"METAMORA","column_21":null,"column_10":null,"latitude":41.6862,"zip":"43540","column_11":null,"column_12":null,"county":"FULTON","column_13":null,"column_8":null,"column_14":null,"column_9":null,"column_15":null,"column_16":null,"column_17":null,"longitude":-83.9377,"id":"a6jeq15385fz","column_18":null,"address":"4125 COUNTY ROAD SOUTH","column_19":null,"state":"OH"},"type":"Feature","geometry":{"type":"Point","coordinates":[-83.9377,41.6862]}},{"properties":{"column_20":null,"city":"CINCINNATI","column_21":null,"column_10":null,"latitude":39.1376,"zip":"45208","column_11":null,"column_12":null,"county":"HAMILTON","column_13":null,"column_8":null,"column_14":null,"column_9":null,"column_15":null,"column_16":null,"column_17":null,"longitude":-84.4402,"id":"a6jeq0y3ux4h","column_18":null,"address":"2770 A OBSERVATORY AVENUE","column_19":null,"state":"OH"},"type":"Feature","geometry":{"type":"Point","coordinates":[-84.4402,39.1376]}},{"properties":{"column_20":null,"city":"RAWSON","column_21":null,"column_10":null,"latitude":40.94412,"zip":"45881","column_11":null,"column_12":null,"county":"HANCOCK","column_13":null,"column_8":null,"column_14":null,"column_9":null,"column_15":null,"column_16":null,"column_17":null,"longitude":-83.76645,"id":"a6jeq0vg05p4","column_18":null,"address":"15480-B TOWNSHIP ROAD 59","column_19":null,"state":"OH"},"type":"Feature","geometry":{"type":"Point","coordinates":[-83.76645,40.94412]}},{"properties":{"column_20":null,"city":"VAN BUREN","column_21":null,"column_10":null,"latitude":41.15167,"zip":"45889","column_11":null,"column_12":null,"county":"HANCOCK","column_13":null,"column_8":null,"column_14":null,"column_9":null,"column_15":null,"column_16":null,"column_17":null,"longitude":-83.56833,"id":"a6jeq16f0okh","column_18":null,"address":"1107 TOWNSHIP ROAD 18","column_19":null,"state":"OH"},"type":"Feature","geometry":{"type":"Point","coordinates":[-83.56833,41.15167]}},{"properties":{"column_20":null,"city":"MCCOMB","column_21":null,"column_10":null,"latitude":41.11194,"zip":"45858","column_11":null,"column_12":null,"county":"HANCOCK","column_13":null,"column_8":null,"column_14":null,"column_9":null,"column_15":null,"column_16":null,"column_17":null,"longitude":-83.7525,"id":"a6jeq0t1ximx","column_18":null,"address":"6700 STATE RT 613","column_19":null,"state":"OH"},"type":"Feature","geometry":{"type":"Point","coordinates":[-83.7525,41.11194]}},{"properties":{"column_20":null,"city":"NEW VIENNA","column_21":null,"column_10":null,"latitude":39.30843,"zip":"45159","column_11":null,"column_12":null,"county":"HIGHLAND","column_13":null,"column_8":null,"column_14":null,"column_9":null,"column_15":null,"column_16":null,"column_17":null,"longitude":-83.70156,"id":"a6jeq15295x7","column_18":null,"address":"11551 NOBLE ROAD","column_19":null,"state":"OH"},"type":"Feature","geometry":{"type":"Point","coordinates":[-83.70156,39.30843]}},{"properties":{"column_20":null,"city":"WAKEMAN","column_21":null,"column_10":null,"latitude":41.24539,"zip":"44889","column_11":null,"column_12":null,"county":"HURON","column_13":null,"column_8":null,"column_14":null,"column_9":null,"column_15":null,"column_16":null,"column_17":null,"longitude":-82.42019,"id":"a6jeq13l24ij","column_18":null,"address":"3956 FITCHVILLE RIVER ROAD","column_19":null,"state":"OH"},"type":"Feature","geometry":{"type":"Point","coordinates":[-82.42019,41.24539]}},{"properties":{"column_20":null,"city":"NORWALK","column_21":null,"column_10":null,"latitude":41.245,"zip":"44857","column_11":null,"column_12":null,"county":"HURON","column_13":null,"column_8":null,"column_14":null,"column_9":null,"column_15":null,"column_16":null,"column_17":null,"longitude":-82.59556,"id":"a6jeq0xr4ddw","column_18":null,"address":"171 AKRON ROAD","column_19":null,"state":"OH"},"type":"Feature","geometry":{"type":"Point","coordinates":[-82.59556,41.245]}},{"properties":{"column_20":null,"city":"NORWALK","column_21":null,"column_10":null,"latitude":41.27028,"zip":"44857","column_11":null,"column_12":null,"county":"HURON","column_13":null,"column_8":null,"column_14":null,"column_9":null,"column_15":null,"column_16":null,"column_17":null,"longitude":-82.60806,"id":"a6jeq19bgunh","column_18":null,"address":"4826 US ROUTE 250 NORTH","column_19":null,"state":"OH"},"type":"Feature","geometry":{"type":"Point","coordinates":[-82.60806,41.27028]}},{"properties":{"column_20":null,"city":"NORWALK","column_21":null,"column_10":null,"latitude":41.24311,"zip":"44857","column_11":null,"column_12":null,"county":"HURON","column_13":null,"column_8":null,"column_14":null,"column_9":null,"column_15":null,"column_16":null,"column_17":null,"longitude":-82.63642,"id":"a6jeq0vigw7p","column_18":null,"address":"75 NORTH WEST STREET","column_19":null,"state":"OH"},"type":"Feature","geometry":{"type":"Point","coordinates":[-82.63642,41.24311]}},{"properties":{"column_20":null,"city":"NORWALK","column_21":null,"column_10":null,"latitude":41.26333,"zip":"44857","column_11":null,"column_12":null,"county":"HURON","column_13":null,"column_8":null,"column_14":null,"column_9":null,"column_15":null,"column_16":null,"column_17":null,"longitude":-82.6775,"id":"a6jeq0y81szu","column_18":null,"address":"4480 RIVER ROAD","column_19":null,"state":"OH"},"type":"Feature","geometry":{"type":"Point","coordinates":[-82.6775,41.26333]}},{"properties":{"column_20":null,"city":"MONROEVILLE","column_21":null,"column_10":null,"latitude":41.23972,"zip":"44847","column_11":null,"column_12":null,"county":"HURON","column_13":null,"column_8":null,"column_14":null,"column_9":null,"column_15":null,"column_16":null,"column_17":null,"longitude":-82.72111,"id":"a6jeq19c6gt2","column_18":null,"address":"3603 FARR ROAD","column_19":null,"state":"OH"},"type":"Feature","geometry":{"type":"Point","coordinates":[-82.72111,41.23972]}},{"properties":{"column_20":null,"city":"BELLEVUE","column_21":null,"column_10":null,"latitude":41.26556,"zip":"44811","column_11":null,"column_12":null,"county":"HURON","column_13":null,"column_8":null,"column_14":null,"column_9":null,"column_15":null,"column_16":null,"column_17":null,"longitude":-82.79111,"id":"a6jeq1998g5n","column_18":null,"address":"5490 US ROUTE 20","column_19":null,"state":"OH"},"type":"Feature","geometry":{"type":"Point","coordinates":[-82.79111,41.26556]}},{"properties":{"column_20":null,"city":"BELLEFONTAINE","column_21":null,"column_10":null,"latitude":40.35444,"zip":"43311","column_11":null,"column_12":null,"county":"LOGAN","column_13":null,"column_8":null,"column_14":null,"column_9":null,"column_15":null,"column_16":null,"column_17":null,"longitude":-83.70556,"id":"a6jeq18yr40h","column_18":null,"address":"2955 TRAIL 180","column_19":null,"state":"OH"},"type":"Feature","geometry":{"type":"Point","coordinates":[-83.70556,40.35444]}},{"properties":{"column_20":null,"city":"LEWISTOWN","column_21":null,"column_10":null,"latitude":40.43972,"zip":"43333","column_11":null,"column_12":null,"county":"LOGAN","column_13":null,"column_8":null,"column_14":null,"column_9":null,"column_15":null,"column_16":null,"column_17":null,"longitude":-83.89139,"id":"a6jeq12xheox","column_18":null,"address":"5863 ROAD 61","column_19":null,"state":"OH"},"type":"Feature","geometry":{"type":"Point","coordinates":[-83.89139,40.43972]}},{"properties":{"column_20":null,"city":"QUINCY","column_21":null,"column_10":null,"latitude":40.28631,"zip":"43343","column_11":null,"column_12":null,"county":"LOGAN","column_13":null,"column_8":null,"column_14":null,"column_9":null,"column_15":null,"column_16":null,"column_17":null,"longitude":-83.98244,"id":"a6jeq0y6vxdq","column_18":null,"address":"11681 STATE ROUTE 706","column_19":null,"state":"OH"},"type":"Feature","geometry":{"type":"Point","coordinates":[-83.98244,40.28631]}},{"properties":{"column_20":null,"city":"BELLEFONTAINE","column_21":null,"column_10":null,"latitude":40.35222,"zip":"43311","column_11":null,"column_12":null,"county":"LOGAN","column_13":null,"column_8":null,"column_14":null,"column_9":null,"column_15":null,"column_16":null,"column_17":null,"longitude":-83.76917,"id":"a6jeq12zwo3j","column_18":null,"address":"621 PLUM VALLEY ROAD","column_19":null,"state":"OH"},"type":"Feature","geometry":{"type":"Point","coordinates":[-83.76917,40.35222]}},{"properties":{"column_20":null,"city":"ZANESFIELD","column_21":null,"column_10":null,"latitude":40.32667,"zip":"43360","column_11":null,"column_12":null,"county":"LOGAN","column_13":null,"column_8":null,"column_14":null,"column_9":null,"column_15":null,"column_16":null,"column_17":null,"longitude":-83.63389,"id":"a6jeq0t51etg","column_18":null,"address":"6448 STATE ROUTE 292","column_19":null,"state":"OH"},"type":"Feature","geometry":{"type":"Point","coordinates":[-83.63389,40.32667]}},{"properties":{"column_20":null,"city":"LAKEVIEW","column_21":null,"column_10":null,"latitude":40.52774,"zip":"43331","column_11":null,"column_12":null,"county":"LOGAN","column_13":null,"column_8":null,"column_14":null,"column_9":null,"column_15":null,"column_16":null,"column_17":null,"longitude":-83.88085,"id":"a6jeq0vyat62","column_18":null,"address":"14297C STATE ROUTE 235 NORTH","column_19":null,"state":"OH"},"type":"Feature","geometry":{"type":"Point","coordinates":[-83.88085,40.52774]}},{"properties":{"column_20":null,"city":"TOLEDO","column_21":null,"column_10":null,"latitude":41.69222,"zip":"43623","column_11":null,"column_12":null,"county":"LUCAS","column_13":null,"column_8":null,"column_14":null,"column_9":null,"column_15":null,"column_16":null,"column_17":null,"longitude":-83.68472,"id":"a6jeq18w12dy","column_18":null,"address":"4028 HOLLAND-SYLVANIA ROAD","column_19":null,"state":"OH"},"type":"Feature","geometry":{"type":"Point","coordinates":[-83.68472,41.69222]}},{"properties":{"column_20":null,"city":"SWANTON","column_21":null,"column_10":null,"latitude":41.59333,"zip":"43558","column_11":null,"column_12":null,"county":"LUCAS","column_13":null,"column_8":null,"column_14":null,"column_9":null,"column_15":null,"column_16":null,"column_17":null,"longitude":-83.81611,"id":"a6jeq1125gqh","column_18":null,"address":"11410 AIRPORT HIGHWAY","column_19":null,"state":"OH"},"type":"Feature","geometry":{"type":"Point","coordinates":[-83.81611,41.59333]}},{"properties":{"column_20":null,"city":"SYLVANIA","column_21":null,"column_10":null,"latitude":41.71553,"zip":"43560","column_11":null,"column_12":null,"county":"LUCAS","column_13":null,"column_8":null,"column_14":null,"column_9":null,"column_15":null,"column_16":null,"column_17":null,"longitude":-83.67915,"id":"a6jeq10j0mz6","column_18":null,"address":"5528 ALGER ROAD","column_19":null,"state":"OH"},"type":"Feature","geometry":{"type":"Point","coordinates":[-83.67915,41.71553]}},{"properties":{"column_20":null,"city":"SYLVANIA","column_21":null,"column_10":null,"latitude":41.67444,"zip":"43615","column_11":null,"column_12":null,"county":"LUCAS","column_13":null,"column_8":null,"column_14":null,"column_9":null,"column_15":null,"column_16":null,"column_17":null,"longitude":-83.75139,"id":"a6jeq15xbx4t","column_18":null,"address":"8700 WEST CENTRAL AVENUE","column_19":null,"state":"OH"},"type":"Feature","geometry":{"type":"Point","coordinates":[-83.75139,41.67444]}},{"properties":{"column_20":null,"city":"TOLEDO","column_21":null,"column_10":null,"latitude":41.67333,"zip":"43617","column_11":null,"column_12":null,"county":"LUCAS","column_13":null,"column_8":null,"column_14":null,"column_9":null,"column_15":null,"column_16":null,"column_17":null,"longitude":-83.70639,"id":"a6jeq0wdjdhz","column_18":null,"address":"6821 W. CENTRAL AVENUE","column_19":null,"state":"OH"},"type":"Feature","geometry":{"type":"Point","coordinates":[-83.70639,41.67333]}},{"properties":{"column_20":null,"city":"SYLVANIA","column_21":null,"column_10":null,"latitude":41.71289,"zip":"43560","column_11":null,"column_12":null,"county":"LUCAS","column_13":null,"column_8":null,"column_14":null,"column_9":null,"column_15":null,"column_16":null,"column_17":null,"longitude":-83.7425,"id":"a6jeq18duz6d","column_18":null,"address":"5506 NORTH CENTENNIAL ROAD","column_19":null,"state":"OH"},"type":"Feature","geometry":{"type":"Point","coordinates":[-83.7425,41.71289]}},{"properties":{"column_20":null,"city":"TOLEDO","column_21":null,"column_10":null,"latitude":41.7056,"zip":"43606","column_11":null,"column_12":null,"county":"LUCAS","column_13":null,"column_8":null,"column_14":null,"column_9":null,"column_15":null,"column_16":null,"column_17":null,"longitude":-83.6511,"id":"a6jeq10y1zam","column_18":null,"address":"5200 MONROE STREET","column_19":null,"state":"OH"},"type":"Feature","geometry":{"type":"Point","coordinates":[-83.6511,41.7056]}},{"properties":{"column_20":null,"city":"WHITEHOUSE","column_21":null,"column_10":null,"latitude":41.54125,"zip":"43571","column_11":null,"column_12":null,"county":"LUCAS","column_13":null,"column_8":null,"column_14":null,"column_9":null,"column_15":null,"column_16":null,"column_17":null,"longitude":-83.75375,"id":"a6jeq0vvpx83","column_18":null,"address":"5600 KEENER ROAD","column_19":null,"state":"OH"},"type":"Feature","geometry":{"type":"Point","coordinates":[-83.75375,41.54125]}},{"properties":{"column_20":null,"city":"SWANTON","column_21":null,"column_10":null,"latitude":41.5325,"zip":"43558","column_11":null,"column_12":null,"county":"LUCAS","column_13":null,"column_8":null,"column_14":null,"column_9":null,"column_15":null,"column_16":null,"column_17":null,"longitude":-83.85694,"id":"a6jeq0zdzzmm","column_18":null,"address":"13110 WATERVILLE SWANTON ROAD","column_19":null,"state":"OH"},"type":"Feature","geometry":{"type":"Point","coordinates":[-83.85694,41.5325]}},{"properties":{"column_20":null,"city":"WATERVILLE","column_21":null,"column_10":null,"latitude":41.49556,"zip":"43566","column_11":null,"column_12":null,"county":"LUCAS","column_13":null,"column_8":null,"column_14":null,"column_9":null,"column_15":null,"column_16":null,"column_17":null,"longitude":-83.73333,"id":"a6jeq12rvpiq","column_18":null,"address":"101 PARK DRIVE","column_19":null,"state":"OH"},"type":"Feature","geometry":{"type":"Point","coordinates":[-83.73333,41.49556]}},{"properties":{"column_20":null,"city":"BERKEY","column_21":null,"column_10":null,"latitude":41.67556,"zip":"43504","column_11":null,"column_12":null,"county":"LUCAS","column_13":null,"column_8":null,"column_14":null,"column_9":null,"column_15":null,"column_16":null,"column_17":null,"longitude":-83.83917,"id":"a6jeq14uu8tz","column_18":null,"address":"3115 NORTH BERKEY SOUTHERN ROAD","column_19":null,"state":"OH"},"type":"Feature","geometry":{"type":"Point","coordinates":[-83.83917,41.67556]}},{"properties":{"column_20":null,"city":"CURTICE","column_21":null,"column_10":null,"latitude":41.63917,"zip":"43412","column_11":null,"column_12":null,"county":"LUCAS","column_13":null,"column_8":null,"column_14":null,"column_9":null,"column_15":null,"column_16":null,"column_17":null,"longitude":-83.31889,"id":"a6jeq0zas1zr","column_18":null,"address":"9555 JERUSALEM ROAD","column_19":null,"state":"OH"},"type":"Feature","geometry":{"type":"Point","coordinates":[-83.31889,41.63917]}},{"properties":{"column_20":null,"city":"WATERVILLE","column_21":null,"column_10":null,"latitude":41.46222,"zip":"43566","column_11":null,"column_12":null,"county":"LUCAS","column_13":null,"column_8":null,"column_14":null,"column_9":null,"column_15":null,"column_16":null,"column_17":null,"longitude":-83.78583,"id":"a6jeq0xnozjs","column_18":null,"address":"HERTZFIELD M2","column_19":null,"state":"OH"},"type":"Feature","geometry":{"type":"Point","coordinates":[-83.78583,41.46222]}},{"properties":{"column_20":null,"city":"TOLEDO","column_21":null,"column_10":null,"latitude":41.68692,"zip":"43617","column_11":null,"column_12":null,"county":"LUCAS","column_13":null,"column_8":null,"column_14":null,"column_9":null,"column_15":null,"column_16":null,"column_17":null,"longitude":-83.72778,"id":"a6jeq0vdw8wu","column_18":null,"address":"7553 SYLVANIA ROAD","column_19":null,"state":"OH"},"type":"Feature","geometry":{"type":"Point","coordinates":[-83.72778,41.68692]}},{"properties":{"column_20":null,"city":"MOUNT STERLING","column_21":null,"column_10":null,"latitude":39.76889,"zip":"43143","column_11":null,"column_12":null,"county":"MADISON","column_13":null,"column_8":null,"column_14":null,"column_9":null,"column_15":null,"column_16":null,"column_17":null,"longitude":-83.27861,"id":"a6jeq1219bck","column_18":null,"address":"11900 KIOUSVILLE-PALESTINE ROAD","column_19":null,"state":"OH"},"type":"Feature","geometry":{"type":"Point","coordinates":[-83.27861,39.76889]}},{"properties":{"column_20":null,"city":"PLAIN CITY","column_21":null,"column_10":null,"latitude":40.0875,"zip":"43064","column_11":null,"column_12":null,"county":"MADISON","column_13":null,"column_8":null,"column_14":null,"column_9":null,"column_15":null,"column_16":null,"column_17":null,"longitude":-83.26472,"id":"a6jeq0tdluei","column_18":null,"address":"7575 CONVERSE HUFF RD","column_19":null,"state":"OH"},"type":"Feature","geometry":{"type":"Point","coordinates":[-83.26472,40.0875]}},{"properties":{"column_20":null,"city":"MOUNT STERLING","column_21":null,"column_10":null,"latitude":39.72917,"zip":"43143","column_11":null,"column_12":null,"county":"MADISON","column_13":null,"column_8":null,"column_14":null,"column_9":null,"column_15":null,"column_16":null,"column_17":null,"longitude":-83.36916,"id":"a6jeq0wz1oho","column_18":null,"address":"5552 STATE ROUTE 323","column_19":null,"state":"OH"},"type":"Feature","geometry":{"type":"Point","coordinates":[-83.36916,39.72917]}},{"properties":{"column_20":null,"city":"MARION","column_21":null,"column_10":null,"latitude":40.67228,"zip":"43302","column_11":null,"column_12":null,"county":"MARION","column_13":null,"column_8":null,"column_14":null,"column_9":null,"column_15":null,"column_16":null,"column_17":null,"longitude":-83.12544,"id":"a6jeq0umb0ku","column_18":null,"address":"699 MARSEILLES-GALION ROAD EAST","column_19":null,"state":"OH"},"type":"Feature","geometry":{"type":"Point","coordinates":[-83.12544,40.67228]}},{"properties":{"column_20":null,"city":"PROSPECT","column_21":null,"column_10":null,"latitude":40.53144,"zip":"43302","column_11":null,"column_12":null,"county":"MARION","column_13":null,"column_8":null,"column_14":null,"column_9":null,"column_15":null,"column_16":null,"column_17":null,"longitude":-83.19017,"id":"a6jeq0xizhof","column_18":null,"address":"STATE ROAD 203","column_19":null,"state":"OH"},"type":"Feature","geometry":{"type":"Point","coordinates":[-83.19017,40.53144]}},{"properties":{"column_20":null,"city":"PROSPECT","column_21":null,"column_10":null,"latitude":40.46703,"zip":"43342","column_11":null,"column_12":null,"county":"MARION","column_13":null,"column_8":null,"column_14":null,"column_9":null,"column_15":null,"column_16":null,"column_17":null,"longitude":-83.18794,"id":"a6jeq0u5w780","column_18":null,"address":"STATE ROAD 203 SOUTH","column_19":null,"state":"OH"},"type":"Feature","geometry":{"type":"Point","coordinates":[-83.18794,40.46703]}},{"properties":{"column_20":null,"city":"MARION","column_21":null,"column_10":null,"latitude":40.62336,"zip":"43302","column_11":null,"column_12":null,"county":"MARION","column_13":null,"column_8":null,"column_14":null,"column_9":null,"column_15":null,"column_16":null,"column_17":null,"longitude":-83.12883,"id":"a6jeq0y3uckp","column_18":null,"address":"1788 MARION-BUCYRUS ROAD","column_19":null,"state":"OH"},"type":"Feature","geometry":{"type":"Point","coordinates":[-83.12883,40.62336]}},{"properties":{"column_20":null,"city":"MARION","column_21":null,"column_10":null,"latitude":40.5269,"zip":"43302","column_11":null,"column_12":null,"county":"MARION","column_13":null,"column_8":null,"column_14":null,"column_9":null,"column_15":null,"column_16":null,"column_17":null,"longitude":-83.06742,"id":"a6jeq0w6smey","column_18":null,"address":"3123 RICHLAND PIKE","column_19":null,"state":"OH"},"type":"Feature","geometry":{"type":"Point","coordinates":[-83.06742,40.5269]}},{"properties":{"column_20":null,"city":"MARION","column_21":null,"column_10":null,"latitude":40.58611,"zip":"43302","column_11":null,"column_12":null,"county":"MARION","column_13":null,"column_8":null,"column_14":null,"column_9":null,"column_15":null,"column_16":null,"column_17":null,"longitude":-83.05647,"id":"a6jeq0uw8cf0","column_18":null,"address":"2772 MARION MOUNT GILEAD ROAD","column_19":null,"state":"OH"},"type":"Feature","geometry":{"type":"Point","coordinates":[-83.05647,40.58611]}},{"properties":{"column_20":null,"city":"WALDO","column_21":null,"column_10":null,"latitude":40.43947,"zip":"43356","column_11":null,"column_12":null,"county":"MARION","column_13":null,"column_8":null,"column_14":null,"column_9":null,"column_15":null,"column_16":null,"column_17":null,"longitude":-83.07513,"id":"a6jeq13b8b9b","column_18":null,"address":"7415 WALDO DELAWARE ROAD","column_19":null,"state":"OH"},"type":"Feature","geometry":{"type":"Point","coordinates":[-83.07513,40.43947]}},{"properties":{"column_20":null,"city":"MARION","column_21":null,"column_10":null,"latitude":40.56361,"zip":"43302","column_11":null,"column_12":null,"county":"MARION","column_13":null,"column_8":null,"column_14":null,"column_9":null,"column_15":null,"column_16":null,"column_17":null,"longitude":-83.13361,"id":"a6jeq0y4fq3m","column_18":null,"address":"445 BARKS ROAD WEST","column_19":null,"state":"OH"},"type":"Feature","geometry":{"type":"Point","coordinates":[-83.13361,40.56361]}},{"properties":{"column_20":null,"city":"CALEDONIA","column_21":null,"column_10":null,"latitude":40.57889,"zip":"43314","column_11":null,"column_12":null,"county":"MARION","column_13":null,"column_8":null,"column_14":null,"column_9":null,"column_15":null,"column_16":null,"column_17":null,"longitude":-82.96583,"id":"a6jeq10p0l8i","column_18":null,"address":"469 CALEDONIA ASHLEY ROAD SOUTH","column_19":null,"state":"OH"},"type":"Feature","geometry":{"type":"Point","coordinates":[-82.96583,40.57889]}},{"properties":{"column_20":null,"city":"CELINA","column_21":null,"column_10":null,"latitude":40.55933,"zip":"45822","column_11":null,"column_12":null,"county":"MERCER","column_13":null,"column_8":null,"column_14":null,"column_9":null,"column_15":null,"column_16":null,"column_17":null,"longitude":-84.61889,"id":"a6jeq0w982h3","column_18":null,"address":"4748 FAIRGROUND ROAD","column_19":null,"state":"OH"},"type":"Feature","geometry":{"type":"Point","coordinates":[-84.61889,40.55933]}},{"properties":{"column_20":null,"city":"SAINT HENRY","column_21":null,"column_10":null,"latitude":40.42889,"zip":"45883","column_11":null,"column_12":null,"county":"MERCER","column_13":null,"column_8":null,"column_14":null,"column_9":null,"column_15":null,"column_16":null,"column_17":null,"longitude":-84.61611,"id":"a6jeq0xv3uya","column_18":null,"address":"4900-C COOPER ROAD","column_19":null,"state":"OH"},"type":"Feature","geometry":{"type":"Point","coordinates":[-84.61611,40.42889]}},{"properties":{"column_20":null,"city":"FORT RECOVERY","column_21":null,"column_10":null,"latitude":40.4215,"zip":"45846","column_11":null,"column_12":null,"county":"MERCER","column_13":null,"column_8":null,"column_14":null,"column_9":null,"column_15":null,"column_16":null,"column_17":null,"longitude":-84.79117,"id":"a6jeq0u56ubi","column_18":null,"address":"367 ASHCRAFT ROAD","column_19":null,"state":"OH"},"type":"Feature","geometry":{"type":"Point","coordinates":[-84.79117,40.4215]}},{"properties":{"column_20":null,"city":"WEST MILTON","column_21":null,"column_10":null,"latitude":39.94836,"zip":"45383","column_11":null,"column_12":null,"county":"MIAMI","column_13":null,"column_8":null,"column_14":null,"column_9":null,"column_15":null,"column_16":null,"column_17":null,"longitude":-84.35456,"id":"a6jeq0tt8qjl","column_18":null,"address":"8190 WEST EMRICK ROAD","column_19":null,"state":"OH"},"type":"Feature","geometry":{"type":"Point","coordinates":[-84.35456,39.94836]}},{"properties":{"column_20":null,"city":"BRADFORD","column_21":null,"column_10":null,"latitude":40.11694,"zip":"45308","column_11":null,"column_12":null,"county":"MIAMI","column_13":null,"column_8":null,"column_14":null,"column_9":null,"column_15":null,"column_16":null,"column_17":null,"longitude":-84.42053,"id":"a6jeq0zrkofb","column_18":null,"address":"11425 WEST US ROUTE-36","column_19":null,"state":"OH"},"type":"Feature","geometry":{"type":"Point","coordinates":[-84.42053,40.11694]}},{"properties":{"column_20":null,"city":"CLAYTON","column_21":null,"column_10":null,"latitude":39.85344,"zip":"45315","column_11":null,"column_12":null,"county":"MONTGOMERY","column_13":null,"column_8":null,"column_14":null,"column_9":null,"column_15":null,"column_16":null,"column_17":null,"longitude":-84.35928,"id":"a6jeq15hzwrf","column_18":null,"address":"7790 KIMMEL ROAD","column_19":null,"state":"OH"},"type":"Feature","geometry":{"type":"Point","coordinates":[-84.35928,39.85344]}},{"properties":{"column_20":null,"city":"GERMANTOWN","column_21":null,"column_10":null,"latitude":39.63806,"zip":"45327","column_11":null,"column_12":null,"county":"MONTGOMERY","column_13":null,"column_8":null,"column_14":null,"column_9":null,"column_15":null,"column_16":null,"column_17":null,"longitude":-84.37139,"id":"a6jeq0vf0vfi","column_18":null,"address":"909 NORTH CHERRY STREET","column_19":null,"state":"OH"},"type":"Feature","geometry":{"type":"Point","coordinates":[-84.37139,39.63806]}},{"properties":{"column_20":null,"city":"CARDINGTON","column_21":null,"column_10":null,"latitude":40.47317,"zip":"43315","column_11":null,"column_12":null,"county":"MORROW","column_13":null,"column_8":null,"column_14":null,"column_9":null,"column_15":null,"column_16":null,"column_17":null,"longitude":-82.92718,"id":"a6jeq0vanmwt","column_18":null,"address":"3125 COUNTY ROAD 150","column_19":null,"state":"OH"},"type":"Feature","geometry":{"type":"Point","coordinates":[-82.92718,40.47317]}},{"properties":{"column_20":null,"city":"MOUNT GILEAD","column_21":null,"column_10":null,"latitude":40.55936,"zip":"43338","column_11":null,"column_12":null,"county":"MORROW","column_13":null,"column_8":null,"column_14":null,"column_9":null,"column_15":null,"column_16":null,"column_17":null,"longitude":-82.7669,"id":"a6jeq16kprs4","column_18":null,"address":"5618 US HIGHWAY 42","column_19":null,"state":"OH"},"type":"Feature","geometry":{"type":"Point","coordinates":[-82.7669,40.55936]}},{"properties":{"column_20":null,"city":"EDISON","column_21":null,"column_10":null,"latitude":40.54761,"zip":"43320","column_11":null,"column_12":null,"county":"MORROW","column_13":null,"column_8":null,"column_14":null,"column_9":null,"column_15":null,"column_16":null,"column_17":null,"longitude":-82.86025,"id":"a6jeq17r3os4","column_18":null,"address":"3293 TOWNSHIP ROAD 127","column_19":null,"state":"OH"},"type":"Feature","geometry":{"type":"Point","coordinates":[-82.86025,40.54761]}},{"properties":{"column_20":null,"city":"MOUNT GILEAD","column_21":null,"column_10":null,"latitude":40.5425,"zip":"43338","column_11":null,"column_12":null,"county":"MORROW","column_13":null,"column_8":null,"column_14":null,"column_9":null,"column_15":null,"column_16":null,"column_17":null,"longitude":-82.66111,"id":"a6jeq0xx8pdi","column_18":null,"address":"5171 STATE ROUTE 314","column_19":null,"state":"OH"},"type":"Feature","geometry":{"type":"Point","coordinates":[-82.66111,40.5425]}},{"properties":{"column_20":null,"city":"MARENGO","column_21":null,"column_10":null,"latitude":40.37972,"zip":"43334","column_11":null,"column_12":null,"county":"MORROW","column_13":null,"column_8":null,"column_14":null,"column_9":null,"column_15":null,"column_16":null,"column_17":null,"longitude":-82.81861,"id":"a6jeq16369nm","column_18":null,"address":"712 COUNTY ROAD 26","column_19":null,"state":"OH"},"type":"Feature","geometry":{"type":"Point","coordinates":[-82.81861,40.37972]}},{"properties":{"column_20":null,"city":"MARENGO","column_21":null,"column_10":null,"latitude":40.43969,"zip":"43334","column_11":null,"column_12":null,"county":"MORROW","column_13":null,"column_8":null,"column_14":null,"column_9":null,"column_15":null,"column_16":null,"column_17":null,"longitude":-82.79889,"id":"a6jeq16bc9dn","column_18":null,"address":"4499 COUNTY ROAD 179","column_19":null,"state":"OH"},"type":"Feature","geometry":{"type":"Point","coordinates":[-82.79889,40.43969]}},{"properties":{"column_20":null,"city":"MOUNT GILEAD","column_21":null,"column_10":null,"latitude":40.49789,"zip":"43338","column_11":null,"column_12":null,"county":"MORROW","column_13":null,"column_8":null,"column_14":null,"column_9":null,"column_15":null,"column_16":null,"column_17":null,"longitude":-82.72133,"id":"a6jeq196qaz0","column_18":null,"address":"6022 STATE ROUTE 95","column_19":null,"state":"OH"},"type":"Feature","geometry":{"type":"Point","coordinates":[-82.72133,40.49789]}},{"properties":{"column_20":null,"city":"PORT CLINTON","column_21":null,"column_10":null,"latitude":41.49322,"zip":"43452","column_11":null,"column_12":null,"county":"OTTAWA","column_13":null,"column_8":null,"column_14":null,"column_9":null,"column_15":null,"column_16":null,"column_17":null,"longitude":-83.15442,"id":"a6jeq0wuwyvo","column_18":null,"address":"1571 SOUTH APPLEGATE ROAD","column_19":null,"state":"OH"},"type":"Feature","geometry":{"type":"Point","coordinates":[-83.15442,41.49322]}},{"properties":{"column_20":null,"city":"PORT CLINTON","column_21":null,"column_10":null,"latitude":41.5091,"zip":"43452","column_11":null,"column_12":null,"county":"OTTAWA","column_13":null,"column_8":null,"column_14":null,"column_9":null,"column_15":null,"column_16":null,"column_17":null,"longitude":-82.95871,"id":"a6jeq0uhsfa0","column_18":null,"address":"1005 WEST THIRD STREET","column_19":null,"state":"OH"},"type":"Feature","geometry":{"type":"Point","coordinates":[-82.95871,41.5091]}},{"properties":{"column_20":null,"city":"PORT CLINTON","column_21":null,"column_10":null,"latitude":41.54965,"zip":"43452","column_11":null,"column_12":null,"county":"OTTAWA","column_13":null,"column_8":null,"column_14":null,"column_9":null,"column_15":null,"column_16":null,"column_17":null,"longitude":-83.05805,"id":"a6jeq1904ido","column_18":null,"address":"6505 WEST CAMP PERRY WESTERN ROAD","column_19":null,"state":"OH"},"type":"Feature","geometry":{"type":"Point","coordinates":[-83.05805,41.54965]}},{"properties":{"column_20":null,"city":"OAK HARBOR","column_21":null,"column_10":null,"latitude":41.61053,"zip":"43449","column_11":null,"column_12":null,"county":"OTTAWA","column_13":null,"column_8":null,"column_14":null,"column_9":null,"column_15":null,"column_16":null,"column_17":null,"longitude":-83.11525,"id":"a6jeq0zlcjfw","column_18":null,"address":"9522 LONG BEACH ROAD","column_19":null,"state":"OH"},"type":"Feature","geometry":{"type":"Point","coordinates":[-83.11525,41.61053]}},{"properties":{"column_20":null,"city":"OAK HARBOR","column_21":null,"column_10":null,"latitude":41.58981,"zip":"43449","column_11":null,"column_12":null,"county":"OTTAWA","column_13":null,"column_8":null,"column_14":null,"column_9":null,"column_15":null,"column_16":null,"column_17":null,"longitude":-83.22145,"id":"a6jeq10dgjch","column_18":null,"address":"5183 NORTH STATE ROUTE 590","column_19":null,"state":"OH"},"type":"Feature","geometry":{"type":"Point","coordinates":[-83.22145,41.58981]}},{"properties":{"column_20":null,"city":"PUT IN BAY","column_21":null,"column_10":null,"latitude":41.64472,"zip":"43456","column_11":null,"column_12":null,"county":"OTTAWA","column_13":null,"column_8":null,"column_14":null,"column_9":null,"column_15":null,"column_16":null,"column_17":null,"longitude":-82.83528,"id":"a6jeq18ytjcu","column_18":null,"address":"1380 WARDEN AVENUE","column_19":null,"state":"OH"},"type":"Feature","geometry":{"type":"Point","coordinates":[-82.83528,41.64472]}},{"properties":{"column_20":null,"city":"PORT CLINTON","column_21":null,"column_10":null,"latitude":41.575,"zip":"43452","column_11":null,"column_12":null,"county":"OTTAWA","column_13":null,"column_8":null,"column_14":null,"column_9":null,"column_15":null,"column_16":null,"column_17":null,"longitude":-82.84694,"id":"a6jeq12jf443","column_18":null,"address":"3742 NORTHWEST CATAWBA ROAD","column_19":null,"state":"OH"},"type":"Feature","geometry":{"type":"Point","coordinates":[-82.84694,41.575]}},{"properties":{"column_20":null,"city":"LAKESIDE-MARBLEHEAD","column_21":null,"column_10":null,"latitude":41.52528,"zip":"43440","column_11":null,"column_12":null,"county":"OTTAWA","column_13":null,"column_8":null,"column_14":null,"column_9":null,"column_15":null,"column_16":null,"column_17":null,"longitude":-82.77611,"id":"a6jeq13c45a4","column_18":null,"address":"8286 HARBOR ROAD","column_19":null,"state":"OH"},"type":"Feature","geometry":{"type":"Point","coordinates":[-82.77611,41.52528]}},{"properties":{"column_20":null,"city":"LAKESIDE-MARBLEHEAD","column_21":null,"column_10":null,"latitude":41.52556,"zip":"43440","column_11":null,"column_12":null,"county":"OTTAWA","column_13":null,"column_8":null,"column_14":null,"column_9":null,"column_15":null,"column_16":null,"column_17":null,"longitude":-82.83194,"id":"a6jeq12axvyc","column_18":null,"address":"310 SOUTHBRIDGE ROAD","column_19":null,"state":"OH"},"type":"Feature","geometry":{"type":"Point","coordinates":[-82.83194,41.52556]}},{"properties":{"column_20":null,"city":"PIKETON","column_21":null,"column_10":null,"latitude":39.03528,"zip":"45661","column_11":null,"column_12":null,"county":"PIKE","column_13":null,"column_8":null,"column_14":null,"column_9":null,"column_15":null,"column_16":null,"column_17":null,"longitude":-83.06306,"id":"a6jeq18zxp5n","column_18":null,"address":"4956 LONG FORK ROAD","column_19":null,"state":"OH"},"type":"Feature","geometry":{"type":"Point","coordinates":[-83.06306,39.03528]}},{"properties":{"column_20":null,"city":"BEAVER","column_21":null,"column_10":null,"latitude":39.03964,"zip":"45613","column_11":null,"column_12":null,"county":"PIKE","column_13":null,"column_8":null,"column_14":null,"column_9":null,"column_15":null,"column_16":null,"column_17":null,"longitude":-82.83511,"id":"a6jeq17wxt6u","column_18":null,"address":"4903 BEAVER PIKE","column_19":null,"state":"OH"},"type":"Feature","geometry":{"type":"Point","coordinates":[-82.83511,39.03964]}},{"properties":{"column_20":null,"city":"WAVERLY","column_21":null,"column_10":null,"latitude":39.125,"zip":"45690","column_11":null,"column_12":null,"county":"PIKE","column_13":null,"column_8":null,"column_14":null,"column_9":null,"column_15":null,"column_16":null,"column_17":null,"longitude":-82.99199,"id":"a6jeq0ukh5r5","column_18":null,"address":"215 GRANDVIEW DRIVE","column_19":null,"state":"OH"},"type":"Feature","geometry":{"type":"Point","coordinates":[-82.99199,39.125]}},{"properties":{"column_20":null,"city":"PEEBLES","column_21":null,"column_10":null,"latitude":39.02417,"zip":"45660","column_11":null,"column_12":null,"county":"PIKE","column_13":null,"column_8":null,"column_14":null,"column_9":null,"column_15":null,"column_16":null,"column_17":null,"longitude":-83.27639,"id":"a6jeq0xp425d","column_18":null,"address":"277 MOUSER ROAD","column_19":null,"state":"OH"},"type":"Feature","geometry":{"type":"Point","coordinates":[-83.27639,39.02417]}},{"properties":{"column_20":null,"city":"EATON","column_21":null,"column_10":null,"latitude":39.73747,"zip":"45320","column_11":null,"column_12":null,"county":"PREBLE","column_13":null,"column_8":null,"column_14":null,"column_9":null,"column_15":null,"column_16":null,"column_17":null,"longitude":-84.62019,"id":"a6jeq10tre83","column_18":null,"address":"722-B SOUTH FRANKLIN STREET","column_19":null,"state":"OH"},"type":"Feature","geometry":{"type":"Point","coordinates":[-84.62019,39.73747]}},{"properties":{"column_20":null,"city":"CAMDEN","column_21":null,"column_10":null,"latitude":39.63444,"zip":"45311","column_11":null,"column_12":null,"county":"PREBLE","column_13":null,"column_8":null,"column_14":null,"column_9":null,"column_15":null,"column_16":null,"column_17":null,"longitude":-84.65917,"id":"a6jeq0z4gmpa","column_18":null,"address":"8045 CAMDEN SUGAR VALLEY ROAD","column_19":null,"state":"OH"},"type":"Feature","geometry":{"type":"Point","coordinates":[-84.65917,39.63444]}},{"properties":{"column_20":null,"city":"NEW PARIS","column_21":null,"column_10":null,"latitude":39.83944,"zip":"45347","column_11":null,"column_12":null,"county":"PREBLE","column_13":null,"column_8":null,"column_14":null,"column_9":null,"column_15":null,"column_16":null,"column_17":null,"longitude":-84.79167,"id":"a6jeq0tqoygz","column_18":null,"address":"7978 STATE ROUTE 320","column_19":null,"state":"OH"},"type":"Feature","geometry":{"type":"Point","coordinates":[-84.79167,39.83944]}},{"properties":{"column_20":null,"city":"MANSFIELD","column_21":null,"column_10":null,"latitude":40.67447,"zip":"44904","column_11":null,"column_12":null,"county":"RICHLAND","column_13":null,"column_8":null,"column_14":null,"column_9":null,"column_15":null,"column_16":null,"column_17":null,"longitude":-82.52167,"id":"a6jeq0v6jy5q","column_18":null,"address":"309 VANDERBILT ROAD","column_19":null,"state":"OH"},"type":"Feature","geometry":{"type":"Point","coordinates":[-82.52167,40.67447]}},{"properties":{"column_20":null,"city":"MANSFIELD","column_21":null,"column_10":null,"latitude":40.77661,"zip":"44904","column_11":null,"column_12":null,"county":"RICHLAND","column_13":null,"column_8":null,"column_14":null,"column_9":null,"column_15":null,"column_16":null,"column_17":null,"longitude":-82.47886,"id":"a6jeq0zf94yw","column_18":null,"address":"680 PENNSYLVANIA AVENUE","column_19":null,"state":"OH"},"type":"Feature","geometry":{"type":"Point","coordinates":[-82.47886,40.77661]}},{"properties":{"column_20":null,"city":"MANSFIELD","column_21":null,"column_10":null,"latitude":40.73547,"zip":"44907","column_11":null,"column_12":null,"county":"RICHLAND","column_13":null,"column_8":null,"column_14":null,"column_9":null,"column_15":null,"column_16":null,"column_17":null,"longitude":-82.52944,"id":"a6jeq17wmcf6","column_18":null,"address":"665 R LEXINGTON AVENUE","column_19":null,"state":"OH"},"type":"Feature","geometry":{"type":"Point","coordinates":[-82.52944,40.73547]}},{"properties":{"column_20":null,"city":"ONTARIO","column_21":null,"column_10":null,"latitude":40.77419,"zip":"44862","column_11":null,"column_12":null,"county":"RICHLAND","column_13":null,"column_8":null,"column_14":null,"column_9":null,"column_15":null,"column_16":null,"column_17":null,"longitude":-82.61142,"id":"a6jeq15ncurb","column_18":null,"address":"2715 W 4TH ST","column_19":null,"state":"OH"},"type":"Feature","geometry":{"type":"Point","coordinates":[-82.61142,40.77419]}},{"properties":{"column_20":null,"city":"MANSFIELD","column_21":null,"column_10":null,"latitude":40.72383,"zip":"44903","column_11":null,"column_12":null,"county":"RICHLAND","column_13":null,"column_8":null,"column_14":null,"column_9":null,"column_15":null,"column_16":null,"column_17":null,"longitude":-82.47925,"id":"a6jeq0xcaz1w","column_18":null,"address":"1654 MANSFIELD LUCAS ROAD","column_19":null,"state":"OH"},"type":"Feature","geometry":{"type":"Point","coordinates":[-82.47925,40.72383]}},{"properties":{"column_20":null,"city":"MANSFIELD","column_21":null,"column_10":null,"latitude":40.77864,"zip":"44903","column_11":null,"column_12":null,"county":"RICHLAND","column_13":null,"column_8":null,"column_14":null,"column_9":null,"column_15":null,"column_16":null,"column_17":null,"longitude":-82.41555,"id":"a6jeq0u5vbrg","column_18":null,"address":"2607 EMMA STREET","column_19":null,"state":"OH"},"type":"Feature","geometry":{"type":"Point","coordinates":[-82.41555,40.77864]}},{"properties":{"column_20":null,"city":"BELLVILLE","column_21":null,"column_10":null,"latitude":40.65697,"zip":"44813","column_11":null,"column_12":null,"county":"RICHLAND","column_13":null,"column_8":null,"column_14":null,"column_9":null,"column_15":null,"column_16":null,"column_17":null,"longitude":-82.54207,"id":"a6jeq166iccv","column_18":null,"address":"970 STATE ROUTE 97","column_19":null,"state":"OH"},"type":"Feature","geometry":{"type":"Point","coordinates":[-82.54207,40.65697]}},{"properties":{"column_20":null,"city":"BELLVILLE","column_21":null,"column_10":null,"latitude":40.59835,"zip":"44813","column_11":null,"column_12":null,"county":"RICHLAND","column_13":null,"column_8":null,"column_14":null,"column_9":null,"column_15":null,"column_16":null,"column_17":null,"longitude":-82.59374,"id":"a6jeq11uhbb8","column_18":null,"address":"2285 WOODBURY ROAD","column_19":null,"state":"OH"},"type":"Feature","geometry":{"type":"Point","coordinates":[-82.59374,40.59835]}},{"properties":{"column_20":null,"city":"MANSFIELD","column_21":null,"column_10":null,"latitude":40.81931,"zip":"44903","column_11":null,"column_12":null,"county":"RICHLAND","column_13":null,"column_8":null,"column_14":null,"column_9":null,"column_15":null,"column_16":null,"column_17":null,"longitude":-82.56012,"id":"a6jeq0x8azid","column_18":null,"address":"2412 KLINE ROAD","column_19":null,"state":"OH"},"type":"Feature","geometry":{"type":"Point","coordinates":[-82.56012,40.81931]}},{"properties":{"column_20":null,"city":"MANSFIELD","column_21":null,"column_10":null,"latitude":40.7155,"zip":"44903","column_11":null,"column_12":null,"county":"RICHLAND","column_13":null,"column_8":null,"column_14":null,"column_9":null,"column_15":null,"column_16":null,"column_17":null,"longitude":-82.56889,"id":"a6jeq0utqb5b","column_18":null,"address":"1570 WEST COOK ROAD","column_19":null,"state":"OH"},"type":"Feature","geometry":{"type":"Point","coordinates":[-82.56889,40.7155]}},{"properties":{"column_20":null,"city":"MANSFIELD","column_21":null,"column_10":null,"latitude":40.7575,"zip":"44903","column_11":null,"column_12":null,"county":"RICHLAND","column_13":null,"column_8":null,"column_14":null,"column_9":null,"column_15":null,"column_16":null,"column_17":null,"longitude":-82.52889,"id":"a6jeq17v5qxs","column_18":null,"address":"156 MARION AVENUE","column_19":null,"state":"OH"},"type":"Feature","geometry":{"type":"Point","coordinates":[-82.52889,40.7575]}},{"properties":{"column_20":null,"city":"MANSFIELD","column_21":null,"column_10":null,"latitude":40.74556,"zip":"44905","column_11":null,"column_12":null,"county":"RICHLAND","column_13":null,"column_8":null,"column_14":null,"column_9":null,"column_15":null,"column_16":null,"column_17":null,"longitude":-82.455,"id":"a6jeq1931srw","column_18":null,"address":"437 SOUTH FORD ROAD","column_19":null,"state":"OH"},"type":"Feature","geometry":{"type":"Point","coordinates":[-82.455,40.74556]}},{"properties":{"column_20":null,"city":"SHELBY","column_21":null,"column_10":null,"latitude":40.87944,"zip":"44875","column_11":null,"column_12":null,"county":"RICHLAND","column_13":null,"column_8":null,"column_14":null,"column_9":null,"column_15":null,"column_16":null,"column_17":null,"longitude":-82.58723,"id":"a6jeq0wyl33z","column_18":null,"address":"4645 BOWMAN STREET ROAD","column_19":null,"state":"OH"},"type":"Feature","geometry":{"type":"Point","coordinates":[-82.58723,40.87944]}},{"properties":{"column_20":null,"city":"SHELBY","column_21":null,"column_10":null,"latitude":40.84611,"zip":"44875","column_11":null,"column_12":null,"county":"RICHLAND","column_13":null,"column_8":null,"column_14":null,"column_9":null,"column_15":null,"column_16":null,"column_17":null,"longitude":-82.65611,"id":"a6jeq14ctydw","column_18":null,"address":"4034 STIVING ROAD","column_19":null,"state":"OH"},"type":"Feature","geometry":{"type":"Point","coordinates":[-82.65611,40.84611]}},{"properties":{"column_20":null,"city":"MANSFIELD","column_21":null,"column_10":null,"latitude":40.675,"zip":"44904","column_11":null,"column_12":null,"county":"RICHLAND","column_13":null,"column_8":null,"column_14":null,"column_9":null,"column_15":null,"column_16":null,"column_17":null,"longitude":-82.61922,"id":"a6jeq0wgu4xd","column_18":null,"address":"2912 PENNY LANE","column_19":null,"state":"OH"},"type":"Feature","geometry":{"type":"Point","coordinates":[-82.61922,40.675]}},{"properties":{"column_20":null,"city":"MANSFIELD","column_21":null,"column_10":null,"latitude":40.78644,"zip":"44906","column_11":null,"column_12":null,"county":"RICHLAND","column_13":null,"column_8":null,"column_14":null,"column_9":null,"column_15":null,"column_16":null,"column_17":null,"longitude":-82.55875,"id":"a6jeq0uansgc","column_18":null,"address":"1043 SPRINGMILL ROAD","column_19":null,"state":"OH"},"type":"Feature","geometry":{"type":"Point","coordinates":[-82.55875,40.78644]}},{"properties":{"column_20":null,"city":"WAVERLY","column_21":null,"column_10":null,"latitude":39.19639,"zip":"45690","column_11":null,"column_12":null,"county":"ROSS","column_13":null,"column_8":null,"column_14":null,"column_9":null,"column_15":null,"column_16":null,"column_17":null,"longitude":-82.98528,"id":"a6jeq11o1wuu","column_18":null,"address":"MEAD PAPER PROPERTY DEBORD ROAD","column_19":null,"state":"OH"},"type":"Feature","geometry":{"type":"Point","coordinates":[-82.98528,39.19639]}},{"properties":{"column_20":null,"city":"CHILLICOTHE","column_21":null,"column_10":null,"latitude":39.26056,"zip":"45601","column_11":null,"column_12":null,"county":"ROSS","column_13":null,"column_8":null,"column_14":null,"column_9":null,"column_15":null,"column_16":null,"column_17":null,"longitude":-82.97389,"id":"a6jeq0w9gjh7","column_18":null,"address":"6157 US HIGHWAY 23","column_19":null,"state":"OH"},"type":"Feature","geometry":{"type":"Point","coordinates":[-82.97389,39.26056]}},{"properties":{"column_20":null,"city":"CHILLICOTHE","column_21":null,"column_10":null,"latitude":39.22056,"zip":"45601","column_11":null,"column_12":null,"county":"ROSS","column_13":null,"column_8":null,"column_14":null,"column_9":null,"column_15":null,"column_16":null,"column_17":null,"longitude":-82.84083,"id":"a6jeq123bvy7","column_18":null,"address":"33005 US ROUTE 35","column_19":null,"state":"OH"},"type":"Feature","geometry":{"type":"Point","coordinates":[-82.84083,39.22056]}},{"properties":{"column_20":null,"city":"CHILLICOTHE","column_21":null,"column_10":null,"latitude":39.32306,"zip":"45601","column_11":null,"column_12":null,"county":"ROSS","column_13":null,"column_8":null,"column_14":null,"column_9":null,"column_15":null,"column_16":null,"column_17":null,"longitude":-83.06194,"id":"a6jeq12oxapz","column_18":null,"address":"245 RED BIRD LANE","column_19":null,"state":"OH"},"type":"Feature","geometry":{"type":"Point","coordinates":[-83.06194,39.32306]}},{"properties":{"column_20":null,"city":"CHILLICOTHE","column_21":null,"column_10":null,"latitude":39.32361,"zip":"45601","column_11":null,"column_12":null,"county":"ROSS","column_13":null,"column_8":null,"column_14":null,"column_9":null,"column_15":null,"column_16":null,"column_17":null,"longitude":-82.98139,"id":"a6jeq0z41i4i","column_18":null,"address":"BROOKSIDE AVENUE","column_19":null,"state":"OH"},"type":"Feature","geometry":{"type":"Point","coordinates":[-82.98139,39.32361]}},{"properties":{"column_20":null,"city":"CHILLICOTHE","column_21":null,"column_10":null,"latitude":39.345,"zip":"45601","column_11":null,"column_12":null,"county":"ROSS","column_13":null,"column_8":null,"column_14":null,"column_9":null,"column_15":null,"column_16":null,"column_17":null,"longitude":-83.01833,"id":"a6jeq0ysqxvt","column_18":null,"address":"48 1/2 FRUIT HILL DRIVE","column_19":null,"state":"OH"},"type":"Feature","geometry":{"type":"Point","coordinates":[-83.01833,39.345]}},{"properties":{"column_20":null,"city":"FRANKFORT","column_21":null,"column_10":null,"latitude":39.40436,"zip":"45628","column_11":null,"column_12":null,"county":"ROSS","column_13":null,"column_8":null,"column_14":null,"column_9":null,"column_15":null,"column_16":null,"column_17":null,"longitude":-83.12675,"id":"a6jeq0y5rl3i","column_18":null,"address":"1291 SIMMONS ROAD","column_19":null,"state":"OH"},"type":"Feature","geometry":{"type":"Point","coordinates":[-83.12675,39.40436]}},{"properties":{"column_20":null,"city":"CHILLICOTHE","column_21":null,"column_10":null,"latitude":39.47149,"zip":"45601","column_11":null,"column_12":null,"county":"ROSS","column_13":null,"column_8":null,"column_14":null,"column_9":null,"column_15":null,"column_16":null,"column_17":null,"longitude":-82.95021,"id":"a6jeq0tkyl2n","column_18":null,"address":"476 IMMELL ROAD","column_19":null,"state":"OH"},"type":"Feature","geometry":{"type":"Point","coordinates":[-82.95021,39.47149]}},{"properties":{"column_20":null,"city":"BOURNEVILLE","column_21":null,"column_10":null,"latitude":39.23417,"zip":"45617","column_11":null,"column_12":null,"county":"ROSS","column_13":null,"column_8":null,"column_14":null,"column_9":null,"column_15":null,"column_16":null,"column_17":null,"longitude":-83.19417,"id":"a6jeq0y8y2mm","column_18":null,"address":"1067 COPPERAS MOUNTAIN ROAD","column_19":null,"state":"OH"},"type":"Feature","geometry":{"type":"Point","coordinates":[-83.19417,39.23417]}},{"properties":{"column_20":null,"city":"CHILLICOTHE","column_21":null,"column_10":null,"latitude":39.35875,"zip":"45601","column_11":null,"column_12":null,"county":"ROSS","column_13":null,"column_8":null,"column_14":null,"column_9":null,"column_15":null,"column_16":null,"column_17":null,"longitude":-82.96834,"id":"a6jeq11xkbxd","column_18":null,"address":"747 MARIETTA PIKE","column_19":null,"state":"OH"},"type":"Feature","geometry":{"type":"Point","coordinates":[-82.96834,39.35875]}},{"properties":{"column_20":null,"city":"BELLEVUE","column_21":null,"column_10":null,"latitude":41.35996,"zip":"44811","column_11":null,"column_12":null,"county":"SANDUSKY","column_13":null,"column_8":null,"column_14":null,"column_9":null,"column_15":null,"column_16":null,"column_17":null,"longitude":-82.87489,"id":"a6jeq13hb5f0","column_18":null,"address":"665 COUNTY LINE ROAD 302","column_19":null,"state":"OH"},"type":"Feature","geometry":{"type":"Point","coordinates":[-82.87489,41.35996]}},{"properties":{"column_20":null,"city":"GENOA","column_21":null,"column_10":null,"latitude":41.49328,"zip":"43430","column_11":null,"column_12":null,"county":"SANDUSKY","column_13":null,"column_8":null,"column_14":null,"column_9":null,"column_15":null,"column_16":null,"column_17":null,"longitude":-83.37687,"id":"a6jeq175tbga","column_18":null,"address":"5325 TOWNSHIP HIGHWAY 28","column_19":null,"state":"OH"},"type":"Feature","geometry":{"type":"Point","coordinates":[-83.37687,41.49328]}},{"properties":{"column_20":null,"city":"LINDSEY","column_21":null,"column_10":null,"latitude":41.44728,"zip":"43442","column_11":null,"column_12":null,"county":"SANDUSKY","column_13":null,"column_8":null,"column_14":null,"column_9":null,"column_15":null,"column_16":null,"column_17":null,"longitude":-83.25878,"id":"a6jeq18z0ox2","column_18":null,"address":"3723 COUNTY ROAD 82","column_19":null,"state":"OH"},"type":"Feature","geometry":{"type":"Point","coordinates":[-83.25878,41.44728]}},{"properties":{"column_20":null,"city":"LUCASVILLE","column_21":null,"column_10":null,"latitude":38.87306,"zip":"45648","column_11":null,"column_12":null,"county":"SCIOTO","column_13":null,"column_8":null,"column_14":null,"column_9":null,"column_15":null,"column_16":null,"column_17":null,"longitude":-83.03083,"id":"a6jeq10921n6","column_18":null,"address":"CROWE HOLLOW ROAD","column_19":null,"state":"OH"},"type":"Feature","geometry":{"type":"Point","coordinates":[-83.03083,38.87306]}},{"properties":{"column_20":null,"city":"MINFORD","column_21":null,"column_10":null,"latitude":38.85528,"zip":"45653","column_11":null,"column_12":null,"county":"SCIOTO","column_13":null,"column_8":null,"column_14":null,"column_9":null,"column_15":null,"column_16":null,"column_17":null,"longitude":-82.81222,"id":"a6jeq0vyy27o","column_18":null,"address":"2457C GLADES ROAD","column_19":null,"state":"OH"},"type":"Feature","geometry":{"type":"Point","coordinates":[-82.81222,38.85528]}},{"properties":{"column_20":null,"city":"ANNA","column_21":null,"column_10":null,"latitude":40.40339,"zip":"45302","column_11":null,"column_12":null,"county":"SHELBY","column_13":null,"column_8":null,"column_14":null,"column_9":null,"column_15":null,"column_16":null,"column_17":null,"longitude":-84.16847,"id":"a6jeq106sb9f","column_18":null,"address":"14010 COUNTY ROAD 25A","column_19":null,"state":"OH"},"type":"Feature","geometry":{"type":"Point","coordinates":[-84.16847,40.40339]}},{"properties":{"column_20":null,"city":"SIDNEY","column_21":null,"column_10":null,"latitude":40.26119,"zip":"45365","column_11":null,"column_12":null,"county":"SHELBY","column_13":null,"column_8":null,"column_14":null,"column_9":null,"column_15":null,"column_16":null,"column_17":null,"longitude":-84.18686,"id":"a6jeq0xbz3ol","column_18":null,"address":"1940 VANDEMARK RD","column_19":null,"state":"OH"},"type":"Feature","geometry":{"type":"Point","coordinates":[-84.18686,40.26119]}},{"properties":{"column_20":null,"city":"SIDNEY","column_21":null,"column_10":null,"latitude":40.29626,"zip":"45365","column_11":null,"column_12":null,"county":"SHELBY","column_13":null,"column_8":null,"column_14":null,"column_9":null,"column_15":null,"column_16":null,"column_17":null,"longitude":-84.16355,"id":"a6jeq0vmc79e","column_18":null,"address":"505 GOODE STREET","column_19":null,"state":"OH"},"type":"Feature","geometry":{"type":"Point","coordinates":[-84.16355,40.29626]}},{"properties":{"column_20":null,"city":"PLAIN CITY","column_21":null,"column_10":null,"latitude":40.14944,"zip":"43064","column_11":null,"column_12":null,"county":"UNION","column_13":null,"column_8":null,"column_14":null,"column_9":null,"column_15":null,"column_16":null,"column_17":null,"longitude":-83.22236,"id":"a6jeq12owu53","column_18":null,"address":"9350 INDUSTRIAL PARKWAY","column_19":null,"state":"OH"},"type":"Feature","geometry":{"type":"Point","coordinates":[-83.22236,40.14944]}},{"properties":{"column_20":null,"city":"RICHWOOD","column_21":null,"column_10":null,"latitude":40.39694,"zip":"43344","column_11":null,"column_12":null,"county":"UNION","column_13":null,"column_8":null,"column_14":null,"column_9":null,"column_15":null,"column_16":null,"column_17":null,"longitude":-83.26844,"id":"a6jeq14xqwwx","column_18":null,"address":"26881 STATE ROAD 4","column_19":null,"state":"OH"},"type":"Feature","geometry":{"type":"Point","coordinates":[-83.26844,40.39694]}},{"properties":{"column_20":null,"city":"PLAIN CITY","column_21":null,"column_10":null,"latitude":40.16389,"zip":"43064","column_11":null,"column_12":null,"county":"UNION","column_13":null,"column_8":null,"column_14":null,"column_9":null,"column_15":null,"column_16":null,"column_17":null,"longitude":-83.18083,"id":"a6jeq165t29y","column_18":null,"address":"7530 BROCK ROAD","column_19":null,"state":"OH"},"type":"Feature","geometry":{"type":"Point","coordinates":[-83.18083,40.16389]}},{"properties":{"column_20":null,"city":"MARYSVILLE","column_21":null,"column_10":null,"latitude":40.17778,"zip":"43040","column_11":null,"column_12":null,"county":"UNION","column_13":null,"column_8":null,"column_14":null,"column_9":null,"column_15":null,"column_16":null,"column_17":null,"longitude":-83.23778,"id":"a6jeq158hff6","column_18":null,"address":"11484 WATKINS-CALIFORNIA ROAD","column_19":null,"state":"OH"},"type":"Feature","geometry":{"type":"Point","coordinates":[-83.23778,40.17778]}},{"properties":{"column_20":null,"city":"MARYSVILLE","column_21":null,"column_10":null,"latitude":40.20028,"zip":"43040","column_11":null,"column_12":null,"county":"UNION","column_13":null,"column_8":null,"column_14":null,"column_9":null,"column_15":null,"column_16":null,"column_17":null,"longitude":-83.375,"id":"a6jeq0t2jzn1","column_18":null,"address":"13436 STATE ROAD 38","column_19":null,"state":"OH"},"type":"Feature","geometry":{"type":"Point","coordinates":[-83.375,40.20028]}},{"properties":{"column_20":null,"city":"RAYMOND","column_21":null,"column_10":null,"latitude":40.30972,"zip":"43067","column_11":null,"column_12":null,"county":"UNION","column_13":null,"column_8":null,"column_14":null,"column_9":null,"column_15":null,"column_16":null,"column_17":null,"longitude":-83.505,"id":"a6jeq18ncxw2","column_18":null,"address":"21840 STATE ROAD 739","column_19":null,"state":"OH"},"type":"Feature","geometry":{"type":"Point","coordinates":[-83.505,40.30972]}},{"properties":{"column_20":null,"city":"MARYSVILLE","column_21":null,"column_10":null,"latitude":40.26172,"zip":"43040","column_11":null,"column_12":null,"county":"UNION","column_13":null,"column_8":null,"column_14":null,"column_9":null,"column_15":null,"column_16":null,"column_17":null,"longitude":-83.27328,"id":"a6jeq11tzunq","column_18":null,"address":"11902 HIGHWAY 36","column_19":null,"state":"OH"},"type":"Feature","geometry":{"type":"Point","coordinates":[-83.27328,40.26172]}},{"properties":{"column_20":null,"city":"MARYSVILLE","column_21":null,"column_10":null,"latitude":40.23637,"zip":"43040","column_11":null,"column_12":null,"county":"UNION","column_13":null,"column_8":null,"column_14":null,"column_9":null,"column_15":null,"column_16":null,"column_17":null,"longitude":-83.34956,"id":"a6jeq174tk00","column_18":null,"address":"1009 DELAWARE AVENUE","column_19":null,"state":"OH"},"type":"Feature","geometry":{"type":"Point","coordinates":[-83.34956,40.23637]}},{"properties":{"column_20":null,"city":"MARYSVILLE","column_21":null,"column_10":null,"latitude":40.26,"zip":"43040","column_11":null,"column_12":null,"county":"UNION","column_13":null,"column_8":null,"column_14":null,"column_9":null,"column_15":null,"column_16":null,"column_17":null,"longitude":-83.375,"id":"a6jeq17upprm","column_18":null,"address":"17825 DOG LEG ROAD","column_19":null,"state":"OH"},"type":"Feature","geometry":{"type":"Point","coordinates":[-83.375,40.26]}},{"properties":{"column_20":null,"city":"MARYSVILLE","column_21":null,"column_10":null,"latitude":40.23872,"zip":"43040","column_11":null,"column_12":null,"county":"UNION","column_13":null,"column_8":null,"column_14":null,"column_9":null,"column_15":null,"column_16":null,"column_17":null,"longitude":-83.40789,"id":"a6jeq0vakqas","column_18":null,"address":"19105 STATE ROAD 245","column_19":null,"state":"OH"},"type":"Feature","geometry":{"type":"Point","coordinates":[-83.40789,40.23872]}},{"properties":{"column_20":null,"city":"MARYSVILLE","column_21":null,"column_10":null,"latitude":40.26833,"zip":"43040","column_11":null,"column_12":null,"county":"UNION","column_13":null,"column_8":null,"column_14":null,"column_9":null,"column_15":null,"column_16":null,"column_17":null,"longitude":-83.49,"id":"a6jeq156tmxa","column_18":null,"address":"23225 NORTHWEST PARKWAY","column_19":null,"state":"OH"},"type":"Feature","geometry":{"type":"Point","coordinates":[-83.49,40.26833]}},{"properties":{"column_20":null,"city":"OREGONIA","column_21":null,"column_10":null,"latitude":39.421,"zip":"45054","column_11":null,"column_12":null,"county":"WARREN","column_13":null,"column_8":null,"column_14":null,"column_9":null,"column_15":null,"column_16":null,"column_17":null,"longitude":-84.123,"id":"a6jeq0zfwfux","column_18":null,"address":"329 SOUTH NIXON CAMP ROAD","column_19":null,"state":"OH"},"type":"Feature","geometry":{"type":"Point","coordinates":[-84.123,39.421]}},{"properties":{"column_20":null,"city":"MASON","column_21":null,"column_10":null,"latitude":39.3885,"zip":"45040","column_11":null,"column_12":null,"county":"WARREN","column_13":null,"column_8":null,"column_14":null,"column_9":null,"column_15":null,"column_16":null,"column_17":null,"longitude":-84.34358,"id":"a6jeq19eox18","column_18":null,"address":"3626 BUTLER-WARREN LINE ROAD","column_19":null,"state":"OH"},"type":"Feature","geometry":{"type":"Point","coordinates":[-84.34358,39.3885]}},{"properties":{"column_20":null,"city":"MASON","column_21":null,"column_10":null,"latitude":39.29656,"zip":"45040","column_11":null,"column_12":null,"county":"WARREN","column_13":null,"column_8":null,"column_14":null,"column_9":null,"column_15":null,"column_16":null,"column_17":null,"longitude":-84.32011,"id":"a6jeq19iknec","column_18":null,"address":"9847A ESCORT DRIVE","column_19":null,"state":"OH"},"type":"Feature","geometry":{"type":"Point","coordinates":[-84.32011,39.29656]}},{"properties":{"column_20":null,"city":"LEBANON","column_21":null,"column_10":null,"latitude":39.40197,"zip":"45036","column_11":null,"column_12":null,"county":"WARREN","column_13":null,"column_8":null,"column_14":null,"column_9":null,"column_15":null,"column_16":null,"column_17":null,"longitude":-84.20853,"id":"a6jeq0u3yjfv","column_18":null,"address":"2200 LEBANON ROAD","column_19":null,"state":"OH"},"type":"Feature","geometry":{"type":"Point","coordinates":[-84.20853,39.40197]}},{"properties":{"column_20":null,"city":"WAYNESVILLE","column_21":null,"column_10":null,"latitude":39.5085,"zip":"45068","column_11":null,"column_12":null,"county":"WARREN","column_13":null,"column_8":null,"column_14":null,"column_9":null,"column_15":null,"column_16":null,"column_17":null,"longitude":-84.06364,"id":"a6jeq0t86gz8","column_18":null,"address":"5374 NORTH CLARKSVILLE ROAD","column_19":null,"state":"OH"},"type":"Feature","geometry":{"type":"Point","coordinates":[-84.06364,39.5085]}},{"properties":{"column_20":null,"city":"WAYNESVILLE","column_21":null,"column_10":null,"latitude":39.54833,"zip":"45068","column_11":null,"column_12":null,"county":"WARREN","column_13":null,"column_8":null,"column_14":null,"column_9":null,"column_15":null,"column_16":null,"column_17":null,"longitude":-84.1625,"id":"a6jeq12746n3","column_18":null,"address":"1748 EAST STATE RT 73","column_19":null,"state":"OH"},"type":"Feature","geometry":{"type":"Point","coordinates":[-84.1625,39.54833]}},{"properties":{"column_20":null,"city":"LEBANON","column_21":null,"column_10":null,"latitude":39.43714,"zip":"45036","column_11":null,"column_12":null,"county":"WARREN","column_13":null,"column_8":null,"column_14":null,"column_9":null,"column_15":null,"column_16":null,"column_17":null,"longitude":-84.22333,"id":"a6jeq127tjx8","column_18":null,"address":"185-A HARMON AVENUE","column_19":null,"state":"OH"},"type":"Feature","geometry":{"type":"Point","coordinates":[-84.22333,39.43714]}},{"properties":{"column_20":null,"city":"MASON","column_21":null,"column_10":null,"latitude":39.3599,"zip":"45040","column_11":null,"column_12":null,"county":"WARREN","column_13":null,"column_8":null,"column_14":null,"column_9":null,"column_15":null,"column_16":null,"column_17":null,"longitude":-84.2629,"id":"a6jeq1949s0a","column_18":null,"address":"2588 WATERPARK DRIVE","column_19":null,"state":"OH"},"type":"Feature","geometry":{"type":"Point","coordinates":[-84.2629,39.3599]}},{"properties":{"column_20":null,"city":"MASON","column_21":null,"column_10":null,"latitude":39.3494,"zip":"45040","column_11":null,"column_12":null,"county":"WARREN","column_13":null,"column_8":null,"column_14":null,"column_9":null,"column_15":null,"column_16":null,"column_17":null,"longitude":-84.3267,"id":"a6jeq0v24afc","column_18":null,"address":"753A READING ROAD","column_19":null,"state":"OH"},"type":"Feature","geometry":{"type":"Point","coordinates":[-84.3267,39.3494]}},{"properties":{"column_20":null,"city":"MORROW","column_21":null,"column_10":null,"latitude":39.35639,"zip":"45152","column_11":null,"column_12":null,"county":"WARREN","column_13":null,"column_8":null,"column_14":null,"column_9":null,"column_15":null,"column_16":null,"column_17":null,"longitude":-84.10278,"id":"a6jeq19fh51v","column_18":null,"address":"5818 US HIGHWAY 22","column_19":null,"state":"OH"},"type":"Feature","geometry":{"type":"Point","coordinates":[-84.10278,39.35639]}},{"properties":{"column_20":null,"city":"MASON","column_21":null,"column_10":null,"latitude":39.31333,"zip":"45040","column_11":null,"column_12":null,"county":"WARREN","column_13":null,"column_8":null,"column_14":null,"column_9":null,"column_15":null,"column_16":null,"column_17":null,"longitude":-84.29917,"id":"a6jeq1975l8x","column_18":null,"address":"8442 DUKE BLVD","column_19":null,"state":"OH"},"type":"Feature","geometry":{"type":"Point","coordinates":[-84.29917,39.31333]}},{"properties":{"column_20":null,"city":"MAINEVILLE","column_21":null,"column_10":null,"latitude":39.32583,"zip":"45039","column_11":null,"column_12":null,"county":"WARREN","column_13":null,"column_8":null,"column_14":null,"column_9":null,"column_15":null,"column_16":null,"column_17":null,"longitude":-84.27278,"id":"a6jeq16qtchc","column_18":null,"address":"2501 WESTERN ROW ROAD","column_19":null,"state":"OH"},"type":"Feature","geometry":{"type":"Point","coordinates":[-84.27278,39.32583]}},{"properties":{"column_20":null,"city":"LEBANON","column_21":null,"column_10":null,"latitude":39.46282,"zip":"45036","column_11":null,"column_12":null,"county":"WARREN","column_13":null,"column_8":null,"column_14":null,"column_9":null,"column_15":null,"column_16":null,"column_17":null,"longitude":-84.16975,"id":"a6jeq0tde5ze","column_18":null,"address":"1815 STATE ROUTE 42","column_19":null,"state":"OH"},"type":"Feature","geometry":{"type":"Point","coordinates":[-84.16975,39.46282]}},{"properties":{"column_20":null,"city":"MONTPELIER","column_21":null,"column_10":null,"latitude":41.61579,"zip":"43543","column_11":null,"column_12":null,"county":"WILLIAMS","column_13":null,"column_8":null,"column_14":null,"column_9":null,"column_15":null,"column_16":null,"column_17":null,"longitude":-84.6059,"id":"a6jeq14a8bn6","column_18":null,"address":"13590 COUNTY ROAD 11","column_19":null,"state":"OH"},"type":"Feature","geometry":{"type":"Point","coordinates":[-84.6059,41.61579]}},{"properties":{"column_20":null,"city":"EDON","column_21":null,"column_10":null,"latitude":41.62468,"zip":"43518","column_11":null,"column_12":null,"county":"WILLIAMS","column_13":null,"column_8":null,"column_14":null,"column_9":null,"column_15":null,"column_16":null,"column_17":null,"longitude":-84.74653,"id":"a6jeq150c7dp","column_18":null,"address":"14372 COUNTY ROAD 4","column_19":null,"state":"OH"},"type":"Feature","geometry":{"type":"Point","coordinates":[-84.74653,41.62468]}},{"properties":{"column_20":null,"city":"WEST UNITY","column_21":null,"column_10":null,"latitude":41.60911,"zip":"43570","column_11":null,"column_12":null,"county":"WILLIAMS","column_13":null,"column_8":null,"column_14":null,"column_9":null,"column_15":null,"column_16":null,"column_17":null,"longitude":-84.46014,"id":"a6jeq16rtmb2","column_18":null,"address":"13533 COUNTY ROAD 19","column_19":null,"state":"OH"},"type":"Feature","geometry":{"type":"Point","coordinates":[-84.46014,41.60911]}},{"properties":{"column_20":null,"city":"BOWLING GREEN","column_21":null,"column_10":null,"latitude":41.37858,"zip":"43402","column_11":null,"column_12":null,"county":"WOOD","column_13":null,"column_8":null,"column_14":null,"column_9":null,"column_15":null,"column_16":null,"column_17":null,"longitude":-83.64417,"id":"a6jeq12ynmc2","column_18":null,"address":"515 RIDGE STREET","column_19":null,"state":"OH"},"type":"Feature","geometry":{"type":"Point","coordinates":[-83.64417,41.37858]}},{"properties":{"column_20":null,"city":"NORTH BALTIMORE","column_21":null,"column_10":null,"latitude":41.16779,"zip":"45872","column_11":null,"column_12":null,"county":"WOOD","column_13":null,"column_8":null,"column_14":null,"column_9":null,"column_15":null,"column_16":null,"column_17":null,"longitude":-83.64875,"id":"a6jeq18xnn2f","column_18":null,"address":"1188 SOUTH DIXIE ROAD","column_19":null,"state":"OH"},"type":"Feature","geometry":{"type":"Point","coordinates":[-83.64875,41.16779]}},{"properties":{"column_20":null,"city":"RUDOLPH","column_21":null,"column_10":null,"latitude":41.27,"zip":"43462","column_11":null,"column_12":null,"county":"WOOD","column_13":null,"column_8":null,"column_14":null,"column_9":null,"column_15":null,"column_16":null,"column_17":null,"longitude":-83.66194,"id":"a6jeq18sjbgp","column_18":null,"address":"13608 BAYS ROAD","column_19":null,"state":"OH"},"type":"Feature","geometry":{"type":"Point","coordinates":[-83.66194,41.27]}},{"properties":{"column_20":null,"city":"DUNBRIDGE","column_21":null,"column_10":null,"latitude":41.4619,"zip":"43402","column_11":null,"column_12":null,"county":"WOOD","column_13":null,"column_8":null,"column_14":null,"column_9":null,"column_15":null,"column_16":null,"column_17":null,"longitude":-83.60757,"id":"a6jeq13ukidu","column_18":null,"address":"21200 DUNBRIDGE ROAD","column_19":null,"state":"OH"},"type":"Feature","geometry":{"type":"Point","coordinates":[-83.60757,41.4619]}},{"properties":{"column_20":null,"city":"MILLBURY","column_21":null,"column_10":null,"latitude":41.5592,"zip":"43447","column_11":null,"column_12":null,"county":"WOOD","column_13":null,"column_8":null,"column_14":null,"column_9":null,"column_15":null,"column_16":null,"column_17":null,"longitude":-83.455,"id":"a6jeq0x85xjp","column_18":null,"address":"3094 ROUTE 795","column_19":null,"state":"OH"},"type":"Feature","geometry":{"type":"Point","coordinates":[-83.455,41.5592]}},{"properties":{"column_20":null,"city":"PERRYSBURG","column_21":null,"column_10":null,"latitude":41.53028,"zip":"43551","column_11":null,"column_12":null,"county":"WOOD","column_13":null,"column_8":null,"column_14":null,"column_9":null,"column_15":null,"column_16":null,"column_17":null,"longitude":-83.46361,"id":"a6jeq194g00h","column_18":null,"address":"3630 HANLY ROAD","column_19":null,"state":"OH"},"type":"Feature","geometry":{"type":"Point","coordinates":[-83.46361,41.53028]}},{"properties":{"column_20":null,"city":"BOWLING GREEN","column_21":null,"column_10":null,"latitude":41.39795,"zip":"43402","column_11":null,"column_12":null,"county":"WOOD","column_13":null,"column_8":null,"column_14":null,"column_9":null,"column_15":null,"column_16":null,"column_17":null,"longitude":-83.65033,"id":"a6jeq16tetiz","column_18":null,"address":"1736 NORTH DIXIE HIGHWAY","column_19":null,"state":"OH"},"type":"Feature","geometry":{"type":"Point","coordinates":[-83.65033,41.39795]}},{"properties":{"column_20":null,"city":"BOWLING GREEN","column_21":null,"column_10":null,"latitude":41.35111,"zip":"43402","column_11":null,"column_12":null,"county":"WOOD","column_13":null,"column_8":null,"column_14":null,"column_9":null,"column_15":null,"column_16":null,"column_17":null,"longitude":-83.67833,"id":"a6jeq1892jtg","column_18":null,"address":"14341 KRAMER ROAD","column_19":null,"state":"OH"},"type":"Feature","geometry":{"type":"Point","coordinates":[-83.67833,41.35111]}},{"properties":{"column_20":null,"city":"BOWLING GREEN","column_21":null,"column_10":null,"latitude":41.36651,"zip":"43402","column_11":null,"column_12":null,"county":"WOOD","column_13":null,"column_8":null,"column_14":null,"column_9":null,"column_15":null,"column_16":null,"column_17":null,"longitude":-83.6251,"id":"a6jeq10tpusl","column_18":null,"address":"624 E CAMPBELL HILL ROAD","column_19":null,"state":"OH"},"type":"Feature","geometry":{"type":"Point","coordinates":[-83.6251,41.36651]}},{"properties":{"column_20":null,"city":"PEMBERVILLE","column_21":null,"column_10":null,"latitude":41.35669,"zip":"43450","column_11":null,"column_12":null,"county":"WOOD","column_13":null,"column_8":null,"column_14":null,"column_9":null,"column_15":null,"column_16":null,"column_17":null,"longitude":-83.5185,"id":"a6jeq191lyuy","column_18":null,"address":"6269 LINWOOD ROAD","column_19":null,"state":"OH"},"type":"Feature","geometry":{"type":"Point","coordinates":[-83.5185,41.35669]}},{"properties":{"column_20":null,"city":"LUCKEY","column_21":null,"column_10":null,"latitude":41.47583,"zip":"43443","column_11":null,"column_12":null,"county":"WOOD","column_13":null,"column_8":null,"column_14":null,"column_9":null,"column_15":null,"column_16":null,"column_17":null,"longitude":-83.47778,"id":"a6jeq14dx97v","column_18":null,"address":"22339 LEMOYNE ROAD","column_19":null,"state":"OH"},"type":"Feature","geometry":{"type":"Point","coordinates":[-83.47778,41.47583]}},{"properties":{"column_20":null,"city":"PEMBERVILLE","column_21":null,"column_10":null,"latitude":41.39944,"zip":"43450","column_11":null,"column_12":null,"county":"WOOD","column_13":null,"column_8":null,"column_14":null,"column_9":null,"column_15":null,"column_16":null,"column_17":null,"longitude":-83.43444,"id":"a6jeq10c1irb","column_18":null,"address":"1926 KAHLER ROAD","column_19":null,"state":"OH"},"type":"Feature","geometry":{"type":"Point","coordinates":[-83.43444,41.39944]}},{"properties":{"column_20":null,"city":"BOWLING GREEN","column_21":null,"column_10":null,"latitude":41.40111,"zip":"43402","column_11":null,"column_12":null,"county":"WOOD","column_13":null,"column_8":null,"column_14":null,"column_9":null,"column_15":null,"column_16":null,"column_17":null,"longitude":-83.68861,"id":"a6jeq0urfxkb","column_18":null,"address":"17008 MITCHELL ROAD","column_19":null,"state":"OH"},"type":"Feature","geometry":{"type":"Point","coordinates":[-83.68861,41.40111]}},{"properties":{"column_20":null,"city":"NORTHWOOD","column_21":null,"column_10":null,"latitude":41.58444,"zip":"43619","column_11":null,"column_12":null,"county":"WOOD","column_13":null,"column_8":null,"column_14":null,"column_9":null,"column_15":null,"column_16":null,"column_17":null,"longitude":-83.43028,"id":"a6jeq12lqrf5","column_18":null,"address":"5104 WALBRIDGE ROAD","column_19":null,"state":"OH"},"type":"Feature","geometry":{"type":"Point","coordinates":[-83.43028,41.58444]}},{"properties":{"column_20":null,"city":"PEMBERVILLE","column_21":null,"column_10":null,"latitude":41.40917,"zip":"43450","column_11":null,"column_12":null,"county":"WOOD","column_13":null,"column_8":null,"column_14":null,"column_9":null,"column_15":null,"column_16":null,"column_17":null,"longitude":-83.53472,"id":"a6jeq17w4ygt","column_18":null,"address":"17540 DUNIPACE ROAD","column_19":null,"state":"OH"},"type":"Feature","geometry":{"type":"Point","coordinates":[-83.53472,41.40917]}},{"properties":{"column_20":null,"city":"WESTON","column_21":null,"column_10":null,"latitude":41.37306,"zip":"43569","column_11":null,"column_12":null,"county":"WOOD","column_13":null,"column_8":null,"column_14":null,"column_9":null,"column_15":null,"column_16":null,"column_17":null,"longitude":-83.80417,"id":"a6jeq18s63iw","column_18":null,"address":"NORTHEAST OF US 6 AND TOWNSHIP 42","column_19":null,"state":"OH"},"type":"Feature","geometry":{"type":"Point","coordinates":[-83.80417,41.37306]}},{"properties":{"column_20":null,"city":"BOWLING GREEN","column_21":null,"column_10":null,"latitude":41.3723,"zip":"43402","column_11":null,"column_12":null,"county":"WOOD","column_13":null,"column_8":null,"column_14":null,"column_9":null,"column_15":null,"column_16":null,"column_17":null,"longitude":-83.684,"id":"a6jeq0ylzr7h","column_18":null,"address":"14706 W. WOOSTER","column_19":null,"state":"OH"},"type":"Feature","geometry":{"type":"Point","coordinates":[-83.684,41.3723]}},{"properties":{"column_20":null,"city":"MORRAL","column_21":null,"column_10":null,"latitude":40.72451,"zip":"43337","column_11":null,"column_12":null,"county":"WYANDOT","column_13":null,"column_8":null,"column_14":null,"column_9":null,"column_15":null,"column_16":null,"column_17":null,"longitude":-83.16862,"id":"a6jeq0utbnse","column_18":null,"address":"2994 TOWNSHIP HIGHWAY 72","column_19":null,"state":"OH"},"type":"Feature","geometry":{"type":"Point","coordinates":[-83.16862,40.72451]}},{"properties":{"column_20":null,"city":"CAREY","column_21":null,"column_10":null,"latitude":40.93466,"zip":"43316","column_11":null,"column_12":null,"county":"WYANDOT","column_13":null,"column_8":null,"column_14":null,"column_9":null,"column_15":null,"column_16":null,"column_17":null,"longitude":-83.38306,"id":"a6jeq1015ygz","column_18":null,"address":"3842 PATTERSON STREET","column_19":null,"state":"OH"},"type":"Feature","geometry":{"type":"Point","coordinates":[-83.38306,40.93466]}},{"properties":{"column_20":null,"city":"CAREY","column_21":null,"column_10":null,"latitude":40.96902,"zip":"43316","column_11":null,"column_12":null,"county":"WYANDOT","column_13":null,"column_8":null,"column_14":null,"column_9":null,"column_15":null,"column_16":null,"column_17":null,"longitude":-83.45536,"id":"a6jeq0wvbl5w","column_18":null,"address":"17981 TOWNSHIP HIGHWAY 22","column_19":null,"state":"OH"},"type":"Feature","geometry":{"type":"Point","coordinates":[-83.45536,40.96902]}}],"is_temporal":false,"author":{"url":"","metadata":"","contact_name":"","contact_address":"","source":"","contact_phone":""},"source":"","pagination":{"sort":null,"start":0,"total":225,"limit":1000000},"state":"complete","tags":"","published":"2014-08-13T11:59:29-04:00","id":149693}