{"type":"FeatureCollection","data_type":"Dataset","url_type":null,"permissions":[{"permissions":{"download":true,"view":true},"group_id":"everyone"}],"classification":null,"title":"Chicago See &amp; Do II","count":7,"stream_id":14990,"contributor":{"url":"http://geocommons.com/users/6898","name":"Lauren"},"data_attributes":null,"calculation_params":null,"icon_link":null,"link":"http://geocommons.com/overlays/14990.json","extent":[-87.7921,41.8665,-87.6074,42.8494],"geometry_types":["point"],"unique_name":null,"name":"Chicago See & Do II","feature_count":7,"description":"justluxe.com Chicago See &amp; Do list","next_feature":null,"is_raster":false,"short_classification":"Y","stats":{"zip":{"max":60624.0,"mean":60440.5714285714,"variance":85177.619047619,"stdev":291.852049928759,"min":60005.0,"median":60606.0},"latitude":{"max":42.849401,"mean":42.060748,"variance":0.130992123364,"stdev":0.361928340095108,"min":41.866466,"median":41.892965},"longitude":{"max":-87.607429,"mean":-87.6823817142857,"variance":0.00663464620223819,"stdev":0.0814533375758059,"min":-87.792074,"median":-87.636688}},"features":[{"properties":{"name":"Arlington Park","city":"Arlington Hts","zip":60005.0,"latitude":42.849401,"longitude":-87.792074,"id":"a647zbpdkyg4","address":"2200 W Euclid Ave","state":"IL"},"type":"Feature","geometry":{"type":"Point","coordinates":[-87.792074,42.849401]}},{"properties":{"name":"Chicago Botanic Garden","city":"Glencoe","zip":60022.0,"latitude":42.152317,"longitude":-87.786276,"id":"a647zbjlri6n","address":"1000 Lake Cook Road","state":"IL"},"type":"Feature","geometry":{"type":"Point","coordinates":[-87.786276,42.152317]}},{"properties":{"name":"Garfield Park Conservatory","city":"Chicago","zip":60624.0,"latitude":41.886254,"longitude":-87.716424,"id":"a647zbffxz5s","address":"300 North Central Park Ave.","state":"IL"},"type":"Feature","geometry":{"type":"Point","coordinates":[-87.716424,41.886254]}},{"properties":{"name":"John Hancock Observatory","city":"Chicago","zip":60611.0,"latitude":41.898851,"longitude":-87.62411,"id":"a647zbjw5dm9","address":"875 N. Michigan Avenue","state":"IL"},"type":"Feature","geometry":{"type":"Point","coordinates":[-87.62411,41.898851]}},{"properties":{"name":"Navy Pier","city":"Chicago","zip":60611.0,"latitude":41.892965,"longitude":-87.613671,"id":"a647zbpjje4j","address":"600 East Grand Avenue","state":"IL"},"type":"Feature","geometry":{"type":"Point","coordinates":[-87.613671,41.892965]}},{"properties":{"name":"The Adler Planetarium","city":"Chicago","zip":60605.0,"latitude":41.866466,"longitude":-87.607429,"id":"a647zbmhny6l","address":"1300 S. Lake Shore Drive","state":"IL"},"type":"Feature","geometry":{"type":"Point","coordinates":[-87.607429,41.866466]}},{"properties":{"name":"The Sears Tower Skydeck","city":"Chicago","zip":60606.0,"latitude":41.878982,"longitude":-87.636688,"id":"a647zbn9egqp","address":"233 S. Wacker Dr.","state":"IL"},"type":"Feature","geometry":{"type":"Point","coordinates":[-87.636688,41.878982]}}],"is_temporal":false,"author":{"url":"http://justluxe.com/","metadata":"http://justluxe.com/","contact_name":"","contact_address":"","source":"justluxe.com","contact_phone":""},"source":"http://justluxe.com/","pagination":{"sort":null,"start":0,"total":7,"limit":1000000},"state":"complete","tags":"chicago,sites","published":"2009-01-01T12:00:00Z","id":14990}