{"type":"FeatureCollection","data_type":"Dataset","url_type":null,"permissions":[{"permissions":{"download":true,"view":true},"group_id":"everyone"}],"classification":null,"title":"Oakland_High_Schools","count":13,"stream_id":150024,"contributor":{"url":"http://geocommons.com/users/12600","name":"jtmonti"},"data_attributes":null,"calculation_params":null,"icon_link":null,"link":"http://geocommons.com/overlays/150024.json","extent":[-122.279,37.7595,-122.154,37.8316],"geometry_types":["point"],"unique_name":null,"name":"Oakland_High_Schools","feature_count":13,"description":"","next_feature":null,"is_raster":false,"short_classification":"Y","stats":{},"features":[{"properties":{"zip":"94605","street address":"8610 MacArthur Boulevard","phone":"879-3010","principal":"Michael Scott","link":"<a href=\"http://ousdhs.ousd.k12.ca.us/cbits\">BUSINESS INFORMATION &amp; TECHNOLOGY HIGH SCHOOL</a>","id":"0","school":"BUSINESS INFORMATION &amp; TECHNOLOGY HIGH SCHOOL"},"type":"Feature","geometry":{"type":"Point","coordinates":[-122.162894,37.759612]}},{"properties":{"zip":"94601","street address":"4610 Foothill Boulevard","phone":"879-1131","principal":"Dan Hurst","link":"<a href=\"http://ousdhs.ousd.k12.ca.us/architecture\">COLLEGE PREP &amp; ARCHITECTURE ACADEMY</a>","id":"1","school":"COLLEGE PREP &amp; ARCHITECTURE ACADEMY"},"type":"Feature","geometry":{"type":"Point","coordinates":[-122.209501,37.773616]}},{"properties":{"zip":"94605","street address":"8610 MacArthur Boulevard","phone":"879-3010","principal":"Matin Abdel-Qawi","link":"<a href=\"http://ousdhs.ousd.k12.ca.us/eosa\">EAST OAKLAND SCHOOL OF THE ARTS</a>","id":"2","school":"EAST OAKLAND SCHOOL OF THE ARTS"},"type":"Feature","geometry":{"type":"Point","coordinates":[-122.162894,37.759612]}},{"properties":{"zip":"94605","street address":"2369 84th Avenue","phone":"879-0131","principal":"Judith Harte","link":"<a href=\"http://ousdhs.ousd.k12.ca.us/hillside\">HILLSIDE ACADEMY</a>","id":"3","school":"HILLSIDE ACADEMY"},"type":"Feature","geometry":{"type":"Point","coordinates":[-122.167124,37.759473]}},{"properties":{"zip":"94605","street address":"8610 MacArthur Boulevard","phone":"879-3010","principal":"Betsye Steele","link":"<a href=\"http://ousdhs.ousd.k12.ca.us/leadershipprep\">LEADERSHIP PREPARATORY HIGH SCHOOL</a>","id":"4","school":"LEADERSHIP PREPARATORY HIGH SCHOOL"},"type":"Feature","geometry":{"type":"Point","coordinates":[-122.162894,37.759612]}},{"properties":{"zip":"94601","street address":"2101 35th Avenue","phone":"534-0282","principal":"Preston Thomas","link":"<a href=\"http://www.lifeacademyoakland.org/\">LIFE ACADEMY</a>","id":"5","school":"LIFE ACADEMY"},"type":"Feature","geometry":{"type":"Point","coordinates":[-122.216797,37.78423]}},{"properties":{"zip":"94601","street address":"4610 Foothill Boulevard","phone":"879-1141","principal":"Robin Bailer Glover","link":"<a href=\"http://ousdhs.ousd.k12.ca.us/mandela\">MANDELA HIGH SCHOOL</a>","id":"6","school":"MANDELA HIGH SCHOOL"},"type":"Feature","geometry":{"type":"Point","coordinates":[-122.209501,37.773616]}},{"properties":{"zip":"94607","street address":"2608 Myrtle Street","phone":"879-3033","principal":"Kevin Taylor","link":"<a href=\"http://ousdhs.ousd.k12.ca.us/mcclymonds\">MCCLYMONDS HIGH SCHOOL</a>","id":"7","school":"MCCLYMONDS HIGH SCHOOL"},"type":"Feature","geometry":{"type":"Point","coordinates":[-122.278627,37.817838]}},{"properties":{"zip":"94601","street address":"4610 Foothill Boulevard","phone":"879-1597","principal":"Benjamin Schmookler","link":"<a href=\"http://www.media-academy.net/\">MEDIA COLLEGE PREPARATORY HIGH SCHOOL</a>","id":"8","school":"MEDIA COLLEGE PREPARATORY HIGH SCHOOL"},"type":"Feature","geometry":{"type":"Point","coordinates":[-122.209501,37.773616]}},{"properties":{"zip":"94610","street address":"1023 MacArthur Boulevard","phone":"879-3040","principal":"Alicia Romero","link":"<a href=\"http://ousdhs.ousd.k12.ca.us/oaklandhigh\">OAKLAND HIGH SCHOOL</a>","id":"9","school":"OAKLAND HIGH SCHOOL"},"type":"Feature","geometry":{"type":"Point","coordinates":[-122.237019,37.80547]}},{"properties":{"zip":"94611","street address":"4351 Broadway","phone":"879-3050","principal":"Sheilagh Andujar","link":"<a href=\"http://ousdhs.ousd.k12.ca.us/oaklandtech\">OAKLAND TECHNICAL HIGH SCHOOL</a>","id":"10","school":"OAKLAND TECHNICAL HIGH SCHOOL"},"type":"Feature","geometry":{"type":"Point","coordinates":[-122.254292,37.831578]}},{"properties":{"zip":"94619","street address":"12250 Skyline Boulevard","phone":"879-3060","principal":"Troy Johnston","link":"<a href=\"http://www.skylinehs.org/\">SKYLINE HIGH SCHOOL</a>","id":"11","school":"SKYLINE HIGH SCHOOL"},"type":"Feature","geometry":{"type":"Point","coordinates":[-122.164112,37.797971]}},{"properties":{"zip":"94605","street address":"8251 Fontaine Street","phone":"879-8877","principal":"Gina Hill","link":"<a href=\"http://ousdhs.ousd.k12.ca.us/yes\">YOUTH EMPOWERMENT SCHOOL (YES)</a>","id":"12","school":"YOUTH EMPOWERMENT SCHOOL (YES)"},"type":"Feature","geometry":{"type":"Point","coordinates":[-122.153534,37.766714]}}],"is_temporal":false,"author":{"url":"","metadata":null,"contact_name":null,"contact_address":null,"source":null,"contact_phone":null},"source":"","pagination":{"sort":null,"start":0,"total":13,"limit":1000000},"state":"complete","tags":"","published":"2014-08-12T20:57:55-04:00","id":150024}