{"type":"FeatureCollection","data_type":"Dataset","url_type":null,"permissions":[{"permissions":{"download":true,"view":true},"group_id":"everyone"}],"classification":null,"title":"2006-2007_0_to_5_percent_dropouts","count":15,"stream_id":15078,"contributor":{"url":"http://geocommons.com/users/7856","name":"kalasea2001"},"data_attributes":null,"calculation_params":null,"icon_link":null,"link":"http://geocommons.com/overlays/15078.json","extent":[-111.049,31.958,-110.727,32.4097],"geometry_types":["point"],"unique_name":null,"name":"2006-2007_0_to_5_percent_dropouts","feature_count":15,"description":"Pima County schools with 0% to 5% dropout rates, 2006-2007","next_feature":null,"is_raster":false,"short_classification":"Y","stats":{"zip":{"max":85749.0,"mean":85710.0666666667,"variance":1155.6380952381,"stdev":33.9946774545383,"min":85629.0,"median":85713.0},"latitude":{"max":32.409671,"mean":32.2382708666667,"variance":0.0141918759162668,"stdev":0.119129660103044,"min":31.958038,"median":32.22778},"droprate":{"max":3.9,"mean":1.6,"variance":0.965714285714286,"stdev":0.982707629823991,"min":0.0,"median":1.8},"longitude":{"max":-110.727251,"mean":-110.930267066667,"variance":0.00848161388963843,"stdev":0.0920956779096524,"min":-111.04927,"median":-110.970728}},"features":[{"properties":{"zip":85705.0,"latitude":32.269374,"district":"Amphitheater Unified District","droprate":3.9,"year":"2006-2007","longitude":-110.977153,"id":"a6gdq6362v2j","school":"Amphitheater High School","address":"125 W. Yavapai Rd.","state":"Arizona"},"type":"Feature","geometry":{"type":"Point","coordinates":[-110.977153,32.269374]}},{"properties":{"zip":85737.0,"latitude":32.373454,"district":"Amphitheater Unified District","droprate":2.1,"year":"2006-2007","longitude":-110.970728,"id":"a6gdq5v4eebc","school":"Canyon Del Oro High School","address":"25 W. Calle Concordia","state":"Arizona"},"type":"Feature","geometry":{"type":"Point","coordinates":[-110.970728,32.373454]}},{"properties":{"zip":85742.0,"latitude":32.409671,"district":"Amphitheater Unified District","droprate":1.8,"year":"2006-2007","longitude":-111.020353,"id":"a6gdq62knhlm","school":"Ironwood Ridge High School","address":"2475 W. Naranja Dr.","state":"Arizona"},"type":"Feature","geometry":{"type":"Point","coordinates":[-111.020353,32.409671]}},{"properties":{"zip":85718.0,"latitude":32.308075,"district":"Catalina Foothills Unified District","droprate":0.5,"year":"2006-2007","longitude":-110.900258,"id":"a6gdq639se2e","school":"Catalina Foothills High School","address":"4300 E. Sunrise","state":"Arizona"},"type":"Feature","geometry":{"type":"Point","coordinates":[-110.900258,32.308075]}},{"properties":{"zip":85705.0,"latitude":32.226261,"district":"Flowing Wells Unified District","droprate":1.9,"year":"2006-2007","longitude":-110.888221,"id":"a6gdq67tn56e","school":"Flowing Wells High School","address":"3725 N. Flowing Wells Rd.","state":"Arizona"},"type":"Feature","geometry":{"type":"Point","coordinates":[-110.888221,32.226261]}},{"properties":{"zip":85742.0,"latitude":32.380641,"district":"Marana Unified District","droprate":0.9,"year":"2006-2007","longitude":-111.04927,"id":"a6gdq66t5f6x","school":"Mountain View High School","address":"3901 W. Linda Vista Blvd.","state":"Arizona"},"type":"Feature","geometry":{"type":"Point","coordinates":[-111.04927,32.380641]}},{"properties":{"zip":85629.0,"latitude":31.958038,"district":"Sahuarita Unified District","droprate":3.0,"year":"2006-2007","longitude":-110.974236,"id":"a6gdq5y2fbts","school":"Sahuarita High School","address":"350 W. Sahuarita Rd.","state":"Arizona"},"type":"Feature","geometry":{"type":"Point","coordinates":[-110.974236,31.958038]}},{"properties":{"zip":85713.0,"latitude":32.206774,"district":"Tucson Unified District","droprate":1.8,"year":"2006-2007","longitude":-111.009803,"id":"a6gdq62cxpwj","school":"Cholla High Magnet School","address":"2001 W. Starr Pass Blvd.","state":"Arizona"},"type":"Feature","geometry":{"type":"Point","coordinates":[-111.009803,32.206774]}},{"properties":{"zip":85711.0,"latitude":32.226261,"district":"Tucson Unified District","droprate":0.0,"year":"2006-2007","longitude":-110.888221,"id":"a6gdq66zbgc4","school":"University High School","address":"421 N. Arcadia Blvd.","state":"Arizona"},"type":"Feature","geometry":{"type":"Point","coordinates":[-110.888221,32.226261]}},{"properties":{"zip":85711.0,"latitude":32.274586,"district":"Tucson Unified District","droprate":1.9,"year":"2006-2007","longitude":-110.995194,"id":"a6gdq6amr8q4","school":"Rincon High School","address":"421 N. Arcadia Blvd.","state":"Arizona"},"type":"Feature","geometry":{"type":"Point","coordinates":[-110.995194,32.274586]}},{"properties":{"zip":85705.0,"latitude":32.22778,"district":"Tucson Unified District","droprate":1.1,"year":"2006-2007","longitude":-110.962499,"id":"a6gdq61i74ac","school":"Tucson Magnet High School","address":"400 N. 2nd Ave.","state":"Arizona"},"type":"Feature","geometry":{"type":"Point","coordinates":[-110.962499,32.22778]}},{"properties":{"zip":85749.0,"latitude":32.299132,"district":"Tucson Unified District","droprate":0.8,"year":"2006-2007","longitude":-110.789379,"id":"a6gdq61a8q83","school":"Sabino High School","address":"5000 N. Bowes Rd.","state":"Arizona"},"type":"Feature","geometry":{"type":"Point","coordinates":[-110.789379,32.299132]}},{"properties":{"zip":85730.0,"latitude":32.17379,"district":"Tucson Unified District","droprate":1.0,"year":"2006-2007","longitude":-110.823684,"id":"a6gdq5z4s9mf","school":"Santa Rita High School","address":"3951 S. Pantano Rd.","state":"Arizona"},"type":"Feature","geometry":{"type":"Point","coordinates":[-110.823684,32.17379]}},{"properties":{"zip":85713.0,"latitude":32.182963,"district":"Tucson Unified District","droprate":2.0,"year":"2006-2007","longitude":-110.977756,"id":"a6gdq6amrruo","school":"Pueblo High Magnet School","address":"3500 S. 12th Ave.","state":"Arizona"},"type":"Feature","geometry":{"type":"Point","coordinates":[-110.977756,32.182963]}},{"properties":{"zip":85641.0,"latitude":32.057263,"district":"Vail Unified District","droprate":1.3,"year":"2006-2007","longitude":-110.727251,"id":"a6gdq634nzpk","school":"Cienega High School","address":"12775 E. Old Vail Rd.","state":"Arizona"},"type":"Feature","geometry":{"type":"Point","coordinates":[-110.727251,32.057263]}}],"is_temporal":false,"author":{"url":"","metadata":"","contact_name":"","contact_address":"","source":"","contact_phone":""},"source":"","pagination":{"sort":null,"start":0,"total":15,"limit":1000000},"state":"complete","tags":"","published":"2014-08-10T19:44:10-04:00","id":15078}