{"type":"FeatureCollection","data_type":"Dataset","url_type":null,"permissions":[{"permissions":{"download":true,"edit":true,"view":true},"group_id":32491},{"permissions":{"download":true,"view":true},"group_id":"everyone"}],"classification":null,"title":"PO Op Dummy Data","count":50,"stream_id":153079,"contributor":{"url":"http://geocommons.com/users/32297","name":"mglagola"},"data_attributes":null,"calculation_params":null,"icon_link":null,"link":"http://geocommons.com/overlays/153079.json","extent":[-81.974,36.606,-76.4854,38.9993],"geometry_types":["point"],"unique_name":null,"name":"PO Op Dummy Data","feature_count":50,"description":"Dummy data created from random numbers","next_feature":null,"is_raster":false,"short_classification":"Y","stats":{"passport apps":{"max":35,"mean":18.34,"variance":88.0657142857143,"stdev":9.38433344919682,"min":2,"median":19},"foot traffic":{"max":4989,"mean":2375.76,"variance":2479127.85959184,"stdev":1574.52464559683,"min":157,"median":2151},"ltrs 1,000's":{"max":148.2,"mean":70.566,"variance":2187.36473877551,"stdev":46.7692713090071,"min":4.65,"median":63.9},"pkgs 100's":{"max":39,"mean":20.24,"variance":109.043265306122,"stdev":10.4423783357108,"min":2,"median":21},"sales $":{"max":79204,"mean":43800.24,"variance":530144306.594286,"stdev":23024.8627920838,"min":317,"median":48528},"# po boxes":{"max":300,"mean":196.4,"variance":3971.4693877551,"stdev":63.0195952680998,"min":100,"median":185}},"features":[{"properties":{"passport apps":28,"foot traffic":1939,"city":"Annandale","zip":"22003","ltrs 1,000's":57.6,"geo_score":0.868,"pkgs 100's":31,"office name":"Annandale Main Office","street address":"4270 John Marr Drive","id":"a622e6j6l58q","geo_precision":"range","sales $":78431,"# po boxes":155,"state":"VA"},"type":"Feature","geometry":{"type":"Point","coordinates":[-77.189897,38.830579]}},{"properties":{"passport apps":24,"foot traffic":4060,"city":"Arlington","zip":"22210","ltrs 1,000's":120.6,"geo_score":0.785,"pkgs 100's":27,"office name":"Arlington Main Office","street address":"3118 Washington Boulevard","id":"a622e6nylljz","geo_precision":"range","sales $":46527,"# po boxes":115,"state":"VA"},"type":"Feature","geometry":{"type":"Point","coordinates":[-77.095715,38.885954]}},{"properties":{"passport apps":17,"foot traffic":1399,"city":"Falls Church","zip":"22041","ltrs 1,000's":41.55,"geo_score":0.709,"pkgs 100's":19,"office name":"Baileys Crossroads Branch","street address":"6021 Leesburg Pike","id":"a622e6h5gzji","geo_precision":"street","sales $":3719,"# po boxes":275,"state":"VA"},"type":"Feature","geometry":{"type":"Point","coordinates":[-77.147751,38.86179]}},{"properties":{"passport apps":31,"foot traffic":631,"city":"Arlington","zip":"22203","ltrs 1,000's":18.75,"geo_score":0.805,"pkgs 100's":34,"office name":"Buckingham Station","street address":"235 N Glebe Road","id":"a622e6d3xegj","geo_precision":"range","sales $":31134,"# po boxes":100,"state":"VA"},"type":"Feature","geometry":{"type":"Point","coordinates":[-77.104653,38.873488]}},{"properties":{"passport apps":24,"foot traffic":253,"city":"Burke","zip":"22015","ltrs 1,000's":7.5,"geo_score":0.805,"pkgs 100's":27,"office name":"Burke Branch","street address":"9501 Burke Road","id":"a622e6q64e6a","geo_precision":"range","sales $":70927,"# po boxes":285,"state":"VA"},"type":"Feature","geometry":{"type":"Point","coordinates":[-77.271734,38.793686]}},{"properties":{"passport apps":18,"foot traffic":1384,"city":"Centreville","zip":"20120","ltrs 1,000's":41.1,"geo_score":0.61,"pkgs 100's":20,"office name":"Centreville Main Office","street address":"14120A Lee Highway","id":"a622e6e7wrx4","geo_precision":"street","sales $":31520,"# po boxes":185,"state":"VA"},"type":"Feature","geometry":{"type":"Point","coordinates":[-77.410353,38.83966]}},{"properties":{"passport apps":27,"foot traffic":3035,"city":"Chantilly","zip":"20151","ltrs 1,000's":90.15,"geo_score":0.805,"pkgs 100's":30,"office name":"Chantilly","street address":"4410 BROOKFIELD CORPORATE DR","id":"a622e6p0wiz7","geo_precision":"range","sales $":48730,"# po boxes":100,"state":"VA"},"type":"Feature","geometry":{"type":"Point","coordinates":[-77.438732,38.88618]}},{"properties":{"passport apps":34,"foot traffic":4474,"city":"Centreville","zip":"20121","ltrs 1,000's":132.9,"geo_score":0.526,"pkgs 100's":38,"office name":"Clifton Annex","street address":"13826 Braddock Road Ste B","id":"a622e6c1d4e2","geo_precision":"street","sales $":39338,"# po boxes":130,"state":"VA"},"type":"Feature","geometry":{"type":"Point","coordinates":[-77.391353,38.829118]}},{"properties":{"passport apps":23,"foot traffic":1505,"city":"Clifton","zip":"20124","ltrs 1,000's":44.7,"geo_score":0.537,"pkgs 100's":25,"office name":"Clifton Main Office","street address":"12644 Chapel Road","id":"a622e6jtmsrs","geo_precision":"street","sales $":67525,"# po boxes":230,"state":"VA"},"type":"Feature","geometry":{"type":"Point","coordinates":[-77.940984,38.571647]}},{"properties":{"passport apps":23,"foot traffic":308,"city":"Arlington","zip":"22201","ltrs 1,000's":9.15,"geo_score":0.778,"pkgs 100's":25,"office name":"Court House Station","street address":"2043 Wilson Boulevard","id":"a622e6lomufy","geo_precision":"range","sales $":41725,"# po boxes":100,"state":"VA"},"type":"Feature","geometry":{"type":"Point","coordinates":[-77.083681,38.89183]}},{"properties":{"passport apps":14,"foot traffic":1222,"city":"Dunn Loring","zip":"22027","ltrs 1,000's":36.3,"geo_score":0.48,"pkgs 100's":15,"office name":"Dunn Loring Branch","street address":"2302 Gallows Road","id":"a622e6iem10l","geo_precision":"street","sales $":76615,"# po boxes":130,"state":"VA"},"type":"Feature","geometry":{"type":"Point","coordinates":[-76.485374,37.305873]}},{"properties":{"passport apps":5,"foot traffic":3520,"city":"Fairfax","zip":"22030","ltrs 1,000's":104.55,"geo_score":0.835,"pkgs 100's":5,"office name":"Fairfax Main Office","street address":"3951 Chain Bridge Road","id":"a622e6kmbj2m","geo_precision":"range","sales $":51605,"# po boxes":280,"state":"VA"},"type":"Feature","geometry":{"type":"Point","coordinates":[-77.306314,38.847104]}},{"properties":{"passport apps":23,"foot traffic":3015,"city":"Fairfax Station","zip":"22039","ltrs 1,000's":89.55,"geo_score":0.659,"pkgs 100's":26,"office name":"Fairfax Station Branch","street address":"5616I Ox Road","id":"a622e6hl4lx9","geo_precision":"street","sales $":68126,"# po boxes":290,"state":"VA"},"type":"Feature","geometry":{"type":"Point","coordinates":[-77.324187,38.812664]}},{"properties":{"passport apps":3,"foot traffic":823,"city":"Falls Church","zip":"22046","ltrs 1,000's":24.45,"geo_score":0.671,"pkgs 100's":3,"office name":"Falls Church Main Office","street address":"301 W Broad Street","id":"a622e6fq4yr3","geo_precision":"street","sales $":77203,"# po boxes":225,"state":"VA"},"type":"Feature","geometry":{"type":"Point","coordinates":[-77.159099,38.87475]}},{"properties":{"passport apps":12,"foot traffic":1005,"city":"Fort Belvoir","zip":"22026","ltrs 1,000's":29.85,"geo_score":0.55,"pkgs 100's":13,"office name":"Fort Belvoir Main Office","street address":"5875 21st Street","id":"a622e6qb888u","geo_precision":"city","sales $":71213,"# po boxes":150,"state":"VA"},"type":"Feature","geometry":{"type":"Point","coordinates":[-77.820272,38.859558]}},{"properties":{"passport apps":22,"foot traffic":4171,"city":"Fort Myer","zip":"22211","ltrs 1,000's":123.9,"geo_score":0.554,"pkgs 100's":24,"office name":"Fort Myer Station","street address":"217 Jackson Avenue","id":"a622e6hmck1k","geo_precision":"street","sales $":9324,"# po boxes":280,"state":"VA"},"type":"Feature","geometry":{"type":"Point","coordinates":[-81.973974,36.715437]}},{"properties":{"passport apps":9,"foot traffic":1076,"city":"Great Falls","zip":"22066","ltrs 1,000's":31.95,"geo_score":0.507,"pkgs 100's":10,"office name":"Great Falls Main Office","street address":"10001 Georgetown Pike","id":"a622e6eih4ml","geo_precision":"city","sales $":35410,"# po boxes":170,"state":"VA"},"type":"Feature","geometry":{"type":"Point","coordinates":[-78.324997,36.605976]}},{"properties":{"passport apps":21,"foot traffic":1601,"city":"Herndon","zip":"22070","ltrs 1,000's":47.55,"geo_score":0.501,"pkgs 100's":23,"office name":"Herndon Main Office","street address":"590 Grove Street","id":"a622e6mvuer3","geo_precision":"street","sales $":58123,"# po boxes":150,"state":"VA"},"type":"Feature","geometry":{"type":"Point","coordinates":[-77.184525,38.895479]}},{"properties":{"passport apps":11,"foot traffic":2389,"city":"Reston","zip":"20190","ltrs 1,000's":70.95,"geo_score":0.902,"pkgs 100's":12,"office name":"Lake Anne CPO","street address":"1641 Washington Plaza N","id":"a622e6jg1y8f","geo_precision":"range","sales $":69812,"# po boxes":225,"state":"VA"},"type":"Feature","geometry":{"type":"Point","coordinates":[-77.341884,38.969178]}},{"properties":{"passport apps":14,"foot traffic":1364,"city":"Lorton","zip":"22079","ltrs 1,000's":40.5,"geo_score":0.902,"pkgs 100's":15,"office name":"Lorton Main Office","street address":"7726 Gunston Plaza","id":"a622e6i33xli","geo_precision":"range","sales $":72115,"# po boxes":155,"state":"VA"},"type":"Feature","geometry":{"type":"Point","coordinates":[-77.209521,38.703639]}},{"properties":{"passport apps":32,"foot traffic":4439,"city":"Manassas","zip":"20110","ltrs 1,000's":131.85,"geo_score":0.805,"pkgs 100's":35,"office name":"Manassas Annex","street address":"9020 Euclid Avenue","id":"a622e6ozs27a","geo_precision":"range","sales $":6835,"# po boxes":245,"state":"VA"},"type":"Feature","geometry":{"type":"Point","coordinates":[-77.451287,38.762912]}},{"properties":{"passport apps":23,"foot traffic":263,"city":"Manassas","zip":"20110","ltrs 1,000's":7.8,"geo_score":0.805,"pkgs 100's":26,"office name":"Manassas Downtown Station","street address":"9108 Church Street","id":"a622e6lcwbmu","geo_precision":"range","sales $":43126,"# po boxes":175,"state":"VA"},"type":"Feature","geometry":{"type":"Point","coordinates":[-77.472617,38.751733]}},{"properties":{"passport apps":22,"foot traffic":318,"city":"Manassas","zip":"20110","ltrs 1,000's":9.45,"geo_score":0.805,"pkgs 100's":24,"office name":"Manassas Main Office","street address":"8801 Sudley Road","id":"a622e6qp822u","geo_precision":"range","sales $":35124,"# po boxes":185,"state":"VA"},"type":"Feature","geometry":{"type":"Point","coordinates":[-77.482145,38.765688]}},{"properties":{"passport apps":17,"foot traffic":157,"city":"Manassas Park","zip":"20111","ltrs 1,000's":4.65,"geo_score":0.805,"pkgs 100's":19,"office name":"Manassas Park Branch","street address":"2049 Old Centreville Road","id":"a622e6hlycgn","geo_precision":"range","sales $":519,"# po boxes":295,"state":"VA"},"type":"Feature","geometry":{"type":"Point","coordinates":[-77.459013,38.783194]}},{"properties":{"passport apps":30,"foot traffic":641,"city":"Mc Lean","zip":"22102","ltrs 1,000's":19.05,"geo_score":0.805,"pkgs 100's":33,"office name":"Mclean Branch","street address":"1544 Spring Hill Road","id":"a622e6qorlrt","geo_precision":"range","sales $":3333,"# po boxes":200,"state":"VA"},"type":"Feature","geometry":{"type":"Point","coordinates":[-77.23729,38.928879]}},{"properties":{"passport apps":28,"foot traffic":2894,"city":"Mc Lean","zip":"22101","ltrs 1,000's":85.95,"geo_score":0.805,"pkgs 100's":31,"office name":"Mclean Main Office","street address":"6841 Elm Street","id":"a622e6ofhh79","geo_precision":"range","sales $":53331,"# po boxes":170,"state":"VA"},"type":"Feature","geometry":{"type":"Point","coordinates":[-77.180251,38.936356]}},{"properties":{"passport apps":8,"foot traffic":3555,"city":"Alexandria","zip":"22314","ltrs 1,000's":105.6,"geo_score":0.805,"pkgs 100's":9,"office name":"Memorial Station","street address":"2226 Duke Street","id":"a622e6q4gtyo","geo_precision":"range","sales $":63009,"# po boxes":180,"state":"VA"},"type":"Feature","geometry":{"type":"Point","coordinates":[-77.067646,38.805356]}},{"properties":{"passport apps":23,"foot traffic":4257,"city":"Fairfax","zip":"22031","ltrs 1,000's":126.45,"geo_score":0.805,"pkgs 100's":25,"office name":"Merrifield Branch","street address":"2730 Prosperity Ave","id":"a622e6h7h5jf","geo_precision":"range","sales $":12725,"# po boxes":125,"state":"VA"},"type":"Feature","geometry":{"type":"Point","coordinates":[-77.232102,38.880984]}},{"properties":{"passport apps":5,"foot traffic":2151,"city":"Dumfries","zip":"22026","ltrs 1,000's":63.9,"geo_score":0.805,"pkgs 100's":5,"office name":"Montclair Contract Branch","street address":"4384 Kevin Walker Drive","id":"a622e6maxny1","geo_precision":"range","sales $":25205,"# po boxes":170,"state":"VA"},"type":"Feature","geometry":{"type":"Point","coordinates":[-77.341494,38.603739]}},{"properties":{"passport apps":8,"foot traffic":3414,"city":"Falls Church","zip":"22042","ltrs 1,000's":101.4,"geo_score":0.805,"pkgs 100's":9,"office name":"Mosby Branch","street address":"3030 Annandale Road","id":"a622e6p8iy38","geo_precision":"range","sales $":9009,"# po boxes":245,"state":"VA"},"type":"Feature","geometry":{"type":"Point","coordinates":[-77.174675,38.867638]}},{"properties":{"passport apps":5,"foot traffic":3338,"city":"Lorton","zip":"22079","ltrs 1,000's":99.15,"geo_score":0.902,"pkgs 100's":6,"office name":"Newington Main Office","street address":"8253 Backlick Road","id":"a622e6pg6ixk","geo_precision":"range","sales $":57606,"# po boxes":205,"state":"VA"},"type":"Feature","geometry":{"type":"Point","coordinates":[-77.189934,38.733125]}},{"properties":{"passport apps":14,"foot traffic":4904,"city":"Fort Belvoir","zip":"22060","ltrs 1,000's":145.65,"geo_score":0.545,"pkgs 100's":15,"office name":"North Post Station","street address":"9001 Gunston Road","id":"a622e6gkgqnx","geo_precision":"street","sales $":50215,"# po boxes":285,"state":"VA"},"type":"Feature","geometry":{"type":"Point","coordinates":[-77.335666,38.650138]}},{"properties":{"passport apps":15,"foot traffic":212,"city":"Springfield","zip":"22151","ltrs 1,000's":6.3,"geo_score":0.424,"pkgs 100's":17,"office name":"North Springfield Branch","street address":"5238 Port Royal Road","id":"a622e6fyzth3","geo_precision":"street","sales $":51117,"# po boxes":120,"state":"VA"},"type":"Feature","geometry":{"type":"Point","coordinates":[-77.266791,38.847007]}},{"properties":{"passport apps":25,"foot traffic":480,"city":"Oakton","zip":"22124","ltrs 1,000's":14.25,"geo_score":0.902,"pkgs 100's":28,"office name":"Oakton","street address":"10449 White Granite Drive","id":"a622e6k9k79a","geo_precision":"range","sales $":48528,"# po boxes":250,"state":"VA"},"type":"Feature","geometry":{"type":"Point","coordinates":[-77.305116,38.874125]}},{"properties":{"passport apps":5,"foot traffic":4722,"city":"Occoquan","zip":"22125","ltrs 1,000's":140.25,"geo_score":0.902,"pkgs 100's":5,"office name":"Occoquan Main Office","street address":"202 Mill Street","id":"a622e6l572qs","geo_precision":"range","sales $":56205,"# po boxes":140,"state":"VA"},"type":"Feature","geometry":{"type":"Point","coordinates":[-77.259578,38.683457]}},{"properties":{"passport apps":6,"foot traffic":2101,"city":"Alexandria","zip":"22302","ltrs 1,000's":62.4,"geo_score":0.805,"pkgs 100's":7,"office name":"Parkfairfax Station","street address":"3682 King Street","id":"a622e6celtld","geo_precision":"range","sales $":33207,"# po boxes":155,"state":"VA"},"type":"Feature","geometry":{"type":"Point","coordinates":[-77.091352,38.829959]}},{"properties":{"passport apps":13,"foot traffic":3575,"city":"Arlington","zip":"22205","ltrs 1,000's":106.2,"geo_score":0.785,"pkgs 100's":21,"office name":"Preston King Station","street address":"5877 Washington Boulevard","id":"a622e6ozucr1","geo_precision":"range","sales $":43614,"# po boxes":275,"state":"VA"},"type":"Feature","geometry":{"type":"Point","coordinates":[-77.141378,38.885571]}},{"properties":{"passport apps":19,"foot traffic":2853,"city":"Woodbridge","zip":"22193","ltrs 1,000's":84.75,"geo_score":0.488,"pkgs 100's":17,"office name":"Prince William Branch","street address":"3360 Post Office Road","id":"a622e6f643j6","geo_precision":"street","sales $":54721,"# po boxes":265,"state":"VA"},"type":"Feature","geometry":{"type":"Point","coordinates":[-77.273866,38.621663]}},{"properties":{"passport apps":15,"foot traffic":1308,"city":"Reston","zip":"20190","ltrs 1,000's":38.85,"geo_score":0.902,"pkgs 100's":39,"office name":"Reston Annex","street address":"1860A Michael Faraday Drive","id":"a622e6nwxnn5","geo_precision":"range","sales $":317,"# po boxes":145,"state":"VA"},"type":"Feature","geometry":{"type":"Point","coordinates":[-77.332981,38.94859]}},{"properties":{"passport apps":35,"foot traffic":4601,"city":"Reston","zip":"20190","ltrs 1,000's":136.65,"geo_score":0.902,"pkgs 100's":12,"office name":"Reston Branch","street address":"11110 Sunset Hills Road","id":"a622e6krm0hp","geo_precision":"range","sales $":41439,"# po boxes":125,"state":"VA"},"type":"Feature","geometry":{"type":"Point","coordinates":[-77.330371,38.947703]}},{"properties":{"passport apps":11,"foot traffic":4828,"city":"Reston","zip":"20190","ltrs 1,000's":143.4,"geo_score":0.902,"pkgs 100's":26,"office name":"Reston Town Center Contra","street address":"11913 Freedom Drive","id":"a622e6b4uw0v","geo_precision":"range","sales $":40212,"# po boxes":105,"state":"VA"},"type":"Feature","geometry":{"type":"Point","coordinates":[-77.356832,38.959519]}},{"properties":{"passport apps":23,"foot traffic":1778,"city":"Woodbridge","zip":"22192","ltrs 1,000's":52.8,"geo_score":0.805,"pkgs 100's":2,"office name":"School &amp; Office Annex","street address":"12541 Dillingham Square","id":"a622e6njbnt4","geo_precision":"range","sales $":64926,"# po boxes":160,"state":"VA"},"type":"Feature","geometry":{"type":"Point","coordinates":[-77.319848,38.682679]}},{"properties":{"passport apps":2,"foot traffic":4545,"city":"Arlington","zip":"22206","ltrs 1,000's":135.0,"geo_score":0.805,"pkgs 100's":12,"office name":"Shirlington Station","street address":"2850 S Quincy Street","id":"a622e6elena2","geo_precision":"range","sales $":49402,"# po boxes":285,"state":"VA"},"type":"Feature","geometry":{"type":"Point","coordinates":[-77.086776,38.840569]}},{"properties":{"passport apps":15,"foot traffic":4989,"city":"Arlington","zip":"22204","ltrs 1,000's":148.2,"geo_score":0.805,"pkgs 100's":4,"office name":"South Station","street address":"1210 S Glebe Road","id":"a622e6l9asfk","geo_precision":"range","sales $":53617,"# po boxes":255,"state":"VA"},"type":"Feature","geometry":{"type":"Point","coordinates":[-77.09163,38.859473]}},{"properties":{"passport apps":11,"foot traffic":1288,"city":"Springfield","zip":"22150","ltrs 1,000's":38.25,"geo_score":0.55,"pkgs 100's":28,"office name":"Springfield Main Office","street address":"7051 Brookfield Plaza","id":"a622e6n5qal2","geo_precision":"city","sales $":40812,"# po boxes":225,"state":"VA"},"type":"Feature","geometry":{"type":"Point","coordinates":[-77.313595,38.999276]}},{"properties":{"passport apps":4,"foot traffic":954,"city":"Centreville","zip":"20120","ltrs 1,000's":28.35,"geo_score":0.506,"pkgs 100's":35,"office name":"Sully Station","street address":"5003 WESTFIELDS BLVD","id":"a622e6o4njpf","geo_precision":"street","sales $":79204,"# po boxes":300,"state":"VA"},"type":"Feature","geometry":{"type":"Point","coordinates":[-77.273744,38.828194]}},{"properties":{"passport apps":25,"foot traffic":4333,"city":"Fairfax","zip":"22031","ltrs 1,000's":128.7,"geo_score":0.62,"pkgs 100's":35,"office name":"Turnpike Station","street address":"3601 Pickett Road","id":"a622e6pc79w7","geo_precision":"street","sales $":43928,"# po boxes":250,"state":"VA"},"type":"Feature","geometry":{"type":"Point","coordinates":[-77.317504,38.856691]}},{"properties":{"passport apps":32,"foot traffic":591,"city":"Vienna","zip":"22180","ltrs 1,000's":17.55,"geo_score":0.504,"pkgs 100's":34,"office name":"Vienna Main Office","street address":"200 Lawyers Road NW","id":"a622e6qizvpa","geo_precision":"city","sales $":11335,"# po boxes":210,"state":"VA"},"type":"Feature","geometry":{"type":"Point","coordinates":[-78.397506,38.718729]}},{"properties":{"passport apps":32,"foot traffic":3055,"city":"Springfield","zip":"22152","ltrs 1,000's":90.75,"geo_score":0.61,"pkgs 100's":17,"office name":"West Springfield Branch","street address":"6200 Rolling Road","id":"a622e6qve46o","geo_precision":"street","sales $":8135,"# po boxes":125,"state":"VA"},"type":"Feature","geometry":{"type":"Point","coordinates":[-77.246586,38.794444]}},{"properties":{"passport apps":31,"foot traffic":3070,"city":"Woodbridge","zip":"22191","ltrs 1,000's":91.2,"geo_score":0.902,"pkgs 100's":14,"office name":"Woodbridge Main Office","street address":"1810 Reddy Drive","id":"a622e6b996p0","geo_precision":"range","sales $":60134,"# po boxes":220,"state":"VA"},"type":"Feature","geometry":{"type":"Point","coordinates":[-77.267708,38.631733]}}],"is_temporal":false,"author":{"url":"","metadata":"","contact_name":"Michael Glagola","contact_address":"","source":"Created data from random numbers; data is not real","contact_phone":"703-830-6860"},"source":"","pagination":{"sort":null,"start":0,"total":50,"limit":1000000},"state":"complete","tags":"cemana,postal,usps","published":"2014-08-13T00:55:36-04:00","id":153079}