{"type":"FeatureCollection","data_type":"Dataset Analysis","url_type":null,"permissions":[{"permissions":{"download":true,"edit":true,"view":true},"group_id":32491},{"permissions":{"download":true,"view":true},"group_id":"everyone"}],"classification":null,"title":"Filtered Features of 'Stores - NoVA Locations' based on 'PO Op Dummy Data'","count":43,"stream_id":153168,"contributor":{"url":"http://geocommons.com/users/32297","name":"mglagola"},"data_attributes":null,"calculation_params":[{"calculation":"buffer_intersect","input":{"min_distance":"0","ds1":"153165","ds2":"153079","unit":"miles","distance":"3"}}],"icon_link":null,"link":"http://geocommons.com/overlays/153168.json","extent":[-77.5117,38.7393,-77.0693,38.9839],"geometry_types":["point"],"unique_name":null,"name":"Filtered Features of 'Stores - NoVA Locations' based on 'PO Op Dummy Data'","feature_count":43,"description":"Dataset created by filtering features of 'Stores - NoVA Locations' that are within a buffer of 0 to 3 miles around the features in 'PO Op Dummy Data'","next_feature":null,"is_raster":false,"short_classification":"Y","stats":{"geo_score":{"max":1.0,"mean":0.909348837209302,"variance":0.012676803986711,"stdev":0.112591313993181,"min":0.473,"median":0.916}},"features":[{"properties":{"city":"MANASSAS","store name":"Store # 1801","geo_score":1.0,"zip code":"20110","street address":"9972 LIBERIA AVENUE","id":"2","geo_precision":"range","state":"VA"},"type":"Feature","geometry":{"type":"Point","coordinates":[-77.451507,38.739274]}},{"properties":{"city":"MANASSAS","store name":"Store # 1406","geo_score":1.0,"zip code":"20110","street address":"9200 CENTREVILLE ROAD","id":"1","geo_precision":"range","state":"VA"},"type":"Feature","geometry":{"type":"Point","coordinates":[-77.465995,38.755652]}},{"properties":{"city":"BURKE","store name":"Store # 1390","geo_score":0.902,"zip code":"22015","street address":"9582 OLD KEENE MILL ROAD","id":"17","geo_precision":"range","state":"VA"},"type":"Feature","geometry":{"type":"Point","coordinates":[-77.274999,38.776838]}},{"properties":{"city":"MANASSAS","store name":"Store # 1393","geo_score":1.0,"zip code":"20109","street address":"8041 SUDLEY ROAD","id":"0","geo_precision":"range","state":"VA"},"type":"Feature","geometry":{"type":"Point","coordinates":[-77.511747,38.78232]}},{"properties":{"city":"GAINESVILLE","store name":"Store # 5928","geo_score":0.473,"zip code":"20155","street address":"14380 MCGRAW'S CORNER DRIVE","id":"7","geo_precision":"street","state":"VA"},"type":"Feature","geometry":{"type":"Point","coordinates":[-77.506688,38.784389]}},{"properties":{"city":"MANASSAS PARK","store name":"Store # 3018","geo_score":1.0,"zip code":"20111","street address":"7500 CENTREVILLE ROAD","id":"3","geo_precision":"range","state":"VA"},"type":"Feature","geometry":{"type":"Point","coordinates":[-77.44766,38.793319]}},{"properties":{"city":"BURKE","store name":"Store # 1378","geo_score":0.863,"zip code":"22015","street address":"5711 BURKE CENTER PARKWAY","id":"16","geo_precision":"range","state":"VA"},"type":"Feature","geometry":{"type":"Point","coordinates":[-77.321473,38.798663]}},{"properties":{"city":"SPRINGFIELD","store name":"Store # 1405","geo_score":0.911,"zip code":"22151","street address":"8928 BURKE LAKE ROAD","id":"33","geo_precision":"range","state":"VA"},"type":"Feature","geometry":{"type":"Point","coordinates":[-77.252729,38.809318]}},{"properties":{"city":"ANNANDALE","store name":"Store # 1413","geo_score":0.902,"zip code":"22003","street address":"7859 HERITAGE DRIVE","id":"14","geo_precision":"range","state":"VA"},"type":"Feature","geometry":{"type":"Point","coordinates":[-77.213157,38.824822]}},{"properties":{"city":"ANNANDALE","store name":"Store # 1383","geo_score":0.863,"zip code":"22003","street address":"7205 LITTLE RIVER TURNPIKE","id":"15","geo_precision":"range","state":"VA"},"type":"Feature","geometry":{"type":"Point","coordinates":[-77.194392,38.830146]}},{"properties":{"city":"FAIRFAX","store name":"Store # 2003","geo_score":1.0,"zip code":"22031","street address":"9480 MAIN STREET","id":"22","geo_precision":"range","state":"VA"},"type":"Feature","geometry":{"type":"Point","coordinates":[-77.271711,38.84116]}},{"properties":{"city":"FAIRFAX","store name":"Store # 1371","geo_score":0.91,"zip code":"22030","street address":"10390 WILLARD WAY","id":"20","geo_precision":"range","state":"VA"},"type":"Feature","geometry":{"type":"Point","coordinates":[-77.304606,38.847485]}},{"properties":{"city":"FAIRFAX","store name":"Store # 1957","geo_score":0.608,"zip code":"22030","street address":"10090 FAIRFAX BOULEVARD","id":"19","geo_precision":"street","state":"VA"},"type":"Feature","geometry":{"type":"Point","coordinates":[-77.328829,38.84921]}},{"properties":{"city":"FAIRFAX","store name":"Store # 2453","geo_score":0.91,"zip code":"22030","street address":"11003 LEE HIGHWAY","id":"21","geo_precision":"range","state":"VA"},"type":"Feature","geometry":{"type":"Point","coordinates":[-77.323918,38.852731]}},{"properties":{"city":"ARLINGTON","store name":"Store # 1375","geo_score":0.977,"zip code":"22204","street address":"5017 COLUMBIA PIKE","id":"41","geo_precision":"range","state":"VA"},"type":"Feature","geometry":{"type":"Point","coordinates":[-77.112524,38.855766]}},{"properties":{"city":"FAIRFAX","store name":"Store # 2013","geo_score":1.0,"zip code":"22033","street address":"11937 FAIR OAKS MALL","id":"23","geo_precision":"range","state":"VA"},"type":"Feature","geometry":{"type":"Point","coordinates":[-77.358858,38.860457]}},{"properties":{"city":"ARLINGTON","store name":"Store # 2142","geo_score":0.932,"zip code":"22204","street address":"2601 COLUMBIA TURNPIKE","id":"40","geo_precision":"range","state":"VA"},"type":"Feature","geometry":{"type":"Point","coordinates":[-77.085083,38.863048]}},{"properties":{"city":"FALLS CHURCH","store name":"Store # 1411","geo_score":0.911,"zip code":"22042","street address":"8124 ARLINGTON BOULEVARD","id":"25","geo_precision":"range","state":"VA"},"type":"Feature","geometry":{"type":"Point","coordinates":[-77.227611,38.865665]}},{"properties":{"city":"FALLS CHURCH","store name":"Store # 1829","geo_score":0.911,"zip code":"22042","street address":"7275 ARLINGTON BOULEVARD","id":"26","geo_precision":"range","state":"VA"},"type":"Feature","geometry":{"type":"Point","coordinates":[-77.196832,38.866156]}},{"properties":{"city":"FAIRFAX","store name":"Store # 1399","geo_score":0.805,"zip code":"22030","street address":"3053 NUTLEY STREET","id":"18","geo_precision":"range","state":"VA"},"type":"Feature","geometry":{"type":"Point","coordinates":[-77.263368,38.869607]}},{"properties":{"city":"FALLS CHURCH","store name":"Store # 2317","geo_score":0.911,"zip code":"22042","street address":"6637 ARLINGTON BOULEVARD","id":"27","geo_precision":"range","state":"VA"},"type":"Feature","geometry":{"type":"Point","coordinates":[-77.173102,38.869872]}},{"properties":{"city":"FALLS CHURCH","store name":"Store # 1388","geo_score":0.806,"zip code":"22044","street address":"6164 ARLINGTON BOULEVARD","id":"28","geo_precision":"street","state":"VA"},"type":"Feature","geometry":{"type":"Point","coordinates":[-77.155209,38.872073]}},{"properties":{"city":"ARLINGTON","store name":"Store # 1884","geo_score":1.0,"zip code":"22203","street address":"256 NORTH GLEBE ROAD","id":"39","geo_precision":"range","state":"VA"},"type":"Feature","geometry":{"type":"Point","coordinates":[-77.104824,38.873619]}},{"properties":{"city":"ARLINGTON","store name":"Store # 1833","geo_score":0.973,"zip code":"22203","street address":"4238 WILSON BOULEVARD","id":"38","geo_precision":"range","state":"VA"},"type":"Feature","geometry":{"type":"Point","coordinates":[-77.111248,38.879974]}},{"properties":{"city":"FAIRFAX","store name":"Store # 1417","geo_score":0.889,"zip code":"22033","street address":"13031 LEE-JACKSON HIGHWAY","id":"24","geo_precision":"range","state":"VA"},"type":"Feature","geometry":{"type":"Point","coordinates":[-77.396546,38.880699]}},{"properties":{"city":"OAKTON","store name":"Store # 1389","geo_score":0.754,"zip code":"22124","street address":"2912 CHAIN BRIDGE ROAD","id":"32","geo_precision":"range","state":"VA"},"type":"Feature","geometry":{"type":"Point","coordinates":[-77.298309,38.882109]}},{"properties":{"city":"FALLS CHURCH","store name":"Store # 1905","geo_score":0.902,"zip code":"22046","street address":"134 WEST BROAD STREET","id":"30","geo_precision":"range","state":"VA"},"type":"Feature","geometry":{"type":"Point","coordinates":[-77.17151,38.882571]}},{"properties":{"city":"ARLINGTON","store name":"Store # 9999","geo_score":0.973,"zip code":"22201","street address":"3141 WILSON BOULEVARD","id":"35","geo_precision":"range","state":"VA"},"type":"Feature","geometry":{"type":"Point","coordinates":[-77.09573,38.886885]}},{"properties":{"city":"ARLINGTON","store name":"Store # 2418","geo_score":0.916,"zip code":"22201","street address":"2121 15TH STREET NORTH","id":"36","geo_precision":"range","state":"VA"},"type":"Feature","geometry":{"type":"Point","coordinates":[-77.084884,38.890744]}},{"properties":{"city":"FALLS CHURCH","store name":"Store # 1400","geo_score":0.902,"zip code":"22046","street address":"1150 WEST BROAD STREET","id":"29","geo_precision":"range","state":"VA"},"type":"Feature","geometry":{"type":"Point","coordinates":[-77.18732,38.892859]}},{"properties":{"city":"ARLINGTON","store name":"Store # 2705","geo_score":0.898,"zip code":"22209","street address":"1555 WILSON BOULEVARD","id":"45","geo_precision":"range","state":"VA"},"type":"Feature","geometry":{"type":"Point","coordinates":[-77.075236,38.894579]}},{"properties":{"city":"ROSSLYN","store name":"Store # 1421","geo_score":0.973,"zip code":"22209","street address":"1100 WILSON BOULEVARD","id":"46","geo_precision":"range","state":"VA"},"type":"Feature","geometry":{"type":"Point","coordinates":[-77.069311,38.894603]}},{"properties":{"city":"ARLINGTON","store name":"Store # 1407","geo_score":0.958,"zip code":"22201","street address":"3133 LEE HIGHWAY","id":"37","geo_precision":"range","state":"VA"},"type":"Feature","geometry":{"type":"Point","coordinates":[-77.096826,38.89595]}},{"properties":{"city":"CHANTILLY","store name":"Store # 1419","geo_score":1.0,"zip code":"20151","street address":"3919 CENTREVILLE ROAD","id":"5","geo_precision":"range","state":"VA"},"type":"Feature","geometry":{"type":"Point","coordinates":[-77.429744,38.896217]}},{"properties":{"city":"ARLINGTON","store name":"Store # 1835","geo_score":0.958,"zip code":"22207","street address":"5402 LEE HIGHWAY","id":"43","geo_precision":"range","state":"VA"},"type":"Feature","geometry":{"type":"Point","coordinates":[-77.137741,38.896298]}},{"properties":{"city":"ARLINGTON","store name":"Store # 1380","geo_score":0.958,"zip code":"22207","street address":"4709 LEE HIGHWAY","id":"42","geo_precision":"range","state":"VA"},"type":"Feature","geometry":{"type":"Point","coordinates":[-77.122039,38.898104]}},{"properties":{"city":"ARLINGTON","store name":"Store # 1372","geo_score":0.983,"zip code":"22207","street address":"6404 WILLIAMSBURG BOULEVARD","id":"44","geo_precision":"range","state":"VA"},"type":"Feature","geometry":{"type":"Point","coordinates":[-77.156196,38.900879]}},{"properties":{"city":"VIENNA","store name":"Store # 1403","geo_score":0.911,"zip code":"22180","street address":"337 MAPLE AVENUE EAST","id":"34","geo_precision":"range","state":"VA"},"type":"Feature","geometry":{"type":"Point","coordinates":[-77.260143,38.9058]}},{"properties":{"city":"HERNDON","store name":"Store # 2155","geo_score":1.0,"zip code":"20171","street address":"3071 CENTREVILLE ROAD","id":"11","geo_precision":"range","state":"VA"},"type":"Feature","geometry":{"type":"Point","coordinates":[-77.417499,38.921944]}},{"properties":{"city":"MCLEAN","store name":"Store # 1397","geo_score":0.932,"zip code":"22101","street address":"1452 CHAIN BRIDGE ROAD","id":"31","geo_precision":"range","state":"VA"},"type":"Feature","geometry":{"type":"Point","coordinates":[-77.179947,38.93188]}},{"properties":{"city":"RESTON","store name":"Store # 1396","geo_score":1.0,"zip code":"20191","street address":"11160 SOUTH LAKES DRIVE","id":"13","geo_precision":"range","state":"VA"},"type":"Feature","geometry":{"type":"Point","coordinates":[-77.329112,38.93818]}},{"properties":{"city":"HERNDON","store name":"Store # 1402","geo_score":1.0,"zip code":"20170","street address":"1062 ELDEN STREET","id":"10","geo_precision":"range","state":"VA"},"type":"Feature","geometry":{"type":"Point","coordinates":[-77.396622,38.966148]}},{"properties":{"city":"RESTON","store name":"Store # 1961","geo_score":0.627,"zip code":"20170","street address":"11670 PLAZA AMERICA DRIVE","id":"9","geo_precision":"zip","state":"VA"},"type":"Feature","geometry":{"type":"Point","coordinates":[-77.367457,38.983887]}}],"is_temporal":false,"author":{"url":null,"metadata":null,"contact_name":null,"contact_address":null,"source":null,"contact_phone":null},"source":null,"pagination":{"sort":null,"start":0,"total":43,"limit":1000000},"state":"complete","tags":"","published":"2014-08-13T01:09:26-04:00","id":153168}