{"type":"FeatureCollection","data_type":"Dataset","url_type":null,"permissions":[{"permissions":{"download":true,"view":true},"group_id":"everyone"}],"classification":null,"title":"Amtrack_Stations","count":7,"stream_id":153380,"contributor":{"url":"http://geocommons.com/users/31692","name":"mjackson1018"},"data_attributes":null,"calculation_params":null,"icon_link":null,"link":"http://geocommons.com/overlays/153380.json","extent":[-90.1349,38.9045,-88.4283,41.092],"geometry_types":["point"],"unique_name":null,"name":"Amtrack_Stations","feature_count":7,"description":"","next_feature":null,"is_raster":false,"short_classification":"Y","stats":{},"features":[{"properties":{"ADDRESS1":"128 Alton Rd.","CITY":"Carlinville","ZIP":"62626-1625","New_Constr":"Yes","STNCODE":"CRV","id":"0"},"type":"Feature","geometry":{"type":"Point","coordinates":[-89.8889160000127,39.2793270002353]}},{"properties":{"ADDRESS1":"119 West Main St.","CITY":"Dwight","ZIP":"60420-1321","New_Constr":"Yes","STNCODE":"DWT","id":"1"},"type":"Feature","geometry":{"type":"Point","coordinates":[-88.428322000265,41.0920490000136]}},{"properties":{"ADDRESS1":"Broadway and North Chicago Sts.","CITY":"Lincoln","ZIP":"62656","New_Constr":"Yes","STNCODE":"LCN","id":"2"},"type":"Feature","geometry":{"type":"Point","coordinates":[-89.3633039997311,40.147537000119]}},{"properties":{"ADDRESS1":"3400 College Ave.","CITY":"Alton","ZIP":"62002-5000","New_Constr":"Yes","STNCODE":"ALN","id":"3"},"type":"Feature","geometry":{"type":"Point","coordinates":[-90.1349489999429,38.9044910002514]}},{"properties":{"ADDRESS1":"100 East Parkinson St.","CITY":"Normal","ZIP":"61761-3015","New_Constr":"No","STNCODE":"BNL","id":"4"},"type":"Feature","geometry":{"type":"Point","coordinates":[-88.9840389997313,40.5083470001646]}},{"properties":{"ADDRESS1":"721 West Washington St.","CITY":"Pontiac","ZIP":"61764","New_Constr":"Yes","STNCODE":"PON","id":"5"},"type":"Feature","geometry":{"type":"Point","coordinates":[-88.6364969997557,40.8794400002782]}},{"properties":{"ADDRESS1":"East Washington and North Third Sts.","CITY":"Springfield","ZIP":"62701-1106","New_Constr":"Yes","STNCODE":"SPI","id":"6"},"type":"Feature","geometry":{"type":"Point","coordinates":[-89.6516719996312,39.801585999739]}}],"is_temporal":false,"author":{"url":"","metadata":null,"contact_name":"","contact_address":"1200 New Jersey Avenue S.E., Washington , DC, 20590","source":"Federal Railroad Administration (FRA)","contact_phone":"REQUIRED: The telephone number by which individuals can speak to the organization or individual."},"source":"","pagination":{"sort":null,"start":0,"total":7,"limit":1000000},"state":"complete","tags":"","published":"2009-03-01T17:00:00Z","id":153380}