{"type":"FeatureCollection","data_type":"Dataset","url_type":null,"permissions":[{"permissions":{"download":true,"edit":true,"view":true},"group_id":30055},{"permissions":{"download":true,"view":true},"group_id":"everyone"}],"classification":null,"title":"Hope Network Locations 09-11","count":169,"stream_id":154877,"contributor":{"url":"http://geocommons.com/users/28869","name":"HopeNetwork3075"},"data_attributes":null,"calculation_params":null,"icon_link":null,"link":"http://geocommons.com/overlays/154877.json","extent":[-86.2393,41.8081,-82.7289,44.2644],"geometry_types":["point"],"unique_name":null,"name":"Hope Network Locations 09-11","feature_count":169,"description":"This data shows Hope Network facility locations and own/lease information","next_feature":null,"is_raster":false,"short_classification":"Y","stats":{"latitude":{"max":44.264431,"mean":42.8700156130953,"variance":0.161277541050754,"stdev":0.401593751259595,"min":41.80811,"median":42.924601},"longitude":{"max":-82.728869,"mean":-85.0415936666667,"variance":0.9378729655562,"stdev":0.968438415985343,"min":-86.239317,"median":-85.563811}},"features":[{"properties":{"city":"Grand Rapids","latitude":42.984526,"zip":"49503","title":"Creston Ridge","addresses":"385 Leonard NE","occupied by":"HNBHS","ownership":"Owned","longitude":-85.660273,"id":"a641c1i6y9a3","state":"Michigan"},"type":"Feature","geometry":{"type":"Point","coordinates":[-85.660273,42.984526]}},{"properties":{"city":"Kentwood","latitude":42.898029,"zip":"49512","title":"DART Outpatient Coral Lettinga Center for Autism (CFA)","addresses":"3361 36th St SE","occupied by":"HNBHS","ownership":"Owned","longitude":-85.583446,"id":"a641c1m035a9","state":"Michigan"},"type":"Feature","geometry":{"type":"Point","coordinates":[-85.583446,42.898029]}},{"properties":{"city":"Kentwood","latitude":42.898029,"zip":"49512","title":"DART Residential","addresses":"3333 36th Street SE","occupied by":"HNBHS","ownership":"Owned","longitude":-85.584125,"id":"a641c1lu85cl","state":"Michigan"},"type":"Feature","geometry":{"type":"Point","coordinates":[-85.584125,42.898029]}},{"properties":{"city":"Grand Rapids","latitude":42.98258,"zip":"49505","title":"Family Life Center - Side by Side","addresses":"1256 Walker NW","occupied by":"HNBHS","ownership":"Program Only","longitude":-85.699423,"id":"a641c1hwg86r","state":"Michigan"},"type":"Feature","geometry":{"type":"Point","coordinates":[-85.699423,42.98258]}},{"properties":{"city":"Walker","latitude":43.026675,"zip":"49544","title":"Grandview - Alpine Grove","addresses":"719 North Center Drive NW","occupied by":"HNBHS","ownership":"Owned","longitude":-85.687405,"id":"a641c17xqdmj","state":"Michigan"},"type":"Feature","geometry":{"type":"Point","coordinates":[-85.687405,43.026675]}},{"properties":{"city":"Walker","latitude":43.026677,"zip":"49544","title":"Grandview - Haven","addresses":"713 N Center Dr NW","occupied by":"HNBHS","ownership":"Owned","longitude":-85.687265,"id":"a641c1ifvk4f","state":"Michigan"},"type":"Feature","geometry":{"type":"Point","coordinates":[-85.687265,43.026677]}},{"properties":{"city":"Walker","latitude":43.026674,"zip":"49544","title":"Grandview - Lodge","addresses":"721 N Center Dr NW","occupied by":"HNBHS","ownership":"Owned","longitude":-85.687452,"id":"a641c1m8qsk1","state":"Michigan"},"type":"Feature","geometry":{"type":"Point","coordinates":[-85.687452,43.026674]}},{"properties":{"city":"Grand Rapids","latitude":43.026675,"zip":"49544","title":"Grandview - Meadows","addresses":"717 N Center Drive NW","occupied by":"HNBHS","ownership":"Owned","longitude":-85.687358,"id":"a641c1l2k24j","state":"Michigan"},"type":"Feature","geometry":{"type":"Point","coordinates":[-85.687358,43.026675]}},{"properties":{"city":"Grand Rapids","latitude":42.998825,"zip":"49544","title":"Grandview - Storage Building","addresses":"3460 Alpine Ave NW","occupied by":"HNBHS","ownership":"Owned","longitude":-85.688232,"id":"a641c1m06l3i","state":"Michigan"},"type":"Feature","geometry":{"type":"Point","coordinates":[-85.688232,42.998825]}},{"properties":{"city":"Nunica","latitude":43.08191,"zip":"49448","title":"Harbor Point Intensive East","addresses":"17160 130th Ave","occupied by":"HNBHS","ownership":"Owned","longitude":-86.111739,"id":"a641c188wafn","state":"Michigan"},"type":"Feature","geometry":{"type":"Point","coordinates":[-86.111739,43.08191]}},{"properties":{"city":"Grand Rapids","latitude":42.919088,"zip":"49546","title":"Hillcrest RCT","addresses":"2451 Breton SE","occupied by":"HNBHS","ownership":"Owned","longitude":-85.608487,"id":"a641c1jcmauk","state":"Michigan"},"type":"Feature","geometry":{"type":"Point","coordinates":[-85.608487,42.919088]}},{"properties":{"city":"Kentwood","latitude":42.837276,"zip":"49505","title":"Oak Lodge","addresses":"53 Brownell St SE","occupied by":"HNBHS","ownership":"Owned","longitude":-85.662613,"id":"a641c1dk4g3f","state":"Michigan"},"type":"Feature","geometry":{"type":"Point","coordinates":[-85.662613,42.837276]}},{"properties":{"city":"Grand Rapids","latitude":43.018626,"zip":"49505","title":"Ridgeway","addresses":"891 Maryland NE","occupied by":"HNBHS","ownership":"Owned","longitude":-85.60983,"id":"a641c1f3uhvg","state":"Michigan"},"type":"Feature","geometry":{"type":"Point","coordinates":[-85.60983,43.018626]}},{"properties":{"city":"Grand Rapids","latitude":42.984657,"zip":"49505","title":"River Valley Crisis","addresses":"1450 Leonard NE","occupied by":"HNBHS","ownership":"Owned","longitude":-85.633183,"id":"a641c1m50auo","state":"Michigan"},"type":"Feature","geometry":{"type":"Point","coordinates":[-85.633183,42.984657]}},{"properties":{"city":"Lowell","latitude":42.885974,"zip":"49331","title":"Westlake - Avalon","addresses":"11652 W Grand River Ave","occupied by":"HNBHS","ownership":"Leased from others","longitude":-85.301084,"id":"a641c17vpuy4","state":"Michigan"},"type":"Feature","geometry":{"type":"Point","coordinates":[-85.301084,42.885974]}},{"properties":{"city":"Big Rapids","latitude":43.742589,"zip":"49307","title":"19 Mile Home - 1","addresses":"20520 19 Mile Road","occupied by":"HNDCS/WM","ownership":"Owned","longitude":-85.493785,"id":"a641c1g0f37o","state":"Michigan"},"type":"Feature","geometry":{"type":"Point","coordinates":[-85.493785,43.742589]}},{"properties":{"city":"Big Rapids","latitude":43.742563,"zip":"49307","title":"19 Mile Home - 2","addresses":"20780 19 Mile Road","occupied by":"HNDCS/WM","ownership":"Owned","longitude":-85.499086,"id":"a641c1kq0gl5","state":"Michigan"},"type":"Feature","geometry":{"type":"Point","coordinates":[-85.499086,43.742563]}},{"properties":{"city":"Kentwood","latitude":42.897986,"zip":"49512","title":"36th Street AFC","addresses":"4345 36th Street SE","occupied by":"HNDCS/WM","ownership":"Owned","longitude":-85.559259,"id":"a641c1cn8iut","state":"Michigan"},"type":"Feature","geometry":{"type":"Point","coordinates":[-85.559259,42.897986]}},{"properties":{"city":"Grand Rapids","latitude":42.898228,"zip":"49548","title":"36th Street Campus Building 1","addresses":"795 36th St SE","occupied by":"HNDCS/WM","ownership":"Owned","longitude":-85.645627,"id":"a641c17x1i86","state":"Michigan"},"type":"Feature","geometry":{"type":"Point","coordinates":[-85.645627,42.898228]}},{"properties":{"city":"Grand Rapids","latitude":42.898228,"zip":"49548","title":"36th Street Campus Building 2","addresses":"781 36th St SE","occupied by":"HNDCS/WM","ownership":"Owned","longitude":-85.645627,"id":"a641c1gbtqi1","state":"Michigan"},"type":"Feature","geometry":{"type":"Point","coordinates":[-85.645627,42.898228]}},{"properties":{"city":"Grand Rapids","latitude":42.898228,"zip":"49548","title":"36th Street Campus Building 4","addresses":"755 36th St SE","occupied by":"HNDCS/WM","ownership":"Owned","longitude":-85.645627,"id":"a641c1fpgfyk","state":"Michigan"},"type":"Feature","geometry":{"type":"Point","coordinates":[-85.645627,42.898228]}},{"properties":{"city":"Grandville","latitude":42.885027,"zip":"49548","title":"44th Street AFC","addresses":"4075 44th St SW","occupied by":"HNDCS/WM","ownership":"Owned","longitude":-85.734631,"id":"a641c1ii07i3","state":"Michigan"},"type":"Feature","geometry":{"type":"Point","coordinates":[-85.734631,42.885027]}},{"properties":{"city":"Kentwood","latitude":42.869356,"zip":"49548","title":"52nd Street AFC","addresses":"1441 52nd St SE","occupied by":"HNDCS/WM","ownership":"Owned","longitude":-85.630095,"id":"a641c18kljf4","state":"Michigan"},"type":"Feature","geometry":{"type":"Point","coordinates":[-85.630095,42.869356]}},{"properties":{"city":"Wyoming","latitude":42.866228,"zip":"49548","title":"54th St - 1 Apts","addresses":"178 54th Street","occupied by":"HNDCS/WM","ownership":"Owned and Leased to others","longitude":-85.670084,"id":"a641c1hprdo6","state":"Michigan"},"type":"Feature","geometry":{"type":"Point","coordinates":[-85.670084,42.866228]}},{"properties":{"city":"Kentwood","latitude":42.855029,"zip":"49508","title":"60th Street AFC","addresses":"1947 60th St SE","occupied by":"HNDCS/WM","ownership":"Owned","longitude":-85.614603,"id":"a641c1frn14y","state":"Michigan"},"type":"Feature","geometry":{"type":"Point","coordinates":[-85.614603,42.855029]}},{"properties":{"city":"Lowell","latitude":42.943171,"zip":"49331","title":"Attwood","addresses":"1016 North Monroe","occupied by":"HNDCS/WM","ownership":"Not Owned or Leased","longitude":-85.338916,"id":"a641c1jn4rtc","state":"Michigan"},"type":"Feature","geometry":{"type":"Point","coordinates":[-85.338916,42.943171]}},{"properties":{"city":"Grand Rapids","latitude":42.934327,"zip":"49506","title":"Boston Home","addresses":"2141 Boston SE","occupied by":"HNDCS/WM","ownership":"Owned","longitude":-85.61531,"id":"a641c1ako5iz","state":"Michigan"},"type":"Feature","geometry":{"type":"Point","coordinates":[-85.61531,42.934327]}},{"properties":{"city":"Grand Rapids","latitude":42.981316,"zip":"49504","title":"Bristol Home AFC","addresses":"909 Bristol NW","occupied by":"HNDCS/WM","ownership":"Owned","longitude":-85.707432,"id":"a641c1mla75w","state":"Michigan"},"type":"Feature","geometry":{"type":"Point","coordinates":[-85.707432,42.981316]}},{"properties":{"city":"Grand Rapids","latitude":42.962415,"zip":"49506","title":"Carlton Home 34","addresses":"34 Carlton SE","occupied by":"HNDCS/WM","ownership":"Owned","longitude":-85.636093,"id":"a641c19cr4x4","state":"Michigan"},"type":"Feature","geometry":{"type":"Point","coordinates":[-85.636093,42.962415]}},{"properties":{"city":"Grand Rapids","latitude":42.962351,"zip":"49506","title":"Carlton Home 38","addresses":"38 Carlton SE","occupied by":"HNDCS/WM","ownership":"Owned","longitude":-85.636101,"id":"a641c18q4c92","state":"Michigan"},"type":"Feature","geometry":{"type":"Point","coordinates":[-85.636101,42.962351]}},{"properties":{"city":"Grand Rapids","latitude":42.962287,"zip":"49506","title":"Carlton Home 42","addresses":"42 Carlton SE","occupied by":"HNDCS/WM","ownership":"Owned","longitude":-85.636109,"id":"a641c1mz4uyi","state":"Michigan"},"type":"Feature","geometry":{"type":"Point","coordinates":[-85.636109,42.962287]}},{"properties":{"city":"Cedar Springs","latitude":43.216008,"zip":"49319","title":"Cedar Lodge AFC","addresses":"536 West St","occupied by":"HNDCS/WM","ownership":"Owned","longitude":-85.561127,"id":"a641c1mfh50k","state":"Michigan"},"type":"Feature","geometry":{"type":"Point","coordinates":[-85.561127,43.216008]}},{"properties":{"city":"Cedar Springs","latitude":43.216227,"zip":"49319","title":"Cedar Springs Center","addresses":"490 West St","occupied by":"HNDCS/WM","ownership":"Owned","longitude":-85.561127,"id":"a641c1np959r","state":"Michigan"},"type":"Feature","geometry":{"type":"Point","coordinates":[-85.561127,43.216227]}},{"properties":{"city":"Lowell","latitude":42.928702,"zip":"49331","title":"Center Street AFC","addresses":"333 S Center St","occupied by":"HNDCS/WM","ownership":"Owned","longitude":-85.348677,"id":"a641c1i10e0w","state":"Michigan"},"type":"Feature","geometry":{"type":"Point","coordinates":[-85.348677,42.928702]}},{"properties":{"city":"Wyoming","latitude":42.86731,"zip":"49509","title":"Clyde Park - Christian Home","addresses":"5345 Clyde Park SW","occupied by":"HNDCS/WM","ownership":"Owned","longitude":-85.684455,"id":"a641c1fpjiil","state":"Michigan"},"type":"Feature","geometry":{"type":"Point","coordinates":[-85.684455,42.86731]}},{"properties":{"city":"Grand Rapids","latitude":42.93981,"zip":"49507","title":"DECC","addresses":"1301 Phillips SW","occupied by":"HNDCS/WM","ownership":"Not Owned or Leased","longitude":-85.673781,"id":"a641c1knrlin","state":"Michigan"},"type":"Feature","geometry":{"type":"Point","coordinates":[-85.673781,42.93981]}},{"properties":{"city":"Grand Rapids","latitude":42.964112,"zip":"49506","title":"Devon Home","addresses":"3394 Devon Dr NE","occupied by":"HNDCS/WM","ownership":"Owned","longitude":-85.584646,"id":"a641c1lmp6qb","state":"Michigan"},"type":"Feature","geometry":{"type":"Point","coordinates":[-85.584646,42.964112]}},{"properties":{"city":"Grand Rapids","latitude":42.914427,"zip":"49548","title":"Eastern Home AFC","addresses":"4605 Eastern Ave SE","occupied by":"HNDCS/WM","ownership":"Owned","longitude":-85.647628,"id":"a641c1hlqd5x","state":"Michigan"},"type":"Feature","geometry":{"type":"Point","coordinates":[-85.647628,42.914427]}},{"properties":{"city":"Grand Rapids","latitude":42.925808,"zip":"49506","title":"Elmhurst Home AFC","addresses":"2143 Osceola SE","occupied by":"HNDCS/WM","ownership":"Owned","longitude":-85.611427,"id":"a641c1gb5xhk","state":"Michigan"},"type":"Feature","geometry":{"type":"Point","coordinates":[-85.611427,42.925808]}},{"properties":{"city":"Rockford","latitude":43.088984,"zip":"49341","title":"Fox Meadow","addresses":"6986 Fox Meadow Dr NE","occupied by":"HNDCS/WM","ownership":"Owned","longitude":-85.547248,"id":"a641c1ch0byj","state":"Michigan"},"type":"Feature","geometry":{"type":"Point","coordinates":[-85.547248,43.088984]}},{"properties":{"city":"Grand Rapids","latitude":42.834829,"zip":"49548","title":"Gaines  NPHC 4 Plex Apartments","addresses":"121 Gaines","occupied by":"HNDCS/WM","ownership":"Owned","longitude":-85.660888,"id":"a641c1jyiojh","state":"Michigan"},"type":"Feature","geometry":{"type":"Point","coordinates":[-85.660888,42.834829]}},{"properties":{"city":"Grand Rapids","latitude":42.859484,"zip":"49508","title":"Gentian Home AFC","addresses":"1919 Gentian SE","occupied by":"HNDCS/WM","ownership":"Owned","longitude":-85.615015,"id":"a641c1etflmf","state":"Michigan"},"type":"Feature","geometry":{"type":"Point","coordinates":[-85.615015,42.859484]}},{"properties":{"city":"Kentwood","latitude":42.905428,"zip":"49512","title":"Gilead Crisis Home AFC","addresses":"2841 32nd Street","occupied by":"HNDCS/WM","ownership":"Leased from others","longitude":-85.596824,"id":"a641c1e9xycg","state":"Michigan"},"type":"Feature","geometry":{"type":"Point","coordinates":[-85.596824,42.905428]}},{"properties":{"city":"Hersey","latitude":43.868587,"zip":"49639","title":"Hersey House AFC","addresses":"3718 175th Ave","occupied by":"HNDCS/WM","ownership":"Owned","longitude":-85.433815,"id":"a641c1mwwqye","state":"Michigan"},"type":"Feature","geometry":{"type":"Point","coordinates":[-85.433815,43.868587]}},{"properties":{"city":"Wyoming","latitude":42.900976,"zip":"49509","title":"Hope Network Industries - HNI","addresses":"3457 Roger B Chaffee","occupied by":"HNDCS/WM","ownership":"Leased from others","longitude":-85.654702,"id":"a641c17qtlw5","state":"Michigan"},"type":"Feature","geometry":{"type":"Point","coordinates":[-85.654702,42.900976]}},{"properties":{"city":"Grandville","latitude":42.866919,"zip":"49418","title":"Ivanrest Home AFC","addresses":"5390 Ivanrest SW","occupied by":"HNDCS/WM","ownership":"Leased from others","longitude":-85.743394,"id":"a641c1a4dglg","state":"Michigan"},"type":"Feature","geometry":{"type":"Point","coordinates":[-85.743394,42.866919]}},{"properties":{"city":"Grand Rapids","latitude":42.979057,"zip":"49546","title":"Kent Vocational (KVO)","addresses":"864 Crahen NE","occupied by":"HNDCS/WM","ownership":"Not Owned or Leased","longitude":-85.56052,"id":"a641c1ncd5va","state":"Michigan"},"type":"Feature","geometry":{"type":"Point","coordinates":[-85.56052,42.979057]}},{"properties":{"city":"Walker","latitude":43.005194,"zip":"49534","title":"Kinney Home","addresses":"2210 Kinney NW","occupied by":"HNDCS/WM","ownership":"Owned","longitude":-85.766934,"id":"a641c1le301m","state":"Michigan"},"type":"Feature","geometry":{"type":"Point","coordinates":[-85.766934,43.005194]}},{"properties":{"city":"Grand Rapids","latitude":42.969362,"zip":"49503","title":"Lawndale AFC Home","addresses":"336 Lawndale NE","occupied by":"HNDCS/WM","ownership":"Owned","longitude":-85.625898,"id":"a641c1n62e0g","state":"Michigan"},"type":"Feature","geometry":{"type":"Point","coordinates":[-85.625898,42.969362]}},{"properties":{"city":"Big Rapids","latitude":43.67383,"zip":"49307","title":"MI Works - Big Rapids","addresses":"14330 Northland Dr.","occupied by":"HNDCS/WM","ownership":"Not Owned or Leased","longitude":-85.48337,"id":"a641c17irbev","state":"Michigan"},"type":"Feature","geometry":{"type":"Point","coordinates":[-85.48337,43.67383]}},{"properties":{"city":"Reed City","latitude":43.869622,"zip":"49677","title":"MI Works - Reed City","addresses":"240 E Church Street","occupied by":"HNDCS/WM","ownership":"Not Owned or Leased","longitude":-85.49956,"id":"a641c1gun86u","state":"Michigan"},"type":"Feature","geometry":{"type":"Point","coordinates":[-85.49956,43.869622]}},{"properties":{"city":"Monroe","latitude":41.916429,"zip":"48161","title":"Monroe Day Program","addresses":"123 W First Street","occupied by":"HNDCS/WM","ownership":"Leased from others","longitude":-83.399712,"id":"a641c188674a","state":"Michigan"},"type":"Feature","geometry":{"type":"Point","coordinates":[-83.399712,41.916429]}},{"properties":{"city":"Cadillac","latitude":44.264431,"zip":"49601","title":"North Cadillac","addresses":"1610 Corwin St","occupied by":"HNDCS/WM","ownership":"Owned","longitude":-85.42483,"id":"a641c1mbyxyv","state":"Michigan"},"type":"Feature","geometry":{"type":"Point","coordinates":[-85.42483,44.264431]}},{"properties":{"city":"Paris","latitude":43.781155,"zip":"49338","title":"North Paris - Beige Building","addresses":"21645 Northland Drive","occupied by":"HNDCS/WM","ownership":"Owned","longitude":-85.502922,"id":"a641c1938txj","state":"Michigan"},"type":"Feature","geometry":{"type":"Point","coordinates":[-85.502922,43.781155]}},{"properties":{"city":"Paris","latitude":43.781695,"zip":"49338","title":"North Paris - Blue Bldg","addresses":"21685 Northland Dr","occupied by":"HNDCS/WM","ownership":"Owned","longitude":-85.502914,"id":"a641c1np6aj5","state":"Michigan"},"type":"Feature","geometry":{"type":"Point","coordinates":[-85.502914,43.781695]}},{"properties":{"city":"Grand Rapids","latitude":42.999068,"zip":"48505","title":"Northeast Center","addresses":"1430 Knapp St NE","occupied by":"HNDCS/WM","ownership":"Owned","longitude":-85.633441,"id":"a641c18u9alh","state":"Michigan"},"type":"Feature","geometry":{"type":"Point","coordinates":[-85.633441,42.999068]}},{"properties":{"city":"Grand Rapids","latitude":42.977736,"zip":"49504","title":"Northwest Center","addresses":"751 Stocking NW","occupied by":"HNDCS/WM","ownership":"Owned","longitude":-85.689807,"id":"a641c1jxgqma","state":"Michigan"},"type":"Feature","geometry":{"type":"Point","coordinates":[-85.689807,42.977736]}},{"properties":{"city":"Lake Odessa","latitude":42.786038,"zip":"48849","title":"Pearl Street Home AFC","addresses":"1332 Pearl Street","occupied by":"HNDCS/WM","ownership":"Leased from others","longitude":-85.135859,"id":"a641c1afkgx3","state":"Michigan"},"type":"Feature","geometry":{"type":"Point","coordinates":[-85.135859,42.786038]}},{"properties":{"city":"Grand Rapids","latitude":42.956803,"zip":"49546","title":"Whitney Home AFC","addresses":"7780 Cascade Rd SE","occupied by":"HNDCS/WM","ownership":"Owned","longitude":-85.58988,"id":"a641c1genljs","state":"Michigan"},"type":"Feature","geometry":{"type":"Point","coordinates":[-85.58988,42.956803]}},{"properties":{"city":"Cedar Springs","latitude":43.217087,"zip":"49319","title":"Willow Lodge AFC","addresses":"366 West Street","occupied by":"HNDCS/WM","ownership":"Owned","longitude":-85.561075,"id":"a641c1f5cxdx","state":"Michigan"},"type":"Feature","geometry":{"type":"Point","coordinates":[-85.561075,43.217087]}},{"properties":{"city":"Grand Haven","latitude":43.058179,"zip":"49417","title":"Riverview Transitions Living Center","addresses":"340 Coburn","occupied by":"HNIR","ownership":"Owned","longitude":-86.200957,"id":"a641c1gpnagn","state":"Michigan"},"type":"Feature","geometry":{"type":"Point","coordinates":[-86.200957,43.058179]}},{"properties":{"city":"Holland","latitude":42.808144,"zip":"49424","title":"Robert Brown Crisis Center (Manley Home)","addresses":"160 Manley","occupied by":"HNIR","ownership":"Owned","longitude":-86.115659,"id":"a641c1hm5fq4","state":"Michigan"},"type":"Feature","geometry":{"type":"Point","coordinates":[-86.115659,42.808144]}},{"properties":{"city":"Grand Rapids","latitude":42.898228,"zip":"49548","title":"36th Street Campus Building 3 (aka Education Center)","addresses":"775 36th St SE","occupied by":"HNLC","ownership":"Owned","longitude":-85.645627,"id":"a641c1fruev1","state":"Michigan"},"type":"Feature","geometry":{"type":"Point","coordinates":[-85.645627,42.898228]}},{"properties":{"city":"Grand Rapids","latitude":42.91036,"zip":"49546","title":"Leadership Center","addresses":"3075 Orchard Vista Dr SE","occupied by":"HNLC","ownership":"Owned","longitude":-85.525279,"id":"a641c1m8hced","state":"Michigan"},"type":"Feature","geometry":{"type":"Point","coordinates":[-85.525279,42.91036]}},{"properties":{"city":"Grand Rapids","latitude":42.94577,"zip":"49546","title":"Ada House AFC","addresses":"940 Clifford Ave SE","occupied by":"HNRS","ownership":"Owned","longitude":-85.545084,"id":"a641c1afccf4","state":"Michigan"},"type":"Feature","geometry":{"type":"Point","coordinates":[-85.545084,42.94577]}},{"properties":{"city":"Grand Rapids","latitude":42.927328,"zip":"49546","title":"Arbor Glen","addresses":"2706 Burton Street SE","occupied by":"HNRS","ownership":"Owned","longitude":-85.609927,"id":"a641c1no89d6","state":"Michigan"},"type":"Feature","geometry":{"type":"Point","coordinates":[-85.609927,42.927328]}},{"properties":{"city":"Big Rapids","latitude":43.689936,"zip":"49307","title":"Child &amp; Adult Rehabilitative Services Big Rapids","addresses":"745 Water Tower Road","occupied by":"HNRS","ownership":"Owned","longitude":-85.496243,"id":"a641c1gbxgld","state":"Michigan"},"type":"Feature","geometry":{"type":"Point","coordinates":[-85.496243,43.689936]}},{"properties":{"city":"Grand Rapids","latitude":42.925062,"zip":"49546","title":"CLP Apartments","addresses":"2109 Woodburn Dr SE","occupied by":"HNRS","ownership":"Leased from others","longitude":-85.577364,"id":"a641c1d7806b","state":"Michigan"},"type":"Feature","geometry":{"type":"Point","coordinates":[-85.577364,42.925062]}},{"properties":{"city":"Kalamazoo","latitude":42.319315,"zip":"49048","title":"Eastwood","addresses":"2236 Brook Drive","occupied by":"HNRS","ownership":"Owned","longitude":-85.548192,"id":"a641c1a9p3h6","state":"Michigan"},"type":"Feature","geometry":{"type":"Point","coordinates":[-85.548192,42.319315]}},{"properties":{"city":"Kentwood","latitude":42.924601,"zip":"49546","title":"Forest Glen AFC","addresses":"4222 Burton St SE","occupied by":"HNRS","ownership":"Owned","longitude":-85.563696,"id":"a641c1lmxhdh","state":"Michigan"},"type":"Feature","geometry":{"type":"Point","coordinates":[-85.563696,42.924601]}},{"properties":{"city":"Coldwater","latitude":41.943877,"zip":"49036","title":"HNRS Coldwater Apartments","addresses":"528 W Chicago St Apt 01","occupied by":"HNRS","ownership":"Leased from others","longitude":-85.020511,"id":"a641c1lzotjx","state":"Michigan"},"type":"Feature","geometry":{"type":"Point","coordinates":[-85.020511,41.943877]}},{"properties":{"city":"Coldwater","latitude":41.948996,"zip":"49036","title":"HNRS Coldwater Lakewood AFC","addresses":"265 North Michigan Ave","occupied by":"HNRS","ownership":"Leased from others","longitude":-84.980919,"id":"a641c1fefd4n","state":"Michigan"},"type":"Feature","geometry":{"type":"Point","coordinates":[-84.980919,41.948996]}},{"properties":{"city":"Coldwater","latitude":41.9462,"zip":"49036","title":"HNRS Coldwater Outpatient Clinic","addresses":"200 Vista Drive","occupied by":"HNRS","ownership":"Leased from others","longitude":-84.981413,"id":"a641c1mue1xu","state":"Michigan"},"type":"Feature","geometry":{"type":"Point","coordinates":[-84.981413,41.9462]}},{"properties":{"city":"Grand Rapids","latitude":42.93404,"zip":"49506","title":"HNRS Executive East Offices","addresses":"1550 East Beltline SE","occupied by":"HNRS","ownership":"Leased from others","longitude":-85.58385,"id":"a641c1n4tljs","state":"Michigan"},"type":"Feature","geometry":{"type":"Point","coordinates":[-85.58385,42.93404]}},{"properties":{"city":"Kalamazoo","latitude":42.268034,"zip":"49009","title":"Kalamazoo Rehabilitation Services","addresses":"5990 Venture Park Drive","occupied by":"HNRS","ownership":"Leased from others","longitude":-85.667105,"id":"a641c19zt30y","state":"Michigan"},"type":"Feature","geometry":{"type":"Point","coordinates":[-85.667105,42.268034]}},{"properties":{"city":"Grand Rapids","latitude":42.935505,"zip":"49506","title":"Maplewood Neurobehavioral","addresses":"1492 East Beltline SE","occupied by":"HNRS","ownership":"Owned","longitude":-85.58388,"id":"a641c1k5a5ty","state":"Michigan"},"type":"Feature","geometry":{"type":"Point","coordinates":[-85.58388,42.935505]}},{"properties":{"city":"Wyoming","latitude":42.903843,"zip":"49509","title":"Michael House AFC","addresses":"3280 Michael Ave SW","occupied by":"HNRS","ownership":"Owned","longitude":-85.695909,"id":"a641c1i6wpkn","state":"Michigan"},"type":"Feature","geometry":{"type":"Point","coordinates":[-85.695909,42.903843]}},{"properties":{"city":"Mount Pleasant","latitude":43.582526,"zip":"48858","title":"Mount Pleasant Children and Adults Outpatient Rehabilitation Clinic","addresses":"1627 E Broomfield","occupied by":"HNRS","ownership":"Leased from others","longitude":-84.777381,"id":"a641c1nu4kel","state":"Michigan"},"type":"Feature","geometry":{"type":"Point","coordinates":[-84.777381,43.582526]}},{"properties":{"city":"Muskegon","latitude":43.154216,"zip":"49444","title":"Muskegon Children and Adult Outpatient Clinic","addresses":"1080 East Sternberg Road","occupied by":"HNRS","ownership":"Leased from others","longitude":-86.218494,"id":"a641c1edx3ts","state":"Michigan"},"type":"Feature","geometry":{"type":"Point","coordinates":[-86.218494,43.154216]}},{"properties":{"city":"Grand Rapids","latitude":42.935555,"zip":"49506","title":"Sojourners Rehabilitation Services","addresses":"1490 East Beltline SE","occupied by":"HNRS","ownership":"Owned","longitude":-85.583881,"id":"a641c1dkrs3z","state":"Michigan"},"type":"Feature","geometry":{"type":"Point","coordinates":[-85.583881,42.935555]}},{"properties":{"city":"Kalamazoo","latitude":42.254234,"zip":"49008","title":"Southwood AFC","addresses":"925 Parker Ave","occupied by":"HNRS","ownership":"Owned","longitude":-85.595897,"id":"a641c19g1sq8","state":"Michigan"},"type":"Feature","geometry":{"type":"Point","coordinates":[-85.595897,42.254234]}},{"properties":{"city":"Kentwood","latitude":42.869628,"zip":"49506","title":"Steelcase Enclave","addresses":"4380 52nd Street SE","occupied by":"HNRS","ownership":"Not Owned or Leased","longitude":-85.649627,"id":"a641c1f6cl83","state":"Michigan"},"type":"Feature","geometry":{"type":"Point","coordinates":[-85.649627,42.869628]}},{"properties":{"city":"Grand Rapids","latitude":42.937828,"zip":"49506","title":"Wildwood East","addresses":"3500 Lake Drive","occupied by":"HNRS","ownership":"Owned","longitude":-85.581486,"id":"a641c1e48d8x","state":"Michigan"},"type":"Feature","geometry":{"type":"Point","coordinates":[-85.581486,42.937828]}},{"properties":{"city":"Grand Rapids","latitude":42.937828,"zip":"49506","title":"Wildwood House IP","addresses":"3496 Lake Drive SE","occupied by":"HNRS","ownership":"Owned","longitude":-85.581584,"id":"a641c18pyh2v","state":"Michigan"},"type":"Feature","geometry":{"type":"Point","coordinates":[-85.581584,42.937828]}},{"properties":{"city":"Grand Rapids","latitude":42.937828,"zip":"49506","title":"Wildwood West AFC","addresses":"3492 Lake Drive SE","occupied by":"HNRS","ownership":"Owned","longitude":-85.581681,"id":"a641c1jzd5o6","state":"Michigan"},"type":"Feature","geometry":{"type":"Point","coordinates":[-85.581681,42.937828]}},{"properties":{"city":"East Lansing","latitude":42.749331,"zip":"48823","title":"Cedarwood","addresses":"2711 E Lansing Dr","occupied by":"HNRSL","ownership":"Owned","longitude":-84.450077,"id":"a641c1khqfx4","state":"Michigan"},"type":"Feature","geometry":{"type":"Point","coordinates":[-84.450077,42.749331]}},{"properties":{"city":"East Lansing","latitude":42.749342,"zip":"48823","title":"Child &amp; Outpatient Services (Ped's)","addresses":"2700 E Lansing Dr","occupied by":"HNRSL","ownership":"Owned","longitude":-84.450103,"id":"a641c184rwm1","state":"Michigan"},"type":"Feature","geometry":{"type":"Point","coordinates":[-84.450103,42.749342]}},{"properties":{"city":"East Lansing","latitude":42.749258,"zip":"48823","title":"HNRSL Greenhouse","addresses":"2775 E lansing Dr","occupied by":"HNRSL","ownership":"Owned","longitude":-84.449913,"id":"a641c1ji66m7","state":"Michigan"},"type":"Feature","geometry":{"type":"Point","coordinates":[-84.449913,42.749258]}},{"properties":{"city":"East Lansing","latitude":42.749342,"zip":"48823","title":"Oakwood Apartments","addresses":"2701 E Lansing Dr","occupied by":"HNRSL","ownership":"Owned","longitude":-84.450103,"id":"a641c1mqikae","state":"Michigan"},"type":"Feature","geometry":{"type":"Point","coordinates":[-84.450103,42.749342]}},{"properties":{"city":"Pontiac","latitude":42.638515,"zip":"48342","title":"Administration - HNSE","addresses":"35 West Huron #302","occupied by":"HNSE","ownership":"Leased from others","longitude":-83.294193,"id":"a641c19yf8gw","state":"Michigan"},"type":"Feature","geometry":{"type":"Point","coordinates":[-83.294193,42.638515]}},{"properties":{"city":"Bay City","latitude":43.595164,"zip":"48708","title":"Bay House","addresses":"2501 Center Ave.","occupied by":"HNSE","ownership":"Leased from others","longitude":-83.851062,"id":"a641c1a7gybj","state":"Michigan"},"type":"Feature","geometry":{"type":"Point","coordinates":[-83.851062,43.595164]}},{"properties":{"city":"Warren","latitude":42.506799,"zip":"48093","title":"Birchcrest","addresses":"11043  E 12 Mile Road","occupied by":"HNSE","ownership":"Leased from others","longitude":-83.017226,"id":"a641c1983spo","state":"Michigan"},"type":"Feature","geometry":{"type":"Point","coordinates":[-83.017226,42.506799]}},{"properties":{"city":"Hillsdale","latitude":41.929315,"zip":"49242","title":"Case Management - Hillsdale","addresses":"25 Care Drive Suite 236","occupied by":"HNSE","ownership":"Leased from others","longitude":-84.642759,"id":"a641c1d31pjc","state":"Michigan"},"type":"Feature","geometry":{"type":"Point","coordinates":[-84.642759,41.929315]}},{"properties":{"city":"Jackson","latitude":42.254048,"zip":"49202","title":"Case Management - Jackson","addresses":"1200 North West Ave","occupied by":"HNSE","ownership":"Leased from others","longitude":-84.423387,"id":"a641c1asuo6n","state":"Michigan"},"type":"Feature","geometry":{"type":"Point","coordinates":[-84.423387,42.254048]}},{"properties":{"city":"Warren","latitude":42.491465,"zip":"48093","title":"Cedar Grove","addresses":"11171 E 11 Mile Road","occupied by":"HNSE","ownership":"Leased from others","longitude":-83.019912,"id":"a641c1moskyd","state":"Michigan"},"type":"Feature","geometry":{"type":"Point","coordinates":[-83.019912,42.491465]}},{"properties":{"city":"Macomb Township","latitude":42.679224,"zip":"48042","title":"Deerwood","addresses":"52100 Hayes","occupied by":"HNSE","ownership":"Leased from others","longitude":-82.97536,"id":"a641c1a5n0l9","state":"Michigan"},"type":"Feature","geometry":{"type":"Point","coordinates":[-82.97536,42.679224]}},{"properties":{"city":"Chesterfield","latitude":42.6928,"zip":"49501","title":"Fairfield","addresses":"30183 Fairfield","occupied by":"HNSE","ownership":"Leased from others","longitude":-82.804559,"id":"a641c17vnroi","state":"Michigan"},"type":"Feature","geometry":{"type":"Point","coordinates":[-82.804559,42.6928]}},{"properties":{"city":"Bay City","latitude":43.584964,"zip":"48706","title":"Harbor House","addresses":"5385 Kasemeyer","occupied by":"HNSE","ownership":"Leased from others","longitude":-83.925546,"id":"a641c1jdu59f","state":"Michigan"},"type":"Feature","geometry":{"type":"Point","coordinates":[-83.925546,43.584964]}},{"properties":{"city":"New Baltimore","latitude":42.696629,"zip":"48047","title":"Harbor View","addresses":"53433 County Line","occupied by":"HNSE","ownership":"Leased from others","longitude":-82.728869,"id":"a641c1dk9t33","state":"Michigan"},"type":"Feature","geometry":{"type":"Point","coordinates":[-82.728869,42.696629]}},{"properties":{"city":"Roseville","latitude":42.5245,"zip":"48066","title":"Hidden Oaks","addresses":"18716 13 Mile Road","occupied by":"HNSE","ownership":"Leased from others","longitude":-82.928916,"id":"a641c1cxyay5","state":"Michigan"},"type":"Feature","geometry":{"type":"Point","coordinates":[-82.928916,42.5245]}},{"properties":{"city":"Sterling Heights","latitude":42.574299,"zip":"48310","title":"HNSE Supports Coordination Sterling Heights","addresses":"38269 Mound Road","occupied by":"HNSE","ownership":"Leased from others","longitude":-83.049475,"id":"a641c1lyq90i","state":"Michigan"},"type":"Feature","geometry":{"type":"Point","coordinates":[-83.049475,42.574299]}},{"properties":{"city":"Richmond","latitude":42.807406,"zip":"48062","title":"Howards Cove","addresses":"68730 Howard Rd","occupied by":"HNSE","ownership":"Leased from others","longitude":-82.746707,"id":"a641c1brngtx","state":"Michigan"},"type":"Feature","geometry":{"type":"Point","coordinates":[-82.746707,42.807406]}},{"properties":{"city":"Waterford","latitude":42.692751,"zip":"43329","title":"Lake Oakland Shores (LOSH)","addresses":"3704 Lake Oakland Shores","occupied by":"HNSE","ownership":"Leased from others","longitude":-83.361849,"id":"a641c1foavah","state":"Michigan"},"type":"Feature","geometry":{"type":"Point","coordinates":[-83.361849,42.692751]}},{"properties":{"city":"Clinton Township","latitude":42.565162,"zip":"48035","title":"Ledgestone","addresses":"36282 Egan St","occupied by":"HNSE","ownership":"Leased from others","longitude":-82.912882,"id":"a641c1j94799","state":"Michigan"},"type":"Feature","geometry":{"type":"Point","coordinates":[-82.912882,42.565162]}},{"properties":{"city":"Harrison Township","latitude":42.553751,"zip":"48045","title":"Macomb E Sip","addresses":"24720 Glouchester","occupied by":"HNSE","ownership":"Leased from others","longitude":-82.861362,"id":"a641c17v6iht","state":"Michigan"},"type":"Feature","geometry":{"type":"Point","coordinates":[-82.861362,42.553751]}},{"properties":{"city":"Macomb Township","latitude":42.637225,"zip":"48042","title":"Milestone Crisis","addresses":"45964 Brentwood St.","occupied by":"HNSE","ownership":"Leased from others","longitude":-82.864143,"id":"a641c1hchip6","state":"Michigan"},"type":"Feature","geometry":{"type":"Point","coordinates":[-82.864143,42.637225]}},{"properties":{"city":"Flint","latitude":42.993027,"zip":"48507","title":"New Hope I &amp; II","addresses":"1110 Eldon Baker Dr","occupied by":"HNSE","ownership":"Owned","longitude":-83.657254,"id":"a641c1jvmvj7","state":"Michigan"},"type":"Feature","geometry":{"type":"Point","coordinates":[-83.657254,42.993027]}},{"properties":{"city":"Roseville","latitude":42.481544,"zip":"48066","title":"Rosewood","addresses":"25166 Macomb St","occupied by":"HNSE","ownership":"Owned","longitude":-82.942232,"id":"a641c1gxv2bj","state":"Michigan"},"type":"Feature","geometry":{"type":"Point","coordinates":[-82.942232,42.481544]}},{"properties":{"city":"Warren","latitude":42.52575,"zip":"48093","title":"Silver Knoll","addresses":"8811 Chicago Rd","occupied by":"HNSE","ownership":"Leased from others","longitude":-83.020161,"id":"a641c1iuh32w","state":"Michigan"},"type":"Feature","geometry":{"type":"Point","coordinates":[-83.020161,42.52575]}},{"properties":{"city":"Chesterfield","latitude":42.649482,"zip":"48047","title":"Silver Meadows","addresses":"47754 Sugarbush Road","occupied by":"HNSE","ownership":"Leased from others","longitude":-82.818424,"id":"a641c1djap05","state":"Michigan"},"type":"Feature","geometry":{"type":"Point","coordinates":[-82.818424,42.649482]}},{"properties":{"city":"Clarkston","latitude":42.730007,"zip":"48347","title":"Insight - Clarkston","addresses":"9075 Big Lake Road","occupied by":"Insight","ownership":"Leased from others","longitude":-83.486339,"id":"a641c1ck98kb","state":"Michigan"},"type":"Feature","geometry":{"type":"Point","coordinates":[-83.486339,42.730007]}},{"properties":{"city":"Flint","latitude":42.987926,"zip":"48503","title":"Insight - CRS at Genesee County Jail","addresses":"1002 South Saginaw Street","occupied by":"Insight","ownership":"Program Only","longitude":-83.675955,"id":"a641c1axhq24","state":"Michigan"},"type":"Feature","geometry":{"type":"Point","coordinates":[-83.675955,42.987926]}},{"properties":{"city":"Flint","latitude":43.034927,"zip":"48507","title":"Insight - CRS New Paths","addresses":"765 E Hamilton Ave","occupied by":"Insight","ownership":"Program Only","longitude":-83.691432,"id":"a641c1lz8ngs","state":"Michigan"},"type":"Feature","geometry":{"type":"Point","coordinates":[-83.691432,43.034927]}},{"properties":{"city":"Flint","latitude":43.024176,"zip":"48503","title":"Insight - CRS New Paths Women","addresses":"931 Martin Luther King","occupied by":"Insight","ownership":"Program Only","longitude":-83.697697,"id":"a641c1goszrt","state":"Michigan"},"type":"Feature","geometry":{"type":"Point","coordinates":[-83.697697,43.024176]}},{"properties":{"city":"Flint","latitude":43.035427,"zip":"48506","title":"Insight - CRS Salvation Army","addresses":"2200 N Dort Highway","occupied by":"Insight","ownership":"Program Only","longitude":-83.655355,"id":"a641c1gaf1l1","state":"Michigan"},"type":"Feature","geometry":{"type":"Point","coordinates":[-83.655355,43.035427]}},{"properties":{"city":"Lansing","latitude":42.744412,"zip":"48912","title":"Insight - East Lansing","addresses":"2929 Covington Court","occupied by":"Insight","ownership":"Leased from others","longitude":-84.510621,"id":"a641c18dc7jx","state":"Michigan"},"type":"Feature","geometry":{"type":"Point","coordinates":[-84.510621,42.744412]}},{"properties":{"city":"Flint","latitude":42.993027,"zip":"48507","title":"Insight - Flint (Eldon Baker Drive)","addresses":"1110 Eldon Baker Dr.","occupied by":"Insight","ownership":"Owned","longitude":-83.657254,"id":"a641c1ialpba","state":"Michigan"},"type":"Feature","geometry":{"type":"Point","coordinates":[-83.657254,42.993027]}},{"properties":{"city":"Lansing","latitude":42.744412,"zip":"48912","title":"Insight - Lansing","addresses":"2929 Covington Court","occupied by":"Insight","ownership":"Leased from others","longitude":-84.510621,"id":"a641c1aqs3pd","state":"Michigan"},"type":"Feature","geometry":{"type":"Point","coordinates":[-84.510621,42.744412]}},{"properties":{"city":"Novi","latitude":42.467886,"zip":"48375","title":"Insight - Novi","addresses":"24230 Karim  Blvd","occupied by":"Insight","ownership":"Leased from others","longitude":-83.438903,"id":"a641c1hy0pcf","state":"Michigan"},"type":"Feature","geometry":{"type":"Point","coordinates":[-83.438903,42.467886]}},{"properties":{"city":"Westland","latitude":42.339204,"zip":"48185","title":"Insight - Westside Mental Health","addresses":"32932 W. Warren Suite 103","occupied by":"Insight","ownership":"Leased from others","longitude":-83.364765,"id":"a641c1ltpp3i","state":"Michigan"},"type":"Feature","geometry":{"type":"Point","coordinates":[-83.364765,42.339204]}},{"properties":{"city":"Wyoming","latitude":42.866228,"zip":"48548","title":"54th St - 2 Apts","addresses":"180 54th St SW","occupied by":"Tenant","ownership":"Owned","longitude":-85.670148,"id":"a641c1g3f2m0","state":"Michigan"},"type":"Feature","geometry":{"type":"Point","coordinates":[-85.670148,42.866228]}},{"properties":{"city":"Grand Rapids","latitude":42.965144,"zip":"49503","title":"Alten Home 108","addresses":"108 Alten Ave NE","occupied by":"Tenant","ownership":"Owned and Leased to others","longitude":-85.629483,"id":"a641c1c0o4kv","state":"Michigan"},"type":"Feature","geometry":{"type":"Point","coordinates":[-85.629483,42.965144]}},{"properties":{"city":"Grand Rapids","latitude":42.965312,"zip":"49503","title":"Alten Home 116","addresses":"116 Alten Ave NE","occupied by":"Tenant","ownership":"Owned and Leased to others","longitude":-85.629487,"id":"a641c1emjtip","state":"Michigan"},"type":"Feature","geometry":{"type":"Point","coordinates":[-85.629487,42.965312]}},{"properties":{"city":"Grand Rapids","latitude":42.965521,"zip":"49503","title":"Alten Home 126","addresses":"126 Alten Ave NE","occupied by":"Tenant","ownership":"Owned and Leased to others","longitude":-85.629492,"id":"a641c1agihma","state":"Michigan"},"type":"Feature","geometry":{"type":"Point","coordinates":[-85.629492,42.965521]}},{"properties":{"city":"Grand Rapids","latitude":42.890628,"zip":"49508","title":"Birchgrove Apartments","addresses":"4020 Kalamazoo Ave SE","occupied by":"Tenant","ownership":"Owned","longitude":-85.626426,"id":"a641c1keer1f","state":"Michigan"},"type":"Feature","geometry":{"type":"Point","coordinates":[-85.626426,42.890628]}},{"properties":{"city":"Belding","latitude":43.102106,"zip":"48809","title":"Brentwood Apartments","addresses":"1101 Brentwood St","occupied by":"Tenant","ownership":"Owned","longitude":-85.24274,"id":"a641c1kdfvfv","state":"Michigan"},"type":"Feature","geometry":{"type":"Point","coordinates":[-85.24274,43.102106]}},{"properties":{"city":"Kentwood","latitude":42.884028,"zip":"49508","title":"Breton NPHC Breton Home","addresses":"4094 Breton Rd SE","occupied by":"Tenant","ownership":"Owned and Leased to others","longitude":-85.606525,"id":"a641c1kwlomk","state":"Michigan"},"type":"Feature","geometry":{"type":"Point","coordinates":[-85.606525,42.884028]}},{"properties":{"city":"Sparta","latitude":43.157124,"zip":"49345","title":"Breton NPHC Gardner Home","addresses":"253 Gardner","occupied by":"Tenant","ownership":"Owned and Leased to others","longitude":-85.703291,"id":"a641c1i2hwte","state":"Michigan"},"type":"Feature","geometry":{"type":"Point","coordinates":[-85.703291,43.157124]}},{"properties":{"city":"Sparta","latitude":43.157139,"zip":"49345","title":"Breton NPHC Ida Red Home","addresses":"118 Ida Red","occupied by":"Tenant","ownership":"Owned and Leased to others","longitude":-85.716313,"id":"a641c1mcd5um","state":"Michigan"},"type":"Feature","geometry":{"type":"Point","coordinates":[-85.716313,43.157139]}},{"properties":{"city":"Caledonia","latitude":42.84569,"zip":"49316","title":"Breton NPHC Peerpoint Home","addresses":"2260 Peerpoint Dr SE","occupied by":"Tenant","ownership":"Owned and Leased to others","longitude":-85.607505,"id":"a641c1c65wks","state":"Michigan"},"type":"Feature","geometry":{"type":"Point","coordinates":[-85.607505,42.84569]}},{"properties":{"city":"Grand Rapids","latitude":42.954074,"zip":"49546","title":"Breton NPHC Spaulding Home","addresses":"649 Spaulding SE","occupied by":"Tenant","ownership":"Owned and Leased to others","longitude":-85.540629,"id":"a641c1mmq9tn","state":"Michigan"},"type":"Feature","geometry":{"type":"Point","coordinates":[-85.540629,42.954074]}},{"properties":{"city":"Big Rapids","latitude":43.692093,"zip":"49307","title":"Clark Street Apartments","addresses":"630 Clark St.","occupied by":"Tenant","ownership":"Owned","longitude":-85.48518,"id":"a641c1fi11z9","state":"Michigan"},"type":"Feature","geometry":{"type":"Point","coordinates":[-85.48518,43.692093]}},{"properties":{"city":"Grandville","latitude":42.885027,"zip":"49418","title":"Grandville Center","addresses":"4041 44th Street SW","occupied by":"Tenant","ownership":"Owned and Leased to others","longitude":-85.734631,"id":"a641c18qluwc","state":"Michigan"},"type":"Feature","geometry":{"type":"Point","coordinates":[-85.734631,42.885027]}},{"properties":{"city":"Greenville","latitude":43.163406,"zip":"48838","title":"Greenbriar Apartments","addresses":"1001 Wellington Court","occupied by":"Tenant","ownership":"Owned","longitude":-85.235296,"id":"a641c1dqasnq","state":"Michigan"},"type":"Feature","geometry":{"type":"Point","coordinates":[-85.235296,43.163406]}},{"properties":{"city":"Battle Creek","latitude":42.327107,"zip":"49015","title":"Hill House Apartments Inc.","addresses":"337 Champion St","occupied by":"Tenant","ownership":"Owned","longitude":-85.194026,"id":"a641c1my4agn","state":"Michigan"},"type":"Feature","geometry":{"type":"Point","coordinates":[-85.194026,42.327107]}},{"properties":{"city":"Rockford","latitude":43.119027,"zip":"49341","title":"Hillview Townhouses","addresses":"602 Hillview Place","occupied by":"Tenant","ownership":"Owned","longitude":-85.54523,"id":"a641c1kw23k1","state":"Michigan"},"type":"Feature","geometry":{"type":"Point","coordinates":[-85.54523,43.119027]}},{"properties":{"city":"Sturgis","latitude":41.80811,"zip":"49091","title":"Lakeview NPHC Residential Facility","addresses":"411 N Lakeview Ave","occupied by":"Tenant","ownership":"Owned","longitude":-85.408961,"id":"a641c1fu81ho","state":"Michigan"},"type":"Feature","geometry":{"type":"Point","coordinates":[-85.408961,41.80811]}},{"properties":{"city":"Grand Rapids","latitude":42.984655,"zip":"49505","title":"Leonard Pines Apartments","addresses":"1319 Leonard NE","occupied by":"Tenant","ownership":"Owned","longitude":-85.636323,"id":"a641c1lssrhe","state":"Michigan"},"type":"Feature","geometry":{"type":"Point","coordinates":[-85.636323,42.984655]}},{"properties":{"city":"Kentwood","latitude":42.877929,"zip":"49508","title":"Metropolitan Apartments","addresses":"4634 N Breton Ct","occupied by":"Tenant","ownership":"Owned","longitude":-85.604425,"id":"a641c1ccgb3x","state":"Michigan"},"type":"Feature","geometry":{"type":"Point","coordinates":[-85.604425,42.877929]}},{"properties":{"city":"Kalamazoo","latitude":42.25431,"zip":"49001","title":"Milham Parkside Apts","addresses":"20 Leona St","occupied by":"Tenant","ownership":"Owned","longitude":-85.580042,"id":"a641c18kg0po","state":"Michigan"},"type":"Feature","geometry":{"type":"Point","coordinates":[-85.580042,42.25431]}},{"properties":{"city":"Three Rivers","latitude":41.943391,"zip":"49093","title":"River Country Apartments / Three Rivers Housing","addresses":"120 Benjamin Drive","occupied by":"Tenant","ownership":"Owned","longitude":-85.646944,"id":"a641c1al0a2y","state":"Michigan"},"type":"Feature","geometry":{"type":"Point","coordinates":[-85.646944,41.943391]}},{"properties":{"city":"Battle Creek","latitude":42.334222,"zip":"49037","title":"The Meadows","addresses":"85 Lenon St","occupied by":"Tenant","ownership":"Owned","longitude":-85.215503,"id":"a641c1dvjpcy","state":"Michigan"},"type":"Feature","geometry":{"type":"Point","coordinates":[-85.215503,42.334222]}},{"properties":{"city":"Kalamazoo","latitude":42.322094,"zip":"49007","title":"Twin Lakes NPHC","addresses":"3125 Nichols Road","occupied by":"Tenant","ownership":"Owned","longitude":-85.628822,"id":"a641c1c3swf1","state":"Michigan"},"type":"Feature","geometry":{"type":"Point","coordinates":[-85.628822,42.322094]}},{"properties":{"city":"Grand Rapids","latitude":42.916983,"zip":"49506","title":"Village Drive Apts (Saginaw SIP)","addresses":"2000 Saginaw Road SE","occupied by":"Tenant","ownership":"Owned","longitude":-85.617536,"id":"a641c1awf7pf","state":"Michigan"},"type":"Feature","geometry":{"type":"Point","coordinates":[-85.617536,42.916983]}},{"properties":{"city":"Kalamazoo","latitude":42.274709,"zip":"49006","title":"Village of Kalamazoo (Lilac Lane)","addresses":"4410 Lilac Lane","occupied by":"Tenant","ownership":"Owned","longitude":-85.644657,"id":"a641c1jpt5d3","state":"Michigan"},"type":"Feature","geometry":{"type":"Point","coordinates":[-85.644657,42.274709]}},{"properties":{"city":"Grand Rapids","latitude":42.987194,"zip":"49534","title":"Walker Village Apartments","addresses":"1230 Walker Village Dr NW","occupied by":"Tenant","ownership":"Owned","longitude":-85.753793,"id":"a641c1lthm3t","state":"Michigan"},"type":"Feature","geometry":{"type":"Point","coordinates":[-85.753793,42.987194]}},{"properties":{"city":"Big Rapids","latitude":43.690217,"zip":"49307","title":"Water Tower Apartments","addresses":"715 Water Tower Road","occupied by":"Tenant","ownership":"Owned","longitude":-85.49624,"id":"a641c1amt587","state":"Michigan"},"type":"Feature","geometry":{"type":"Point","coordinates":[-85.49624,43.690217]}},{"properties":{"city":"Muskegon","latitude":43.223439,"zip":"49442","title":"Whispering Timbers","addresses":"1589 Hoyt St","occupied by":"Tenant","ownership":"Owned","longitude":-86.239317,"id":"a641c1h8bh4h","state":"Michigan"},"type":"Feature","geometry":{"type":"Point","coordinates":[-86.239317,43.223439]}},{"properties":{"city":"Grand Rapids","latitude":42.965395,"zip":"49503","title":"Alten Home 120","addresses":"120 Alten Ave NE","occupied by":"Vacant","ownership":"Owned","longitude":-85.629489,"id":"a641c1nyag72","state":"Michigan"},"type":"Feature","geometry":{"type":"Point","coordinates":[-85.629489,42.965395]}},{"properties":{"city":"Kalamazoo","latitude":42.274003,"zip":"49001","title":"Howard Crisis Center","addresses":"401 Howard St","occupied by":"Vacant","ownership":"Owned","longitude":-85.587887,"id":"a641c1azi3km","state":"Michigan"},"type":"Feature","geometry":{"type":"Point","coordinates":[-85.587887,42.274003]}},{"properties":{"city":"Kalamazoo","latitude":42.273753,"zip":"49001","title":"Vacant Commercial Property 1813 S Westnedge Ave Kalamazoo","addresses":"1813 South Westnedge Ave","occupied by":"Vacant","ownership":"Owned","longitude":-85.589619,"id":"a641c17zexot","state":"Michigan"},"type":"Feature","geometry":{"type":"Point","coordinates":[-85.589619,42.273753]}},{"properties":{"city":"Kalamazoo","latitude":42.273603,"zip":"49001","title":"Vacant Commercial Property 1817 S Westnedge Kalamazoo","addresses":"1817 South Westnedge Ave","occupied by":"Vacant","ownership":"Owned","longitude":-85.589618,"id":"a641c1m2mon4","state":"Michigan"},"type":"Feature","geometry":{"type":"Point","coordinates":[-85.589618,42.273603]}},{"properties":{"city":"Sturgis","latitude":41.808689,"zip":"49091","title":"Vacant Land 501 Center, Sturgis MI","addresses":"501 Center Street","occupied by":"Vacant","ownership":"Owned","longitude":-85.411359,"id":"a641c1lltieo","state":"Michigan"},"type":"Feature","geometry":{"type":"Point","coordinates":[-85.411359,41.808689]}},{"properties":{"city":"Kentwood","latitude":42.924679,"zip":"49546","title":"Vacant Land Burton - 4218","addresses":"4218 Burton St SE","occupied by":"Vacant","ownership":"Owned","longitude":-85.563811,"id":"a641c1jnry5i","state":"Michigan"},"type":"Feature","geometry":{"type":"Point","coordinates":[-85.563811,42.924679]}},{"properties":{"city":"Kentwood","latitude":42.92464,"zip":"49546","title":"Vacant Land Burton - 4220","addresses":"4220 Burton","occupied by":"Vacant","ownership":"Owned","longitude":-85.563754,"id":"a641c18axdsp","state":"Michigan"},"type":"Feature","geometry":{"type":"Point","coordinates":[-85.563754,42.92464]}},{"properties":{"city":"Grand Rapids","latitude":42.935808,"zip":"49506","title":"Vacant Land East Beltline","addresses":"1480 East Beltline SE","occupied by":"Vacant","ownership":"Owned","longitude":-85.583886,"id":"a641c1l12d7q","state":"Michigan"},"type":"Feature","geometry":{"type":"Point","coordinates":[-85.583886,42.935808]}},{"properties":{"city":"Ferndale","latitude":42.840183,"zip":"48820","title":"Vacant Land Glenn Lodge","addresses":"21012 Glenn Lodge","occupied by":"Vacant","ownership":"Owned","longitude":-84.575004,"id":"a641c1lannzh","state":"Michigan"},"type":"Feature","geometry":{"type":"Point","coordinates":[-84.575004,42.840183]}},{"properties":{"city":"Grand Rapids","latitude":42.937828,"zip":"49505","title":"Vacant Land Lake Dr - 1","addresses":"3486 Lake Dr SE","occupied by":"Vacant","ownership":"Owned","longitude":-85.581828,"id":"a641c19d4vgb","state":"Michigan"},"type":"Feature","geometry":{"type":"Point","coordinates":[-85.581828,42.937828]}},{"properties":{"city":"Grand Rapids","latitude":42.937828,"zip":"49505","title":"Vacant Land Lake Dr - 2","addresses":"3530 Lake Dr SE","occupied by":"Vacant","ownership":"Owned","longitude":-85.580754,"id":"a641c1i2wlh7","state":"Michigan"},"type":"Feature","geometry":{"type":"Point","coordinates":[-85.580754,42.937828]}},{"properties":{"city":"Flint","latitude":43.017417,"zip":"48503","title":"Genesee ACTP","addresses":"303 Water Street","occupied by":"New Passages","ownership":"Owned","longitude":-83.69508,"id":"a641c1l58zgz","state":"Michigan"},"type":"Feature","geometry":{"type":"Point","coordinates":[-83.69508,43.017417]}},{"properties":{"city":"Flint","latitude":43.002627,"zip":"48503","title":"Children's Services","addresses":"2830 Corunna Road","occupied by":"New Passages","ownership":"Owned","longitude":-83.724763,"id":"a641c17msadk","state":"Michigan"},"type":"Feature","geometry":{"type":"Point","coordinates":[-83.724763,43.002627]}},{"properties":{"city":"Jackson","latitude":42.263194,"zip":"49202","title":"J-Town Clubhouse","addresses":"1200 N. West Ave","occupied by":"New Passages","ownership":"Owned","longitude":-84.423351,"id":"a641c1ktrvyu","state":"Michigan"},"type":"Feature","geometry":{"type":"Point","coordinates":[-84.423351,42.263194]}},{"properties":{"city":"Mt. Clemens","latitude":42.606764,"zip":"48043","title":"Portable Supports Program","addresses":"175 N. Groesbeck Hwy","occupied by":"New Passages","ownership":"Owned","longitude":-82.897055,"id":"a641c1kg3y1r","state":"Michigan"},"type":"Feature","geometry":{"type":"Point","coordinates":[-82.897055,42.606764]}},{"properties":{"city":"Pontiac","latitude":42.640835,"zip":"48342","title":"Main Office","addresses":"70 Lafayette","occupied by":"New Passages","ownership":"Owned","longitude":-83.296251,"id":"a641c1ab3fos","state":"Michigan"},"type":"Feature","geometry":{"type":"Point","coordinates":[-83.296251,42.640835]}},{"properties":{"city":"Flint","latitude":42.998527,"zip":"48502","title":"Genesee Regional Crisis","addresses":"304 W. Tobias Street","occupied by":"New Passages","ownership":"Owned","longitude":-83.680993,"id":"a641c1di7r53","state":"Michigan"},"type":"Feature","geometry":{"type":"Point","coordinates":[-83.680993,42.998527]}},{"properties":{"city":"Flint","latitude":42.968127,"zip":"49503","title":"Knob Hill","addresses":"1610 Crescent Drive","occupied by":"New Passages","ownership":"Owned","longitude":-85.624629,"id":"a641c1e2u4xf","state":"Michigan"},"type":"Feature","geometry":{"type":"Point","coordinates":[-85.624629,42.968127]}},{"properties":{"city":"Clarkston","latitude":42.775815,"zip":"48348","title":"Michgamme Home","addresses":"9402 Michigamme","occupied by":"New Passages","ownership":"Owned","longitude":-83.355554,"id":"a641c1a6dn31","state":"Michigan"},"type":"Feature","geometry":{"type":"Point","coordinates":[-83.355554,42.775815]}},{"properties":{"city":"Holly","latitude":42.795775,"zip":"48442","title":"SHP Holly","addresses":"871 Elm Street","occupied by":"New Passages","ownership":"Owned","longitude":-83.615248,"id":"a641c1c4gcir","state":"Michigan"},"type":"Feature","geometry":{"type":"Point","coordinates":[-83.615248,42.795775]}},{"properties":{"city":"Flint","latitude":null,"zip":"48503","title":"Westwood House","addresses":"2820 Westwood Parkway","occupied by":"New Passages","ownership":"Owned","longitude":null,"id":"a641c1loiy04","state":"Michigan"},"type":"Feature","geometry":null}],"is_temporal":false,"author":{"url":"","metadata":"","contact_name":"","contact_address":"","source":"","contact_phone":""},"source":"","pagination":{"sort":null,"start":0,"total":169,"limit":1000000},"state":"complete","tags":"affiliate,counties,county,employee,employees,facilities,hope network,location,locations,michigan,program locations,service line,statistic,statistics","published":"2014-08-13T03:38:31-04:00","id":154877}