{"type":"FeatureCollection","data_type":"Dataset","url_type":null,"permissions":[{"permissions":{"download":true,"edit":true,"view":true},"group_id":30055},{"permissions":{"download":true,"view":true},"group_id":"everyone"}],"classification":null,"title":"Behavioral Health (Including SE and IR) 09-11","count":37,"stream_id":154996,"contributor":{"url":"http://geocommons.com/users/28869","name":"HopeNetwork3075"},"data_attributes":null,"calculation_params":null,"icon_link":null,"link":"http://geocommons.com/overlays/154996.json","extent":[-86.201,41.9293,-82.7289,43.5952],"geometry_types":["point"],"unique_name":null,"name":"Behavioral Health (Including SE and IR) 09-11","feature_count":37,"description":"Hope Network Behavioral Health (including SE and Integrated Recovery) program locations","next_feature":null,"is_raster":false,"short_classification":"Y","stats":{"latitude":{"max":43.595164,"mean":42.808049972973,"variance":0.100557738905471,"stdev":0.317108402451703,"min":41.929315,"median":42.837276},"longitude":{"max":-82.728869,"mean":-84.3719085405405,"variance":1.77490188862037,"stdev":1.33225443839394,"min":-86.200957,"median":-84.423387}},"features":[{"properties":{"city":"Grand Rapids","latitude":42.984526,"zip":"49503","title":"Creston Ridge","addresses":"385 Leonard NE","occupied by":"HNBHS","ownership":"Owned","longitude":-85.660273,"id":"a62srj8epa5j","state":"Michigan"},"type":"Feature","geometry":{"type":"Point","coordinates":[-85.660273,42.984526]}},{"properties":{"city":"Kentwood","latitude":42.898029,"zip":"49512","title":"DART Outpatient Coral Lettinga Center for Autism (CFA)","addresses":"3361 36th St SE","occupied by":"HNBHS","ownership":"Owned","longitude":-85.583446,"id":"a62srjaslpi9","state":"Michigan"},"type":"Feature","geometry":{"type":"Point","coordinates":[-85.583446,42.898029]}},{"properties":{"city":"Kentwood","latitude":42.898029,"zip":"49512","title":"DART Residential","addresses":"3333 36th Street SE","occupied by":"HNBHS","ownership":"Owned","longitude":-85.584125,"id":"a62srj3liugw","state":"Michigan"},"type":"Feature","geometry":{"type":"Point","coordinates":[-85.584125,42.898029]}},{"properties":{"city":"Grand Rapids","latitude":42.98258,"zip":"49505","title":"Family Life Center - Side by Side","addresses":"1256 Walker NW","occupied by":"HNBHS","ownership":"Program Only","longitude":-85.699423,"id":"a62srjcb0276","state":"Michigan"},"type":"Feature","geometry":{"type":"Point","coordinates":[-85.699423,42.98258]}},{"properties":{"city":"Walker","latitude":43.026675,"zip":"49544","title":"Grandview - Alpine Grove","addresses":"719 North Center Drive NW","occupied by":"HNBHS","ownership":"Owned","longitude":-85.687405,"id":"a62srjbfec2d","state":"Michigan"},"type":"Feature","geometry":{"type":"Point","coordinates":[-85.687405,43.026675]}},{"properties":{"city":"Walker","latitude":43.026677,"zip":"49544","title":"Grandview - Haven","addresses":"713 N Center Dr NW","occupied by":"HNBHS","ownership":"Owned","longitude":-85.687265,"id":"a62srj9mpfqt","state":"Michigan"},"type":"Feature","geometry":{"type":"Point","coordinates":[-85.687265,43.026677]}},{"properties":{"city":"Walker","latitude":43.026674,"zip":"49544","title":"Grandview - Lodge","addresses":"721 N Center Dr NW","occupied by":"HNBHS","ownership":"Owned","longitude":-85.687452,"id":"a62srj901zqg","state":"Michigan"},"type":"Feature","geometry":{"type":"Point","coordinates":[-85.687452,43.026674]}},{"properties":{"city":"Grand Rapids","latitude":43.026675,"zip":"49544","title":"Grandview - Meadows","addresses":"717 N Center Drive NW","occupied by":"HNBHS","ownership":"Owned","longitude":-85.687358,"id":"a62srj7544dr","state":"Michigan"},"type":"Feature","geometry":{"type":"Point","coordinates":[-85.687358,43.026675]}},{"properties":{"city":"Grand Rapids","latitude":42.998825,"zip":"49544","title":"Grandview - Storage Building","addresses":"3460 Alpine Ave NW","occupied by":"HNBHS","ownership":"Owned","longitude":-85.688232,"id":"a62srj836lc0","state":"Michigan"},"type":"Feature","geometry":{"type":"Point","coordinates":[-85.688232,42.998825]}},{"properties":{"city":"Nunica","latitude":43.08191,"zip":"49448","title":"Harbor Point Intensive East","addresses":"17160 130th Ave","occupied by":"HNBHS","ownership":"Owned","longitude":-86.111739,"id":"a62srivyuicn","state":"Michigan"},"type":"Feature","geometry":{"type":"Point","coordinates":[-86.111739,43.08191]}},{"properties":{"city":"Grand Rapids","latitude":42.919088,"zip":"49546","title":"Hillcrest RCT","addresses":"2451 Breton SE","occupied by":"HNBHS","ownership":"Owned","longitude":-85.608487,"id":"a62srj2u5yzj","state":"Michigan"},"type":"Feature","geometry":{"type":"Point","coordinates":[-85.608487,42.919088]}},{"properties":{"city":"Kentwood","latitude":42.837276,"zip":"49505","title":"Oak Lodge","addresses":"53 Brownell St SE","occupied by":"HNBHS","ownership":"Owned","longitude":-85.662613,"id":"a62srjc84nt0","state":"Michigan"},"type":"Feature","geometry":{"type":"Point","coordinates":[-85.662613,42.837276]}},{"properties":{"city":"Grand Rapids","latitude":43.018626,"zip":"49505","title":"Ridgeway","addresses":"891 Maryland NE","occupied by":"HNBHS","ownership":"Owned","longitude":-85.60983,"id":"a62sriym8kii","state":"Michigan"},"type":"Feature","geometry":{"type":"Point","coordinates":[-85.60983,43.018626]}},{"properties":{"city":"Grand Rapids","latitude":42.984657,"zip":"49505","title":"River Valley Crisis","addresses":"1450 Leonard NE","occupied by":"HNBHS","ownership":"Owned","longitude":-85.633183,"id":"a62srixotz56","state":"Michigan"},"type":"Feature","geometry":{"type":"Point","coordinates":[-85.633183,42.984657]}},{"properties":{"city":"Lowell","latitude":42.885974,"zip":"49331","title":"Westlake - Avalon","addresses":"11652 W Grand River Ave","occupied by":"HNBHS","ownership":"Leased from others","longitude":-85.301084,"id":"a62srj23paxv","state":"Michigan"},"type":"Feature","geometry":{"type":"Point","coordinates":[-85.301084,42.885974]}},{"properties":{"city":"Grand Haven","latitude":43.058179,"zip":"49417","title":"Riverview Transitions Living Center","addresses":"340 Coburn","occupied by":"HNIR","ownership":"Owned","longitude":-86.200957,"id":"a62srjanglyn","state":"Michigan"},"type":"Feature","geometry":{"type":"Point","coordinates":[-86.200957,43.058179]}},{"properties":{"city":"Holland","latitude":42.808144,"zip":"49424","title":"Robert Brown Crisis Center (Manley Home)","addresses":"160 Manley","occupied by":"HNIR","ownership":"Owned","longitude":-86.115659,"id":"a62srj1wga0t","state":"Michigan"},"type":"Feature","geometry":{"type":"Point","coordinates":[-86.115659,42.808144]}},{"properties":{"city":"Bay City","latitude":43.595164,"zip":"48708","title":"Bay House","addresses":"2501 Center Ave.","occupied by":"HNSE","ownership":"Leased from others","longitude":-83.851062,"id":"a62srj68iqs4","state":"Michigan"},"type":"Feature","geometry":{"type":"Point","coordinates":[-83.851062,43.595164]}},{"properties":{"city":"Warren","latitude":42.506799,"zip":"48093","title":"Birchcrest","addresses":"11043  E 12 Mile Road","occupied by":"HNSE","ownership":"Leased from others","longitude":-83.017226,"id":"a62srjamui76","state":"Michigan"},"type":"Feature","geometry":{"type":"Point","coordinates":[-83.017226,42.506799]}},{"properties":{"city":"Hillsdale","latitude":41.929315,"zip":"49242","title":"Case Management - Hillsdale","addresses":"25 Care Drive Suite 236","occupied by":"HNSE","ownership":"Leased from others","longitude":-84.642759,"id":"a62srj0t58zt","state":"Michigan"},"type":"Feature","geometry":{"type":"Point","coordinates":[-84.642759,41.929315]}},{"properties":{"city":"Jackson","latitude":42.254048,"zip":"49202","title":"Case Management - Jackson","addresses":"1200 North West Ave","occupied by":"HNSE","ownership":"Leased from others","longitude":-84.423387,"id":"a62sriwtkidj","state":"Michigan"},"type":"Feature","geometry":{"type":"Point","coordinates":[-84.423387,42.254048]}},{"properties":{"city":"Warren","latitude":42.491465,"zip":"48093","title":"Cedar Grove","addresses":"11171 E 11 Mile Road","occupied by":"HNSE","ownership":"Leased from others","longitude":-83.019912,"id":"a62srjbw4nvd","state":"Michigan"},"type":"Feature","geometry":{"type":"Point","coordinates":[-83.019912,42.491465]}},{"properties":{"city":"Macomb Township","latitude":42.679224,"zip":"48042","title":"Deerwood","addresses":"52100 Hayes","occupied by":"HNSE","ownership":"Leased from others","longitude":-82.97536,"id":"a62srj9z54ws","state":"Michigan"},"type":"Feature","geometry":{"type":"Point","coordinates":[-82.97536,42.679224]}},{"properties":{"city":"Chesterfield","latitude":42.6928,"zip":"49501","title":"Fairfield","addresses":"30183 Fairfield","occupied by":"HNSE","ownership":"Leased from others","longitude":-82.804559,"id":"a62srizg7mpf","state":"Michigan"},"type":"Feature","geometry":{"type":"Point","coordinates":[-82.804559,42.6928]}},{"properties":{"city":"Bay City","latitude":43.584964,"zip":"48706","title":"Harbor House","addresses":"5385 Kasemeyer","occupied by":"HNSE","ownership":"Leased from others","longitude":-83.925546,"id":"a62srj93h1wu","state":"Michigan"},"type":"Feature","geometry":{"type":"Point","coordinates":[-83.925546,43.584964]}},{"properties":{"city":"New Baltimore","latitude":42.696629,"zip":"48047","title":"Harbor View","addresses":"53433 County Line","occupied by":"HNSE","ownership":"Leased from others","longitude":-82.728869,"id":"a62srj2gv30a","state":"Michigan"},"type":"Feature","geometry":{"type":"Point","coordinates":[-82.728869,42.696629]}},{"properties":{"city":"Roseville","latitude":42.5245,"zip":"48066","title":"Hidden Oaks","addresses":"18716 13 Mile Road","occupied by":"HNSE","ownership":"Leased from others","longitude":-82.928916,"id":"a62srj35hp4r","state":"Michigan"},"type":"Feature","geometry":{"type":"Point","coordinates":[-82.928916,42.5245]}},{"properties":{"city":"Sterling Heights","latitude":42.574299,"zip":"48310","title":"HNSE Supports Coordination Sterling Heights","addresses":"38269 Mound Road","occupied by":"HNSE","ownership":"Leased from others","longitude":-83.049475,"id":"a62srj5iswqs","state":"Michigan"},"type":"Feature","geometry":{"type":"Point","coordinates":[-83.049475,42.574299]}},{"properties":{"city":"Richmond","latitude":42.807406,"zip":"48062","title":"Howards Cove","addresses":"68730 Howard Rd","occupied by":"HNSE","ownership":"Leased from others","longitude":-82.746707,"id":"a62srjbvvyum","state":"Michigan"},"type":"Feature","geometry":{"type":"Point","coordinates":[-82.746707,42.807406]}},{"properties":{"city":"Waterford","latitude":42.692751,"zip":"43329","title":"Lake Oakland Shores (LOSH)","addresses":"3704 Lake Oakland Shores","occupied by":"HNSE","ownership":"Leased from others","longitude":-83.361849,"id":"a62srjbr9gj4","state":"Michigan"},"type":"Feature","geometry":{"type":"Point","coordinates":[-83.361849,42.692751]}},{"properties":{"city":"Clinton Township","latitude":42.565162,"zip":"48035","title":"Ledgestone","addresses":"36282 Egan St","occupied by":"HNSE","ownership":"Leased from others","longitude":-82.912882,"id":"a62srj3tsdr1","state":"Michigan"},"type":"Feature","geometry":{"type":"Point","coordinates":[-82.912882,42.565162]}},{"properties":{"city":"Harrison Township","latitude":42.553751,"zip":"48045","title":"Macomb E Sip","addresses":"24720 Glouchester","occupied by":"HNSE","ownership":"Leased from others","longitude":-82.861362,"id":"a62srjarmz5f","state":"Michigan"},"type":"Feature","geometry":{"type":"Point","coordinates":[-82.861362,42.553751]}},{"properties":{"city":"Macomb Township","latitude":42.637225,"zip":"48042","title":"Milestone Crisis","addresses":"45964 Brentwood St.","occupied by":"HNSE","ownership":"Leased from others","longitude":-82.864143,"id":"a62srj47e35p","state":"Michigan"},"type":"Feature","geometry":{"type":"Point","coordinates":[-82.864143,42.637225]}},{"properties":{"city":"Flint","latitude":42.993027,"zip":"48507","title":"New Hope I &amp; II","addresses":"1110 Eldon Baker Dr","occupied by":"HNSE","ownership":"Owned","longitude":-83.657254,"id":"a62srj91wcnb","state":"Michigan"},"type":"Feature","geometry":{"type":"Point","coordinates":[-83.657254,42.993027]}},{"properties":{"city":"Roseville","latitude":42.481544,"zip":"48066","title":"Rosewood","addresses":"25166 Macomb St","occupied by":"HNSE","ownership":"Owned","longitude":-82.942232,"id":"a62srj47o7k5","state":"Michigan"},"type":"Feature","geometry":{"type":"Point","coordinates":[-82.942232,42.481544]}},{"properties":{"city":"Warren","latitude":42.52575,"zip":"48093","title":"Silver Knoll","addresses":"8811 Chicago Rd","occupied by":"HNSE","ownership":"Leased from others","longitude":-83.020161,"id":"a62srj1y6hbe","state":"Michigan"},"type":"Feature","geometry":{"type":"Point","coordinates":[-83.020161,42.52575]}},{"properties":{"city":"Chesterfield","latitude":42.649482,"zip":"48047","title":"Silver Meadows","addresses":"47754 Sugarbush Road","occupied by":"HNSE","ownership":"Leased from others","longitude":-82.818424,"id":"a62srj1e90zv","state":"Michigan"},"type":"Feature","geometry":{"type":"Point","coordinates":[-82.818424,42.649482]}}],"is_temporal":false,"author":{"url":"","metadata":"","contact_name":"","contact_address":"","source":"","contact_phone":""},"source":"","pagination":{"sort":null,"start":0,"total":37,"limit":1000000},"state":"complete","tags":"affiliate,behavioral health,counties,county,employee,employees,facilities,hope network,hope network se,integrated recovery,location,locations,michigan,program locations,service line,statistic,statistics","published":"2014-08-13T03:47:17-04:00","id":154996}