{"type":"FeatureCollection","data_type":"Dataset","url_type":null,"permissions":[{"permissions":{"download":true,"edit":true,"view":true},"group_id":30055},{"permissions":{"download":true,"view":true},"group_id":"everyone"}],"classification":null,"title":"Housing Corporations and Properties 09-11","count":30,"stream_id":155006,"contributor":{"url":"http://geocommons.com/users/28869","name":"HopeNetwork3075"},"data_attributes":null,"calculation_params":null,"icon_link":null,"link":"http://geocommons.com/overlays/155006.json","extent":[-86.2393,41.8081,-85.194,43.6921],"geometry_types":["point"],"unique_name":null,"name":"Housing Corporations and Properties 09-11","feature_count":30,"description":"Hope Network Housing Corporations and Admin Properties","next_feature":null,"is_raster":false,"short_classification":"Y","stats":{"latitude":{"max":43.692093,"mean":42.8455165,"variance":0.189358739195638,"stdev":0.435153696061102,"min":41.80811,"median":42.916983},"longitude":{"max":-85.194026,"mean":-85.5813290333333,"variance":0.0388819139044471,"stdev":0.197184973830277,"min":-86.239317,"median":-85.617536}},"features":[{"properties":{"city":"Grand Rapids","latitude":42.898228,"zip":"49548","title":"36th Street Campus Building 3 (aka Education Center)","addresses":"775 36th St SE","occupied by":"HNLC","ownership":"Owned","longitude":-85.645627,"id":"a6264nn6knro","state":"Michigan"},"type":"Feature","geometry":{"type":"Point","coordinates":[-85.645627,42.898228]}},{"properties":{"city":"Grand Rapids","latitude":42.91036,"zip":"49546","title":"Leadership Center","addresses":"3075 Orchard Vista Dr SE","occupied by":"HNLC","ownership":"Owned","longitude":-85.525279,"id":"a6264nfaejf7","state":"Michigan"},"type":"Feature","geometry":{"type":"Point","coordinates":[-85.525279,42.91036]}},{"properties":{"city":"Wyoming","latitude":42.866228,"zip":"48548","title":"54th St - 2 Apts","addresses":"180 54th St SW","occupied by":"Tenant","ownership":"Owned","longitude":-85.670148,"id":"a6264nhdhim5","state":"Michigan"},"type":"Feature","geometry":{"type":"Point","coordinates":[-85.670148,42.866228]}},{"properties":{"city":"Grand Rapids","latitude":42.965144,"zip":"49503","title":"Alten Home 108","addresses":"108 Alten Ave NE","occupied by":"Tenant","ownership":"Owned and Leased to others","longitude":-85.629483,"id":"a6264nk5it60","state":"Michigan"},"type":"Feature","geometry":{"type":"Point","coordinates":[-85.629483,42.965144]}},{"properties":{"city":"Grand Rapids","latitude":42.965312,"zip":"49503","title":"Alten Home 116","addresses":"116 Alten Ave NE","occupied by":"Tenant","ownership":"Owned and Leased to others","longitude":-85.629487,"id":"a6264ntfnutf","state":"Michigan"},"type":"Feature","geometry":{"type":"Point","coordinates":[-85.629487,42.965312]}},{"properties":{"city":"Grand Rapids","latitude":42.965521,"zip":"49503","title":"Alten Home 126","addresses":"126 Alten Ave NE","occupied by":"Tenant","ownership":"Owned and Leased to others","longitude":-85.629492,"id":"a6264nj7xgif","state":"Michigan"},"type":"Feature","geometry":{"type":"Point","coordinates":[-85.629492,42.965521]}},{"properties":{"city":"Grand Rapids","latitude":42.890628,"zip":"49508","title":"Birchgrove Apartments","addresses":"4020 Kalamazoo Ave SE","occupied by":"Tenant","ownership":"Owned","longitude":-85.626426,"id":"a6264nmn98a8","state":"Michigan"},"type":"Feature","geometry":{"type":"Point","coordinates":[-85.626426,42.890628]}},{"properties":{"city":"Belding","latitude":43.102106,"zip":"48809","title":"Brentwood Apartments","addresses":"1101 Brentwood St","occupied by":"Tenant","ownership":"Owned","longitude":-85.24274,"id":"a6264nroknve","state":"Michigan"},"type":"Feature","geometry":{"type":"Point","coordinates":[-85.24274,43.102106]}},{"properties":{"city":"Kentwood","latitude":42.884028,"zip":"49508","title":"Breton NPHC Breton Home","addresses":"4094 Breton Rd SE","occupied by":"Tenant","ownership":"Owned and Leased to others","longitude":-85.606525,"id":"a6264ntjzh6w","state":"Michigan"},"type":"Feature","geometry":{"type":"Point","coordinates":[-85.606525,42.884028]}},{"properties":{"city":"Sparta","latitude":43.157124,"zip":"49345","title":"Breton NPHC Gardner Home","addresses":"253 Gardner","occupied by":"Tenant","ownership":"Owned and Leased to others","longitude":-85.703291,"id":"a6264nj9dr1d","state":"Michigan"},"type":"Feature","geometry":{"type":"Point","coordinates":[-85.703291,43.157124]}},{"properties":{"city":"Sparta","latitude":43.157139,"zip":"49345","title":"Breton NPHC Ida Red Home","addresses":"118 Ida Red","occupied by":"Tenant","ownership":"Owned and Leased to others","longitude":-85.716313,"id":"a6264nts6zf1","state":"Michigan"},"type":"Feature","geometry":{"type":"Point","coordinates":[-85.716313,43.157139]}},{"properties":{"city":"Caledonia","latitude":42.84569,"zip":"49316","title":"Breton NPHC Peerpoint Home","addresses":"2260 Peerpoint Dr SE","occupied by":"Tenant","ownership":"Owned and Leased to others","longitude":-85.607505,"id":"a6264ne0idte","state":"Michigan"},"type":"Feature","geometry":{"type":"Point","coordinates":[-85.607505,42.84569]}},{"properties":{"city":"Grand Rapids","latitude":42.954074,"zip":"49546","title":"Breton NPHC Spaulding Home","addresses":"649 Spaulding SE","occupied by":"Tenant","ownership":"Owned and Leased to others","longitude":-85.540629,"id":"a6264njph2s9","state":"Michigan"},"type":"Feature","geometry":{"type":"Point","coordinates":[-85.540629,42.954074]}},{"properties":{"city":"Big Rapids","latitude":43.692093,"zip":"49307","title":"Clark Street Apartments","addresses":"630 Clark St.","occupied by":"Tenant","ownership":"Owned","longitude":-85.48518,"id":"a6264ntg1bh6","state":"Michigan"},"type":"Feature","geometry":{"type":"Point","coordinates":[-85.48518,43.692093]}},{"properties":{"city":"Grandville","latitude":42.885027,"zip":"49418","title":"Grandville Center","addresses":"4041 44th Street SW","occupied by":"Tenant","ownership":"Owned and Leased to others","longitude":-85.734631,"id":"a6264npfkcek","state":"Michigan"},"type":"Feature","geometry":{"type":"Point","coordinates":[-85.734631,42.885027]}},{"properties":{"city":"Greenville","latitude":43.163406,"zip":"48838","title":"Greenbriar Apartments","addresses":"1001 Wellington Court","occupied by":"Tenant","ownership":"Owned","longitude":-85.235296,"id":"a6264ntcujkn","state":"Michigan"},"type":"Feature","geometry":{"type":"Point","coordinates":[-85.235296,43.163406]}},{"properties":{"city":"Battle Creek","latitude":42.327107,"zip":"49015","title":"Hill House Apartments Inc.","addresses":"337 Champion St","occupied by":"Tenant","ownership":"Owned","longitude":-85.194026,"id":"a6264nrbwtlv","state":"Michigan"},"type":"Feature","geometry":{"type":"Point","coordinates":[-85.194026,42.327107]}},{"properties":{"city":"Rockford","latitude":43.119027,"zip":"49341","title":"Hillview Townhouses","addresses":"602 Hillview Place","occupied by":"Tenant","ownership":"Owned","longitude":-85.54523,"id":"a6264niqg4cs","state":"Michigan"},"type":"Feature","geometry":{"type":"Point","coordinates":[-85.54523,43.119027]}},{"properties":{"city":"Sturgis","latitude":41.80811,"zip":"49091","title":"Lakeview NPHC Residential Facility","addresses":"411 N Lakeview Ave","occupied by":"Tenant","ownership":"Owned","longitude":-85.408961,"id":"a6264nq1n6wr","state":"Michigan"},"type":"Feature","geometry":{"type":"Point","coordinates":[-85.408961,41.80811]}},{"properties":{"city":"Grand Rapids","latitude":42.984655,"zip":"49505","title":"Leonard Pines Apartments","addresses":"1319 Leonard NE","occupied by":"Tenant","ownership":"Owned","longitude":-85.636323,"id":"a6264nmdwps4","state":"Michigan"},"type":"Feature","geometry":{"type":"Point","coordinates":[-85.636323,42.984655]}},{"properties":{"city":"Kentwood","latitude":42.877929,"zip":"49508","title":"Metropolitan Apartments","addresses":"4634 N Breton Ct","occupied by":"Tenant","ownership":"Owned","longitude":-85.604425,"id":"a6264nkt8n98","state":"Michigan"},"type":"Feature","geometry":{"type":"Point","coordinates":[-85.604425,42.877929]}},{"properties":{"city":"Kalamazoo","latitude":42.25431,"zip":"49001","title":"Milham Parkside Apts","addresses":"20 Leona St","occupied by":"Tenant","ownership":"Owned","longitude":-85.580042,"id":"a6264njeicqw","state":"Michigan"},"type":"Feature","geometry":{"type":"Point","coordinates":[-85.580042,42.25431]}},{"properties":{"city":"Three Rivers","latitude":41.943391,"zip":"49093","title":"River Country Apartments / Three Rivers Housing","addresses":"120 Benjamin Drive","occupied by":"Tenant","ownership":"Owned","longitude":-85.646944,"id":"a6264nmod2bb","state":"Michigan"},"type":"Feature","geometry":{"type":"Point","coordinates":[-85.646944,41.943391]}},{"properties":{"city":"Battle Creek","latitude":42.334222,"zip":"49037","title":"The Meadows","addresses":"85 Lenon St","occupied by":"Tenant","ownership":"Owned","longitude":-85.215503,"id":"a6264noimrb4","state":"Michigan"},"type":"Feature","geometry":{"type":"Point","coordinates":[-85.215503,42.334222]}},{"properties":{"city":"Kalamazoo","latitude":42.322094,"zip":"49007","title":"Twin Lakes NPHC","addresses":"3125 Nichols Road","occupied by":"Tenant","ownership":"Owned","longitude":-85.628822,"id":"a6264ngr0ch3","state":"Michigan"},"type":"Feature","geometry":{"type":"Point","coordinates":[-85.628822,42.322094]}},{"properties":{"city":"Grand Rapids","latitude":42.916983,"zip":"49506","title":"Village Drive Apts (Saginaw SIP)","addresses":"2000 Saginaw Road SE","occupied by":"Tenant","ownership":"Owned","longitude":-85.617536,"id":"a6264nrgfp73","state":"Michigan"},"type":"Feature","geometry":{"type":"Point","coordinates":[-85.617536,42.916983]}},{"properties":{"city":"Kalamazoo","latitude":42.274709,"zip":"49006","title":"Village of Kalamazoo (Lilac Lane)","addresses":"4410 Lilac Lane","occupied by":"Tenant","ownership":"Owned","longitude":-85.644657,"id":"a6264nqj1j40","state":"Michigan"},"type":"Feature","geometry":{"type":"Point","coordinates":[-85.644657,42.274709]}},{"properties":{"city":"Grand Rapids","latitude":42.987194,"zip":"49534","title":"Walker Village Apartments","addresses":"1230 Walker Village Dr NW","occupied by":"Tenant","ownership":"Owned","longitude":-85.753793,"id":"a6264nmsgpl6","state":"Michigan"},"type":"Feature","geometry":{"type":"Point","coordinates":[-85.753793,42.987194]}},{"properties":{"city":"Big Rapids","latitude":43.690217,"zip":"49307","title":"Water Tower Apartments","addresses":"715 Water Tower Road","occupied by":"Tenant","ownership":"Owned","longitude":-85.49624,"id":"a6264nl4qq47","state":"Michigan"},"type":"Feature","geometry":{"type":"Point","coordinates":[-85.49624,43.690217]}},{"properties":{"city":"Muskegon","latitude":43.223439,"zip":"49442","title":"Whispering Timbers","addresses":"1589 Hoyt St","occupied by":"Tenant","ownership":"Owned","longitude":-86.239317,"id":"a6264nf2xt0t","state":"Michigan"},"type":"Feature","geometry":{"type":"Point","coordinates":[-86.239317,43.223439]}}],"is_temporal":false,"author":{"url":"","metadata":"","contact_name":"","contact_address":"","source":"","contact_phone":""},"source":"","pagination":{"sort":null,"start":0,"total":30,"limit":1000000},"state":"complete","tags":"apartments,facilities,hope network,housing corporations,hud,location,michigan,property,statistics","published":"2014-08-13T03:47:49-04:00","id":155006}