{"type":"FeatureCollection","data_type":"Dataset","url_type":null,"permissions":[{"permissions":{"download":true,"edit":true,"view":true},"group_id":30055},{"permissions":{"download":true,"view":true},"group_id":"everyone"}],"classification":null,"title":"Hope Network Vacant Property 09-11","count":11,"stream_id":155005,"contributor":{"url":"http://geocommons.com/users/28869","name":"HopeNetwork3075"},"data_attributes":null,"calculation_params":null,"icon_link":null,"link":"http://geocommons.com/overlays/155005.json","extent":[-85.6295,41.8087,-84.575,42.9654],"geometry_types":["point"],"unique_name":null,"name":"Hope Network Vacant Property 09-11","feature_count":11,"description":"Hope Network vacant property","next_feature":null,"is_raster":false,"short_classification":"Y","stats":{"latitude":{"max":42.965395,"mean":42.6451280909091,"variance":0.166604874905491,"stdev":0.408172604305447,"min":41.808689,"median":42.92464},"longitude":{"max":-84.575004,"mean":-85.4779099090909,"variance":0.0927051917924899,"stdev":0.304475272875303,"min":-85.629489,"median":-85.581828}},"features":[{"properties":{"city":"Grand Rapids","latitude":42.965395,"zip":"49503","title":"Alten Home 120","addresses":"120 Alten Ave NE","occupied by":"Vacant","ownership":"Owned","longitude":-85.629489,"id":"a65y8md560uu","state":"Michigan"},"type":"Feature","geometry":{"type":"Point","coordinates":[-85.629489,42.965395]}},{"properties":{"city":"Kalamazoo","latitude":42.274003,"zip":"49001","title":"Howard Crisis Center","addresses":"401 Howard St","occupied by":"Vacant","ownership":"Owned","longitude":-85.587887,"id":"a65y8mftm7z3","state":"Michigan"},"type":"Feature","geometry":{"type":"Point","coordinates":[-85.587887,42.274003]}},{"properties":{"city":"Kalamazoo","latitude":42.273753,"zip":"49001","title":"Vacant Commercial Property 1813 S Westnedge Ave Kalamazoo","addresses":"1813 South Westnedge Ave","occupied by":"Vacant","ownership":"Owned","longitude":-85.589619,"id":"a65y8mi4cmgz","state":"Michigan"},"type":"Feature","geometry":{"type":"Point","coordinates":[-85.589619,42.273753]}},{"properties":{"city":"Kalamazoo","latitude":42.273603,"zip":"49001","title":"Vacant Commercial Property 1817 S Westnedge Kalamazoo","addresses":"1817 South Westnedge Ave","occupied by":"Vacant","ownership":"Owned","longitude":-85.589618,"id":"a65y8me8l19d","state":"Michigan"},"type":"Feature","geometry":{"type":"Point","coordinates":[-85.589618,42.273603]}},{"properties":{"city":"Sturgis","latitude":41.808689,"zip":"49091","title":"Vacant Land 501 Center, Sturgis MI","addresses":"501 Center Street","occupied by":"Vacant","ownership":"Owned","longitude":-85.411359,"id":"a65y8mfxpz9r","state":"Michigan"},"type":"Feature","geometry":{"type":"Point","coordinates":[-85.411359,41.808689]}},{"properties":{"city":"Kentwood","latitude":42.924679,"zip":"49546","title":"Vacant Land Burton - 4218","addresses":"4218 Burton St SE","occupied by":"Vacant","ownership":"Owned","longitude":-85.563811,"id":"a65y8mdq5ot7","state":"Michigan"},"type":"Feature","geometry":{"type":"Point","coordinates":[-85.563811,42.924679]}},{"properties":{"city":"Kentwood","latitude":42.92464,"zip":"49546","title":"Vacant Land Burton - 4220","addresses":"4220 Burton","occupied by":"Vacant","ownership":"Owned","longitude":-85.563754,"id":"a65y8mjv29fk","state":"Michigan"},"type":"Feature","geometry":{"type":"Point","coordinates":[-85.563754,42.92464]}},{"properties":{"city":"Grand Rapids","latitude":42.935808,"zip":"49506","title":"Vacant Land East Beltline","addresses":"1480 East Beltline SE","occupied by":"Vacant","ownership":"Owned","longitude":-85.583886,"id":"a65y8mcb8ny4","state":"Michigan"},"type":"Feature","geometry":{"type":"Point","coordinates":[-85.583886,42.935808]}},{"properties":{"city":"Ferndale","latitude":42.840183,"zip":"48820","title":"Vacant Land Glenn Lodge","addresses":"21012 Glenn Lodge","occupied by":"Vacant","ownership":"Owned","longitude":-84.575004,"id":"a65y8mixs66k","state":"Michigan"},"type":"Feature","geometry":{"type":"Point","coordinates":[-84.575004,42.840183]}},{"properties":{"city":"Grand Rapids","latitude":42.937828,"zip":"49505","title":"Vacant Land Lake Dr - 1","addresses":"3486 Lake Dr SE","occupied by":"Vacant","ownership":"Owned","longitude":-85.581828,"id":"a65y8mi9f500","state":"Michigan"},"type":"Feature","geometry":{"type":"Point","coordinates":[-85.581828,42.937828]}},{"properties":{"city":"Grand Rapids","latitude":42.937828,"zip":"49505","title":"Vacant Land Lake Dr - 2","addresses":"3530 Lake Dr SE","occupied by":"Vacant","ownership":"Owned","longitude":-85.580754,"id":"a65y8mble5ji","state":"Michigan"},"type":"Feature","geometry":{"type":"Point","coordinates":[-85.580754,42.937828]}}],"is_temporal":false,"author":{"url":"","metadata":"","contact_name":"","contact_address":"","source":"","contact_phone":""},"source":"","pagination":{"sort":null,"start":0,"total":11,"limit":1000000},"state":"complete","tags":"hope network,property,vacant,vacant property","published":"2014-08-13T03:47:48-04:00","id":155005}