{"type":"FeatureCollection","data_type":"Dataset","url_type":null,"permissions":[{"permissions":{"download":true,"view":true},"group_id":"everyone"}],"classification":null,"title":"salesforceContacts","count":200,"stream_id":15528,"contributor":{"url":"http://geocommons.com/users/142","name":"tom"},"data_attributes":null,"calculation_params":null,"icon_link":null,"link":"http://geocommons.com/overlays/15528.json","extent":[-157.969,0.0,0.0,47.981],"geometry_types":["point"],"unique_name":null,"name":"salesforceContacts","feature_count":200,"description":"","next_feature":null,"is_raster":false,"short_classification":"Y","stats":{"latitude":{"max":47.981033,"mean":36.5015017224,"variance":83.7711165915891,"stdev":9.15265625879116,"median":37.171552,"min":0.0},"longitude":{"max":0.0,"mean":-91.1463205550001,"variance":646.437647335253,"stdev":25.4251380986467,"median":-87.162909,"min":-157.969338}},"features":[{"properties":{"latitude":0.0,"longitude":0.0,"id":"abdkie7eyn83","address":"1 Pleasant Stret, Bristol, NH 032"},"type":"Feature","geometry":{"type":"Point","coordinates":[0.0,0.0]}},{"properties":{"latitude":0.0,"longitude":0.0,"id":"abdkie9xfykr","address":"168 Boardwalk, Ocean City, NJ 0826"},"type":"Feature","geometry":{"type":"Point","coordinates":[0.0,0.0]}},{"properties":{"latitude":0.0,"longitude":0.0,"id":"abdkie6mwe1o","address":"9 Tagore Lane, Singapore, Singapore 787472, Singapore, Singapore"},"type":"Feature","geometry":{"type":"Point","coordinates":[0.0,0.0]}},{"properties":{"latitude":0.0,"longitude":0.0,"id":"abdkie586tqk","address":"382 Park Avenue East, Mansfield, OH 4905"},"type":"Feature","geometry":{"type":"Point","coordinates":[0.0,0.0]}},{"properties":{"latitude":0.0,"longitude":0.0,"id":"abdkie2zix9u","address":"2808 28 ST NW WASHINGTON DC, Burlington, 27215, USA"},"type":"Feature","geometry":{"type":"Point","coordinates":[0.0,0.0]}},{"properties":{"latitude":0.0,"longitude":0.0,"id":"abdkiehkacsz","address":"123 North Court Stret, Fairfield, IA 5256"},"type":"Feature","geometry":{"type":"Point","coordinates":[0.0,0.0]}},{"properties":{"latitude":0.0,"longitude":0.0,"id":"abdkiecfyugr","address":"1301 Hoch Drive, Lawrence, 6045, USA"},"type":"Feature","geometry":{"type":"Point","coordinates":[0.0,0.0]}},{"properties":{"latitude":0.0,"longitude":0.0,"id":"abdkie9ti8ex","address":"The Landmark @ One Market, San Francisco, 94087, US"},"type":"Feature","geometry":{"type":"Point","coordinates":[0.0,0.0]}},{"properties":{"latitude":19.62249,"longitude":-155.03931,"id":"abdkiea55qee","address":"16-056 Pahoa Road, Keau, HI 96749"},"type":"Feature","geometry":{"type":"Point","coordinates":[-155.03931,19.62249]}},{"properties":{"latitude":20.926873,"longitude":-156.369156,"id":"abdkiee2r1j8","address":"43 Mil Stret, Bristol, PA 1907"},"type":"Feature","geometry":{"type":"Point","coordinates":[-156.369156,20.926873]}},{"properties":{"latitude":21.379602,"longitude":-157.969338,"id":"abdkiehbx6pe","address":"121 S State Stret, Apleton, WI 5491"},"type":"Feature","geometry":{"type":"Point","coordinates":[-157.969338,21.379602]}},{"properties":{"latitude":27.638072,"longitude":-80.396571,"id":"abdkie2gau13","address":"2020 Comerce Avenue, Vero Beach, FL 32960"},"type":"Feature","geometry":{"type":"Point","coordinates":[-80.396571,27.638072]}},{"properties":{"latitude":27.704255,"longitude":-97.36257,"id":"abdkieaj0c0y","address":"6020 South Padre Island Drive, Corpus Christi, TX 78412"},"type":"Feature","geometry":{"type":"Point","coordinates":[-97.36257,27.704255]}},{"properties":{"latitude":28.241684,"longitude":-82.460562,"id":"abdkieavez85","address":"62 Land O Lakes Boulevard, Land O Lakes, FL 34638"},"type":"Feature","geometry":{"type":"Point","coordinates":[-82.460562,28.241684]}},{"properties":{"latitude":28.294862,"longitude":-81.404707,"id":"abdkie9tt0wm","address":"403 Broadway, Kisime, FL 34741"},"type":"Feature","geometry":{"type":"Point","coordinates":[-81.404707,28.294862]}},{"properties":{"latitude":28.365456,"longitude":-80.700224,"id":"abdkie7ts84u","address":"625 North Courtenay Parkway, Merit Island, FL 32953"},"type":"Feature","geometry":{"type":"Point","coordinates":[-80.700224,28.365456]}},{"properties":{"latitude":29.946401,"longitude":-90.113652,"id":"abdkie2s62n3","address":"3137 Calhoun Stret, New Orleans, LA 70125"},"type":"Feature","geometry":{"type":"Point","coordinates":[-90.113652,29.946401]}},{"properties":{"latitude":30.169651,"longitude":-97.739037,"id":"abdkieao3sjv","address":"312 Constitution Place, Austin, TX 78767, USA, Austin"},"type":"Feature","geometry":{"type":"Point","coordinates":[-97.739037,30.169651]}},{"properties":{"latitude":30.218843,"longitude":-90.815829,"id":"abdkie25vqsx","address":"1645 West Sunrise Boulevard, Gilbert, AZ 8523"},"type":"Feature","geometry":{"type":"Point","coordinates":[-90.815829,30.218843]}},{"properties":{"latitude":30.218843,"longitude":-90.815829,"id":"abdkief14pp1","address":"18 North San Francisco Stret, Flagstaf, AZ 8601"},"type":"Feature","geometry":{"type":"Point","coordinates":[-90.815829,30.218843]}},{"properties":{"latitude":30.222942,"longitude":-90.815908,"id":"abdkie6toh9t","address":"Highway 87, Payson, AZ 8541"},"type":"Feature","geometry":{"type":"Point","coordinates":[-90.815908,30.222942]}},{"properties":{"latitude":30.386079,"longitude":-87.091305,"id":"abdkie8vlqwn","address":"3098 Gulf Breze Parkway, Gulf Breze, FL 32563"},"type":"Feature","geometry":{"type":"Point","coordinates":[-87.091305,30.386079]}},{"properties":{"latitude":30.387497,"longitude":-97.112432,"id":"abdkie6pw9dd","address":"8523 Oak Stret, New Orleans, LA 7018"},"type":"Feature","geometry":{"type":"Point","coordinates":[-97.112432,30.387497]}},{"properties":{"latitude":30.519111,"longitude":-86.502853,"id":"abdkie5uab3k","address":"712 Howel Road, Nicevile, FL 32578"},"type":"Feature","geometry":{"type":"Point","coordinates":[-86.502853,30.519111]}},{"properties":{"latitude":31.895812,"longitude":-88.320105,"id":"abdkie1hx2ct","address":"19 Ada Stret, San Antonio, TX 7823"},"type":"Feature","geometry":{"type":"Point","coordinates":[-88.320105,31.895812]}},{"properties":{"latitude":31.895937,"longitude":-88.319051,"id":"abdkieho1tt5","address":"107 Spruce Stret, Texarkana, TX 7501"},"type":"Feature","geometry":{"type":"Point","coordinates":[-88.319051,31.895937]}},{"properties":{"latitude":31.901564,"longitude":-88.317881,"id":"abdkiecr5qro","address":"230 North L B J Drive, San Marcos, TX 786"},"type":"Feature","geometry":{"type":"Point","coordinates":[-88.317881,31.901564]}},{"properties":{"latitude":32.177901,"longitude":-110.952451,"id":"abdkiecyj01l","address":"1301 East Ajo Way Suite 17, Tucson, AZ 85713"},"type":"Feature","geometry":{"type":"Point","coordinates":[-110.952451,32.177901]}},{"properties":{"latitude":32.391723,"longitude":-110.967272,"id":"abdkiebxa5m6","address":"8 N Euclid , Halis Center, Rom 501, Tucson, AZ 85721, United States, Tucson"},"type":"Feature","geometry":{"type":"Point","coordinates":[-110.967272,32.391723]}},{"properties":{"latitude":32.585941,"longitude":-93.881018,"id":"abdkie7j0pwt","address":"617 South Mason Road, Katy, TX 7450"},"type":"Feature","geometry":{"type":"Point","coordinates":[-93.881018,32.585941]}},{"properties":{"latitude":32.748829,"longitude":-89.985317,"id":"abdkie6ae86n","address":"2606 California Avenue Southwest, Seatle, WA 9816"},"type":"Feature","geometry":{"type":"Point","coordinates":[-89.985317,32.748829]}},{"properties":{"latitude":32.834863,"longitude":-116.758288,"id":"abdkiebob6zc","address":"2612 Alpine Boulevard, Alpine, CA 91901"},"type":"Feature","geometry":{"type":"Point","coordinates":[-116.758288,32.834863]}},{"properties":{"latitude":32.838546,"longitude":-116.977189,"id":"abdkieexfp6r","address":"10147 Mision Gorge Road, Sante, CA 92071"},"type":"Feature","geometry":{"type":"Point","coordinates":[-116.977189,32.838546]}},{"properties":{"latitude":32.892697,"longitude":-117.201532,"id":"abdkiebyv2dc","address":"910 Mira Mesa Boulevard Suite C, San Diego, CA 92131"},"type":"Feature","geometry":{"type":"Point","coordinates":[-117.201532,32.892697]}},{"properties":{"latitude":33.393717,"longitude":-111.752824,"id":"abdkie5rvc03","address":"3638 East Southern Avenue, Mesa, AZ 85206"},"type":"Feature","geometry":{"type":"Point","coordinates":[-111.752824,33.393717]}},{"properties":{"latitude":33.415113,"longitude":-111.835406,"id":"abdkie4cf0mv","address":"160 West Main Stret, Mesa, AZ 85201"},"type":"Feature","geometry":{"type":"Point","coordinates":[-111.835406,33.415113]}},{"properties":{"latitude":33.463511,"longitude":-82.493079,"id":"abdkie3i9y03","address":"543 East Hil Stret, Thomson, GA 30824"},"type":"Feature","geometry":{"type":"Point","coordinates":[-82.493079,33.463511]}},{"properties":{"latitude":33.492907,"longitude":-112.136896,"id":"abdkie4yeofw","address":"3838 North 36th Avenue Suite B, Phoenix, AZ 85019"},"type":"Feature","geometry":{"type":"Point","coordinates":[-112.136896,33.492907]}},{"properties":{"latitude":33.58217,"longitude":-111.926008,"id":"abdkie6chdb2","address":"86 East Shea Boulevard, Scotsdale, AZ 85260"},"type":"Feature","geometry":{"type":"Point","coordinates":[-111.926008,33.58217]}},{"properties":{"latitude":33.656348,"longitude":-117.298031,"id":"abdkiebe1s0d","address":"31861 Mision Trail, Lake Elsinore, CA 92530"},"type":"Feature","geometry":{"type":"Point","coordinates":[-117.298031,33.656348]}},{"properties":{"latitude":33.76249,"longitude":-118.007208,"id":"abdkiecgjprp","address":"13752 Goldenwest Stret, Westminster, CA 92683"},"type":"Feature","geometry":{"type":"Point","coordinates":[-118.007208,33.76249]}},{"properties":{"latitude":33.782601,"longitude":-118.183521,"id":"abdkieeljfp3","address":"720 East Anaheim Stret, Long Beach, CA 90813"},"type":"Feature","geometry":{"type":"Point","coordinates":[-118.183521,33.782601]}},{"properties":{"latitude":33.786594,"longitude":-118.298662,"id":"abdkie5w626u","address":"3985 Pac Cst Highway, Torance, CA 90505"},"type":"Feature","geometry":{"type":"Point","coordinates":[-118.298662,33.786594]}},{"properties":{"latitude":33.791494,"longitude":-117.848257,"id":"abdkie4ztl53","address":"548 East La Palma Avenue, Anaheim, CA 92807"},"type":"Feature","geometry":{"type":"Point","coordinates":[-117.848257,33.791494]}},{"properties":{"latitude":33.803869,"longitude":-117.864995,"id":"abdkieh9clp1","address":"987 North Enterprise Stret, Orange, CA 92867"},"type":"Feature","geometry":{"type":"Point","coordinates":[-117.864995,33.803869]}},{"properties":{"latitude":33.848456,"longitude":-117.861018,"id":"abdkiefc7t7a","address":"1035 North Armando Stret Suite Q, Anaheim, CA 92806"},"type":"Feature","geometry":{"type":"Point","coordinates":[-117.861018,33.848456]}},{"properties":{"latitude":33.865035,"longitude":-84.815879,"id":"abdkie4nuz11","address":"4258 Canyon Lake Drive, Rapid City, SD 5702"},"type":"Feature","geometry":{"type":"Point","coordinates":[-84.815879,33.865035]}},{"properties":{"latitude":33.975688,"longitude":-117.342744,"id":"abdkie4ef4jh","address":"1450 University Avenue, Riverside, CA 92507"},"type":"Feature","geometry":{"type":"Point","coordinates":[-117.342744,33.975688]}},{"properties":{"latitude":34.057804,"longitude":-85.601806,"id":"abdkie2mjy3e","address":"345 West 14th Stret Frnt, New York, NY 1014"},"type":"Feature","geometry":{"type":"Point","coordinates":[-85.601806,34.057804]}},{"properties":{"latitude":34.05924134,"longitude":-117.195729,"id":"abdkie1dfd58","address":"405 West Redlands Boulevard, Redlands, CA 92373"},"type":"Feature","geometry":{"type":"Point","coordinates":[-117.195729,34.05924134]}},{"properties":{"latitude":34.100271,"longitude":-118.116203,"id":"abdkiefqbnoh","address":"1024 East Main Stret, Alhambra, CA 91801"},"type":"Feature","geometry":{"type":"Point","coordinates":[-118.116203,34.100271]}},{"properties":{"latitude":34.114342,"longitude":-117.972892,"id":"abdkiedwyg6h","address":"1504 Arow Highway, Baldwin Park, CA 91706"},"type":"Feature","geometry":{"type":"Point","coordinates":[-117.972892,34.114342]}},{"properties":{"latitude":34.146107,"longitude":-85.660489,"id":"abdkie2cx076","address":"231 West 96th Stret, New York, NY 1025"},"type":"Feature","geometry":{"type":"Point","coordinates":[-85.660489,34.146107]}},{"properties":{"latitude":34.154128,"longitude":-118.757754,"id":"abdkiegmd4g9","address":"29041 Thousand Oaks Boulevard, Agoura Hils, CA 91301"},"type":"Feature","geometry":{"type":"Point","coordinates":[-118.757754,34.154128]}},{"properties":{"latitude":34.157995,"longitude":-118.806516,"id":"abdkie62g44i","address":"3139 Viaduct Colinas, Westlake Vilage, CA 91362"},"type":"Feature","geometry":{"type":"Point","coordinates":[-118.806516,34.157995]}},{"properties":{"latitude":34.189862,"longitude":-83.406081,"id":"abdkieejpjw8","address":"890 Main Stret, Antioch, IL 602"},"type":"Feature","geometry":{"type":"Point","coordinates":[-83.406081,34.189862]}},{"properties":{"latitude":34.189862,"longitude":-83.406081,"id":"abdkie5ni4ji","address":"1348 Shermer Road, Northbrok, IL 6062"},"type":"Feature","geometry":{"type":"Point","coordinates":[-83.406081,34.189862]}},{"properties":{"latitude":34.189862,"longitude":-83.406081,"id":"abdkieh5ckpr","address":"818 Lincoln Avenue, Skokie, IL 607"},"type":"Feature","geometry":{"type":"Point","coordinates":[-83.406081,34.189862]}},{"properties":{"latitude":34.189862,"longitude":-83.406081,"id":"abdkie5a40ic","address":"103 Rosevelt Stret, Belvidere, IL 6108"},"type":"Feature","geometry":{"type":"Point","coordinates":[-83.406081,34.189862]}},{"properties":{"latitude":34.191761,"longitude":-118.950668,"id":"abdkie661fsd","address":"3521 Old Conejo Road, Newbury Park, CA 91320"},"type":"Feature","geometry":{"type":"Point","coordinates":[-118.950668,34.191761]}},{"properties":{"latitude":34.222826,"longitude":-83.863621,"id":"abdkief3vr17","address":"3460 Mundy Mil Road, Gainesvile, GA 30507"},"type":"Feature","geometry":{"type":"Point","coordinates":[-83.863621,34.222826]}},{"properties":{"latitude":34.248425,"longitude":-117.185711,"id":"abdkiefwx2y7","address":"30 South Highway 173, Lake Arowhead, CA 92352"},"type":"Feature","geometry":{"type":"Point","coordinates":[-117.185711,34.248425]}},{"properties":{"latitude":34.278661,"longitude":-118.70894,"id":"abdkieeg4inw","address":"2381 Tapo Stret, Simi Valey, CA 93063"},"type":"Feature","geometry":{"type":"Point","coordinates":[-118.70894,34.278661]}},{"properties":{"latitude":34.336179,"longitude":-119.092061,"id":"abdkie5q5wua","address":"401 South Beckwith Road, Santa Paula, CA 93060"},"type":"Feature","geometry":{"type":"Point","coordinates":[-119.092061,34.336179]}},{"properties":{"latitude":34.773088,"longitude":-111.76384,"id":"abdkie8h7hxt","address":"6101 Highway 179, Sedona, AZ 86351"},"type":"Feature","geometry":{"type":"Point","coordinates":[-111.76384,34.773088]}},{"properties":{"latitude":34.965683,"longitude":-84.268048,"id":"abdkie7tbrya","address":"6323 Grand Hickory Drive, Braselton, GA 30517"},"type":"Feature","geometry":{"type":"Point","coordinates":[-84.268048,34.965683]}},{"properties":{"latitude":35.112275,"longitude":-106.702187,"id":"abdkie9b9y1o","address":"30 Cors Boulevard Northwest, Albuquerque, NM 87120"},"type":"Feature","geometry":{"type":"Point","coordinates":[-106.702187,35.112275]}},{"properties":{"latitude":35.218369,"longitude":-97.450648,"id":"abdkie3uvmjr","address":"562 West Main Stret, Norman, OK 73069"},"type":"Feature","geometry":{"type":"Point","coordinates":[-97.450648,35.218369]}},{"properties":{"latitude":35.292878,"longitude":-83.27616,"id":"abdkie5rh67a","address":"170 Haynes Bridge Road, Alphareta, GA 304"},"type":"Feature","geometry":{"type":"Point","coordinates":[-83.27616,35.292878]}},{"properties":{"latitude":35.369966,"longitude":-83.229166,"id":"abdkieb9m84x","address":"635 East Hyman Avenue, Aspen, CO 8161"},"type":"Feature","geometry":{"type":"Point","coordinates":[-83.229166,35.369966]}},{"properties":{"latitude":35.40622,"longitude":-97.52135,"id":"abdkiec0fdp2","address":"890 South Walker Avenue, Oklahoma City, OK 73139"},"type":"Feature","geometry":{"type":"Point","coordinates":[-97.52135,35.40622]}},{"properties":{"latitude":35.539162,"longitude":-85.857912,"id":"abdkie20vz6t","address":"6973 Coral Way, Miami, FL 315"},"type":"Feature","geometry":{"type":"Point","coordinates":[-85.857912,35.539162]}},{"properties":{"latitude":35.551475,"longitude":-97.619061,"id":"abdkie3lmoud","address":"7930 North Macarthur Boulevard, Oklahoma City, OK 73132"},"type":"Feature","geometry":{"type":"Point","coordinates":[-97.619061,35.551475]}},{"properties":{"latitude":35.574756,"longitude":-86.192142,"id":"abdkie7hefp5","address":"9 Port Washington Boulevard, Port Washington, NY 1050"},"type":"Feature","geometry":{"type":"Point","coordinates":[-86.192142,35.574756]}},{"properties":{"latitude":35.574757,"longitude":-86.192021,"id":"abdkiec289ka","address":"18 Seley Road Suite 2, Syracuse, NY 1324"},"type":"Feature","geometry":{"type":"Point","coordinates":[-86.192021,35.574757]}},{"properties":{"latitude":35.574757,"longitude":-86.192051,"id":"abdkieh4sxpp","address":"16 Cortelyou Road, Broklyn, NY 1218"},"type":"Feature","geometry":{"type":"Point","coordinates":[-86.192051,35.574757]}},{"properties":{"latitude":35.575001,"longitude":-86.191004,"id":"abdkiegt5sqe","address":"75 East Park Avenue, Long Beach, NY 1561"},"type":"Feature","geometry":{"type":"Point","coordinates":[-86.191004,35.575001]}},{"properties":{"latitude":35.576033,"longitude":-86.187901,"id":"abdkie9emzd0","address":"256 Broadway, Amityvile, NY 1701"},"type":"Feature","geometry":{"type":"Point","coordinates":[-86.187901,35.576033]}},{"properties":{"latitude":35.576567,"longitude":-86.187393,"id":"abdkie62qdbb","address":"301 Nasau Boulevard, Garden City, NY 1530"},"type":"Feature","geometry":{"type":"Point","coordinates":[-86.187393,35.576567]}},{"properties":{"latitude":35.579433,"longitude":-86.184106,"id":"abdkie388zlq","address":"570 Route 209, Kerhonkson, NY 1246"},"type":"Feature","geometry":{"type":"Point","coordinates":[-86.184106,35.579433]}},{"properties":{"latitude":35.590872,"longitude":-86.16787,"id":"abdkiecvk9lz","address":"1967 Ridge Road East, Rochester, NY 1462"},"type":"Feature","geometry":{"type":"Point","coordinates":[-86.16787,35.590872]}},{"properties":{"latitude":35.627971,"longitude":-97.485168,"id":"abdkie718q4y","address":"2624 Broadway Court, Edmond, OK 73013"},"type":"Feature","geometry":{"type":"Point","coordinates":[-97.485168,35.627971]}},{"properties":{"latitude":35.67793,"longitude":-105.952292,"id":"abdkiedjzdy5","address":"825 Early Stret, Santa Fe, NM 87505"},"type":"Feature","geometry":{"type":"Point","coordinates":[-105.952292,35.67793]}},{"properties":{"latitude":35.680638,"longitude":-105.953254,"id":"abdkiea1wk2s","address":"720 Rosita Stret, Santa Fe, NM 87505"},"type":"Feature","geometry":{"type":"Point","coordinates":[-105.953254,35.680638]}},{"properties":{"latitude":35.735575,"longitude":-87.128299,"id":"abdkie66olg0","address":"615 Crosing Stret, Punta Gorda, FL 3950"},"type":"Feature","geometry":{"type":"Point","coordinates":[-87.128299,35.735575]}},{"properties":{"latitude":35.735575,"longitude":-87.128299,"id":"abdkie3amglu","address":"142 North Federal Highway, Derfield Beach, FL 341"},"type":"Feature","geometry":{"type":"Point","coordinates":[-87.128299,35.735575]}},{"properties":{"latitude":35.735575,"longitude":-87.128299,"id":"abdkie4r7nn3","address":"32 Southeast 2nd Avenue, Delray Beach, FL 34"},"type":"Feature","geometry":{"type":"Point","coordinates":[-87.128299,35.735575]}},{"properties":{"latitude":35.735575,"longitude":-87.128299,"id":"abdkieczg9yw","address":"240 3rd Stret South, Jacksonvile Beach, FL 3250"},"type":"Feature","geometry":{"type":"Point","coordinates":[-87.128299,35.735575]}},{"properties":{"latitude":35.735575,"longitude":-87.128299,"id":"abdkieg3jqvu","address":"530 6th Stret North, Saint Petersburg, FL 3709"},"type":"Feature","geometry":{"type":"Point","coordinates":[-87.128299,35.735575]}},{"properties":{"latitude":35.78845,"longitude":-87.162909,"id":"abdkie1o8eh8","address":"12389 Sheridan Stret, Holywod, FL 3026"},"type":"Feature","geometry":{"type":"Point","coordinates":[-87.162909,35.78845]}},{"properties":{"latitude":35.78845,"longitude":-87.162909,"id":"abdkieb4gp97","address":"5310 6th Stret North, Saint Petersburg, FL 3709"},"type":"Feature","geometry":{"type":"Point","coordinates":[-87.162909,35.78845]}},{"properties":{"latitude":35.78845,"longitude":-87.162909,"id":"abdkie8pkzgy","address":"15248 South Tamiami Trail Suite 150, Fort Myers, FL 3908"},"type":"Feature","geometry":{"type":"Point","coordinates":[-87.162909,35.78845]}},{"properties":{"latitude":36.035999,"longitude":-86.787205,"id":"abdkie2uwrsp","address":"14 Franklin Road, Brentwod, TN 37027"},"type":"Feature","geometry":{"type":"Point","coordinates":[-86.787205,36.035999]}},{"properties":{"latitude":36.085415,"longitude":-96.587299,"id":"abdkie5821h1","address":"36 South Tustin Stret, Orange, CA 9286"},"type":"Feature","geometry":{"type":"Point","coordinates":[-96.587299,36.085415]}},{"properties":{"latitude":36.127079,"longitude":-95.903727,"id":"abdkie2d5wk9","address":"6547 East 25th Place, Tulsa, OK 74129"},"type":"Feature","geometry":{"type":"Point","coordinates":[-95.903727,36.127079]}},{"properties":{"latitude":36.391031,"longitude":-98.176138,"id":"abdkieekbb2b","address":"4 4th Stret Southeast, Rochester, MN 5904"},"type":"Feature","geometry":{"type":"Point","coordinates":[-98.176138,36.391031]}},{"properties":{"latitude":36.64815336,"longitude":-94.449542,"id":"abdkiee9xj5t","address":"512 3rd Stret, Alamosa, CO 8101"},"type":"Feature","geometry":{"type":"Point","coordinates":[-94.449542,36.64815336]}},{"properties":{"latitude":36.739204,"longitude":-94.399198,"id":"abdkiehc3x4o","address":"2721 Highway K, O Falon, MO 636"},"type":"Feature","geometry":{"type":"Point","coordinates":[-94.399198,36.739204]}},{"properties":{"latitude":36.964168,"longitude":-121.992586,"id":"abdkiec0zv7h","address":"21231 East Clif Drive, Santa Cruz, CA 95062"},"type":"Feature","geometry":{"type":"Point","coordinates":[-121.992586,36.964168]}},{"properties":{"latitude":37.095794,"longitude":-89.913786,"id":"abdkie9wanxk","address":"1034 3rd Stret Northwest, Washington, DC 207"},"type":"Feature","geometry":{"type":"Point","coordinates":[-89.913786,37.095794]}},{"properties":{"latitude":37.171552,"longitude":-82.731171,"id":"abdkiefqgz92","address":"6 Heritage Plaza, Hilton Head Island, SC 2926"},"type":"Feature","geometry":{"type":"Point","coordinates":[-82.731171,37.171552]}},{"properties":{"latitude":37.459071,"longitude":-77.559755,"id":"abdkie9czy4x","address":"7439 West Broadst, Richmond, VA 23219"},"type":"Feature","geometry":{"type":"Point","coordinates":[-77.559755,37.459071]}},{"properties":{"latitude":37.5018,"longitude":-77.523782,"id":"abdkie6oasst","address":"1020 Midlothian Turnpike, Richmond, VA 23235"},"type":"Feature","geometry":{"type":"Point","coordinates":[-77.523782,37.5018]}},{"properties":{"latitude":37.541696,"longitude":-77.439204,"id":"abdkie6qjqv1","address":"316 West Caryst, Richmond, VA 23219"},"type":"Feature","geometry":{"type":"Point","coordinates":[-77.439204,37.541696]}},{"properties":{"latitude":37.819935,"longitude":-76.267693,"id":"abdkiedoullm","address":"601 Front Stret, Key West, FL 3040"},"type":"Feature","geometry":{"type":"Point","coordinates":[-76.267693,37.819935]}},{"properties":{"latitude":37.846406,"longitude":-122.030004,"id":"abdkie4tyx36","address":"1483 Danvile Boulevard, Alamo, CA 94507"},"type":"Feature","geometry":{"type":"Point","coordinates":[-122.030004,37.846406]}},{"properties":{"latitude":37.92152437,"longitude":-95.395233,"id":"abdkie80o8vi","address":"170 1st Stret, Highland Park, IL 6035"},"type":"Feature","geometry":{"type":"Point","coordinates":[-95.395233,37.92152437]}},{"properties":{"latitude":37.944035,"longitude":-91.777322,"id":"abdkieba071j","address":"109 South Bishop Avenue, Rola, MO 65401"},"type":"Feature","geometry":{"type":"Point","coordinates":[-91.777322,37.944035]}},{"properties":{"latitude":38.155533,"longitude":-88.870537,"id":"abdkie8s3spu","address":"2720 Lw, Mishawaka, IN 4654"},"type":"Feature","geometry":{"type":"Point","coordinates":[-88.870537,38.155533]}},{"properties":{"latitude":38.323828,"longitude":-80.550559,"id":"abdkie1pe7tu","address":"4361 South Parker Road, Aurora, CO 8015"},"type":"Feature","geometry":{"type":"Point","coordinates":[-80.550559,38.323828]}},{"properties":{"latitude":38.385318,"longitude":-87.202749,"id":"abdkiegkllh7","address":"404 1/2 Cale Miramar, Redondo Beach, CA 9027"},"type":"Feature","geometry":{"type":"Point","coordinates":[-87.202749,38.385318]}},{"properties":{"latitude":38.509288,"longitude":-121.542491,"id":"abdkie4m3o73","address":"256 Florin Road, Sacramento, CA 95831"},"type":"Feature","geometry":{"type":"Point","coordinates":[-121.542491,38.509288]}},{"properties":{"latitude":38.509288,"longitude":-121.542491,"id":"abdkiec1tj71","address":"256 Florin Road, Sacramento, CA 95831"},"type":"Feature","geometry":{"type":"Point","coordinates":[-121.542491,38.509288]}},{"properties":{"latitude":38.536346,"longitude":-84.836135,"id":"abdkiehksjqe","address":"1 West Main Stret, Smithtown, NY 1787"},"type":"Feature","geometry":{"type":"Point","coordinates":[-84.836135,38.536346]}},{"properties":{"latitude":38.561781,"longitude":-121.357914,"id":"abdkiegmpc92","address":"9203 Folsom Boulevard, Sacramento, CA 95826"},"type":"Feature","geometry":{"type":"Point","coordinates":[-121.357914,38.561781]}},{"properties":{"latitude":38.694655,"longitude":-120.836516,"id":"abdkiecua9an","address":"616 Enterprise Drive Suite C, Diamond Springs, CA 95619"},"type":"Feature","geometry":{"type":"Point","coordinates":[-120.836516,38.694655]}},{"properties":{"latitude":38.845048,"longitude":-77.545155,"id":"abdkieh0zf51","address":"705 Sudley Road, Manasas, VA 20109"},"type":"Feature","geometry":{"type":"Point","coordinates":[-77.545155,38.845048]}},{"properties":{"latitude":39.00501,"longitude":-76.787112,"id":"abdkie761hh4","address":"1302 9th Stret, Bowie, MD 20720"},"type":"Feature","geometry":{"type":"Point","coordinates":[-76.787112,39.00501]}},{"properties":{"latitude":39.369012,"longitude":-107.035058,"id":"abdkieh1y54a","address":"132 Midland Avenue, Basalt, CO 81621"},"type":"Feature","geometry":{"type":"Point","coordinates":[-107.035058,39.369012]}},{"properties":{"latitude":39.402311,"longitude":-74.372089,"id":"abdkief8np75","address":"1301 West Brigantine Avenue, Brigantine, NJ 08203"},"type":"Feature","geometry":{"type":"Point","coordinates":[-74.372089,39.402311]}},{"properties":{"latitude":39.4807,"longitude":-106.046118,"id":"abdkieaiv1um","address":"14 North Main, Breckenridge, CO 80424"},"type":"Feature","geometry":{"type":"Point","coordinates":[-106.046118,39.4807]}},{"properties":{"latitude":39.691426,"longitude":-105.053196,"id":"abdkie3mbhi3","address":"1395 South Sheridan Boulevard, Lakewod, CO 80232"},"type":"Feature","geometry":{"type":"Point","coordinates":[-105.053196,39.691426]}},{"properties":{"latitude":39.809619,"longitude":-75.166281,"id":"abdkie3pr2xq","address":"106 Rt 45, Deptford, NJ 08090"},"type":"Feature","geometry":{"type":"Point","coordinates":[-75.166281,39.809619]}},{"properties":{"latitude":39.818215,"longitude":-75.548495,"id":"abdkie2s1lzj","address":"4723 Concord Pike, Wilmington, DE 19803"},"type":"Feature","geometry":{"type":"Point","coordinates":[-75.548495,39.818215]}},{"properties":{"latitude":39.928948,"longitude":-76.820609,"id":"abdkie4mjtah","address":"4370 West Market Stret, York, PA 17404"},"type":"Feature","geometry":{"type":"Point","coordinates":[-76.820609,39.928948]}},{"properties":{"latitude":39.949237,"longitude":-75.144457,"id":"abdkiefzb9rg","address":"30 South Strawbery Stret, Philadelphia, PA 19106"},"type":"Feature","geometry":{"type":"Point","coordinates":[-75.144457,39.949237]}},{"properties":{"latitude":39.975145,"longitude":-75.305127,"id":"abdkieethhnp","address":"178 Center Stret, Winona, MN 5987"},"type":"Feature","geometry":{"type":"Point","coordinates":[-75.305127,39.975145]}},{"properties":{"latitude":40.017405,"longitude":-83.157755,"id":"abdkiefomjmw","address":"3249 Hiliard Rome Road, Hiliard, OH 43026"},"type":"Feature","geometry":{"type":"Point","coordinates":[-83.157755,40.017405]}},{"properties":{"latitude":40.091627,"longitude":-74.05123,"id":"abdkie7kq679","address":"642 Arnold Avenue, Point Pleasant Beach, NJ 08742"},"type":"Feature","geometry":{"type":"Point","coordinates":[-74.05123,40.091627]}},{"properties":{"latitude":40.190379,"longitude":-105.130921,"id":"abdkie8a2f38","address":"1801 Hover Stret Suite D, Longmont, CO 80501"},"type":"Feature","geometry":{"type":"Point","coordinates":[-105.130921,40.190379]}},{"properties":{"latitude":40.497474,"longitude":-74.448,"id":"abdkie3kggoi","address":"29 Easton Avenue # A, New Brunswick, NJ 08901"},"type":"Feature","geometry":{"type":"Point","coordinates":[-74.448,40.497474]}},{"properties":{"latitude":40.563153,"longitude":-122.238755,"id":"abdkiehnz1dp","address":"9458 Deschutes Road # B, Palo Cedro, CA 96073"},"type":"Feature","geometry":{"type":"Point","coordinates":[-122.238755,40.563153]}},{"properties":{"latitude":40.622479,"longitude":-75.389941,"id":"abdkie9hdb1h","address":"530 West Broad Stret, Bethlehem, PA 18018"},"type":"Feature","geometry":{"type":"Point","coordinates":[-75.389941,40.622479]}},{"properties":{"latitude":40.622479,"longitude":-75.389941,"id":"abdkie7rrvqm","address":"530 West Broad Stret, Bethlehem, PA 18018"},"type":"Feature","geometry":{"type":"Point","coordinates":[-75.389941,40.622479]}},{"properties":{"latitude":40.679241,"longitude":-74.645586,"id":"abdkiehnz8ii","address":"US Highway 202 North, Bedminster, NJ 07921"},"type":"Feature","geometry":{"type":"Point","coordinates":[-74.645586,40.679241]}},{"properties":{"latitude":40.704699,"longitude":-74.0128,"id":"abdkieby3bfk","address":"1301 Avenue of the Americas , New York, NY 1019, USA, New York"},"type":"Feature","geometry":{"type":"Point","coordinates":[-74.0128,40.704699]}},{"properties":{"latitude":40.845766,"longitude":-74.163512,"id":"abdkie3mv24g","address":"10 Market Stret, Clifton, NJ 07012"},"type":"Feature","geometry":{"type":"Point","coordinates":[-74.163512,40.845766]}},{"properties":{"latitude":41.33965,"longitude":-72.982259,"id":"abdkie2nptpx","address":"18 Selden Stret, Wodbridge, CT 06525"},"type":"Feature","geometry":{"type":"Point","coordinates":[-72.982259,41.33965]}},{"properties":{"latitude":41.38122641,"longitude":-84.522376,"id":"abdkiedpvosh","address":"17 North Park Avenue, Rockvile Centre, NY 1570"},"type":"Feature","geometry":{"type":"Point","coordinates":[-84.522376,41.38122641]}},{"properties":{"latitude":41.381422,"longitude":-84.523514,"id":"abdkiebhjofx","address":"90 West Main, Smithtown, NY 1787"},"type":"Feature","geometry":{"type":"Point","coordinates":[-84.523514,41.381422]}},{"properties":{"latitude":41.761565,"longitude":-111.834292,"id":"abdkie4jvgqc","address":"1617 North Main Stret, Logan, UT 84341"},"type":"Feature","geometry":{"type":"Point","coordinates":[-111.834292,41.761565]}},{"properties":{"latitude":41.763031,"longitude":-88.122903,"id":"abdkiegm6uqb","address":"61 Edward Road, Napervile, IL 60540"},"type":"Feature","geometry":{"type":"Point","coordinates":[-88.122903,41.763031]}},{"properties":{"latitude":41.80937,"longitude":-88.000433,"id":"abdkie8d9m7p","address":"639 Ogden Avenue, Downers Grove, IL 60515"},"type":"Feature","geometry":{"type":"Point","coordinates":[-88.000433,41.80937]}},{"properties":{"latitude":41.841716,"longitude":-89.481864,"id":"abdkie9gzxqa","address":"Kings Park, 17th Avenue, Team Valey Trading Estate, Gateshead, Tyne and Wear NE26 3HS, United Kingdom"},"type":"Feature","geometry":{"type":"Point","coordinates":[-89.481864,41.841716]}},{"properties":{"latitude":41.87911341,"longitude":-87.62428,"id":"abdkiee6ivt2","address":"234 N. Michigan Avenue, Suite 150, Chicago, IL 60601, USA, Chicago"},"type":"Feature","geometry":{"type":"Point","coordinates":[-87.62428,41.87911341]}},{"properties":{"latitude":42.012754,"longitude":-71.497927,"id":"abdkie4d8zij","address":"538 Wod Avenue, Wonsocket, RI 02895"},"type":"Feature","geometry":{"type":"Point","coordinates":[-71.497927,42.012754]}},{"properties":{"latitude":42.028874,"longitude":-87.816585,"id":"abdkie8utyvh","address":"8140 North Milwauke Avenue, Niles, IL 60714"},"type":"Feature","geometry":{"type":"Point","coordinates":[-87.816585,42.028874]}},{"properties":{"latitude":42.169623,"longitude":-83.227122,"id":"abdkie6q7q8h","address":"2720 Alen Road, Trenton, MI 48183"},"type":"Feature","geometry":{"type":"Point","coordinates":[-83.227122,42.169623]}},{"properties":{"latitude":42.196256,"longitude":-122.71076,"id":"abdkie1gqxmk","address":"345 Shoreline Park, Mountain View, CA 94043, USA, Mountain View"},"type":"Feature","geometry":{"type":"Point","coordinates":[-122.71076,42.196256]}},{"properties":{"latitude":42.217543,"longitude":-85.897962,"id":"abdkie6ou2ej","address":"210 West Michigan Avenue, Paw Paw, MI 49079"},"type":"Feature","geometry":{"type":"Point","coordinates":[-85.897962,42.217543]}},{"properties":{"latitude":42.224314,"longitude":-83.177752,"id":"abdkieazpx4y","address":"1072 Cloverlawn Boulevard, Lincoln Park, MI 48146"},"type":"Feature","geometry":{"type":"Point","coordinates":[-83.177752,42.224314]}},{"properties":{"latitude":42.277395,"longitude":-83.775482,"id":"abdkie90pg0p","address":"2104 Winewod Avenue, An Arbor, MI 48103"},"type":"Feature","geometry":{"type":"Point","coordinates":[-83.775482,42.277395]}},{"properties":{"latitude":42.327597,"longitude":-122.873173,"id":"abdkie69vzhs","address":"127 North Central Avenue, Medford, OR 97501"},"type":"Feature","geometry":{"type":"Point","coordinates":[-122.873173,42.327597]}},{"properties":{"latitude":42.38446,"longitude":-71.119501,"id":"abdkie3cp3h9","address":"173 Masachusets Avenue, Cambridge, MA 02140"},"type":"Feature","geometry":{"type":"Point","coordinates":[-71.119501,42.38446]}},{"properties":{"latitude":42.489685,"longitude":-83.146648,"id":"abdkie19z934","address":"109 South Washington Avenue, Royal Oak, MI 48067"},"type":"Feature","geometry":{"type":"Point","coordinates":[-83.146648,42.489685]}},{"properties":{"latitude":42.520802,"longitude":-83.049354,"id":"abdkiec4g6ss","address":"5743 East 13 Mile Road, Waren, MI 48092"},"type":"Feature","geometry":{"type":"Point","coordinates":[-83.049354,42.520802]}},{"properties":{"latitude":42.552473,"longitude":-83.048283,"id":"abdkie5cz595","address":"390 14 Mile At Hagerty, Novi, MI 48374"},"type":"Feature","geometry":{"type":"Point","coordinates":[-83.048283,42.552473]}},{"properties":{"latitude":42.564147,"longitude":-83.087138,"id":"abdkiedo9e5k","address":"2169 Metropolitan Parkway, Sterling Heights, MI 48310"},"type":"Feature","geometry":{"type":"Point","coordinates":[-83.087138,42.564147]}},{"properties":{"latitude":42.832932,"longitude":-73.957343,"id":"abdkie8pi1l1","address":"279 N Balston Avenue, Schenectady, NY 12302"},"type":"Feature","geometry":{"type":"Point","coordinates":[-73.957343,42.832932]}},{"properties":{"latitude":42.913122,"longitude":-85.66869,"id":"abdkiefm39e4","address":"120 28th Stret Southwest, Grand Rapids, MI 49548"},"type":"Feature","geometry":{"type":"Point","coordinates":[-85.66869,42.913122]}},{"properties":{"latitude":42.954442,"longitude":-85.488332,"id":"abdkie4ihk6i","address":"597 Ada Drive Southeast, Ada, MI 49301"},"type":"Feature","geometry":{"type":"Point","coordinates":[-85.488332,42.954442]}},{"properties":{"latitude":42.96846143,"longitude":-72.533477,"id":"abdkie2vdqwm","address":"316 Route 10, East Dover, VT 05341"},"type":"Feature","geometry":{"type":"Point","coordinates":[-72.533477,42.96846143]}},{"properties":{"latitude":42.981564,"longitude":-82.424472,"id":"abdkiee20gvu","address":"726 Huron Avenue, Port Huron, MI 48060"},"type":"Feature","geometry":{"type":"Point","coordinates":[-82.424472,42.981564]}},{"properties":{"latitude":43.043213,"longitude":-87.894734,"id":"abdkieb1c6g9","address":"962 West Natl Avenue, Milwauke, WI 53202"},"type":"Feature","geometry":{"type":"Point","coordinates":[-87.894734,43.043213]}},{"properties":{"latitude":43.077489,"longitude":-83.55626,"id":"abdkie28yfus","address":"8097 East Carpenter Road, Davison, MI 48423"},"type":"Feature","geometry":{"type":"Point","coordinates":[-83.55626,43.077489]}},{"properties":{"latitude":43.42951543,"longitude":-84.170542,"id":"abdkie353272","address":"1346 Northwest Galveston Avenue, Bend, OR 9701"},"type":"Feature","geometry":{"type":"Point","coordinates":[-84.170542,43.42951543]}},{"properties":{"latitude":43.480843,"longitude":-84.955917,"id":"abdkieby4oub","address":"6838 South Yosemite Stret, Englewod, CO 8012"},"type":"Feature","geometry":{"type":"Point","coordinates":[-84.955917,43.480843]}},{"properties":{"latitude":43.48591,"longitude":-112.023815,"id":"abdkie8k1olt","address":"1325 South Holmes Avenue, Idaho Fals, ID 83404"},"type":"Feature","geometry":{"type":"Point","coordinates":[-112.023815,43.48591]}},{"properties":{"latitude":43.57225437,"longitude":-76.123911,"id":"abdkieclgeha","address":"2 Place Jusieu, Paris, 75251, France"},"type":"Feature","geometry":{"type":"Point","coordinates":[-76.123911,43.57225437]}},{"properties":{"latitude":43.599808,"longitude":-83.181276,"id":"abdkie4e04te","address":"6247 Pine Stret, Cas City, MI 48726"},"type":"Feature","geometry":{"type":"Point","coordinates":[-83.181276,43.599808]}},{"properties":{"latitude":43.68826,"longitude":-70.250677,"id":"abdkie1cyxo2","address":"620 SW 5th Avenue Suite 40, Portland, Oregon 97204, United States, Portland"},"type":"Feature","geometry":{"type":"Point","coordinates":[-70.250677,43.68826]}},{"properties":{"latitude":43.690903,"longitude":-70.278188,"id":"abdkie3byquh","address":"1041 Washington Avenue, Portland, ME 04103"},"type":"Feature","geometry":{"type":"Point","coordinates":[-70.278188,43.690903]}},{"properties":{"latitude":43.808099,"longitude":-76.024463,"id":"abdkiea9v2tc","address":"19 Main Belof's Dept Store, Adams, NY 13605"},"type":"Feature","geometry":{"type":"Point","coordinates":[-76.024463,43.808099]}},{"properties":{"latitude":44.013875,"longitude":-73.168309,"id":"abdkie2ibyq1","address":"2 Merchants Row Apt 203, Midlebury, VT 05753"},"type":"Feature","geometry":{"type":"Point","coordinates":[-73.168309,44.013875]}},{"properties":{"latitude":44.29409,"longitude":-105.50401,"id":"abdkie93ek4a","address":"14 South Gilete Avenue, Gilete, WY 82716"},"type":"Feature","geometry":{"type":"Point","coordinates":[-105.50401,44.29409]}},{"properties":{"latitude":44.469707,"longitude":-72.68752,"id":"abdkiehpoh1i","address":"350 Mountain Road, Stowe, VT 05672"},"type":"Feature","geometry":{"type":"Point","coordinates":[-72.68752,44.469707]}},{"properties":{"latitude":44.665693,"longitude":-84.137109,"id":"abdkieao96op","address":"23101 Gratiot, Rosevile, MI 4806"},"type":"Feature","geometry":{"type":"Point","coordinates":[-84.137109,44.665693]}},{"properties":{"latitude":44.671369,"longitude":-84.137226,"id":"abdkiefv0e5r","address":"320 East Michigan Avenue, Kalamazo, MI 4907"},"type":"Feature","geometry":{"type":"Point","coordinates":[-84.137226,44.671369]}},{"properties":{"latitude":44.673045,"longitude":-84.137233,"id":"abdkiedds3b3","address":"240 West Nepesing, Laper, MI 4846"},"type":"Feature","geometry":{"type":"Point","coordinates":[-84.137233,44.673045]}},{"properties":{"latitude":44.673944,"longitude":-84.137239,"id":"abdkie3m28po","address":"178 South Main Stret, Chelsea, MI 4818"},"type":"Feature","geometry":{"type":"Point","coordinates":[-84.137239,44.673944]}},{"properties":{"latitude":44.707725,"longitude":-84.130225,"id":"abdkie564jym","address":"1021 Manchester Road, Saint Louis, MO 6312"},"type":"Feature","geometry":{"type":"Point","coordinates":[-84.130225,44.707725]}},{"properties":{"latitude":44.707725,"longitude":-84.130225,"id":"abdkiealvdym","address":"4282 Arsenal Stret, Saint Louis, MO 6316"},"type":"Feature","geometry":{"type":"Point","coordinates":[-84.130225,44.707725]}},{"properties":{"latitude":44.801916,"longitude":-91.500992,"id":"abdkied0eo5h","address":"41 Water Stret, Eau Claire, WI 54703"},"type":"Feature","geometry":{"type":"Point","coordinates":[-91.500992,44.801916]}},{"properties":{"latitude":44.869596,"longitude":-96.925339,"id":"abdkie8j99e3","address":"Blomingdale Avenue, Brandon, FL 3510"},"type":"Feature","geometry":{"type":"Point","coordinates":[-96.925339,44.869596]}},{"properties":{"latitude":45.511214,"longitude":-122.655712,"id":"abdkie283ycx","address":"1640 Southeast 10th Avenue, Portland, OR 97214"},"type":"Feature","geometry":{"type":"Point","coordinates":[-122.655712,45.511214]}},{"properties":{"latitude":46.506094,"longitude":-123.847129,"id":"abdkie9tgbwp","address":"2641 San Mateo Boulevard Northeast, Albuquerque, NM 8710"},"type":"Feature","geometry":{"type":"Point","coordinates":[-123.847129,46.506094]}},{"properties":{"latitude":46.516819,"longitude":-123.87325,"id":"abdkiebgltqz","address":"1570 Juan Tabo Boulevard Northeast, Albuquerque, NM 8712"},"type":"Feature","geometry":{"type":"Point","coordinates":[-123.87325,46.516819]}},{"properties":{"latitude":46.872874,"longitude":-113.992905,"id":"abdkiebuw4z9","address":"150 East Pine Stret, Misoula, MT 59802"},"type":"Feature","geometry":{"type":"Point","coordinates":[-113.992905,46.872874]}},{"properties":{"latitude":47.195696,"longitude":-88.411519,"id":"abdkie985r8n","address":"756 Soquel Drive, Aptos, CA 9503"},"type":"Feature","geometry":{"type":"Point","coordinates":[-88.411519,47.195696]}},{"properties":{"latitude":47.229919,"longitude":-119.210243,"id":"abdkie7b6vya","address":"145 Elm Stret, Somervile, MA 0214"},"type":"Feature","geometry":{"type":"Point","coordinates":[-119.210243,47.229919]}},{"properties":{"latitude":47.229919,"longitude":-119.210243,"id":"abdkie5rv5sq","address":"71 Sumner Road, Buckfield, ME 0420"},"type":"Feature","geometry":{"type":"Point","coordinates":[-119.210243,47.229919]}},{"properties":{"latitude":47.25729336,"longitude":-88.381843,"id":"abdkie8h9xeg","address":"631 Pacific Boulevard, Huntington Park, CA 9025"},"type":"Feature","geometry":{"type":"Point","coordinates":[-88.381843,47.25729336]}},{"properties":{"latitude":47.267244,"longitude":-88.447048,"id":"abdkieb3g02o","address":"2606 Adams Avenue, San Diego, CA 9216"},"type":"Feature","geometry":{"type":"Point","coordinates":[-88.447048,47.267244]}},{"properties":{"latitude":47.267244,"longitude":-88.447048,"id":"abdkiec62sw1","address":"968 Columbus Avenue, San Francisco, CA 9413"},"type":"Feature","geometry":{"type":"Point","coordinates":[-88.447048,47.267244]}},{"properties":{"latitude":47.267244,"longitude":-88.447048,"id":"abdkie89dxyd","address":"858 Stanyan Stret, San Francisco, CA 9417"},"type":"Feature","geometry":{"type":"Point","coordinates":[-88.447048,47.267244]}},{"properties":{"latitude":47.267244,"longitude":-88.447048,"id":"abdkie34kt2d","address":"734 Lombard Stret, San Francisco, CA 9413"},"type":"Feature","geometry":{"type":"Point","coordinates":[-88.447048,47.267244]}},{"properties":{"latitude":47.544687,"longitude":-122.387217,"id":"abdkiefp6hd0","address":"6521 California Avenue Southwest, Seatle, WA 98136"},"type":"Feature","geometry":{"type":"Point","coordinates":[-122.387217,47.544687]}},{"properties":{"latitude":47.661118,"longitude":-122.289125,"id":"abdkiebsr1b3","address":"3615 Northeast 45th Stret, Seatle, WA 98105"},"type":"Feature","geometry":{"type":"Point","coordinates":[-122.289125,47.661118]}},{"properties":{"latitude":47.7132,"longitude":-122.100911,"id":"abdkie4xmcx1","address":"17930 Northeast 127th Stret, Redmond, WA 98052"},"type":"Feature","geometry":{"type":"Point","coordinates":[-122.100911,47.7132]}},{"properties":{"latitude":47.981033,"longitude":-122.04909,"id":"abdkie7swy86","address":"1624 Virginia Stret, Snohomish, WA 98290"},"type":"Feature","geometry":{"type":"Point","coordinates":[-122.04909,47.981033]}}],"is_temporal":false,"author":{"url":null,"metadata":null,"contact_name":null,"contact_address":null,"source":null,"contact_phone":null},"source":null,"pagination":{"sort":null,"start":0,"total":200,"limit":1000000},"state":"complete","tags":"","published":"2014-08-10T20:27:59-04:00","id":15528}