{"type":"FeatureCollection","data_type":"Dataset","url_type":null,"permissions":[{"permissions":{"download":true,"view":true},"group_id":32101},{"permissions":{"download":true,"view":true},"group_id":"everyone"}],"classification":null,"title":"ctn suburbs ignon june","count":929,"stream_id":155347,"contributor":{"url":"http://geocommons.com/users/31887","name":"chadmortimer"},"data_attributes":null,"calculation_params":null,"icon_link":null,"link":"http://geocommons.com/overlays/155347.json","extent":[18.3401,-34.4286,19.2379,-33.5507],"geometry_types":["point"],"unique_name":null,"name":"ctn suburbs ignon june","feature_count":929,"description":"","next_feature":null,"is_raster":false,"short_classification":"Y","stats":{"latitude":{"max":-33.5507,"mean":-33.9615687836383,"variance":0.0174844518046611,"stdev":0.132228785839775,"min":-34.4286,"median":-33.9454},"total":{"max":37458,"mean":1469.68568353068,"variance":10148698.442047,"stdev":3185.70218979222,"min":1,"median":493},"id":{"max":15556,"mean":5853.43272335845,"variance":14578575.4763418,"stdev":3818.19007860293,"min":12,"median":4827},"longitude":{"max":19.2379,"mean":18.653122174381,"variance":0.030450193257767,"stdev":0.174499837414729,"min":18.3401,"median":18.6451}},"features":[{"properties":{"latitude":-33.6323,"total":4141,"suburb":"Berg-en-Dal","id":"a6bzri3kjb7w","longitude":19.0199},"type":"Feature","geometry":{"type":"Point","coordinates":[19.0199,-33.6323]}},{"properties":{"latitude":-33.6436,"total":11239,"suburb":"Wellington North","id":"a6bzri0szocm","longitude":19.0088},"type":"Feature","geometry":{"type":"Point","coordinates":[19.0088,-33.6436]}},{"properties":{"latitude":-33.6595,"total":12760,"suburb":"Wellington Outlying","id":"a6bzri5uxi9z","longitude":18.979},"type":"Feature","geometry":{"type":"Point","coordinates":[18.979,-33.6595]}},{"properties":{"latitude":-33.6683,"total":8318,"suburb":"Van Wyks Vlei","id":"a6bzri31m6y2","longitude":18.9981},"type":"Feature","geometry":{"type":"Point","coordinates":[18.9981,-33.6683]}},{"properties":{"latitude":-33.6668,"total":4377,"suburb":"Wellington SP","id":"a6bzri0845gu","longitude":18.9878},"type":"Feature","geometry":{"type":"Point","coordinates":[18.9878,-33.6668]}},{"properties":{"latitude":-33.8336,"total":420,"suburb":"Flamingo Vlei","id":"a6bzrhzkk2rc","longitude":18.4998},"type":"Feature","geometry":{"type":"Point","coordinates":[18.4998,-33.8336]}},{"properties":{"latitude":-33.8157,"total":329,"suburb":"Bloubergrant","id":"a6bzri3dlvlh","longitude":18.4763},"type":"Feature","geometry":{"type":"Point","coordinates":[18.4763,-33.8157]}},{"properties":{"latitude":-33.8924,"total":5015,"suburb":"N1 City","id":"a6bzri91awmz","longitude":18.5599},"type":"Feature","geometry":{"type":"Point","coordinates":[18.5599,-33.8924]}},{"properties":{"latitude":-33.8814,"total":7,"suburb":"Selborne","id":"a6bzrhss7rs5","longitude":18.6198},"type":"Feature","geometry":{"type":"Point","coordinates":[18.6198,-33.8814]}},{"properties":{"latitude":-33.9501,"total":884,"suburb":"Kalksteenfontein","id":"a6bzri288cv3","longitude":18.5652},"type":"Feature","geometry":{"type":"Point","coordinates":[18.5652,-33.9501]}},{"properties":{"latitude":-33.9607,"total":3977,"suburb":"Welcome","id":"a6bzri4zm01g","longitude":18.5438},"type":"Feature","geometry":{"type":"Point","coordinates":[18.5438,-33.9607]}},{"properties":{"latitude":-34.1882,"total":31,"suburb":"Misty Cliffs","id":"a6bzrhxvdekm","longitude":18.3675},"type":"Feature","geometry":{"type":"Point","coordinates":[18.3675,-34.1882]}},{"properties":{"latitude":-33.8999,"total":268,"suburb":"Harry de Villiers","id":"a6bzri90zw76","longitude":18.6378},"type":"Feature","geometry":{"type":"Point","coordinates":[18.6378,-33.8999]}},{"properties":{"latitude":-33.8989,"total":16,"suburb":"Sunray","id":"a6bzrhvfs6pk","longitude":18.638},"type":"Feature","geometry":{"type":"Point","coordinates":[18.638,-33.8989]}},{"properties":{"latitude":-33.9,"total":368,"suburb":"Avondstil","id":"a6bzrhur3tn0","longitude":18.6409},"type":"Feature","geometry":{"type":"Point","coordinates":[18.6409,-33.9]}},{"properties":{"latitude":-33.8975,"total":19,"suburb":"Grahamdale","id":"a6bzrhy3tn4j","longitude":18.6243},"type":"Feature","geometry":{"type":"Point","coordinates":[18.6243,-33.8975]}},{"properties":{"latitude":-33.8997,"total":2790,"suburb":"Stanlou","id":"a6bzrhtn7gy2","longitude":18.6268},"type":"Feature","geometry":{"type":"Point","coordinates":[18.6268,-33.8997]}},{"properties":{"latitude":-33.8963,"total":432,"suburb":"Bosbell","id":"a6bzri6n006i","longitude":18.6263},"type":"Feature","geometry":{"type":"Point","coordinates":[18.6263,-33.8963]}},{"properties":{"latitude":-33.8958,"total":98,"suburb":"Kingston","id":"a6bzrhyh0v78","longitude":18.6362},"type":"Feature","geometry":{"type":"Point","coordinates":[18.6362,-33.8958]}},{"properties":{"latitude":-33.9025,"total":734,"suburb":"Green Oaks","id":"a6bzri364fdl","longitude":18.8502},"type":"Feature","geometry":{"type":"Point","coordinates":[18.8502,-33.9025]}},{"properties":{"latitude":-33.9203,"total":42,"suburb":"Idas Valley","id":"a6bzri31c2bc","longitude":18.8909},"type":"Feature","geometry":{"type":"Point","coordinates":[18.8909,-33.9203]}},{"properties":{"latitude":-33.9175,"total":224,"suburb":"Khayamandi","id":"a6bzri5rq4uu","longitude":18.8476},"type":"Feature","geometry":{"type":"Point","coordinates":[18.8476,-33.9175]}},{"properties":{"latitude":-33.9265,"total":482,"suburb":"Papegaaiberg","id":"a6bzri5k6tje","longitude":18.8496},"type":"Feature","geometry":{"type":"Point","coordinates":[18.8496,-33.9265]}},{"properties":{"latitude":-33.9263,"total":2001,"suburb":"Plankenbrug","id":"a6bzrhz3thhh","longitude":18.8559},"type":"Feature","geometry":{"type":"Point","coordinates":[18.8559,-33.9263]}},{"properties":{"latitude":-33.925,"total":280,"suburb":"La Colline","id":"a6bzri3njdq0","longitude":18.8612},"type":"Feature","geometry":{"type":"Point","coordinates":[18.8612,-33.925]}},{"properties":{"latitude":-33.9257,"total":271,"suburb":"Kromrivier","id":"a6bzrhvv0qn3","longitude":18.8641},"type":"Feature","geometry":{"type":"Point","coordinates":[18.8641,-33.9257]}},{"properties":{"latitude":-33.9279,"total":478,"suburb":"Simonswyk","id":"a6bzrhzvuf27","longitude":18.8774},"type":"Feature","geometry":{"type":"Point","coordinates":[18.8774,-33.9279]}},{"properties":{"latitude":-33.9297,"total":49,"suburb":"Uniepark","id":"a6bzri1xzqjt","longitude":18.8891},"type":"Feature","geometry":{"type":"Point","coordinates":[18.8891,-33.9297]}},{"properties":{"latitude":-33.9337,"total":17,"suburb":"Mostertsdrift","id":"a6bzri6wab33","longitude":18.8792},"type":"Feature","geometry":{"type":"Point","coordinates":[18.8792,-33.9337]}},{"properties":{"latitude":-33.9344,"total":116,"suburb":"Onder Papegaaiberg","id":"a6bzrhtbcu2h","longitude":18.8327},"type":"Feature","geometry":{"type":"Point","coordinates":[18.8327,-33.9344]}},{"properties":{"latitude":-33.9373,"total":1442,"suburb":"Papegaaiberg Industrial Park","id":"a6bzri011mv9","longitude":18.8484},"type":"Feature","geometry":{"type":"Point","coordinates":[18.8484,-33.9373]}},{"properties":{"latitude":-33.9376,"total":73,"suburb":"Karindal","id":"a6bzri2aoh65","longitude":18.8855},"type":"Feature","geometry":{"type":"Point","coordinates":[18.8855,-33.9376]}},{"properties":{"latitude":-33.942,"total":402,"suburb":"Devon Park","id":"a6bzrhutt6r2","longitude":18.8359},"type":"Feature","geometry":{"type":"Point","coordinates":[18.8359,-33.942]}},{"properties":{"latitude":-33.9374,"total":65,"suburb":"Coetzenburg Stadium","id":"a6bzrhxo7v7s","longitude":18.8731},"type":"Feature","geometry":{"type":"Point","coordinates":[18.8731,-33.9374]}},{"properties":{"latitude":-33.9466,"total":64,"suburb":"Coetzenburg","id":"a6bzri8dbvmh","longitude":18.8735},"type":"Feature","geometry":{"type":"Point","coordinates":[18.8735,-33.9466]}},{"properties":{"latitude":-33.9464,"total":770,"suburb":"Die Boord","id":"a6bzri7kmaqo","longitude":18.8485},"type":"Feature","geometry":{"type":"Point","coordinates":[18.8485,-33.9464]}},{"properties":{"latitude":-33.9449,"total":659,"suburb":"Krigeville","id":"a6bzri4ujejl","longitude":18.8585},"type":"Feature","geometry":{"type":"Point","coordinates":[18.8585,-33.9449]}},{"properties":{"latitude":-33.9522,"total":42,"suburb":"Welgelegen","id":"a6bzrhw8uuzn","longitude":18.8639},"type":"Feature","geometry":{"type":"Point","coordinates":[18.8639,-33.9522]}},{"properties":{"latitude":-33.9505,"total":280,"suburb":"Dalsig","id":"a6bzrhzy58rw","longitude":18.8585},"type":"Feature","geometry":{"type":"Point","coordinates":[18.8585,-33.9505]}},{"properties":{"latitude":-33.9552,"total":543,"suburb":"Kleingeluk","id":"a6bzri08mdas","longitude":18.8533},"type":"Feature","geometry":{"type":"Point","coordinates":[18.8533,-33.9552]}},{"properties":{"latitude":-33.9335,"total":81,"suburb":"Rozendal","id":"a6bzri09648z","longitude":18.8891},"type":"Feature","geometry":{"type":"Point","coordinates":[18.8891,-33.9335]}},{"properties":{"latitude":-33.9239,"total":444,"suburb":"Arbeidslus","id":"a6bzrhyqrh36","longitude":18.898},"type":"Feature","geometry":{"type":"Point","coordinates":[18.898,-33.9239]}},{"properties":{"latitude":-33.9665,"total":82,"suburb":"Brandwacht","id":"a6bzri3rcsg3","longitude":18.8747},"type":"Feature","geometry":{"type":"Point","coordinates":[18.8747,-33.9665]}},{"properties":{"latitude":-33.7054,"total":11918,"suburb":"Dal Josafat Industrial","id":"a6bzrhz0aus3","longitude":18.9828},"type":"Feature","geometry":{"type":"Point","coordinates":[18.9828,-33.7054]}},{"properties":{"latitude":-33.7257,"total":3439,"suburb":"Klein Nederburg","id":"a6bzri5sxxpa","longitude":19.0008},"type":"Feature","geometry":{"type":"Point","coordinates":[19.0008,-33.7257]}},{"properties":{"latitude":-33.7006,"total":4385,"suburb":"Groenheuwel","id":"a6bzri6hawhh","longitude":18.9948},"type":"Feature","geometry":{"type":"Point","coordinates":[18.9948,-33.7006]}},{"properties":{"latitude":-33.7037,"total":7292,"suburb":"Northern Paarl","id":"a6bzri7dobci","longitude":18.9684},"type":"Feature","geometry":{"type":"Point","coordinates":[18.9684,-33.7037]}},{"properties":{"latitude":-33.7009,"total":2487,"suburb":"Smartie Town","id":"a6bzri7hfbc3","longitude":19.0062},"type":"Feature","geometry":{"type":"Point","coordinates":[19.0062,-33.7009]}},{"properties":{"latitude":-33.7019,"total":794,"suburb":"Fairyland","id":"a6bzrht0fxty","longitude":19.002},"type":"Feature","geometry":{"type":"Point","coordinates":[19.002,-33.7019]}},{"properties":{"latitude":-33.7018,"total":637,"suburb":"Milky town","id":"a6bzri61qvl7","longitude":19.0041},"type":"Feature","geometry":{"type":"Point","coordinates":[19.0041,-33.7018]}},{"properties":{"latitude":-33.7112,"total":10585,"suburb":"New Orleans","id":"a6bzrhwnas82","longitude":18.987},"type":"Feature","geometry":{"type":"Point","coordinates":[18.987,-33.7112]}},{"properties":{"latitude":-33.7332,"total":1653,"suburb":"Paarlberg Nature Reserve","id":"a6bzri79lt6j","longitude":18.9311},"type":"Feature","geometry":{"type":"Point","coordinates":[18.9311,-33.7332]}},{"properties":{"latitude":-33.7124,"total":4734,"suburb":"Groenvlei","id":"a6bzrhvy87mi","longitude":18.9569},"type":"Feature","geometry":{"type":"Point","coordinates":[18.9569,-33.7124]}},{"properties":{"latitude":-33.7171,"total":2841,"suburb":"Chicago","id":"a6bzri4i6x92","longitude":18.9966},"type":"Feature","geometry":{"type":"Point","coordinates":[18.9966,-33.7171]}},{"properties":{"latitude":-33.7219,"total":1071,"suburb":"Lemoenkloof","id":"a6bzrhv84b40","longitude":18.9535},"type":"Feature","geometry":{"type":"Point","coordinates":[18.9535,-33.7219]}},{"properties":{"latitude":-33.7228,"total":19113,"suburb":"Charlston Hill","id":"a6bzri4bqbl5","longitude":18.987},"type":"Feature","geometry":{"type":"Point","coordinates":[18.987,-33.7228]}},{"properties":{"latitude":-33.7195,"total":3254,"suburb":"Paarl CBD West","id":"a6bzrhy9rp42","longitude":18.9955},"type":"Feature","geometry":{"type":"Point","coordinates":[18.9955,-33.7195]}},{"properties":{"latitude":-33.7262,"total":2336,"suburb":"Kingston Town","id":"a6bzri4mn8ax","longitude":19.003},"type":"Feature","geometry":{"type":"Point","coordinates":[19.003,-33.7262]}},{"properties":{"latitude":-33.7293,"total":12422,"suburb":"Huguenot","id":"a6bzrhv18cf3","longitude":18.9858},"type":"Feature","geometry":{"type":"Point","coordinates":[18.9858,-33.7293]}},{"properties":{"latitude":-33.7321,"total":3566,"suburb":"Paarl East","id":"a6bzri11kmq0","longitude":19.0028},"type":"Feature","geometry":{"type":"Point","coordinates":[19.0028,-33.7321]}},{"properties":{"latitude":-33.737,"total":37458,"suburb":"Denneburg","id":"a6bzri5uszuh","longitude":18.9833},"type":"Feature","geometry":{"type":"Point","coordinates":[18.9833,-33.737]}},{"properties":{"latitude":-33.7359,"total":5248,"suburb":"Langvlei","id":"a6bzri5vy3a4","longitude":18.9959},"type":"Feature","geometry":{"type":"Point","coordinates":[18.9959,-33.7359]}},{"properties":{"latitude":-33.7378,"total":17987,"suburb":"Amstelhof","id":"a6bzrhxxuxit","longitude":19.0119},"type":"Feature","geometry":{"type":"Point","coordinates":[19.0119,-33.7378]}},{"properties":{"latitude":-33.743,"total":2137,"suburb":"Klein Parys","id":"a6bzrhx19tzy","longitude":18.9975},"type":"Feature","geometry":{"type":"Point","coordinates":[18.9975,-33.743]}},{"properties":{"latitude":-33.8742,"total":1247,"suburb":"Wemmershoek","id":"a6bzri8psbd4","longitude":19.0399},"type":"Feature","geometry":{"type":"Point","coordinates":[19.0399,-33.8742]}},{"properties":{"latitude":-33.8941,"total":1513,"suburb":"Pniel","id":"a6bzri053tg2","longitude":18.9583},"type":"Feature","geometry":{"type":"Point","coordinates":[18.9583,-33.8941]}},{"properties":{"latitude":-33.8981,"total":222,"suburb":"Languedoc","id":"a6bzrhxk9wnf","longitude":18.9646},"type":"Feature","geometry":{"type":"Point","coordinates":[18.9646,-33.8981]}},{"properties":{"latitude":-33.919,"total":164,"suburb":"Kylemore","id":"a6bzrhzi4cmf","longitude":18.951},"type":"Feature","geometry":{"type":"Point","coordinates":[18.951,-33.919]}},{"properties":{"latitude":-33.8854,"total":4214,"suburb":"Wemmershoek Forest Reserve","id":"a6bzri14vdse","longitude":19.1329},"type":"Feature","geometry":{"type":"Point","coordinates":[19.1329,-33.8854]}},{"properties":{"latitude":-33.8868,"total":12,"suburb":"Groendal","id":"a6bzri6o9so2","longitude":19.1047},"type":"Feature","geometry":{"type":"Point","coordinates":[19.1047,-33.8868]}},{"properties":{"latitude":-33.9364,"total":239,"suburb":"Robertsvlei","id":"a6bzrhxagezn","longitude":19.0807},"type":"Feature","geometry":{"type":"Point","coordinates":[19.0807,-33.9364]}},{"properties":{"latitude":-33.9643,"total":172,"suburb":"Sunbird Park","id":"a6bzri1oqgm3","longitude":18.6797},"type":"Feature","geometry":{"type":"Point","coordinates":[18.6797,-33.9643]}},{"properties":{"latitude":-34.0207,"total":837,"suburb":"Stratford Green","id":"a6bzrhsr3rcn","longitude":18.7365},"type":"Feature","geometry":{"type":"Point","coordinates":[18.7365,-34.0207]}},{"properties":{"latitude":-34.0225,"total":605,"suburb":"Houghton Place","id":"a6bzri51yuwi","longitude":18.7319},"type":"Feature","geometry":{"type":"Point","coordinates":[18.7319,-34.0225]}},{"properties":{"latitude":-33.9794,"total":1278,"suburb":"Webersvallei","id":"a6bzri2di948","longitude":18.8482},"type":"Feature","geometry":{"type":"Point","coordinates":[18.8482,-33.9794]}},{"properties":{"latitude":-34.1001,"total":154,"suburb":"Langgewacht","id":"a6bzri35a0o3","longitude":18.8339},"type":"Feature","geometry":{"type":"Point","coordinates":[18.8339,-34.1001]}},{"properties":{"latitude":-34.1017,"total":355,"suburb":"The Palms","id":"a6bzri5pypme","longitude":18.8361},"type":"Feature","geometry":{"type":"Point","coordinates":[18.8361,-34.1017]}},{"properties":{"latitude":-34.1632,"total":1103,"suburb":"Snake Park","id":"a6bzri514zsf","longitude":18.9918},"type":"Feature","geometry":{"type":"Point","coordinates":[18.9918,-34.1632]}},{"properties":{"latitude":-34.1493,"total":239,"suburb":"Steenbras","id":"a6bzrhw2lho0","longitude":18.9935},"type":"Feature","geometry":{"type":"Point","coordinates":[18.9935,-34.1493]}},{"properties":{"latitude":-34.1553,"total":102,"suburb":"Pineview","id":"a6bzrhv681um","longitude":18.9965},"type":"Feature","geometry":{"type":"Point","coordinates":[18.9965,-34.1553]}},{"properties":{"latitude":-34.1582,"total":346,"suburb":"Beverley Hills","id":"a6bzri4z6oxo","longitude":19.006},"type":"Feature","geometry":{"type":"Point","coordinates":[19.006,-34.1582]}},{"properties":{"latitude":-34.1601,"total":2,"suburb":"Dennekruin","id":"a6bzrhvezxom","longitude":18.9995},"type":"Feature","geometry":{"type":"Point","coordinates":[18.9995,-34.1601]}},{"properties":{"latitude":-34.1554,"total":211,"suburb":"Waterwerke","id":"a6bzri7chw28","longitude":19.0083},"type":"Feature","geometry":{"type":"Point","coordinates":[19.0083,-34.1554]}},{"properties":{"latitude":-34.1542,"total":3234,"suburb":"Grabouw","id":"a6bzri75dzwc","longitude":19.015},"type":"Feature","geometry":{"type":"Point","coordinates":[19.015,-34.1542]}},{"properties":{"latitude":-34.146,"total":1502,"suburb":"Swannie River","id":"a6bzrhv9gwg0","longitude":19.0168},"type":"Feature","geometry":{"type":"Point","coordinates":[19.0168,-34.146]}},{"properties":{"latitude":-34.3354,"total":207,"suburb":"Protea","id":"a6bzrhylq24v","longitude":19.005},"type":"Feature","geometry":{"type":"Point","coordinates":[19.005,-34.3354]}},{"properties":{"latitude":-34.3628,"total":2045,"suburb":"Fisherhaven","id":"a6bzri3agz91","longitude":19.1303},"type":"Feature","geometry":{"type":"Point","coordinates":[19.1303,-34.3628]}},{"properties":{"latitude":-33.8758,"total":3,"suburb":"Plattekloof Proper","id":"a6bzri19oua5","longitude":18.5953},"type":"Feature","geometry":{"type":"Point","coordinates":[18.5953,-33.8758]}},{"properties":{"latitude":-33.8834,"total":1814,"suburb":"Plattekloof 1","id":"a6bzri6abv6z","longitude":18.589},"type":"Feature","geometry":{"type":"Point","coordinates":[18.589,-33.8834]}},{"properties":{"latitude":-33.8768,"total":579,"suburb":"Plattekloof 2","id":"a6bzrhxkg279","longitude":18.5841},"type":"Feature","geometry":{"type":"Point","coordinates":[18.5841,-33.8768]}},{"properties":{"latitude":-33.8664,"total":531,"suburb":"Plattekloof 3","id":"a6bzrhuhrdjl","longitude":18.5798},"type":"Feature","geometry":{"type":"Point","coordinates":[18.5798,-33.8664]}},{"properties":{"latitude":-34.0422,"total":3283,"suburb":"Somerset West NU","id":"a6bzri23utnk","longitude":18.7965},"type":"Feature","geometry":{"type":"Point","coordinates":[18.7965,-34.0422]}},{"properties":{"latitude":-34.113,"total":2229,"suburb":"Somerset West Outlying","id":"a6bzri4r6rek","longitude":18.8731},"type":"Feature","geometry":{"type":"Point","coordinates":[18.8731,-34.113]}},{"properties":{"latitude":-33.8456,"total":250,"suburb":"Sonstraal Ext E16","id":"a6bzri4t9zsg","longitude":18.6628},"type":"Feature","geometry":{"type":"Point","coordinates":[18.6628,-33.8456]}},{"properties":{"latitude":-34.1131,"total":7,"suburb":"Noordhoek Outlying","id":"a6bzri2yhmwm","longitude":18.372},"type":"Feature","geometry":{"type":"Point","coordinates":[18.372,-34.1131]}},{"properties":{"latitude":-33.6937,"total":3276,"suburb":"Paarl Outlying","id":"a6bzri105i1q","longitude":18.996},"type":"Feature","geometry":{"type":"Point","coordinates":[18.996,-33.6937]}},{"properties":{"latitude":-33.801,"total":5144,"suburb":"Paarl Outlying","id":"a6bzri35uz92","longitude":18.8686},"type":"Feature","geometry":{"type":"Point","coordinates":[18.8686,-33.801]}},{"properties":{"latitude":-33.9022,"total":80,"suburb":"Goodwood Park Ext 1","id":"a6bzrhss59oj","longitude":18.5456},"type":"Feature","geometry":{"type":"Point","coordinates":[18.5456,-33.9022]}},{"properties":{"latitude":-33.681,"total":641,"suburb":"Dalvale","id":"a6bzrhwei6dz","longitude":19.0049},"type":"Feature","geometry":{"type":"Point","coordinates":[19.0049,-33.681]}},{"properties":{"latitude":-33.6973,"total":1048,"suburb":"Dalvale","id":"a6bzri38ru3q","longitude":19.0011},"type":"Feature","geometry":{"type":"Point","coordinates":[19.0011,-33.6973]}},{"properties":{"latitude":-33.6697,"total":1526,"suburb":"Drommedaris","id":"a6bzri6a9t88","longitude":18.9861},"type":"Feature","geometry":{"type":"Point","coordinates":[18.9861,-33.6697]}},{"properties":{"latitude":-33.6788,"total":1631,"suburb":"Drommedaris","id":"a6bzri729c4s","longitude":18.9855},"type":"Feature","geometry":{"type":"Point","coordinates":[18.9855,-33.6788]}},{"properties":{"latitude":-33.8283,"total":2645,"suburb":"Durbanville","id":"a6bzri7vd6um","longitude":18.6511},"type":"Feature","geometry":{"type":"Point","coordinates":[18.6511,-33.8283]}},{"properties":{"latitude":-34.0026,"total":511,"suburb":"Russels Rest","id":"a6bzrhudpzo4","longitude":18.7254},"type":"Feature","geometry":{"type":"Point","coordinates":[18.7254,-34.0026]}},{"properties":{"latitude":-33.6553,"total":8133,"suburb":"Hillcrest","id":"a6bzri60w8pv","longitude":18.996},"type":"Feature","geometry":{"type":"Point","coordinates":[18.996,-33.6553]}},{"properties":{"latitude":-34.0459,"total":781,"suburb":"Scott Estate","id":"a6bzrhyv321j","longitude":18.3686},"type":"Feature","geometry":{"type":"Point","coordinates":[18.3686,-34.0459]}},{"properties":{"latitude":-33.8682,"total":1616,"suburb":"Kenridge Ext 3","id":"a6bzrhtg3n5m","longitude":18.6362},"type":"Feature","geometry":{"type":"Point","coordinates":[18.6362,-33.8682]}},{"properties":{"latitude":-33.8693,"total":95,"suburb":"Kenridge Ext 4","id":"a6bzri4jhtvb","longitude":18.6266},"type":"Feature","geometry":{"type":"Point","coordinates":[18.6266,-33.8693]}},{"properties":{"latitude":-34.0109,"total":2503,"suburb":"Khayelitsha Site C","id":"a6bzri2a5hn7","longitude":18.651},"type":"Feature","geometry":{"type":"Point","coordinates":[18.651,-34.0109]}},{"properties":{"latitude":-33.8369,"total":7357,"suburb":"Killarney Gardens Outlying","id":"a6bzrhw9su9f","longitude":18.5271},"type":"Feature","geometry":{"type":"Point","coordinates":[18.5271,-33.8369]}},{"properties":{"latitude":-33.8339,"total":9,"suburb":"Kraaifontein Ext 17","id":"a6bzrhspe6rd","longitude":18.708},"type":"Feature","geometry":{"type":"Point","coordinates":[18.708,-33.8339]}},{"properties":{"latitude":-33.8838,"total":424,"suburb":"Loevenstein Blv Ext 17","id":"a6bzrhsroe2d","longitude":18.6143},"type":"Feature","geometry":{"type":"Point","coordinates":[18.6143,-33.8838]}},{"properties":{"latitude":-34.0272,"total":1121,"suburb":"Mfuleni SP","id":"a6bzri5va7ic","longitude":18.7116},"type":"Feature","geometry":{"type":"Point","coordinates":[18.7116,-34.0272]}},{"properties":{"latitude":-33.9301,"total":6949,"suburb":"Epping Industrial 1","id":"a6bzri2iae1y","longitude":18.532},"type":"Feature","geometry":{"type":"Point","coordinates":[18.532,-33.9301]}},{"properties":{"latitude":-33.7024,"total":243,"suburb":"Van Riebeeckstrand","id":"a6bzri8lpic3","longitude":18.4502},"type":"Feature","geometry":{"type":"Point","coordinates":[18.4502,-33.7024]}},{"properties":{"latitude":-33.7357,"total":1362,"suburb":"Melkbosstrand","id":"a6bzrhvl5jfq","longitude":18.449},"type":"Feature","geometry":{"type":"Point","coordinates":[18.449,-33.7357]}},{"properties":{"latitude":-33.8613,"total":884,"suburb":"Milnerton","id":"a6bzrhufgjpv","longitude":18.5022},"type":"Feature","geometry":{"type":"Point","coordinates":[18.5022,-33.8613]}},{"properties":{"latitude":-33.8954,"total":454,"suburb":"Lagoon Beach","id":"a6bzri7r4ugt","longitude":18.4809},"type":"Feature","geometry":{"type":"Point","coordinates":[18.4809,-33.8954]}},{"properties":{"latitude":-33.9129,"total":4240,"suburb":"Foreshore","id":"a6bzri38mfh5","longitude":18.4425},"type":"Feature","geometry":{"type":"Point","coordinates":[18.4425,-33.9129]}},{"properties":{"latitude":-33.9024,"total":125,"suburb":"Mouille Point","id":"a6bzri93muyj","longitude":18.3992},"type":"Feature","geometry":{"type":"Point","coordinates":[18.3992,-33.9024]}},{"properties":{"latitude":-33.9086,"total":756,"suburb":"Three Anchor Bay","id":"a6bzri0ufc3x","longitude":18.3979},"type":"Feature","geometry":{"type":"Point","coordinates":[18.3979,-33.9086]}},{"properties":{"latitude":-33.9173,"total":857,"suburb":"Sea Point","id":"a6bzrhwtdsxx","longitude":18.3881},"type":"Feature","geometry":{"type":"Point","coordinates":[18.3881,-33.9173]}},{"properties":{"latitude":-33.928,"total":526,"suburb":"Bantry Bay","id":"a6bzri8jb7x8","longitude":18.3786},"type":"Feature","geometry":{"type":"Point","coordinates":[18.3786,-33.928]}},{"properties":{"latitude":-33.936,"total":352,"suburb":"Clifton","id":"a6bzri3s3c19","longitude":18.3792},"type":"Feature","geometry":{"type":"Point","coordinates":[18.3792,-33.936]}},{"properties":{"latitude":-33.9557,"total":828,"suburb":"Camps Bay","id":"a6bzri7pql1l","longitude":18.3845},"type":"Feature","geometry":{"type":"Point","coordinates":[18.3845,-33.9557]}},{"properties":{"latitude":-33.9623,"total":534,"suburb":"Bakoven","id":"a6bzrhzdyi0b","longitude":18.3803},"type":"Feature","geometry":{"type":"Point","coordinates":[18.3803,-33.9623]}},{"properties":{"latitude":-34.0489,"total":445,"suburb":"Hout Bay Harbour","id":"a6bzri5fs6ff","longitude":18.3418},"type":"Feature","geometry":{"type":"Point","coordinates":[18.3418,-34.0489]}},{"properties":{"latitude":-34.1305,"total":40,"suburb":"Kommetjie","id":"a6bzri71fel7","longitude":18.3401},"type":"Feature","geometry":{"type":"Point","coordinates":[18.3401,-34.1305]}},{"properties":{"latitude":-34.1128,"total":1253,"suburb":"Strand","id":"a6bzri5z8rdm","longitude":18.8318},"type":"Feature","geometry":{"type":"Point","coordinates":[18.8318,-34.1128]}},{"properties":{"latitude":-34.1195,"total":1559,"suburb":"Van Ryneveld","id":"a6bzrhw5g4v1","longitude":18.8313},"type":"Feature","geometry":{"type":"Point","coordinates":[18.8313,-34.1195]}},{"properties":{"latitude":-34.1239,"total":986,"suburb":"Parks Estate","id":"a6bzri0wr1zb","longitude":18.8343},"type":"Feature","geometry":{"type":"Point","coordinates":[18.8343,-34.1239]}},{"properties":{"latitude":-34.1309,"total":283,"suburb":"Greenways","id":"a6bzri76fwco","longitude":18.8405},"type":"Feature","geometry":{"type":"Point","coordinates":[18.8405,-34.1309]}},{"properties":{"latitude":-34.1396,"total":203,"suburb":"Harmony Park","id":"a6bzri56l0rs","longitude":18.8475},"type":"Feature","geometry":{"type":"Point","coordinates":[18.8475,-34.1396]}},{"properties":{"latitude":-34.1042,"total":91,"suburb":"Helderberg SH","id":"a6bzri8zoyf3","longitude":18.8825},"type":"Feature","geometry":{"type":"Point","coordinates":[18.8825,-34.1042]}},{"properties":{"latitude":-33.8611,"total":482,"suburb":"Eversdal Ext 21","id":"a6bzrhxqwqqr","longitude":18.6671},"type":"Feature","geometry":{"type":"Point","coordinates":[18.6671,-33.8611]}},{"properties":{"latitude":-33.8707,"total":148,"suburb":"Eversdal Ext 4","id":"a6bzrhzgaurq","longitude":18.6517},"type":"Feature","geometry":{"type":"Point","coordinates":[18.6517,-33.8707]}},{"properties":{"latitude":-34.0615,"total":1541,"suburb":"Schoongelegen","id":"a6bzrhuli280","longitude":18.8136},"type":"Feature","geometry":{"type":"Point","coordinates":[18.8136,-34.0615]}},{"properties":{"latitude":-34.0775,"total":208,"suburb":"Bene Township","id":"a6bzrhv4bvmy","longitude":18.8543},"type":"Feature","geometry":{"type":"Point","coordinates":[18.8543,-34.0775]}},{"properties":{"latitude":-33.833,"total":1831,"suburb":"Richwood","id":"a6bzri3i8sjy","longitude":18.5434},"type":"Feature","geometry":{"type":"Point","coordinates":[18.5434,-33.833]}},{"properties":{"latitude":-33.811,"total":252,"suburb":"Durmonte","id":"a6bzri7mb9cy","longitude":18.6669},"type":"Feature","geometry":{"type":"Point","coordinates":[18.6669,-33.811]}},{"properties":{"latitude":-33.965,"total":1532,"suburb":"Vanguard","id":"a6bzrhztrnc4","longitude":18.5427},"type":"Feature","geometry":{"type":"Point","coordinates":[18.5427,-33.965]}},{"properties":{"latitude":-34.1,"total":323,"suburb":"Chris Nissen Park","id":"a6bzri4hkiur","longitude":18.8669},"type":"Feature","geometry":{"type":"Point","coordinates":[18.8669,-34.1]}},{"properties":{"latitude":-33.8926,"total":27,"suburb":"Heemstede","id":"a6bzri1lxitl","longitude":18.6691},"type":"Feature","geometry":{"type":"Point","coordinates":[18.6691,-33.8926]}},{"properties":{"latitude":-33.9116,"total":34,"suburb":"Horstmandale","id":"a6bzrht40jnl","longitude":18.6372},"type":"Feature","geometry":{"type":"Point","coordinates":[18.6372,-33.9116]}},{"properties":{"latitude":-33.7773,"total":8413,"suburb":"De Zoete Inval","id":"a6bzri1kvtst","longitude":18.9572},"type":"Feature","geometry":{"type":"Point","coordinates":[18.9572,-33.7773]}},{"properties":{"latitude":-33.7531,"total":13190,"suburb":"Vrykyk","id":"a6bzri2y7tl8","longitude":18.9657},"type":"Feature","geometry":{"type":"Point","coordinates":[18.9657,-33.7531]}},{"properties":{"latitude":-33.7661,"total":10678,"suburb":"Suider Paarl","id":"a6bzri0sfjqr","longitude":18.9656},"type":"Feature","geometry":{"type":"Point","coordinates":[18.9656,-33.7661]}},{"properties":{"latitude":-33.7709,"total":1108,"suburb":"Courtrai","id":"a6bzri3rvuji","longitude":18.9558},"type":"Feature","geometry":{"type":"Point","coordinates":[18.9558,-33.7709]}},{"properties":{"latitude":-33.5525,"total":208,"suburb":"Sherwood","id":"a6bzri7mxfry","longitude":18.5004},"type":"Feature","geometry":{"type":"Point","coordinates":[18.5004,-33.5525]}},{"properties":{"latitude":-33.5507,"total":579,"suburb":"Saxonsea","id":"a6bzrhvt6553","longitude":18.4885},"type":"Feature","geometry":{"type":"Point","coordinates":[18.4885,-33.5507]}},{"properties":{"latitude":-33.5668,"total":668,"suburb":"Avondale","id":"a6bzrhzhdthn","longitude":18.4865},"type":"Feature","geometry":{"type":"Point","coordinates":[18.4865,-33.5668]}},{"properties":{"latitude":-33.5747,"total":652,"suburb":"Protea Park","id":"a6bzri0xc36c","longitude":18.4968},"type":"Feature","geometry":{"type":"Point","coordinates":[18.4968,-33.5747]}},{"properties":{"latitude":-33.5577,"total":32,"suburb":"Beaconhill","id":"a6bzri8mnsri","longitude":18.5065},"type":"Feature","geometry":{"type":"Point","coordinates":[18.5065,-33.5577]}},{"properties":{"latitude":-33.5695,"total":242,"suburb":"Robinvale","id":"a6bzri3jw86b","longitude":18.5035},"type":"Feature","geometry":{"type":"Point","coordinates":[18.5035,-33.5695]}},{"properties":{"latitude":-33.8038,"total":412,"suburb":"Blouberg Sands","id":"a6bzri0qpikp","longitude":18.4797},"type":"Feature","geometry":{"type":"Point","coordinates":[18.4797,-33.8038]}},{"properties":{"latitude":-33.8042,"total":131,"suburb":"West Beach","id":"a6bzri5bwjkh","longitude":18.4738},"type":"Feature","geometry":{"type":"Point","coordinates":[18.4738,-33.8042]}},{"properties":{"latitude":-33.9277,"total":208,"suburb":"Signal Hill","id":"a6bzri63azzb","longitude":18.3953},"type":"Feature","geometry":{"type":"Point","coordinates":[18.3953,-33.9277]}},{"properties":{"latitude":-33.909,"total":2659,"suburb":"Green Point","id":"a6bzri943u4x","longitude":18.4085},"type":"Feature","geometry":{"type":"Point","coordinates":[18.4085,-33.909]}},{"properties":{"latitude":-33.9204,"total":1391,"suburb":"Schotschekloof","id":"a6bzrhu7jwg0","longitude":18.411},"type":"Feature","geometry":{"type":"Point","coordinates":[18.411,-33.9204]}},{"properties":{"latitude":-33.9349,"total":1936,"suburb":"Gardens","id":"a6bzri2s5o6f","longitude":18.4107},"type":"Feature","geometry":{"type":"Point","coordinates":[18.4107,-33.9349]}},{"properties":{"latitude":-33.9289,"total":639,"suburb":"Tamboerskloof","id":"a6bzrhvv8kyz","longitude":18.4043},"type":"Feature","geometry":{"type":"Point","coordinates":[18.4043,-33.9289]}},{"properties":{"latitude":-33.9408,"total":659,"suburb":"Oranjezicht","id":"a6bzrhzg2b5y","longitude":18.4132},"type":"Feature","geometry":{"type":"Point","coordinates":[18.4132,-33.9408]}},{"properties":{"latitude":-33.941,"total":390,"suburb":"Vredehoek","id":"a6bzrhxns4qd","longitude":18.427},"type":"Feature","geometry":{"type":"Point","coordinates":[18.427,-33.941]}},{"properties":{"latitude":-33.9347,"total":5114,"suburb":"Salt River","id":"a6bzri4tjibw","longitude":18.4594},"type":"Feature","geometry":{"type":"Point","coordinates":[18.4594,-33.9347]}},{"properties":{"latitude":-33.9325,"total":2654,"suburb":"Zonnebloem","id":"a6bzri4oyqov","longitude":18.4327},"type":"Feature","geometry":{"type":"Point","coordinates":[18.4327,-33.9325]}},{"properties":{"latitude":-33.8141,"total":600,"suburb":"Blouberg Rise","id":"a6bzri2aqqz4","longitude":18.4835},"type":"Feature","geometry":{"type":"Point","coordinates":[18.4835,-33.8141]}},{"properties":{"latitude":-33.8269,"total":1333,"suburb":"Sunridge","id":"a6bzrhygg83y","longitude":18.5124},"type":"Feature","geometry":{"type":"Point","coordinates":[18.5124,-33.8269]}},{"properties":{"latitude":-33.8057,"total":823,"suburb":"Sunningdale","id":"a6bzri5jwa7x","longitude":18.487},"type":"Feature","geometry":{"type":"Point","coordinates":[18.487,-33.8057]}},{"properties":{"latitude":-33.8223,"total":184,"suburb":"West Riding","id":"a6bzri32oxhz","longitude":18.5142},"type":"Feature","geometry":{"type":"Point","coordinates":[18.5142,-33.8223]}},{"properties":{"latitude":-33.8613,"total":598,"suburb":"Kleinbosch","id":"a6bzrht7xyb3","longitude":18.5614},"type":"Feature","geometry":{"type":"Point","coordinates":[18.5614,-33.8613]}},{"properties":{"latitude":-33.8597,"total":2002,"suburb":"Bothasig","id":"a6bzrhvop1rn","longitude":18.5421},"type":"Feature","geometry":{"type":"Point","coordinates":[18.5421,-33.8597]}},{"properties":{"latitude":-33.8958,"total":436,"suburb":"Metro Industrial Township","id":"a6bzri09gnkk","longitude":18.4822},"type":"Feature","geometry":{"type":"Point","coordinates":[18.4822,-33.8958]}},{"properties":{"latitude":-33.8969,"total":746,"suburb":"Rugby","id":"a6bzri6kdexj","longitude":18.4886},"type":"Feature","geometry":{"type":"Point","coordinates":[18.4886,-33.8969]}},{"properties":{"latitude":-33.919,"total":2247,"suburb":"Grandwest","id":"a6bzri4hsdis","longitude":18.5462},"type":"Feature","geometry":{"type":"Point","coordinates":[18.5462,-33.919]}},{"properties":{"latitude":-33.907,"total":4568,"suburb":"Townsend Estate","id":"a6bzrhtzh99i","longitude":18.5426},"type":"Feature","geometry":{"type":"Point","coordinates":[18.5426,-33.907]}},{"properties":{"latitude":-33.8947,"total":1388,"suburb":"Tygerdal","id":"a6bzri1fl798","longitude":18.546},"type":"Feature","geometry":{"type":"Point","coordinates":[18.546,-33.8947]}},{"properties":{"latitude":-33.9188,"total":244,"suburb":"Ruyterwacht","id":"a6bzrhypnemn","longitude":18.5572},"type":"Feature","geometry":{"type":"Point","coordinates":[18.5572,-33.9188]}},{"properties":{"latitude":-33.9031,"total":384,"suburb":"Vasco Estate","id":"a6bzri8rjrek","longitude":18.5603},"type":"Feature","geometry":{"type":"Point","coordinates":[18.5603,-33.9031]}},{"properties":{"latitude":-33.8964,"total":3576,"suburb":"Glenwood","id":"a6bzrht7gtb6","longitude":18.5361},"type":"Feature","geometry":{"type":"Point","coordinates":[18.5361,-33.8964]}},{"properties":{"latitude":-33.914,"total":1839,"suburb":"Elsies River","id":"a6bzrhydwkt2","longitude":18.5638},"type":"Feature","geometry":{"type":"Point","coordinates":[18.5638,-33.914]}},{"properties":{"latitude":-33.9209,"total":1295,"suburb":"Valhalla","id":"a6bzrhzc8pz7","longitude":18.5639},"type":"Feature","geometry":{"type":"Point","coordinates":[18.5639,-33.9209]}},{"properties":{"latitude":-33.8852,"total":427,"suburb":"Hoheizen","id":"a6bzri2jb6l2","longitude":18.6211},"type":"Feature","geometry":{"type":"Point","coordinates":[18.6211,-33.8852]}},{"properties":{"latitude":-33.884,"total":4,"suburb":"Boston Farm","id":"a6bzri42h1y0","longitude":18.6191},"type":"Feature","geometry":{"type":"Point","coordinates":[18.6191,-33.884]}},{"properties":{"latitude":-33.8767,"total":2779,"suburb":"Bellville Park","id":"a6bzrhuhto75","longitude":18.634},"type":"Feature","geometry":{"type":"Point","coordinates":[18.634,-33.8767]}},{"properties":{"latitude":-33.8757,"total":138,"suburb":"Ridgeworth","id":"a6bzri1wmf0g","longitude":18.6434},"type":"Feature","geometry":{"type":"Point","coordinates":[18.6434,-33.8757]}},{"properties":{"latitude":-33.8684,"total":101,"suburb":"Eversdal Ext 3","id":"a6bzri2e6bo9","longitude":18.6575},"type":"Feature","geometry":{"type":"Point","coordinates":[18.6575,-33.8684]}},{"properties":{"latitude":-33.8619,"total":44,"suburb":"Chantecler","id":"a6bzrhzd2xtl","longitude":18.6586},"type":"Feature","geometry":{"type":"Point","coordinates":[18.6586,-33.8619]}},{"properties":{"latitude":-33.8777,"total":26,"suburb":"Welgemoed Golf Course","id":"a6bzri3l4df1","longitude":18.624},"type":"Feature","geometry":{"type":"Point","coordinates":[18.624,-33.8777]}},{"properties":{"latitude":-33.8797,"total":312,"suburb":"Blomvlei","id":"a6bzri569287","longitude":18.6194},"type":"Feature","geometry":{"type":"Point","coordinates":[18.6194,-33.8797]}},{"properties":{"latitude":-33.8766,"total":198,"suburb":"Stellenbosch University","id":"a6bzri6g2l78","longitude":18.6282},"type":"Feature","geometry":{"type":"Point","coordinates":[18.6282,-33.8766]}},{"properties":{"latitude":-33.8832,"total":15409,"suburb":"Summer Greens","id":"a6bzri3w8h1l","longitude":18.5262},"type":"Feature","geometry":{"type":"Point","coordinates":[18.5262,-33.8832]}},{"properties":{"latitude":-33.8795,"total":136,"suburb":"Panorama","id":"a6bzri0w6kyu","longitude":18.5731},"type":"Feature","geometry":{"type":"Point","coordinates":[18.5731,-33.8795]}},{"properties":{"latitude":-33.8712,"total":1324,"suburb":"Edgemead","id":"a6bzrhslr1jk","longitude":18.5435},"type":"Feature","geometry":{"type":"Point","coordinates":[18.5435,-33.8712]}},{"properties":{"latitude":-33.8789,"total":206,"suburb":"Monte Vista","id":"a6bzrhzlye6e","longitude":18.5559},"type":"Feature","geometry":{"type":"Point","coordinates":[18.5559,-33.8789]}},{"properties":{"latitude":-33.8881,"total":1675,"suburb":"North Camp Wingfield","id":"a6bzrhyzwcmf","longitude":18.5423},"type":"Feature","geometry":{"type":"Point","coordinates":[18.5423,-33.8881]}},{"properties":{"latitude":-33.8917,"total":1321,"suburb":"Acacia Park","id":"a6bzrhza9xpa","longitude":18.5234},"type":"Feature","geometry":{"type":"Point","coordinates":[18.5234,-33.8917]}},{"properties":{"latitude":-33.9303,"total":4762,"suburb":"Ndabeni","id":"a6bzrhzb0qls","longitude":18.4923},"type":"Feature","geometry":{"type":"Point","coordinates":[18.4923,-33.9303]}},{"properties":{"latitude":-33.904,"total":783,"suburb":"Ysterplaat Airbase","id":"a6bzri72dy0e","longitude":18.4969},"type":"Feature","geometry":{"type":"Point","coordinates":[18.4969,-33.904]}},{"properties":{"latitude":-33.9189,"total":3130,"suburb":"Maitland","id":"a6bzrhxeucqx","longitude":18.5087},"type":"Feature","geometry":{"type":"Point","coordinates":[18.5087,-33.9189]}},{"properties":{"latitude":-33.9083,"total":907,"suburb":"Windermere","id":"a6bzri1kaomp","longitude":18.5175},"type":"Feature","geometry":{"type":"Point","coordinates":[18.5175,-33.9083]}},{"properties":{"latitude":-33.911,"total":1337,"suburb":"Kensington","id":"a6bzri85kjfy","longitude":18.5057},"type":"Feature","geometry":{"type":"Point","coordinates":[18.5057,-33.911]}},{"properties":{"latitude":-33.9052,"total":102,"suburb":"Wingfield","id":"a6bzrhwu0xd2","longitude":18.5236},"type":"Feature","geometry":{"type":"Point","coordinates":[18.5236,-33.9052]}},{"properties":{"latitude":-33.9333,"total":6781,"suburb":"Maitland Garden Village","id":"a6bzri8yrkvy","longitude":18.4844},"type":"Feature","geometry":{"type":"Point","coordinates":[18.4844,-33.9333]}},{"properties":{"latitude":-33.9376,"total":3274,"suburb":"Observatory","id":"a6bzri6wx4c9","longitude":18.4745},"type":"Feature","geometry":{"type":"Point","coordinates":[18.4745,-33.9376]}},{"properties":{"latitude":-33.9546,"total":2452,"suburb":"Hazendal","id":"a6bzri16ll3o","longitude":18.5051},"type":"Feature","geometry":{"type":"Point","coordinates":[18.5051,-33.9546]}},{"properties":{"latitude":-33.9344,"total":1921,"suburb":"Pinelands","id":"a6bzrhyd5bt1","longitude":18.5094},"type":"Feature","geometry":{"type":"Point","coordinates":[18.5094,-33.9344]}},{"properties":{"latitude":-33.9232,"total":481,"suburb":"Thornton","id":"a6bzrhuv8cqv","longitude":18.5306},"type":"Feature","geometry":{"type":"Point","coordinates":[18.5306,-33.9232]}},{"properties":{"latitude":-33.9245,"total":8323,"suburb":"Techno Park","id":"a6bzrhvgk99t","longitude":18.5472},"type":"Feature","geometry":{"type":"Point","coordinates":[18.5472,-33.9245]}},{"properties":{"latitude":-33.9533,"total":670,"suburb":"Valhalla Park","id":"a6bzri4acjm9","longitude":18.5728},"type":"Feature","geometry":{"type":"Point","coordinates":[18.5728,-33.9533]}},{"properties":{"latitude":-33.9402,"total":261,"suburb":"Martoosfontein","id":"a6bzrhtwyu6z","longitude":18.5724},"type":"Feature","geometry":{"type":"Point","coordinates":[18.5724,-33.9402]}},{"properties":{"latitude":-33.9486,"total":925,"suburb":"Bishop Lavis","id":"a6bzrhta522j","longitude":18.5824},"type":"Feature","geometry":{"type":"Point","coordinates":[18.5824,-33.9486]}},{"properties":{"latitude":-33.9557,"total":5575,"suburb":"Nooitgedacht","id":"a6bzri4v3t7w","longitude":18.5829},"type":"Feature","geometry":{"type":"Point","coordinates":[18.5829,-33.9557]}},{"properties":{"latitude":-33.9458,"total":3782,"suburb":"Langa","id":"a6bzri0doqu8","longitude":18.53},"type":"Feature","geometry":{"type":"Point","coordinates":[18.53,-33.9458]}},{"properties":{"latitude":-33.9625,"total":1309,"suburb":"Silvertown","id":"a6bzrhy9d3xb","longitude":18.523},"type":"Feature","geometry":{"type":"Point","coordinates":[18.523,-33.9625]}},{"properties":{"latitude":-33.9716,"total":541,"suburb":"Belgravia","id":"a6bzri5qfto0","longitude":18.5185},"type":"Feature","geometry":{"type":"Point","coordinates":[18.5185,-33.9716]}},{"properties":{"latitude":-33.9737,"total":429,"suburb":"Rylands","id":"a6bzrht6pejh","longitude":18.5273},"type":"Feature","geometry":{"type":"Point","coordinates":[18.5273,-33.9737]}},{"properties":{"latitude":-33.9603,"total":951,"suburb":"Bridgetown","id":"a6bzrhxs8csz","longitude":18.5316},"type":"Feature","geometry":{"type":"Point","coordinates":[18.5316,-33.9603]}},{"properties":{"latitude":-33.9755,"total":1488,"suburb":"Gatesville","id":"a6bzri4ft0mj","longitude":18.5318},"type":"Feature","geometry":{"type":"Point","coordinates":[18.5318,-33.9755]}},{"properties":{"latitude":-33.9517,"total":1626,"suburb":"Kewtown","id":"a6bzri4rd1ln","longitude":18.5152},"type":"Feature","geometry":{"type":"Point","coordinates":[18.5152,-33.9517]}},{"properties":{"latitude":-33.9852,"total":599,"suburb":"Newfields","id":"a6bzrhu6i5wl","longitude":18.5324},"type":"Feature","geometry":{"type":"Point","coordinates":[18.5324,-33.9852]}},{"properties":{"latitude":-34.0708,"total":1747,"suburb":"Lavender Hill","id":"a6bzrht3bsal","longitude":18.4896},"type":"Feature","geometry":{"type":"Point","coordinates":[18.4896,-34.0708]}},{"properties":{"latitude":-33.9031,"total":144,"suburb":"Runkel","id":"a6bzri371ty4","longitude":18.6506},"type":"Feature","geometry":{"type":"Point","coordinates":[18.6506,-33.9031]}},{"properties":{"latitude":-33.8984,"total":50,"suburb":"Westclif Middelbar","id":"a6bzri2a4emz","longitude":18.643},"type":"Feature","geometry":{"type":"Point","coordinates":[18.643,-33.8984]}},{"properties":{"latitude":-33.8949,"total":34,"suburb":"Sunkist","id":"a6bzrhu6er6y","longitude":18.6393},"type":"Feature","geometry":{"type":"Point","coordinates":[18.6393,-33.8949]}},{"properties":{"latitude":-33.8944,"total":246,"suburb":"Boston","id":"a6bzrhwq5qhr","longitude":18.6238},"type":"Feature","geometry":{"type":"Point","coordinates":[18.6238,-33.8944]}},{"properties":{"latitude":-33.897,"total":48,"suburb":"Laurindale","id":"a6bzrhzzxuf9","longitude":18.6455},"type":"Feature","geometry":{"type":"Point","coordinates":[18.6455,-33.897]}},{"properties":{"latitude":-33.8801,"total":56,"suburb":"Bloemhof","id":"a6bzri5att0u","longitude":18.6455},"type":"Feature","geometry":{"type":"Point","coordinates":[18.6455,-33.8801]}},{"properties":{"latitude":-33.8824,"total":438,"suburb":"Eskom","id":"a6bzri0hmdko","longitude":18.6429},"type":"Feature","geometry":{"type":"Point","coordinates":[18.6429,-33.8824]}},{"properties":{"latitude":-33.8879,"total":2877,"suburb":"Oakdale","id":"a6bzri4vr3ju","longitude":18.6362},"type":"Feature","geometry":{"type":"Point","coordinates":[18.6362,-33.8879]}},{"properties":{"latitude":-33.8842,"total":15,"suburb":"Bellair","id":"a6bzri6s1wdu","longitude":18.6576},"type":"Feature","geometry":{"type":"Point","coordinates":[18.6576,-33.8842]}},{"properties":{"latitude":-33.8808,"total":78,"suburb":"La Rochelle","id":"a6bzrhsng4pn","longitude":18.6565},"type":"Feature","geometry":{"type":"Point","coordinates":[18.6565,-33.8808]}},{"properties":{"latitude":-33.8764,"total":451,"suburb":"Stellenridge","id":"a6bzri3f48ay","longitude":18.653},"type":"Feature","geometry":{"type":"Point","coordinates":[18.653,-33.8764]}},{"properties":{"latitude":-33.8732,"total":36,"suburb":"Glen Ive","id":"a6bzri1zn8wc","longitude":18.6595},"type":"Feature","geometry":{"type":"Point","coordinates":[18.6595,-33.8732]}},{"properties":{"latitude":-33.876,"total":470,"suburb":"Vosfontein","id":"a6bzri2kucg9","longitude":18.6609},"type":"Feature","geometry":{"type":"Point","coordinates":[18.6609,-33.876]}},{"properties":{"latitude":-33.8956,"total":81,"suburb":"Hillrise","id":"a6bzri5e8ksk","longitude":18.641},"type":"Feature","geometry":{"type":"Point","coordinates":[18.641,-33.8956]}},{"properties":{"latitude":-33.8886,"total":51,"suburb":"Blommendal","id":"a6bzri2gdjn4","longitude":18.6528},"type":"Feature","geometry":{"type":"Point","coordinates":[18.6528,-33.8886]}},{"properties":{"latitude":-33.8961,"total":104,"suburb":"Stikland Hospital","id":"a6bzri4njgco","longitude":18.6562},"type":"Feature","geometry":{"type":"Point","coordinates":[18.6562,-33.8961]}},{"properties":{"latitude":-33.8883,"total":168,"suburb":"Oakglen","id":"a6bzri64iryk","longitude":18.6642},"type":"Feature","geometry":{"type":"Point","coordinates":[18.6642,-33.8883]}},{"properties":{"latitude":-33.8927,"total":28,"suburb":"Chrismar","id":"a6bzrhw7ril9","longitude":18.6451},"type":"Feature","geometry":{"type":"Point","coordinates":[18.6451,-33.8927]}},{"properties":{"latitude":-33.8835,"total":654,"suburb":"Blomtuin","id":"a6bzri7lzqyu","longitude":18.6474},"type":"Feature","geometry":{"type":"Point","coordinates":[18.6474,-33.8835]}},{"properties":{"latitude":-33.9124,"total":780,"suburb":"Tygerberg Hospital","id":"a6bzri68jfkt","longitude":18.6136},"type":"Feature","geometry":{"type":"Point","coordinates":[18.6136,-33.9124]}},{"properties":{"latitude":-33.9839,"total":292,"suburb":"Delro","id":"a6bzrhzfyrg0","longitude":18.6818},"type":"Feature","geometry":{"type":"Point","coordinates":[18.6818,-33.9839]}},{"properties":{"latitude":-33.985,"total":1592,"suburb":"Brentwood Park","id":"a6bzrhsupcuv","longitude":18.6511},"type":"Feature","geometry":{"type":"Point","coordinates":[18.6511,-33.985]}},{"properties":{"latitude":-33.9603,"total":18,"suburb":"Cormac Park","id":"a6bzrhv11kq2","longitude":18.6672},"type":"Feature","geometry":{"type":"Point","coordinates":[18.6672,-33.9603]}},{"properties":{"latitude":-33.9611,"total":24,"suburb":"Camelot","id":"a6bzri18vvwf","longitude":18.6708},"type":"Feature","geometry":{"type":"Point","coordinates":[18.6708,-33.9611]}},{"properties":{"latitude":-33.983,"total":148,"suburb":"Hindle Park","id":"a6bzrhwqzz75","longitude":18.679},"type":"Feature","geometry":{"type":"Point","coordinates":[18.679,-33.983]}},{"properties":{"latitude":-33.9734,"total":2417,"suburb":"Happy Valley","id":"a6bzrhz280q4","longitude":18.6847},"type":"Feature","geometry":{"type":"Point","coordinates":[18.6847,-33.9734]}},{"properties":{"latitude":-33.9743,"total":78,"suburb":"Highgate","id":"a6bzrhzzfqol","longitude":18.6724},"type":"Feature","geometry":{"type":"Point","coordinates":[18.6724,-33.9743]}},{"properties":{"latitude":-33.9989,"total":246,"suburb":"Tuscany Glen","id":"a6bzrhuj5co6","longitude":18.7007},"type":"Feature","geometry":{"type":"Point","coordinates":[18.7007,-33.9989]}},{"properties":{"latitude":-33.9881,"total":100,"suburb":"The Connifers","id":"a6bzrhttt5g0","longitude":18.6959},"type":"Feature","geometry":{"type":"Point","coordinates":[18.6959,-33.9881]}},{"properties":{"latitude":-34.0304,"total":545,"suburb":"Faure","id":"a6bzri7euki8","longitude":18.7474},"type":"Feature","geometry":{"type":"Point","coordinates":[18.7474,-34.0304]}},{"properties":{"latitude":-34.071,"total":3543,"suburb":"Firgrove","id":"a6bzri8fgoao","longitude":18.7835},"type":"Feature","geometry":{"type":"Point","coordinates":[18.7835,-34.071]}},{"properties":{"latitude":-34.0276,"total":787,"suburb":"Raithby","id":"a6bzrhtiunk8","longitude":18.8101},"type":"Feature","geometry":{"type":"Point","coordinates":[18.8101,-34.0276]}},{"properties":{"latitude":-34.1054,"total":95,"suburb":"Lusthof","id":"a6bzri2gsa1h","longitude":18.8312},"type":"Feature","geometry":{"type":"Point","coordinates":[18.8312,-34.1054]}},{"properties":{"latitude":-33.8909,"total":7252,"suburb":"Century City","id":"a6bzrhzqyke8","longitude":18.5134},"type":"Feature","geometry":{"type":"Point","coordinates":[18.5134,-33.8909]}},{"properties":{"latitude":-34.0833,"total":207,"suburb":"Martinville","id":"a6bzrhyyhqzd","longitude":18.8571},"type":"Feature","geometry":{"type":"Point","coordinates":[18.8571,-34.0833]}},{"properties":{"latitude":-34.0618,"total":547,"suburb":"Heldervue","id":"a6bzri3vqpaq","longitude":18.8213},"type":"Feature","geometry":{"type":"Point","coordinates":[18.8213,-34.0618]}},{"properties":{"latitude":-34.0517,"total":79,"suburb":"Eldawn","id":"a6bzrhviof8i","longitude":18.8195},"type":"Feature","geometry":{"type":"Point","coordinates":[18.8195,-34.0517]}},{"properties":{"latitude":-34.0455,"total":50,"suburb":"Helderberg Village","id":"a6bzrhtaxphq","longitude":18.8183},"type":"Feature","geometry":{"type":"Point","coordinates":[18.8183,-34.0455]}},{"properties":{"latitude":-34.053,"total":383,"suburb":"Steenbras View","id":"a6bzri5lha77","longitude":18.8263},"type":"Feature","geometry":{"type":"Point","coordinates":[18.8263,-34.053]}},{"properties":{"latitude":-34.045,"total":588,"suburb":"Klein Helderberg","id":"a6bzri2m3xp2","longitude":18.826},"type":"Feature","geometry":{"type":"Point","coordinates":[18.826,-34.045]}},{"properties":{"latitude":-34.0747,"total":167,"suburb":"Land en Zeezicht","id":"a6bzrhso4u7p","longitude":18.8727},"type":"Feature","geometry":{"type":"Point","coordinates":[18.8727,-34.0747]}},{"properties":{"latitude":-34.0829,"total":2101,"suburb":"Lionviham","id":"a6bzrhvtff57","longitude":18.8542},"type":"Feature","geometry":{"type":"Point","coordinates":[18.8542,-34.0829]}},{"properties":{"latitude":-34.0573,"total":105,"suburb":"World View","id":"a6bzrhxulc60","longitude":18.8615},"type":"Feature","geometry":{"type":"Point","coordinates":[18.8615,-34.0573]}},{"properties":{"latitude":-34.0495,"total":347,"suburb":"Helderberg Estate","id":"a6bzri20wurk","longitude":18.8331},"type":"Feature","geometry":{"type":"Point","coordinates":[18.8331,-34.0495]}},{"properties":{"latitude":-34.0565,"total":10,"suburb":"Helderberg Nature Reserve","id":"a6bzri2qf7ai","longitude":18.8724},"type":"Feature","geometry":{"type":"Point","coordinates":[18.8724,-34.0565]}},{"properties":{"latitude":-34.055,"total":29,"suburb":"Erinvale","id":"a6bzrhwq437h","longitude":18.8939},"type":"Feature","geometry":{"type":"Point","coordinates":[18.8939,-34.055]}},{"properties":{"latitude":-34.064,"total":112,"suburb":"Erinvale Estate","id":"a6bzrhth2f1w","longitude":18.8829},"type":"Feature","geometry":{"type":"Point","coordinates":[18.8829,-34.064]}},{"properties":{"latitude":-34.074,"total":184,"suburb":"Morningside","id":"a6bzri4jtssp","longitude":18.8798},"type":"Feature","geometry":{"type":"Point","coordinates":[18.8798,-34.074]}},{"properties":{"latitude":-34.0324,"total":28,"suburb":"Jonkershoek State Forest","id":"a6bzrhy3msq4","longitude":18.8757},"type":"Feature","geometry":{"type":"Point","coordinates":[18.8757,-34.0324]}},{"properties":{"latitude":-33.8268,"total":17403,"suburb":"Killarney Gardens","id":"a6bzri2obebr","longitude":18.533},"type":"Feature","geometry":{"type":"Point","coordinates":[18.533,-33.8268]}},{"properties":{"latitude":-33.593,"total":8344,"suburb":"Camphill Village","id":"a6bzri13j51c","longitude":18.5672},"type":"Feature","geometry":{"type":"Point","coordinates":[18.5672,-33.593]}},{"properties":{"latitude":-33.5626,"total":301,"suburb":"Wesfleur","id":"a6bzri0dh1ur","longitude":18.4649},"type":"Feature","geometry":{"type":"Point","coordinates":[18.4649,-33.5626]}},{"properties":{"latitude":-34.1274,"total":351,"suburb":"Helderberg Park","id":"a6bzri37rtmc","longitude":18.8554},"type":"Feature","geometry":{"type":"Point","coordinates":[18.8554,-34.1274]}},{"properties":{"latitude":-33.8187,"total":471,"suburb":"Uitzicht","id":"a6bzri1sn8gy","longitude":18.6866},"type":"Feature","geometry":{"type":"Point","coordinates":[18.6866,-33.8187]}},{"properties":{"latitude":-33.8196,"total":140,"suburb":"Skoongesig","id":"a6bzri83g7oh","longitude":18.6466},"type":"Feature","geometry":{"type":"Point","coordinates":[18.6466,-33.8196]}},{"properties":{"latitude":-33.8178,"total":456,"suburb":"The Crest","id":"a6bzrhwj64tq","longitude":18.6745},"type":"Feature","geometry":{"type":"Point","coordinates":[18.6745,-33.8178]}},{"properties":{"latitude":-33.826,"total":15,"suburb":"Goedemoed","id":"a6bzrht81ga1","longitude":18.6736},"type":"Feature","geometry":{"type":"Point","coordinates":[18.6736,-33.826]}},{"properties":{"latitude":-33.8324,"total":113,"suburb":"Langeberg Village","id":"a6bzri6u177z","longitude":18.6692},"type":"Feature","geometry":{"type":"Point","coordinates":[18.6692,-33.8324]}},{"properties":{"latitude":-33.8278,"total":163,"suburb":"Die Wingerd","id":"a6bzri0rluu9","longitude":18.6684},"type":"Feature","geometry":{"type":"Point","coordinates":[18.6684,-33.8278]}},{"properties":{"latitude":-33.8272,"total":294,"suburb":"Mornigstar","id":"a6bzrhvpkj7r","longitude":18.6568},"type":"Feature","geometry":{"type":"Point","coordinates":[18.6568,-33.8272]}},{"properties":{"latitude":-33.824,"total":259,"suburb":"Wellway Park","id":"a6bzri0pt8kw","longitude":18.6633},"type":"Feature","geometry":{"type":"Point","coordinates":[18.6633,-33.824]}},{"properties":{"latitude":-33.8582,"total":36,"suburb":"Bethanie","id":"a6bzri77jgr1","longitude":18.6583},"type":"Feature","geometry":{"type":"Point","coordinates":[18.6583,-33.8582]}},{"properties":{"latitude":-33.8337,"total":226,"suburb":"Country Places","id":"a6bzrhtg82ox","longitude":18.6758},"type":"Feature","geometry":{"type":"Point","coordinates":[18.6758,-33.8337]}},{"properties":{"latitude":-33.8397,"total":341,"suburb":"Vergesicht","id":"a6bzri4557cw","longitude":18.6308},"type":"Feature","geometry":{"type":"Point","coordinates":[18.6308,-33.8397]}},{"properties":{"latitude":-33.814,"total":58,"suburb":"Vierlanden","id":"a6bzrhw0uexz","longitude":18.6599},"type":"Feature","geometry":{"type":"Point","coordinates":[18.6599,-33.814]}},{"properties":{"latitude":-33.8056,"total":549,"suburb":"Vierlanden Heights","id":"a6bzrhyz8wsi","longitude":18.6567},"type":"Feature","geometry":{"type":"Point","coordinates":[18.6567,-33.8056]}},{"properties":{"latitude":-33.8139,"total":33,"suburb":"Ruitershoogte","id":"a6bzri133fbi","longitude":18.6522},"type":"Feature","geometry":{"type":"Point","coordinates":[18.6522,-33.8139]}},{"properties":{"latitude":-33.8436,"total":252,"suburb":"Valmary Park","id":"a6bzri6dohsa","longitude":18.6519},"type":"Feature","geometry":{"type":"Point","coordinates":[18.6519,-33.8436]}},{"properties":{"latitude":-33.8308,"total":85,"suburb":"Klein Nederberg","id":"a6bzri1zv97c","longitude":18.669},"type":"Feature","geometry":{"type":"Point","coordinates":[18.669,-33.8308]}},{"properties":{"latitude":-33.8306,"total":192,"suburb":"Langeberg Ridge","id":"a6bzrhvuz3qj","longitude":18.6869},"type":"Feature","geometry":{"type":"Point","coordinates":[18.6869,-33.8306]}},{"properties":{"latitude":-33.982,"total":1814,"suburb":"Eindehoven","id":"a6bzri5ujw0z","longitude":18.6472},"type":"Feature","geometry":{"type":"Point","coordinates":[18.6472,-33.982]}},{"properties":{"latitude":-33.9715,"total":1443,"suburb":"Blue Downs","id":"a6bzri290xrw","longitude":18.6483},"type":"Feature","geometry":{"type":"Point","coordinates":[18.6483,-33.9715]}},{"properties":{"latitude":-33.9251,"total":192,"suburb":"Fresnaye","id":"a6bzrhwkz6jl","longitude":18.387},"type":"Feature","geometry":{"type":"Point","coordinates":[18.387,-33.9251]}},{"properties":{"latitude":-33.9866,"total":783,"suburb":"Mountview","id":"a6bzrhuv8ujh","longitude":18.5267},"type":"Feature","geometry":{"type":"Point","coordinates":[18.5267,-33.9866]}},{"properties":{"latitude":-33.9813,"total":61,"suburb":"Penlyn Estate","id":"a6bzri7hzfjh","longitude":18.5224},"type":"Feature","geometry":{"type":"Point","coordinates":[18.5224,-33.9813]}},{"properties":{"latitude":-33.9671,"total":1869,"suburb":"Athlone","id":"a6bzri5jnoka","longitude":18.5042},"type":"Feature","geometry":{"type":"Point","coordinates":[18.5042,-33.9671]}},{"properties":{"latitude":-33.9797,"total":772,"suburb":"Crawford","id":"a6bzrhywrkbp","longitude":18.5065},"type":"Feature","geometry":{"type":"Point","coordinates":[18.5065,-33.9797]}},{"properties":{"latitude":-33.9747,"total":3861,"suburb":"Rondebosch East","id":"a6bzrhuajn2z","longitude":18.4961},"type":"Feature","geometry":{"type":"Point","coordinates":[18.4961,-33.9747]}},{"properties":{"latitude":-33.9841,"total":4733,"suburb":"Primrose Park","id":"a6bzrhwd2q00","longitude":18.5436},"type":"Feature","geometry":{"type":"Point","coordinates":[18.5436,-33.9841]}},{"properties":{"latitude":-33.9804,"total":2703,"suburb":"Hatton","id":"a6bzri5kehjv","longitude":18.5346},"type":"Feature","geometry":{"type":"Point","coordinates":[18.5346,-33.9804]}},{"properties":{"latitude":-33.9755,"total":1408,"suburb":"Surrey","id":"a6bzrhuvxqna","longitude":18.5443},"type":"Feature","geometry":{"type":"Point","coordinates":[18.5443,-33.9755]}},{"properties":{"latitude":-33.9515,"total":1544,"suburb":"Bonteheuwel","id":"a6bzri08x9tu","longitude":18.5549},"type":"Feature","geometry":{"type":"Point","coordinates":[18.5549,-33.9515]}},{"properties":{"latitude":-33.9821,"total":71,"suburb":"Greenfield","id":"a6bzrhy9e3t2","longitude":18.7001},"type":"Feature","geometry":{"type":"Point","coordinates":[18.7001,-33.9821]}},{"properties":{"latitude":-33.9562,"total":957,"suburb":"Wembley Park","id":"a6bzrhxe5bi7","longitude":18.6704},"type":"Feature","geometry":{"type":"Point","coordinates":[18.6704,-33.9562]}},{"properties":{"latitude":-34.0112,"total":90,"suburb":"The Wines","id":"a6bzrhuu0dsu","longitude":18.7332},"type":"Feature","geometry":{"type":"Point","coordinates":[18.7332,-34.0112]}},{"properties":{"latitude":-34.0977,"total":631,"suburb":"Uitkyk","id":"a6bzri8mif94","longitude":18.8522},"type":"Feature","geometry":{"type":"Point","coordinates":[18.8522,-34.0977]}},{"properties":{"latitude":-34.0868,"total":2,"suburb":"Roma Glen","id":"a6bzrhzk5a46","longitude":18.8698},"type":"Feature","geometry":{"type":"Point","coordinates":[18.8698,-34.0868]}},{"properties":{"latitude":-33.8624,"total":2123,"suburb":"Okavango Park","id":"a6bzrhxbcy0x","longitude":18.7035},"type":"Feature","geometry":{"type":"Point","coordinates":[18.7035,-33.8624]}},{"properties":{"latitude":-33.8676,"total":16,"suburb":"Chamonix","id":"a6bzri04yacf","longitude":18.6742},"type":"Feature","geometry":{"type":"Point","coordinates":[18.6742,-33.8676]}},{"properties":{"latitude":-33.8684,"total":289,"suburb":"Vredekloof Glen","id":"a6bzri4e9tfh","longitude":18.6757},"type":"Feature","geometry":{"type":"Point","coordinates":[18.6757,-33.8684]}},{"properties":{"latitude":-33.8818,"total":1095,"suburb":"Ferndale","id":"a6bzrhwv4dib","longitude":18.6775},"type":"Feature","geometry":{"type":"Point","coordinates":[18.6775,-33.8818]}},{"properties":{"latitude":-33.8892,"total":655,"suburb":"Protea Hoogte","id":"a6bzri5a5aqu","longitude":18.7009},"type":"Feature","geometry":{"type":"Point","coordinates":[18.7009,-33.8892]}},{"properties":{"latitude":-33.8834,"total":157,"suburb":"Protea Village","id":"a6bzri5iupcw","longitude":18.7166},"type":"Feature","geometry":{"type":"Point","coordinates":[18.7166,-33.8834]}},{"properties":{"latitude":-33.8732,"total":1063,"suburb":"Saint Micheals","id":"a6bzrhyagvy5","longitude":18.6909},"type":"Feature","geometry":{"type":"Point","coordinates":[18.6909,-33.8732]}},{"properties":{"latitude":-33.8669,"total":88,"suburb":"Morgenster Hoogtes","id":"a6bzrhvn2qdx","longitude":18.694},"type":"Feature","geometry":{"type":"Point","coordinates":[18.694,-33.8669]}},{"properties":{"latitude":-33.8692,"total":764,"suburb":"Morgenster","id":"a6bzrhwj33ty","longitude":18.6969},"type":"Feature","geometry":{"type":"Point","coordinates":[18.6969,-33.8692]}},{"properties":{"latitude":-33.8524,"total":417,"suburb":"Peerless Park West","id":"a6bzrhv4l289","longitude":18.7123},"type":"Feature","geometry":{"type":"Point","coordinates":[18.7123,-33.8524]}},{"properties":{"latitude":-33.8535,"total":2029,"suburb":"Kraaifontein","id":"a6bzri6erwo0","longitude":18.7194},"type":"Feature","geometry":{"type":"Point","coordinates":[18.7194,-33.8535]}},{"properties":{"latitude":-33.8822,"total":873,"suburb":"Kleinhoewes","id":"a6bzri4shu0o","longitude":18.6721},"type":"Feature","geometry":{"type":"Point","coordinates":[18.6721,-33.8822]}},{"properties":{"latitude":-33.8773,"total":104,"suburb":"Hoogstede","id":"a6bzrhy4wnk6","longitude":18.6778},"type":"Feature","geometry":{"type":"Point","coordinates":[18.6778,-33.8773]}},{"properties":{"latitude":-33.8799,"total":3878,"suburb":"Springbokpark","id":"a6bzrhvqmfys","longitude":18.6828},"type":"Feature","geometry":{"type":"Point","coordinates":[18.6828,-33.8799]}},{"properties":{"latitude":-33.873,"total":247,"suburb":"Arauna","id":"a6bzri39d77l","longitude":18.6851},"type":"Feature","geometry":{"type":"Point","coordinates":[18.6851,-33.873]}},{"properties":{"latitude":-33.8694,"total":859,"suburb":"Edenpark","id":"a6bzri714l3n","longitude":18.6783},"type":"Feature","geometry":{"type":"Point","coordinates":[18.6783,-33.8694]}},{"properties":{"latitude":-33.8741,"total":51,"suburb":"Bracken Heights","id":"a6bzrhuqps7z","longitude":18.6779},"type":"Feature","geometry":{"type":"Point","coordinates":[18.6779,-33.8741]}},{"properties":{"latitude":-33.8681,"total":917,"suburb":"Vredekloof Rand","id":"a6bzrhwbh6zb","longitude":18.6725},"type":"Feature","geometry":{"type":"Point","coordinates":[18.6725,-33.8681]}},{"properties":{"latitude":-33.8634,"total":172,"suburb":"Vredekloof","id":"a6bzri6lmxuk","longitude":18.6769},"type":"Feature","geometry":{"type":"Point","coordinates":[18.6769,-33.8634]}},{"properties":{"latitude":-33.8618,"total":372,"suburb":"Saint Kilda","id":"a6bzrhvvfz8s","longitude":18.6901},"type":"Feature","geometry":{"type":"Point","coordinates":[18.6901,-33.8618]}},{"properties":{"latitude":-33.8622,"total":798,"suburb":"Welgelee","id":"a6bzrhsou3m6","longitude":18.6885},"type":"Feature","geometry":{"type":"Point","coordinates":[18.6885,-33.8622]}},{"properties":{"latitude":-33.857,"total":852,"suburb":"De Tuin","id":"a6bzri5n5jul","longitude":18.6907},"type":"Feature","geometry":{"type":"Point","coordinates":[18.6907,-33.857]}},{"properties":{"latitude":-33.8762,"total":636,"suburb":"Vredenberg","id":"a6bzri7j1a58","longitude":18.6679},"type":"Feature","geometry":{"type":"Point","coordinates":[18.6679,-33.8762]}},{"properties":{"latitude":-33.8689,"total":37,"suburb":"Silverstream","id":"a6bzri0rqs52","longitude":18.6658},"type":"Feature","geometry":{"type":"Point","coordinates":[18.6658,-33.8689]}},{"properties":{"latitude":-33.8715,"total":362,"suburb":"East Rock","id":"a6bzrhvcrmco","longitude":18.6647},"type":"Feature","geometry":{"type":"Point","coordinates":[18.6647,-33.8715]}},{"properties":{"latitude":-33.8668,"total":1674,"suburb":"Brackenfell Industria","id":"a6bzri7odt9o","longitude":18.7063},"type":"Feature","geometry":{"type":"Point","coordinates":[18.7063,-33.8668]}},{"properties":{"latitude":-33.8681,"total":588,"suburb":"Northpine","id":"a6bzri3jpevu","longitude":18.7119},"type":"Feature","geometry":{"type":"Point","coordinates":[18.7119,-33.8681]}},{"properties":{"latitude":-33.8656,"total":24,"suburb":"Stellenryk","id":"a6bzri6hk1ux","longitude":18.6637},"type":"Feature","geometry":{"type":"Point","coordinates":[18.6637,-33.8656]}},{"properties":{"latitude":-33.8369,"total":945,"suburb":"Bonny Brook","id":"a6bzri3b8e1u","longitude":18.7026},"type":"Feature","geometry":{"type":"Point","coordinates":[18.7026,-33.8369]}},{"properties":{"latitude":-33.8414,"total":441,"suburb":"Zoo Park","id":"a6bzrhwtkx36","longitude":18.7012},"type":"Feature","geometry":{"type":"Point","coordinates":[18.7012,-33.8414]}},{"properties":{"latitude":-33.8476,"total":356,"suburb":"Amanda Glen","id":"a6bzrhxkc6oa","longitude":18.6738},"type":"Feature","geometry":{"type":"Point","coordinates":[18.6738,-33.8476]}},{"properties":{"latitude":-33.8533,"total":867,"suburb":"Scottsville","id":"a6bzrhwqurko","longitude":18.7055},"type":"Feature","geometry":{"type":"Point","coordinates":[18.7055,-33.8533]}},{"properties":{"latitude":-33.8632,"total":95,"suburb":"Brackenfell North","id":"a6bzrhvkhj6t","longitude":18.6704},"type":"Feature","geometry":{"type":"Point","coordinates":[18.6704,-33.8632]}},{"properties":{"latitude":-33.8509,"total":47,"suburb":"Vredekloof Heights","id":"a6bzrhxsabfc","longitude":18.6874},"type":"Feature","geometry":{"type":"Point","coordinates":[18.6874,-33.8509]}},{"properties":{"latitude":-33.8928,"total":3350,"suburb":"Groenvallei","id":"a6bzri1fklay","longitude":18.6711},"type":"Feature","geometry":{"type":"Point","coordinates":[18.6711,-33.8928]}},{"properties":{"latitude":-33.8821,"total":483,"suburb":"Old Oak","id":"a6bzrhytuiiw","longitude":18.6629},"type":"Feature","geometry":{"type":"Point","coordinates":[18.6629,-33.8821]}},{"properties":{"latitude":-33.8427,"total":262,"suburb":"Langeberg Ridge","id":"a6bzri5yxlhx","longitude":18.6924},"type":"Feature","geometry":{"type":"Point","coordinates":[18.6924,-33.8427]}},{"properties":{"latitude":-33.8533,"total":3719,"suburb":"Cape Gate","id":"a6bzrhuu1mr8","longitude":18.6935},"type":"Feature","geometry":{"type":"Point","coordinates":[18.6935,-33.8533]}},{"properties":{"latitude":-33.8482,"total":419,"suburb":"Windsor Park","id":"a6bzrhvlyzkt","longitude":18.7067},"type":"Feature","geometry":{"type":"Point","coordinates":[18.7067,-33.8482]}},{"properties":{"latitude":-33.8816,"total":210,"suburb":"Ruwari","id":"a6bzrhvq5at6","longitude":18.7077},"type":"Feature","geometry":{"type":"Point","coordinates":[18.7077,-33.8816]}},{"properties":{"latitude":-33.8354,"total":243,"suburb":"Langeberg Glen","id":"a6bzrhybgosd","longitude":18.6931},"type":"Feature","geometry":{"type":"Point","coordinates":[18.6931,-33.8354]}},{"properties":{"latitude":-33.8325,"total":57,"suburb":"Bonnie Brae","id":"a6bzri8zajey","longitude":18.7038},"type":"Feature","geometry":{"type":"Point","coordinates":[18.7038,-33.8325]}},{"properties":{"latitude":-33.8757,"total":1135,"suburb":"Everite","id":"a6bzrhwzjby7","longitude":18.7059},"type":"Feature","geometry":{"type":"Point","coordinates":[18.7059,-33.8757]}},{"properties":{"latitude":-33.8408,"total":665,"suburb":"Windsor Estate","id":"a6bzri4uc7kf","longitude":18.7105},"type":"Feature","geometry":{"type":"Point","coordinates":[18.7105,-33.8408]}},{"properties":{"latitude":-33.8389,"total":7165,"suburb":"Peerless Park North","id":"a6bzrhx96lq6","longitude":18.72},"type":"Feature","geometry":{"type":"Point","coordinates":[18.72,-33.8389]}},{"properties":{"latitude":-33.8545,"total":2501,"suburb":"Klein Begin","id":"a6bzri0qyozi","longitude":18.7292},"type":"Feature","geometry":{"type":"Point","coordinates":[18.7292,-33.8545]}},{"properties":{"latitude":-33.8442,"total":734,"suburb":"Peerless Park East","id":"a6bzri8ftzk3","longitude":18.7213},"type":"Feature","geometry":{"type":"Point","coordinates":[18.7213,-33.8442]}},{"properties":{"latitude":-33.8472,"total":10677,"suburb":"Belmont Park","id":"a6bzri3bgvpm","longitude":18.7298},"type":"Feature","geometry":{"type":"Point","coordinates":[18.7298,-33.8472]}},{"properties":{"latitude":-33.8343,"total":2670,"suburb":"Kraaifontein Industy","id":"a6bzri47cuf2","longitude":18.7318},"type":"Feature","geometry":{"type":"Point","coordinates":[18.7318,-33.8343]}},{"properties":{"latitude":-33.8605,"total":1891,"suburb":"Wallacedene","id":"a6bzri7fy4qr","longitude":18.7318},"type":"Feature","geometry":{"type":"Point","coordinates":[18.7318,-33.8605]}},{"properties":{"latitude":-33.9343,"total":2172,"suburb":"The Range","id":"a6bzri0ucq6n","longitude":18.5699},"type":"Feature","geometry":{"type":"Point","coordinates":[18.5699,-33.9343]}},{"properties":{"latitude":-33.9318,"total":429,"suburb":"Connaught","id":"a6bzrhvfsfuk","longitude":18.5901},"type":"Feature","geometry":{"type":"Point","coordinates":[18.5901,-33.9318]}},{"properties":{"latitude":-33.9385,"total":1317,"suburb":"Uitsig","id":"a6bzri1b11ik","longitude":18.5989},"type":"Feature","geometry":{"type":"Point","coordinates":[18.5989,-33.9385]}},{"properties":{"latitude":-33.9253,"total":669,"suburb":"Avonwood","id":"a6bzri1fm1p5","longitude":18.5805},"type":"Feature","geometry":{"type":"Point","coordinates":[18.5805,-33.9253]}},{"properties":{"latitude":-33.9343,"total":141,"suburb":"Epping Forest","id":"a6bzrhvrg30c","longitude":18.5745},"type":"Feature","geometry":{"type":"Point","coordinates":[18.5745,-33.9343]}},{"properties":{"latitude":-33.94,"total":263,"suburb":"Clarkes","id":"a6bzri3l1vki","longitude":18.5815},"type":"Feature","geometry":{"type":"Point","coordinates":[18.5815,-33.94]}},{"properties":{"latitude":-33.9388,"total":507,"suburb":"Eureka","id":"a6bzri4xa87y","longitude":18.5906},"type":"Feature","geometry":{"type":"Point","coordinates":[18.5906,-33.9388]}},{"properties":{"latitude":-33.9402,"total":611,"suburb":"Adriaanse","id":"a6bzri8sge10","longitude":18.5886},"type":"Feature","geometry":{"type":"Point","coordinates":[18.5886,-33.9402]}},{"properties":{"latitude":-33.9339,"total":437,"suburb":"Elnor","id":"a6bzrhtigy2b","longitude":18.5798},"type":"Feature","geometry":{"type":"Point","coordinates":[18.5798,-33.9339]}},{"properties":{"latitude":-33.9202,"total":482,"suburb":"Avon","id":"a6bzrhzora29","longitude":18.5707},"type":"Feature","geometry":{"type":"Point","coordinates":[18.5707,-33.9202]}},{"properties":{"latitude":-33.9321,"total":179,"suburb":"Balvenie","id":"a6bzrhwvr7aw","longitude":18.5822},"type":"Feature","geometry":{"type":"Point","coordinates":[18.5822,-33.9321]}},{"properties":{"latitude":-33.9258,"total":1133,"suburb":"Cravenby","id":"a6bzri28cdl7","longitude":18.5888},"type":"Feature","geometry":{"type":"Point","coordinates":[18.5888,-33.9258]}},{"properties":{"latitude":-33.9276,"total":471,"suburb":"Salberau","id":"a6bzri38s0mq","longitude":18.5708},"type":"Feature","geometry":{"type":"Point","coordinates":[18.5708,-33.9276]}},{"properties":{"latitude":-33.9267,"total":99,"suburb":"Norwood","id":"a6bzri2jkfnz","longitude":18.5732},"type":"Feature","geometry":{"type":"Point","coordinates":[18.5732,-33.9267]}},{"properties":{"latitude":-33.8897,"total":485,"suburb":"De Tijger","id":"a6bzri8938bb","longitude":18.5945},"type":"Feature","geometry":{"type":"Point","coordinates":[18.5945,-33.8897]}},{"properties":{"latitude":-33.9064,"total":1756,"suburb":"Richmond","id":"a6bzrhz7kp2e","longitude":18.5741},"type":"Feature","geometry":{"type":"Point","coordinates":[18.5741,-33.9064]}},{"properties":{"latitude":-33.8966,"total":521,"suburb":"Clamhall","id":"a6bzri4p4e1s","longitude":18.5892},"type":"Feature","geometry":{"type":"Point","coordinates":[18.5892,-33.8966]}},{"properties":{"latitude":-33.8989,"total":80,"suburb":"Churchhill Estate","id":"a6bzri1qsndi","longitude":18.5775},"type":"Feature","geometry":{"type":"Point","coordinates":[18.5775,-33.8989]}},{"properties":{"latitude":-34.3329,"total":451,"suburb":"Kleinmond","id":"a6bzrhx37525","longitude":19.0175},"type":"Feature","geometry":{"type":"Point","coordinates":[19.0175,-34.3329]}},{"properties":{"latitude":-34.3878,"total":634,"suburb":"Hawston","id":"a6bzri1aewqf","longitude":19.1322},"type":"Feature","geometry":{"type":"Point","coordinates":[19.1322,-34.3878]}},{"properties":{"latitude":-34.4088,"total":255,"suburb":"Onrus","id":"a6bzri5mb9mj","longitude":19.1836},"type":"Feature","geometry":{"type":"Point","coordinates":[19.1836,-34.4088]}},{"properties":{"latitude":-34.414,"total":562,"suburb":"Vermont","id":"a6bzri16nbhw","longitude":19.1548},"type":"Feature","geometry":{"type":"Point","coordinates":[19.1548,-34.414]}},{"properties":{"latitude":-34.0992,"total":39,"suburb":"Noordhaven","id":"a6bzri75a0fz","longitude":18.387},"type":"Feature","geometry":{"type":"Point","coordinates":[18.387,-34.0992]}},{"properties":{"latitude":-34.101,"total":32,"suburb":"Belvedere Noordhoek","id":"a6bzri2aigtd","longitude":18.3912},"type":"Feature","geometry":{"type":"Point","coordinates":[18.3912,-34.101]}},{"properties":{"latitude":-34.1045,"total":38,"suburb":"San Michel","id":"a6bzri941mmy","longitude":18.3928},"type":"Feature","geometry":{"type":"Point","coordinates":[18.3928,-34.1045]}},{"properties":{"latitude":-34.1066,"total":1004,"suburb":"Noordhoek Manor","id":"a6bzri5dadrt","longitude":18.3998},"type":"Feature","geometry":{"type":"Point","coordinates":[18.3998,-34.1066]}},{"properties":{"latitude":-33.9128,"total":561,"suburb":"Elsies River Industrial","id":"a6bzrhtdbm3n","longitude":18.5726},"type":"Feature","geometry":{"type":"Point","coordinates":[18.5726,-33.9128]}},{"properties":{"latitude":-33.8936,"total":103,"suburb":"Parow Golf Course","id":"a6bzri0z9be0","longitude":18.5737},"type":"Feature","geometry":{"type":"Point","coordinates":[18.5737,-33.8936]}},{"properties":{"latitude":-33.9017,"total":945,"suburb":"Richmond Estate","id":"a6bzri1jaw0u","longitude":18.5665},"type":"Feature","geometry":{"type":"Point","coordinates":[18.5665,-33.9017]}},{"properties":{"latitude":-33.9078,"total":1752,"suburb":"Parow","id":"a6bzri62lkix","longitude":18.5843},"type":"Feature","geometry":{"type":"Point","coordinates":[18.5843,-33.9078]}},{"properties":{"latitude":-33.9034,"total":111,"suburb":"Glenlily","id":"a6bzrhzkk1xi","longitude":18.5806},"type":"Feature","geometry":{"type":"Point","coordinates":[18.5806,-33.9034]}},{"properties":{"latitude":-33.9158,"total":2986,"suburb":"Beaconvale","id":"a6bzrhx6i8ic","longitude":18.5839},"type":"Feature","geometry":{"type":"Point","coordinates":[18.5839,-33.9158]}},{"properties":{"latitude":-33.9184,"total":660,"suburb":"Leonsdale","id":"a6bzri4k0ukk","longitude":18.5782},"type":"Feature","geometry":{"type":"Point","coordinates":[18.5782,-33.9184]}},{"properties":{"latitude":-33.9132,"total":890,"suburb":"Parow Valley","id":"a6bzrhwfp7l9","longitude":18.5928},"type":"Feature","geometry":{"type":"Point","coordinates":[18.5928,-33.9132]}},{"properties":{"latitude":-33.9235,"total":2225,"suburb":"Ravensmead","id":"a6bzrhvy8lsl","longitude":18.6063},"type":"Feature","geometry":{"type":"Point","coordinates":[18.6063,-33.9235]}},{"properties":{"latitude":-33.9055,"total":2526,"suburb":"Parow East","id":"a6bzri4e5vzc","longitude":18.6009},"type":"Feature","geometry":{"type":"Point","coordinates":[18.6009,-33.9055]}},{"properties":{"latitude":-33.9244,"total":229,"suburb":"Florida","id":"a6bzri2qxpf4","longitude":18.5941},"type":"Feature","geometry":{"type":"Point","coordinates":[18.5941,-33.9244]}},{"properties":{"latitude":-33.9115,"total":1426,"suburb":"Klipkop","id":"a6bzrhuqji83","longitude":18.6042},"type":"Feature","geometry":{"type":"Point","coordinates":[18.6042,-33.9115]}},{"properties":{"latitude":-33.9139,"total":490,"suburb":"Blanc Kelly","id":"a6bzrhu61w5l","longitude":18.636},"type":"Feature","geometry":{"type":"Point","coordinates":[18.636,-33.9139]}},{"properties":{"latitude":-33.9213,"total":740,"suburb":"Green Lands","id":"a6bzri7r304y","longitude":18.6331},"type":"Feature","geometry":{"type":"Point","coordinates":[18.6331,-33.9213]}},{"properties":{"latitude":-33.9265,"total":1990,"suburb":"Steel Park","id":"a6bzrhubjt2g","longitude":18.6333},"type":"Feature","geometry":{"type":"Point","coordinates":[18.6333,-33.9265]}},{"properties":{"latitude":-33.9207,"total":659,"suburb":"Bellville South","id":"a6bzrhz4ds9l","longitude":18.6383},"type":"Feature","geometry":{"type":"Point","coordinates":[18.6383,-33.9207]}},{"properties":{"latitude":-33.9187,"total":43,"suburb":"Kasselvlei","id":"a6bzri053q44","longitude":18.6468},"type":"Feature","geometry":{"type":"Point","coordinates":[18.6468,-33.9187]}},{"properties":{"latitude":-33.9151,"total":607,"suburb":"Beroma","id":"a6bzri7rioqf","longitude":18.6533},"type":"Feature","geometry":{"type":"Point","coordinates":[18.6533,-33.9151]}},{"properties":{"latitude":-33.9122,"total":948,"suburb":"Saxon Industrial","id":"a6bzri8bv3ph","longitude":18.6468},"type":"Feature","geometry":{"type":"Point","coordinates":[18.6468,-33.9122]}},{"properties":{"latitude":-33.9328,"total":822,"suburb":"University of the Western Cape","id":"a6bzrhve9e0u","longitude":18.6248},"type":"Feature","geometry":{"type":"Point","coordinates":[18.6248,-33.9328]}},{"properties":{"latitude":-33.9188,"total":65,"suburb":"Mimosa","id":"a6bzri2o91lm","longitude":18.6431},"type":"Feature","geometry":{"type":"Point","coordinates":[18.6431,-33.9188]}},{"properties":{"latitude":-33.9205,"total":491,"suburb":"Bellville South Industrial","id":"a6bzri8lfaih","longitude":18.6452},"type":"Feature","geometry":{"type":"Point","coordinates":[18.6452,-33.9205]}},{"properties":{"latitude":-33.9421,"total":981,"suburb":"Erica Township","id":"a6bzri487ljd","longitude":18.616},"type":"Feature","geometry":{"type":"Point","coordinates":[18.616,-33.9421]}},{"properties":{"latitude":-33.9316,"total":2436,"suburb":"Parow Industrial","id":"a6bzri2wsrja","longitude":18.6126},"type":"Feature","geometry":{"type":"Point","coordinates":[18.6126,-33.9316]}},{"properties":{"latitude":-33.6718,"total":908,"suburb":"Koeberg","id":"a6bzrhvunrkj","longitude":18.4441},"type":"Feature","geometry":{"type":"Point","coordinates":[18.4441,-33.6718]}},{"properties":{"latitude":-33.8529,"total":512,"suburb":"Sunset Beach","id":"a6bzrhucblce","longitude":18.492},"type":"Feature","geometry":{"type":"Point","coordinates":[18.492,-33.8529]}},{"properties":{"latitude":-33.8047,"total":765,"suburb":"Parklands","id":"a6bzrhwplqr0","longitude":18.5037},"type":"Feature","geometry":{"type":"Point","coordinates":[18.5037,-33.8047]}},{"properties":{"latitude":-33.8246,"total":3163,"suburb":"Table View","id":"a6bzri3y5hr5","longitude":18.4943},"type":"Feature","geometry":{"type":"Point","coordinates":[18.4943,-33.8246]}},{"properties":{"latitude":-33.8672,"total":73,"suburb":"Sunsetlinks","id":"a6bzri1a0r9h","longitude":18.4908},"type":"Feature","geometry":{"type":"Point","coordinates":[18.4908,-33.8672]}},{"properties":{"latitude":-33.8864,"total":1657,"suburb":"Tijgerhof","id":"a6bzrhxs1191","longitude":18.4987},"type":"Feature","geometry":{"type":"Point","coordinates":[18.4987,-33.8864]}},{"properties":{"latitude":-33.8849,"total":199,"suburb":"Plattekloof Glen","id":"a6bzri0rtru4","longitude":18.5589},"type":"Feature","geometry":{"type":"Point","coordinates":[18.5589,-33.8849]}},{"properties":{"latitude":-33.8559,"total":206,"suburb":"Durbell","id":"a6bzri6532fj","longitude":18.6432},"type":"Feature","geometry":{"type":"Point","coordinates":[18.6432,-33.8559]}},{"properties":{"latitude":-33.8566,"total":4,"suburb":"Everglen","id":"a6bzri6jcwa7","longitude":18.6478},"type":"Feature","geometry":{"type":"Point","coordinates":[18.6478,-33.8566]}},{"properties":{"latitude":-33.8633,"total":176,"suburb":"Protea Valley","id":"a6bzrhv5qfvj","longitude":18.6165},"type":"Feature","geometry":{"type":"Point","coordinates":[18.6165,-33.8633]}},{"properties":{"latitude":-33.8592,"total":22,"suburb":"Everdal","id":"a6bzri108wdh","longitude":18.652},"type":"Feature","geometry":{"type":"Point","coordinates":[18.652,-33.8592]}},{"properties":{"latitude":-33.8729,"total":92,"suburb":"Welgemoed","id":"a6bzri7tm2jg","longitude":18.6115},"type":"Feature","geometry":{"type":"Point","coordinates":[18.6115,-33.8729]}},{"properties":{"latitude":-33.8572,"total":4,"suburb":"Kenridge","id":"a6bzri8sxuav","longitude":18.637},"type":"Feature","geometry":{"type":"Point","coordinates":[18.637,-33.8572]}},{"properties":{"latitude":-33.8453,"total":406,"suburb":"Springfield","id":"a6bzri1h5e3a","longitude":18.6082},"type":"Feature","geometry":{"type":"Point","coordinates":[18.6082,-33.8453]}},{"properties":{"latitude":-33.863,"total":5,"suburb":"Welgedacht","id":"a6bzri8a9kca","longitude":18.6052},"type":"Feature","geometry":{"type":"Point","coordinates":[18.6052,-33.863]}},{"properties":{"latitude":-33.8711,"total":996,"suburb":"Danena","id":"a6bzrhw5010w","longitude":18.6399},"type":"Feature","geometry":{"type":"Point","coordinates":[18.6399,-33.8711]}},{"properties":{"latitude":-33.8716,"total":360,"suburb":"O'Kennedyville","id":"a6bzrhukumna","longitude":18.642},"type":"Feature","geometry":{"type":"Point","coordinates":[18.642,-33.8716]}},{"properties":{"latitude":-33.8678,"total":198,"suburb":"Rosenpark","id":"a6bzrhyqci15","longitude":18.6413},"type":"Feature","geometry":{"type":"Point","coordinates":[18.6413,-33.8678]}},{"properties":{"latitude":-33.8669,"total":30,"suburb":"Rosendal","id":"a6bzrhyuabvh","longitude":18.6441},"type":"Feature","geometry":{"type":"Point","coordinates":[18.6441,-33.8669]}},{"properties":{"latitude":-33.8636,"total":280,"suburb":"Kenever","id":"a6bzrhtj7lgy","longitude":18.6373},"type":"Feature","geometry":{"type":"Point","coordinates":[18.6373,-33.8636]}},{"properties":{"latitude":-33.8641,"total":40,"suburb":"Door de Kraal","id":"a6bzrhvriy4g","longitude":18.6238},"type":"Feature","geometry":{"type":"Point","coordinates":[18.6238,-33.8641]}},{"properties":{"latitude":-33.8891,"total":1661,"suburb":"Belvedere","id":"a6bzrhwhqx8p","longitude":18.5993},"type":"Feature","geometry":{"type":"Point","coordinates":[18.5993,-33.8891]}},{"properties":{"latitude":-33.8841,"total":493,"suburb":"Kaapzicht","id":"a6bzri304aaw","longitude":18.5652},"type":"Feature","geometry":{"type":"Point","coordinates":[18.5652,-33.8841]}},{"properties":{"latitude":-33.9555,"total":2322,"suburb":"Rosebank","id":"a6bzrhwjpeux","longitude":18.4742},"type":"Feature","geometry":{"type":"Point","coordinates":[18.4742,-33.9555]}},{"properties":{"latitude":-33.956,"total":3986,"suburb":"Sybrand Park","id":"a6bzri7v9bal","longitude":18.4985},"type":"Feature","geometry":{"type":"Point","coordinates":[18.4985,-33.956]}},{"properties":{"latitude":-33.9508,"total":4404,"suburb":"Mowbray","id":"a6bzri4fjtar","longitude":18.4846},"type":"Feature","geometry":{"type":"Point","coordinates":[18.4846,-33.9508]}},{"properties":{"latitude":-34.0184,"total":833,"suburb":"Barbarossa","id":"a6bzri4gaeij","longitude":18.4527},"type":"Feature","geometry":{"type":"Point","coordinates":[18.4527,-34.0184]}},{"properties":{"latitude":-34.0395,"total":49,"suburb":"Klein Constantia","id":"a6bzrhxunl5t","longitude":18.4091},"type":"Feature","geometry":{"type":"Point","coordinates":[18.4091,-34.0395]}},{"properties":{"latitude":-34.031,"total":45,"suburb":"Groot Bosch","id":"a6bzrhvoobd6","longitude":18.4059},"type":"Feature","geometry":{"type":"Point","coordinates":[18.4059,-34.031]}},{"properties":{"latitude":-34.043,"total":44,"suburb":"Clunie","id":"a6bzri2g8f1p","longitude":18.4161},"type":"Feature","geometry":{"type":"Point","coordinates":[18.4161,-34.043]}},{"properties":{"latitude":-34.0384,"total":25,"suburb":"Airlie","id":"a6bzrhzqv1ca","longitude":18.4346},"type":"Feature","geometry":{"type":"Point","coordinates":[18.4346,-34.0384]}},{"properties":{"latitude":-34.031,"total":38,"suburb":"Groot Constantia","id":"a6bzri86vfo9","longitude":18.4198},"type":"Feature","geometry":{"type":"Point","coordinates":[18.4198,-34.031]}},{"properties":{"latitude":-34.0154,"total":278,"suburb":"Witteboomen","id":"a6bzri88t71i","longitude":18.4184},"type":"Feature","geometry":{"type":"Point","coordinates":[18.4184,-34.0154]}},{"properties":{"latitude":-34.0329,"total":10,"suburb":"Huis-en-Bos","id":"a6bzri097k5d","longitude":18.4299},"type":"Feature","geometry":{"type":"Point","coordinates":[18.4299,-34.0329]}},{"properties":{"latitude":-34.0258,"total":152,"suburb":"Pagasvlei","id":"a6bzrhyv68ie","longitude":18.4315},"type":"Feature","geometry":{"type":"Point","coordinates":[18.4315,-34.0258]}},{"properties":{"latitude":-34.0273,"total":264,"suburb":"Sillary","id":"a6bzri5dhhyv","longitude":18.4391},"type":"Feature","geometry":{"type":"Point","coordinates":[18.4391,-34.0273]}},{"properties":{"latitude":-34.0358,"total":414,"suburb":"Belle Constantia","id":"a6bzrhzlkukb","longitude":18.4407},"type":"Feature","geometry":{"type":"Point","coordinates":[18.4407,-34.0358]}},{"properties":{"latitude":-34.0218,"total":634,"suburb":"Constantia Village","id":"a6bzri8w4tvi","longitude":18.4413},"type":"Feature","geometry":{"type":"Point","coordinates":[18.4413,-34.0218]}},{"properties":{"latitude":-34.0218,"total":132,"suburb":"Constantia Vale","id":"a6bzrhxhowdn","longitude":18.4342},"type":"Feature","geometry":{"type":"Point","coordinates":[18.4342,-34.0218]}},{"properties":{"latitude":-34.0024,"total":249,"suburb":"Hohenort","id":"a6bzri4ogdnd","longitude":18.4339},"type":"Feature","geometry":{"type":"Point","coordinates":[18.4339,-34.0024]}},{"properties":{"latitude":-34.0511,"total":121,"suburb":"Sweet Valley","id":"a6bzri7m2gbm","longitude":18.4395},"type":"Feature","geometry":{"type":"Point","coordinates":[18.4395,-34.0511]}},{"properties":{"latitude":-34.0456,"total":51,"suburb":"Fir Grove","id":"a6bzri5ldk77","longitude":18.4357},"type":"Feature","geometry":{"type":"Point","coordinates":[18.4357,-34.0456]}},{"properties":{"latitude":-34.0557,"total":40,"suburb":"Dennendal","id":"a6bzrhu13fla","longitude":18.4404},"type":"Feature","geometry":{"type":"Point","coordinates":[18.4404,-34.0557]}},{"properties":{"latitude":-34.0632,"total":171,"suburb":"Tokai","id":"a6bzrhxraxxi","longitude":18.441},"type":"Feature","geometry":{"type":"Point","coordinates":[18.441,-34.0632]}},{"properties":{"latitude":-34.0604,"total":329,"suburb":"Forest Glade","id":"a6bzri1v3kzq","longitude":18.4307},"type":"Feature","geometry":{"type":"Point","coordinates":[18.4307,-34.0604]}},{"properties":{"latitude":-34.0689,"total":231,"suburb":"Pollsmoor","id":"a6bzri4oec8s","longitude":18.4405},"type":"Feature","geometry":{"type":"Point","coordinates":[18.4405,-34.0689]}},{"properties":{"latitude":-34.0264,"total":2109,"suburb":"Plumstead","id":"a6bzri4mvkpu","longitude":18.4723},"type":"Feature","geometry":{"type":"Point","coordinates":[18.4723,-34.0264]}},{"properties":{"latitude":-34.0191,"total":1633,"suburb":"Royal Cape","id":"a6bzri7vxnt1","longitude":18.4884},"type":"Feature","geometry":{"type":"Point","coordinates":[18.4884,-34.0191]}},{"properties":{"latitude":-34.0072,"total":2563,"suburb":"Youngsfield","id":"a6bzri55wv5m","longitude":18.4904},"type":"Feature","geometry":{"type":"Point","coordinates":[18.4904,-34.0072]}},{"properties":{"latitude":-34.0445,"total":414,"suburb":"Elfindale","id":"a6bzri0bjagc","longitude":18.4752},"type":"Feature","geometry":{"type":"Point","coordinates":[18.4752,-34.0445]}},{"properties":{"latitude":-34.036,"total":1464,"suburb":"Southfield","id":"a6bzrhtqhxbx","longitude":18.4855},"type":"Feature","geometry":{"type":"Point","coordinates":[18.4855,-34.036]}},{"properties":{"latitude":-34.0359,"total":5690,"suburb":"Parkwood","id":"a6bzri1y4c8r","longitude":18.4945},"type":"Feature","geometry":{"type":"Point","coordinates":[18.4945,-34.0359]}},{"properties":{"latitude":-34.0477,"total":4138,"suburb":"Grassy Park","id":"a6bzrhw1mm8n","longitude":18.4994},"type":"Feature","geometry":{"type":"Point","coordinates":[18.4994,-34.0477]}},{"properties":{"latitude":-34.0914,"total":10,"suburb":"Farmsteads","id":"a6bzrhyi8xvs","longitude":18.3762},"type":"Feature","geometry":{"type":"Point","coordinates":[18.3762,-34.0914]}},{"properties":{"latitude":-34.1035,"total":156,"suburb":"Meadowsteads","id":"a6bzrhui0k1u","longitude":18.3783},"type":"Feature","geometry":{"type":"Point","coordinates":[18.3783,-34.1035]}},{"properties":{"latitude":-34.1389,"total":346,"suburb":"Imhoff's Gift","id":"a6bzri8ykrts","longitude":18.3568},"type":"Feature","geometry":{"type":"Point","coordinates":[18.3568,-34.1389]}},{"properties":{"latitude":-34.1531,"total":259,"suburb":"Ocean View","id":"a6bzri8ed0tf","longitude":18.3425},"type":"Feature","geometry":{"type":"Point","coordinates":[18.3425,-34.1531]}},{"properties":{"latitude":-33.8957,"total":253,"suburb":"Joostenville","id":"a6bzrhswtxle","longitude":18.6133},"type":"Feature","geometry":{"type":"Point","coordinates":[18.6133,-33.8957]}},{"properties":{"latitude":-33.8957,"total":330,"suburb":"Vredelust","id":"a6bzri77n735","longitude":18.6117},"type":"Feature","geometry":{"type":"Point","coordinates":[18.6117,-33.8957]}},{"properties":{"latitude":-33.9189,"total":312,"suburb":"Transnet Marshalling Yard","id":"a6bzri91pg49","longitude":18.6221},"type":"Feature","geometry":{"type":"Point","coordinates":[18.6221,-33.9189]}},{"properties":{"latitude":-34.3041,"total":114,"suburb":"Rooiels Bay","id":"a6bzrhzy2xod","longitude":18.8177},"type":"Feature","geometry":{"type":"Point","coordinates":[18.8177,-34.3041]}},{"properties":{"latitude":-34.363,"total":116,"suburb":"Silversands","id":"a6bzri87fhzx","longitude":18.8758},"type":"Feature","geometry":{"type":"Point","coordinates":[18.8758,-34.363]}},{"properties":{"latitude":-34.3593,"total":108,"suburb":"Sunny Seas Estate","id":"a6bzrhxkvdh5","longitude":18.961},"type":"Feature","geometry":{"type":"Point","coordinates":[18.961,-34.3593]}},{"properties":{"latitude":-34.4171,"total":1539,"suburb":"Hermanus","id":"a6bzri22z3gj","longitude":19.2379},"type":"Feature","geometry":{"type":"Point","coordinates":[19.2379,-34.4171]}},{"properties":{"latitude":-33.8857,"total":1713,"suburb":"Sanddrift","id":"a6bzri1mv99s","longitude":18.5064},"type":"Feature","geometry":{"type":"Point","coordinates":[18.5064,-33.8857]}},{"properties":{"latitude":-33.8103,"total":4500,"suburb":"Welgelegen","id":"a6bzrhu3ssg0","longitude":18.5377},"type":"Feature","geometry":{"type":"Point","coordinates":[18.5377,-33.8103]}},{"properties":{"latitude":-33.7693,"total":4544,"suburb":"Vissershok","id":"a6bzri8gqm7m","longitude":18.5431},"type":"Feature","geometry":{"type":"Point","coordinates":[18.5431,-33.7693]}},{"properties":{"latitude":-33.8195,"total":6148,"suburb":"Du Noon","id":"a6bzrhwi4nqo","longitude":18.5398},"type":"Feature","geometry":{"type":"Point","coordinates":[18.5398,-33.8195]}},{"properties":{"latitude":-34.022,"total":740,"suburb":"Fairways","id":"a6bzri1czkhg","longitude":18.4927},"type":"Feature","geometry":{"type":"Point","coordinates":[18.4927,-34.022]}},{"properties":{"latitude":-34.0224,"total":171,"suburb":"Otyhouse Estate","id":"a6bzri2i2vl2","longitude":18.5073},"type":"Feature","geometry":{"type":"Point","coordinates":[18.5073,-34.0224]}},{"properties":{"latitude":-33.849,"total":192,"suburb":"Durbanville Hills","id":"a6bzri5hrj80","longitude":18.6405},"type":"Feature","geometry":{"type":"Point","coordinates":[18.6405,-33.849]}},{"properties":{"latitude":-33.8474,"total":10,"suburb":"Vygeboom","id":"a6bzrhw9gwpc","longitude":18.6513},"type":"Feature","geometry":{"type":"Point","coordinates":[18.6513,-33.8474]}},{"properties":{"latitude":-33.8525,"total":24,"suburb":"Everdal Heights","id":"a6bzri0xvdyo","longitude":18.6508},"type":"Feature","geometry":{"type":"Point","coordinates":[18.6508,-33.8525]}},{"properties":{"latitude":-33.8063,"total":1013,"suburb":"Klapmuts","id":"a6bzri7pko4o","longitude":18.8676},"type":"Feature","geometry":{"type":"Point","coordinates":[18.8676,-33.8063]}},{"properties":{"latitude":-33.8127,"total":4638,"suburb":"Bennetsville","id":"a6bzri2xxgi2","longitude":18.8637},"type":"Feature","geometry":{"type":"Point","coordinates":[18.8637,-33.8127]}},{"properties":{"latitude":-33.8652,"total":20901,"suburb":"Montague Gardens","id":"a6bzri8xoep0","longitude":18.5225},"type":"Feature","geometry":{"type":"Point","coordinates":[18.5225,-33.8652]}},{"properties":{"latitude":-33.8499,"total":4697,"suburb":"Milnerton Ridge","id":"a6bzri3a6hbq","longitude":18.5136},"type":"Feature","geometry":{"type":"Point","coordinates":[18.5136,-33.8499]}},{"properties":{"latitude":-34.0352,"total":416,"suburb":"Meadowridge","id":"a6bzrhwaduga","longitude":18.4534},"type":"Feature","geometry":{"type":"Point","coordinates":[18.4534,-34.0352]}},{"properties":{"latitude":-34.0301,"total":175,"suburb":"The Vines","id":"a6bzri5hcer0","longitude":18.455},"type":"Feature","geometry":{"type":"Point","coordinates":[18.455,-34.0301]}},{"properties":{"latitude":-34.0372,"total":2424,"suburb":"Flintdale Estate","id":"a6bzri70izyg","longitude":18.4769},"type":"Feature","geometry":{"type":"Point","coordinates":[18.4769,-34.0372]}},{"properties":{"latitude":-34.046,"total":681,"suburb":"Heathfield","id":"a6bzrhwqlle4","longitude":18.4687},"type":"Feature","geometry":{"type":"Point","coordinates":[18.4687,-34.046]}},{"properties":{"latitude":-34.0358,"total":795,"suburb":"Diep River","id":"a6bzri6omgqw","longitude":18.4645},"type":"Feature","geometry":{"type":"Point","coordinates":[18.4645,-34.0358]}},{"properties":{"latitude":-33.9917,"total":3926,"suburb":"Nerissa Estate","id":"a6bzrhtzrk9l","longitude":18.5088},"type":"Feature","geometry":{"type":"Point","coordinates":[18.5088,-33.9917]}},{"properties":{"latitude":-33.9926,"total":1891,"suburb":"Pinati","id":"a6bzrhu7wr43","longitude":18.5187},"type":"Feature","geometry":{"type":"Point","coordinates":[18.5187,-33.9926]}},{"properties":{"latitude":-33.9836,"total":591,"suburb":"Belthorn Estate","id":"a6bzrhysdxx4","longitude":18.5137},"type":"Feature","geometry":{"type":"Point","coordinates":[18.5137,-33.9836]}},{"properties":{"latitude":-33.9911,"total":2227,"suburb":"Lansdowne","id":"a6bzri12933f","longitude":18.5035},"type":"Feature","geometry":{"type":"Point","coordinates":[18.5035,-33.9911]}},{"properties":{"latitude":-34.1085,"total":2141,"suburb":"Silver Mine Village","id":"a6bzri0g8u03","longitude":18.3958},"type":"Feature","geometry":{"type":"Point","coordinates":[18.3958,-34.1085]}},{"properties":{"latitude":-33.8849,"total":475,"suburb":"De Duin","id":"a6bzrhyjpw8v","longitude":18.5707},"type":"Feature","geometry":{"type":"Point","coordinates":[18.5707,-33.8849]}},{"properties":{"latitude":-33.8822,"total":899,"suburb":"Sonnendal","id":"a6bzri3smbz6","longitude":18.5812},"type":"Feature","geometry":{"type":"Point","coordinates":[18.5812,-33.8822]}},{"properties":{"latitude":-33.8998,"total":611,"suburb":"Fairfield Estate","id":"a6bzrhv0uiub","longitude":18.5932},"type":"Feature","geometry":{"type":"Point","coordinates":[18.5932,-33.8998]}},{"properties":{"latitude":-33.8901,"total":365,"suburb":"Parow North","id":"a6bzri7rchra","longitude":18.5786},"type":"Feature","geometry":{"type":"Point","coordinates":[18.5786,-33.8901]}},{"properties":{"latitude":-33.8988,"total":982,"suburb":"Oosterzee","id":"a6bzri4kyq8o","longitude":18.6059},"type":"Feature","geometry":{"type":"Point","coordinates":[18.6059,-33.8988]}},{"properties":{"latitude":-33.8966,"total":134,"suburb":"Avondale","id":"a6bzrhupj0gy","longitude":18.6014},"type":"Feature","geometry":{"type":"Point","coordinates":[18.6014,-33.8966]}},{"properties":{"latitude":-34.0091,"total":22,"suburb":"Gill Cape","id":"a6bzri69junv","longitude":18.7184},"type":"Feature","geometry":{"type":"Point","coordinates":[18.7184,-34.0091]}},{"properties":{"latitude":-34.007,"total":174,"suburb":"Hillcrest Heights","id":"a6bzri93p5p0","longitude":18.7001},"type":"Feature","geometry":{"type":"Point","coordinates":[18.7001,-34.007]}},{"properties":{"latitude":-34.015,"total":787,"suburb":"Blue Downs","id":"a6bzri42bb3x","longitude":18.6988},"type":"Feature","geometry":{"type":"Point","coordinates":[18.6988,-34.015]}},{"properties":{"latitude":-34.0127,"total":264,"suburb":"Forest Village","id":"a6bzrhuv4n7r","longitude":18.7071},"type":"Feature","geometry":{"type":"Point","coordinates":[18.7071,-34.0127]}},{"properties":{"latitude":-33.8695,"total":12119,"suburb":"Marconi Beam","id":"a6bzri6u3jc6","longitude":18.5128},"type":"Feature","geometry":{"type":"Point","coordinates":[18.5128,-33.8695]}},{"properties":{"latitude":-33.8744,"total":2763,"suburb":"Phoenix","id":"a6bzri8hqcg7","longitude":18.5052},"type":"Feature","geometry":{"type":"Point","coordinates":[18.5052,-33.8744]}},{"properties":{"latitude":-33.8734,"total":2350,"suburb":"Joe Slovo Park","id":"a6bzrhsmjq7g","longitude":18.511},"type":"Feature","geometry":{"type":"Point","coordinates":[18.511,-33.8734]}},{"properties":{"latitude":-33.9148,"total":564,"suburb":"Cloetesville","id":"a6bzri4zulyk","longitude":18.8528},"type":"Feature","geometry":{"type":"Point","coordinates":[18.8528,-33.9148]}},{"properties":{"latitude":-33.904,"total":396,"suburb":"Stellenbosch Part 1","id":"a6bzri3tbfph","longitude":18.8526},"type":"Feature","geometry":{"type":"Point","coordinates":[18.8526,-33.904]}},{"properties":{"latitude":-34.074,"total":1141,"suburb":"Steenberg Outlying","id":"a6bzri117xze","longitude":18.4224},"type":"Feature","geometry":{"type":"Point","coordinates":[18.4224,-34.074]}},{"properties":{"latitude":-33.9103,"total":370,"suburb":"Idas Valley Outlying","id":"a6bzrhtjxogg","longitude":18.8574},"type":"Feature","geometry":{"type":"Point","coordinates":[18.8574,-33.9103]}},{"properties":{"latitude":-33.9641,"total":662,"suburb":"Paradyskloof","id":"a6bzrhusfmvm","longitude":18.8546},"type":"Feature","geometry":{"type":"Point","coordinates":[18.8546,-33.9641]}},{"properties":{"latitude":-33.9032,"total":1285,"suburb":"Weltevrede","id":"a6bzrhx389fz","longitude":18.846},"type":"Feature","geometry":{"type":"Point","coordinates":[18.846,-33.9032]}},{"properties":{"latitude":-33.893,"total":388,"suburb":"Franschhoek North","id":"a6bzrhsrt3g0","longitude":19.1021},"type":"Feature","geometry":{"type":"Point","coordinates":[19.1021,-33.893]}},{"properties":{"latitude":-33.9092,"total":585,"suburb":"Triangle Farm","id":"a6bzri2v0fpn","longitude":18.6455},"type":"Feature","geometry":{"type":"Point","coordinates":[18.6455,-33.9092]}},{"properties":{"latitude":-33.9049,"total":8202,"suburb":"Loumar","id":"a6bzrhvys8qh","longitude":18.658},"type":"Feature","geometry":{"type":"Point","coordinates":[18.658,-33.9049]}},{"properties":{"latitude":-33.9072,"total":587,"suburb":"Shirley Park","id":"a6bzri30s12y","longitude":18.6624},"type":"Feature","geometry":{"type":"Point","coordinates":[18.6624,-33.9072]}},{"properties":{"latitude":-33.9064,"total":8097,"suburb":"Meyerhof","id":"a6bzrhuuovtg","longitude":18.6599},"type":"Feature","geometry":{"type":"Point","coordinates":[18.6599,-33.9064]}},{"properties":{"latitude":-33.9054,"total":569,"suburb":"Stikland","id":"a6bzri5rzgcn","longitude":18.652},"type":"Feature","geometry":{"type":"Point","coordinates":[18.652,-33.9054]}},{"properties":{"latitude":-33.9053,"total":236,"suburb":"Dunrobin","id":"a6bzri0hwdat","longitude":18.6491},"type":"Feature","geometry":{"type":"Point","coordinates":[18.6491,-33.9053]}},{"properties":{"latitude":-33.9048,"total":415,"suburb":"Sanlamhof","id":"a6bzri01i4n2","longitude":18.6458},"type":"Feature","geometry":{"type":"Point","coordinates":[18.6458,-33.9048]}},{"properties":{"latitude":-33.9,"total":33,"suburb":"De La Haye","id":"a6bzri2ocz0k","longitude":18.6523},"type":"Feature","geometry":{"type":"Point","coordinates":[18.6523,-33.9]}},{"properties":{"latitude":-33.8998,"total":549,"suburb":"Kempenville","id":"a6bzri620lbm","longitude":18.6354},"type":"Feature","geometry":{"type":"Point","coordinates":[18.6354,-33.8998]}},{"properties":{"latitude":-33.9007,"total":270,"suburb":"Belgravia","id":"a6bzri0jlvi4","longitude":18.6438},"type":"Feature","geometry":{"type":"Point","coordinates":[18.6438,-33.9007]}},{"properties":{"latitude":-33.9078,"total":1381,"suburb":"Belrail","id":"a6bzri5qhz5y","longitude":18.6324},"type":"Feature","geometry":{"type":"Point","coordinates":[18.6324,-33.9078]}},{"properties":{"latitude":-34.0781,"total":854,"suburb":"Sheraton Park","id":"a6bzrhttvhn0","longitude":18.4677},"type":"Feature","geometry":{"type":"Point","coordinates":[18.4677,-34.0781]}},{"properties":{"latitude":-34.1216,"total":2083,"suburb":"Sir Lowry's Pass","id":"a6bzri86dzub","longitude":18.9065},"type":"Feature","geometry":{"type":"Point","coordinates":[18.9065,-34.1216]}},{"properties":{"latitude":-34.1518,"total":679,"suburb":"Temperance Town","id":"a6bzrhzkafpe","longitude":18.8834},"type":"Feature","geometry":{"type":"Point","coordinates":[18.8834,-34.1518]}},{"properties":{"latitude":-34.1539,"total":365,"suburb":"Gordon Heights","id":"a6bzrhsy6j1v","longitude":18.8843},"type":"Feature","geometry":{"type":"Point","coordinates":[18.8843,-34.1539]}},{"properties":{"latitude":-34.1463,"total":112,"suburb":"Dobson","id":"a6bzri8b5c50","longitude":18.8656},"type":"Feature","geometry":{"type":"Point","coordinates":[18.8656,-34.1463]}},{"properties":{"latitude":-34.1478,"total":67,"suburb":"Sea Breeze","id":"a6bzri1i55sa","longitude":18.8696},"type":"Feature","geometry":{"type":"Point","coordinates":[18.8696,-34.1478]}},{"properties":{"latitude":-34.1432,"total":39,"suburb":"Pine Acres","id":"a6bzri1dmlik","longitude":18.8706},"type":"Feature","geometry":{"type":"Point","coordinates":[18.8706,-34.1432]}},{"properties":{"latitude":-34.1317,"total":153,"suburb":"Tarentaal Plaas","id":"a6bzri5flzth","longitude":18.8627},"type":"Feature","geometry":{"type":"Point","coordinates":[18.8627,-34.1317]}},{"properties":{"latitude":-34.1335,"total":247,"suburb":"Casablanca","id":"a6bzrhyi7n52","longitude":18.8594},"type":"Feature","geometry":{"type":"Point","coordinates":[18.8594,-34.1335]}},{"properties":{"latitude":-34.0377,"total":589,"suburb":"Croydon","id":"a6bzri18bmxp","longitude":18.7586},"type":"Feature","geometry":{"type":"Point","coordinates":[18.7586,-34.0377]}},{"properties":{"latitude":-34.0223,"total":601,"suburb":"Eersterivier-Suid","id":"a6bzri5xitn1","longitude":18.7243},"type":"Feature","geometry":{"type":"Point","coordinates":[18.7243,-34.0223]}},{"properties":{"latitude":-33.9822,"total":28,"suburb":"Kirstenbosch National Botanical Gardens","id":"a6bzrhsn9fsl","longitude":18.4244},"type":"Feature","geometry":{"type":"Point","coordinates":[18.4244,-33.9822]}},{"properties":{"latitude":-33.8833,"total":376,"suburb":"Loeverstein","id":"a6bzrhvu61o7","longitude":18.6071},"type":"Feature","geometry":{"type":"Point","coordinates":[18.6071,-33.8833]}},{"properties":{"latitude":-33.8532,"total":286,"suburb":"Oude Westhof","id":"a6bzrhxuz6zw","longitude":18.5973},"type":"Feature","geometry":{"type":"Point","coordinates":[18.5973,-33.8532]}},{"properties":{"latitude":-33.8564,"total":147,"suburb":"De Bron","id":"a6bzrhtwxoea","longitude":18.6304},"type":"Feature","geometry":{"type":"Point","coordinates":[18.6304,-33.8564]}},{"properties":{"latitude":-33.8693,"total":2488,"suburb":"Scottsdene","id":"a6bzrhyb4wxu","longitude":18.7257},"type":"Feature","geometry":{"type":"Point","coordinates":[18.7257,-33.8693]}},{"properties":{"latitude":-34.0003,"total":1749,"suburb":"Yorkshire Estate","id":"a6bzri1vkoic","longitude":18.5143},"type":"Feature","geometry":{"type":"Point","coordinates":[18.5143,-34.0003]}},{"properties":{"latitude":-34.0726,"total":233,"suburb":"Kirstenhof","id":"a6bzri88cnnt","longitude":18.4483},"type":"Feature","geometry":{"type":"Point","coordinates":[18.4483,-34.0726]}},{"properties":{"latitude":-34.0582,"total":3456,"suburb":"Dreyersdal","id":"a6bzri022wg8","longitude":18.4533},"type":"Feature","geometry":{"type":"Point","coordinates":[18.4533,-34.0582]}},{"properties":{"latitude":-34.045,"total":413,"suburb":"Bergvliet","id":"a6bzri2m400k","longitude":18.4538},"type":"Feature","geometry":{"type":"Point","coordinates":[18.4538,-34.045]}},{"properties":{"latitude":-34.0238,"total":187,"suburb":"Lanstead","id":"a6bzri6jy396","longitude":18.4529},"type":"Feature","geometry":{"type":"Point","coordinates":[18.4529,-34.0238]}},{"properties":{"latitude":-34.0176,"total":246,"suburb":"Rust-en-Vrede","id":"a6bzrhz6r3sh","longitude":18.4431},"type":"Feature","geometry":{"type":"Point","coordinates":[18.4431,-34.0176]}},{"properties":{"latitude":-34.0084,"total":327,"suburb":"Alphen","id":"a6bzrhzaqsk1","longitude":18.4477},"type":"Feature","geometry":{"type":"Point","coordinates":[18.4477,-34.0084]}},{"properties":{"latitude":-34.0546,"total":130,"suburb":"Porter Estate","id":"a6bzri8cghr8","longitude":18.4165},"type":"Feature","geometry":{"type":"Point","coordinates":[18.4165,-34.0546]}},{"properties":{"latitude":-34.0393,"total":64,"suburb":"Nova Constantia","id":"a6bzri6e5e06","longitude":18.4275},"type":"Feature","geometry":{"type":"Point","coordinates":[18.4275,-34.0393]}},{"properties":{"latitude":-34.0348,"total":12,"suburb":"Hope of Constantia","id":"a6bzri44asvn","longitude":18.4215},"type":"Feature","geometry":{"type":"Point","coordinates":[18.4215,-34.0348]}},{"properties":{"latitude":-34.0723,"total":355,"suburb":"Steenberg","id":"a6bzrhv4s6b3","longitude":18.4725},"type":"Feature","geometry":{"type":"Point","coordinates":[18.4725,-34.0723]}},{"properties":{"latitude":-34.0603,"total":1536,"suburb":"Retreat","id":"a6bzrhxr8tim","longitude":18.4731},"type":"Feature","geometry":{"type":"Point","coordinates":[18.4731,-34.0603]}},{"properties":{"latitude":-34.121,"total":108,"suburb":"The Lakes","id":"a6bzri37axnb","longitude":18.3802},"type":"Feature","geometry":{"type":"Point","coordinates":[18.3802,-34.121]}},{"properties":{"latitude":-33.9884,"total":293,"suburb":"Fountain Village","id":"a6bzri6yzh6r","longitude":18.6814},"type":"Feature","geometry":{"type":"Point","coordinates":[18.6814,-33.9884]}},{"properties":{"latitude":-34.0212,"total":70,"suburb":"Silverhurst","id":"a6bzri3g8lp5","longitude":18.4279},"type":"Feature","geometry":{"type":"Point","coordinates":[18.4279,-34.0212]}},{"properties":{"latitude":-34.0098,"total":35,"suburb":"Bel Ombre","id":"a6bzri52beru","longitude":18.4304},"type":"Feature","geometry":{"type":"Point","coordinates":[18.4304,-34.0098]}},{"properties":{"latitude":-33.9901,"total":816,"suburb":"Bishopscourt","id":"a6bzri1c1k4c","longitude":18.444},"type":"Feature","geometry":{"type":"Point","coordinates":[18.444,-33.9901]}},{"properties":{"latitude":-34.0049,"total":3617,"suburb":"Wynberg","id":"a6bzrhuts6u3","longitude":18.4653},"type":"Feature","geometry":{"type":"Point","coordinates":[18.4653,-34.0049]}},{"properties":{"latitude":-33.9955,"total":4257,"suburb":"Kenilworth","id":"a6bzri1ef7vu","longitude":18.4747},"type":"Feature","geometry":{"type":"Point","coordinates":[18.4747,-33.9955]}},{"properties":{"latitude":-33.9839,"total":5776,"suburb":"Claremont","id":"a6bzrhzyijyz","longitude":18.4715},"type":"Feature","geometry":{"type":"Point","coordinates":[18.4715,-33.9839]}},{"properties":{"latitude":-33.977,"total":3265,"suburb":"Newlands","id":"a6bzri6f0hks","longitude":18.4543},"type":"Feature","geometry":{"type":"Point","coordinates":[18.4543,-33.977]}},{"properties":{"latitude":-33.9652,"total":1464,"suburb":"Rondebosch","id":"a6bzrhuedhg8","longitude":18.4756},"type":"Feature","geometry":{"type":"Point","coordinates":[18.4756,-33.9652]}},{"properties":{"latitude":-34.0844,"total":570,"suburb":"Lakeside","id":"a6bzrhv4t50k","longitude":18.4564},"type":"Feature","geometry":{"type":"Point","coordinates":[18.4564,-34.0844]}},{"properties":{"latitude":-34.0947,"total":1633,"suburb":"Silvermine Nature Reserve","id":"a6bzri15zhqb","longitude":18.4227},"type":"Feature","geometry":{"type":"Point","coordinates":[18.4227,-34.0947]}},{"properties":{"latitude":-34.0791,"total":4132,"suburb":"Frogmore Estate","id":"a6bzrhsuxv7l","longitude":18.4594},"type":"Feature","geometry":{"type":"Point","coordinates":[18.4594,-34.0791]}},{"properties":{"latitude":-34.082,"total":233,"suburb":"Klein Wassenaar","id":"a6bzri1mgxff","longitude":18.4527},"type":"Feature","geometry":{"type":"Point","coordinates":[18.4527,-34.082]}},{"properties":{"latitude":-33.9367,"total":2841,"suburb":"Danarand","id":"a6bzrhx84hcm","longitude":18.6787},"type":"Feature","geometry":{"type":"Point","coordinates":[18.6787,-33.9367]}},{"properties":{"latitude":-33.9203,"total":138,"suburb":"Amandelrug","id":"a6bzri6pnnma","longitude":18.6911},"type":"Feature","geometry":{"type":"Point","coordinates":[18.6911,-33.9203]}},{"properties":{"latitude":-34.1321,"total":162,"suburb":"Serina Kaoline Mine","id":"a6bzrhxvuntg","longitude":18.3988},"type":"Feature","geometry":{"type":"Point","coordinates":[18.3988,-34.1321]}},{"properties":{"latitude":-34.1296,"total":212,"suburb":"Fairie Knowe","id":"a6bzri4b3mqa","longitude":18.3847},"type":"Feature","geometry":{"type":"Point","coordinates":[18.3847,-34.1296]}},{"properties":{"latitude":-34.0779,"total":654,"suburb":"Seawinds","id":"a6bzri2v95xp","longitude":18.4845},"type":"Feature","geometry":{"type":"Point","coordinates":[18.4845,-34.0779]}},{"properties":{"latitude":-34.0779,"total":917,"suburb":"Coniston Park","id":"a6bzri8egmaz","longitude":18.4741},"type":"Feature","geometry":{"type":"Point","coordinates":[18.4741,-34.0779]}},{"properties":{"latitude":-33.9255,"total":2218,"suburb":"Sack's Circle Industrial","id":"a6bzri7w9wcs","longitude":18.6483},"type":"Feature","geometry":{"type":"Point","coordinates":[18.6483,-33.9255]}},{"properties":{"latitude":-34.1385,"total":68,"suburb":"Southfork","id":"a6bzri1mxgk0","longitude":18.8562},"type":"Feature","geometry":{"type":"Point","coordinates":[18.8562,-34.1385]}},{"properties":{"latitude":-34.0396,"total":2307,"suburb":"Lotus River","id":"a6bzri35zxx3","longitude":18.5144},"type":"Feature","geometry":{"type":"Point","coordinates":[18.5144,-34.0396]}},{"properties":{"latitude":-34.014,"total":391,"suburb":"Tembani","id":"a6bzri1ddppu","longitude":18.6349},"type":"Feature","geometry":{"type":"Point","coordinates":[18.6349,-34.014]}},{"properties":{"latitude":-34.0455,"total":1410,"suburb":"Ekuphumleni","id":"a6bzri3wv5zh","longitude":18.672},"type":"Feature","geometry":{"type":"Point","coordinates":[18.672,-34.0455]}},{"properties":{"latitude":-34.0166,"total":671,"suburb":"Bongweni","id":"a6bzri19cmvo","longitude":18.6352},"type":"Feature","geometry":{"type":"Point","coordinates":[18.6352,-34.0166]}},{"properties":{"latitude":-34.0493,"total":267,"suburb":"Mandela Park","id":"a6bzrhwaqq8e","longitude":18.6835},"type":"Feature","geometry":{"type":"Point","coordinates":[18.6835,-34.0493]}},{"properties":{"latitude":-34.0418,"total":1893,"suburb":"Griffiths Mxenge","id":"a6bzri7zksuu","longitude":18.6803},"type":"Feature","geometry":{"type":"Point","coordinates":[18.6803,-34.0418]}},{"properties":{"latitude":-34.03,"total":1480,"suburb":"Montagu's Gift","id":"a6bzri6i7xcn","longitude":18.5103},"type":"Feature","geometry":{"type":"Point","coordinates":[18.5103,-34.03]}},{"properties":{"latitude":-34.0233,"total":1945,"suburb":"Edward","id":"a6bzri4ak9o9","longitude":18.5208},"type":"Feature","geometry":{"type":"Point","coordinates":[18.5208,-34.0233]}},{"properties":{"latitude":-34.0196,"total":1193,"suburb":"Ottery East","id":"a6bzri6hzots","longitude":18.5139},"type":"Feature","geometry":{"type":"Point","coordinates":[18.5139,-34.0196]}},{"properties":{"latitude":-34.0126,"total":2075,"suburb":"Ottery","id":"a6bzri4bvy0b","longitude":18.5086},"type":"Feature","geometry":{"type":"Point","coordinates":[18.5086,-34.0126]}},{"properties":{"latitude":-34.0074,"total":430,"suburb":"Wetton","id":"a6bzri17k8gr","longitude":18.5142},"type":"Feature","geometry":{"type":"Point","coordinates":[18.5142,-34.0074]}},{"properties":{"latitude":-33.9947,"total":754,"suburb":"Hanover Park","id":"a6bzrhvz9cnm","longitude":18.5289},"type":"Feature","geometry":{"type":"Point","coordinates":[18.5289,-33.9947]}},{"properties":{"latitude":-33.9939,"total":12220,"suburb":"Sand Industria","id":"a6bzri3y20yh","longitude":18.544},"type":"Feature","geometry":{"type":"Point","coordinates":[18.544,-33.9939]}},{"properties":{"latitude":-33.9924,"total":4732,"suburb":"Nyanga","id":"a6bzri1oqvl4","longitude":18.5829},"type":"Feature","geometry":{"type":"Point","coordinates":[18.5829,-33.9924]}},{"properties":{"latitude":-33.9862,"total":3026,"suburb":"Manenberg","id":"a6bzrhsy89v8","longitude":18.5546},"type":"Feature","geometry":{"type":"Point","coordinates":[18.5546,-33.9862]}},{"properties":{"latitude":-33.9654,"total":2478,"suburb":"Heideveld","id":"a6bzrhxqdila","longitude":18.554},"type":"Feature","geometry":{"type":"Point","coordinates":[18.554,-33.9654]}},{"properties":{"latitude":-33.9604,"total":2952,"suburb":"Charlesville","id":"a6bzri8z8a67","longitude":18.5667},"type":"Feature","geometry":{"type":"Point","coordinates":[18.5667,-33.9604]}},{"properties":{"latitude":-33.9625,"total":1054,"suburb":"Montana","id":"a6bzri37qty0","longitude":18.5772},"type":"Feature","geometry":{"type":"Point","coordinates":[18.5772,-33.9625]}},{"properties":{"latitude":-33.982,"total":2330,"suburb":"Guguletu","id":"a6bzrhtfo3ny","longitude":18.5721},"type":"Feature","geometry":{"type":"Point","coordinates":[18.5721,-33.982]}},{"properties":{"latitude":-33.9687,"total":28667,"suburb":"Boquinar Industrial Area","id":"a6bzri32rikv","longitude":18.5835},"type":"Feature","geometry":{"type":"Point","coordinates":[18.5835,-33.9687]}},{"properties":{"latitude":-34.0579,"total":339,"suburb":"Harare","id":"a6bzrhzy8zno","longitude":18.6725},"type":"Feature","geometry":{"type":"Point","coordinates":[18.6725,-34.0579]}},{"properties":{"latitude":-34.0349,"total":925,"suburb":"Khayelitsha T1 V2","id":"a6bzri55u9rk","longitude":18.6719},"type":"Feature","geometry":{"type":"Point","coordinates":[18.6719,-34.0349]}},{"properties":{"latitude":-34.0177,"total":402,"suburb":"Electric City","id":"a6bzrhvqifd1","longitude":18.7147},"type":"Feature","geometry":{"type":"Point","coordinates":[18.7147,-34.0177]}},{"properties":{"latitude":-34.0184,"total":8,"suburb":"High Places","id":"a6bzri7f7m9t","longitude":18.7287},"type":"Feature","geometry":{"type":"Point","coordinates":[18.7287,-34.0184]}},{"properties":{"latitude":-34.0159,"total":61,"suburb":"Beverley Park","id":"a6bzrhz30tff","longitude":18.7341},"type":"Feature","geometry":{"type":"Point","coordinates":[18.7341,-34.0159]}},{"properties":{"latitude":-34.0164,"total":122,"suburb":"Sillwood Heights","id":"a6bzrhxjag54","longitude":18.7214},"type":"Feature","geometry":{"type":"Point","coordinates":[18.7214,-34.0164]}},{"properties":{"latitude":-34.0046,"total":818,"suburb":"Cedardale","id":"a6bzri8vr8a1","longitude":18.7279},"type":"Feature","geometry":{"type":"Point","coordinates":[18.7279,-34.0046]}},{"properties":{"latitude":-34.0072,"total":361,"suburb":"Clairwood","id":"a6bzrhwskz4b","longitude":18.7276},"type":"Feature","geometry":{"type":"Point","coordinates":[18.7276,-34.0072]}},{"properties":{"latitude":-34.0086,"total":139,"suburb":"Devon Park","id":"a6bzri1hpozl","longitude":18.7296},"type":"Feature","geometry":{"type":"Point","coordinates":[18.7296,-34.0086]}},{"properties":{"latitude":-34.0124,"total":8,"suburb":"Stratford Park","id":"a6bzri471ybu","longitude":18.7305},"type":"Feature","geometry":{"type":"Point","coordinates":[18.7305,-34.0124]}},{"properties":{"latitude":-34.0131,"total":127,"suburb":"Stratford","id":"a6bzrhucvlp3","longitude":18.7242},"type":"Feature","geometry":{"type":"Point","coordinates":[18.7242,-34.0131]}},{"properties":{"latitude":-34.005,"total":83,"suburb":"Heather Park","id":"a6bzrht89pbk","longitude":18.72},"type":"Feature","geometry":{"type":"Point","coordinates":[18.72,-34.005]}},{"properties":{"latitude":-34.0017,"total":171,"suburb":"Forest Glade","id":"a6bzrhxa69eb","longitude":18.7175},"type":"Feature","geometry":{"type":"Point","coordinates":[18.7175,-34.0017]}},{"properties":{"latitude":-34.0026,"total":488,"suburb":"Station Township","id":"a6bzrhxmmk4i","longitude":18.7307},"type":"Feature","geometry":{"type":"Point","coordinates":[18.7307,-34.0026]}},{"properties":{"latitude":-33.9909,"total":539,"suburb":"Kleinvlei","id":"a6bzri8nlj4x","longitude":18.7133},"type":"Feature","geometry":{"type":"Point","coordinates":[18.7133,-33.9909]}},{"properties":{"latitude":-34.0023,"total":95,"suburb":"Forest Heights","id":"a6bzrhsssf9o","longitude":18.7095},"type":"Feature","geometry":{"type":"Point","coordinates":[18.7095,-34.0023]}},{"properties":{"latitude":-33.9903,"total":786,"suburb":"Fairdale","id":"a6bzri5mpoc2","longitude":18.677},"type":"Feature","geometry":{"type":"Point","coordinates":[18.677,-33.9903]}},{"properties":{"latitude":-33.9892,"total":2640,"suburb":"Delft South","id":"a6bzrhwxqg4s","longitude":18.6359},"type":"Feature","geometry":{"type":"Point","coordinates":[18.6359,-33.9892]}},{"properties":{"latitude":-33.9745,"total":2729,"suburb":"Delft","id":"a6bzri2k4l17","longitude":18.6369},"type":"Feature","geometry":{"type":"Point","coordinates":[18.6369,-33.9745]}},{"properties":{"latitude":-33.974,"total":269,"suburb":"Wesbank","id":"a6bzrhxt1p1v","longitude":18.6591},"type":"Feature","geometry":{"type":"Point","coordinates":[18.6591,-33.974]}},{"properties":{"latitude":-33.9636,"total":679,"suburb":"Vogelvlei","id":"a6bzrhsno0ht","longitude":18.6592},"type":"Feature","geometry":{"type":"Point","coordinates":[18.6592,-33.9636]}},{"properties":{"latitude":-33.9609,"total":177,"suburb":"Hagley","id":"a6bzrhw6swnh","longitude":18.6641},"type":"Feature","geometry":{"type":"Point","coordinates":[18.6641,-33.9609]}},{"properties":{"latitude":-33.9791,"total":303,"suburb":"Silversands","id":"a6bzri0vywu8","longitude":18.6769},"type":"Feature","geometry":{"type":"Point","coordinates":[18.6769,-33.9791]}},{"properties":{"latitude":-33.9713,"total":140,"suburb":"Rotterdam","id":"a6bzri89ykue","longitude":18.6787},"type":"Feature","geometry":{"type":"Point","coordinates":[18.6787,-33.9713]}},{"properties":{"latitude":-33.9975,"total":655,"suburb":"Malibu Village","id":"a6bzrhw51zsf","longitude":18.693},"type":"Feature","geometry":{"type":"Point","coordinates":[18.693,-33.9975]}},{"properties":{"latitude":-33.9998,"total":1787,"suburb":"Mfuleni","id":"a6bzrhu9w8qb","longitude":18.6778},"type":"Feature","geometry":{"type":"Point","coordinates":[18.6778,-33.9998]}},{"properties":{"latitude":-34.0437,"total":1983,"suburb":"Firgrove Rural","id":"a6bzrhst7qg9","longitude":18.7506},"type":"Feature","geometry":{"type":"Point","coordinates":[18.7506,-34.0437]}},{"properties":{"latitude":-34.0621,"total":11,"suburb":"Zeekoei Vlei","id":"a6bzri2egl0a","longitude":18.5041},"type":"Feature","geometry":{"type":"Point","coordinates":[18.5041,-34.0621]}},{"properties":{"latitude":-34.0907,"total":46,"suburb":"Muizenberg Mountains","id":"a6bzrhy08z0s","longitude":18.4457},"type":"Feature","geometry":{"type":"Point","coordinates":[18.4457,-34.0907]}},{"properties":{"latitude":-34.0894,"total":224,"suburb":"Marina Da Gama","id":"a6bzri61qczc","longitude":18.4713},"type":"Feature","geometry":{"type":"Point","coordinates":[18.4713,-34.0894]}},{"properties":{"latitude":-34.0139,"total":807,"suburb":"Glen Alpine","id":"a6bzri3m55kr","longitude":18.4088},"type":"Feature","geometry":{"type":"Point","coordinates":[18.4088,-34.0139]}},{"properties":{"latitude":-34.1324,"total":120,"suburb":"Risi View","id":"a6bzrhxi44s4","longitude":18.4081},"type":"Feature","geometry":{"type":"Point","coordinates":[18.4081,-34.1324]}},{"properties":{"latitude":-34.1334,"total":49,"suburb":"Fairy Knowe","id":"a6bzri59foyt","longitude":18.375},"type":"Feature","geometry":{"type":"Point","coordinates":[18.375,-34.1334]}},{"properties":{"latitude":-34.1334,"total":549,"suburb":"Fish Eagle Park","id":"a6bzrhwszzq1","longitude":18.3703},"type":"Feature","geometry":{"type":"Point","coordinates":[18.3703,-34.1334]}},{"properties":{"latitude":-34.1096,"total":826,"suburb":"Crofters Valley","id":"a6bzrhym73gl","longitude":18.392},"type":"Feature","geometry":{"type":"Point","coordinates":[18.392,-34.1096]}},{"properties":{"latitude":-34.1006,"total":59,"suburb":"Chapmans Peak","id":"a6bzrhuic7fy","longitude":18.3678},"type":"Feature","geometry":{"type":"Point","coordinates":[18.3678,-34.1006]}},{"properties":{"latitude":-34.1297,"total":160,"suburb":"Masiphumelele","id":"a6bzrhvdm0kq","longitude":18.3765},"type":"Feature","geometry":{"type":"Point","coordinates":[18.3765,-34.1297]}},{"properties":{"latitude":-34.1263,"total":35,"suburb":"Silverglade","id":"a6bzrhyr713i","longitude":18.4089},"type":"Feature","geometry":{"type":"Point","coordinates":[18.4089,-34.1263]}},{"properties":{"latitude":-33.9593,"total":1506,"suburb":"Maycape","id":"a6bzri0qjn2d","longitude":18.6815},"type":"Feature","geometry":{"type":"Point","coordinates":[18.6815,-33.9593]}},{"properties":{"latitude":-33.9581,"total":376,"suburb":"Rondevallei","id":"a6bzrhyam6gf","longitude":18.675},"type":"Feature","geometry":{"type":"Point","coordinates":[18.675,-33.9581]}},{"properties":{"latitude":-33.9116,"total":47,"suburb":"Labiance","id":"a6bzri71clf8","longitude":18.6596},"type":"Feature","geometry":{"type":"Point","coordinates":[18.6596,-33.9116]}},{"properties":{"latitude":-33.9321,"total":78,"suburb":"Loucharmante","id":"a6bzrhzfs1oh","longitude":18.6979},"type":"Feature","geometry":{"type":"Point","coordinates":[18.6979,-33.9321]}},{"properties":{"latitude":-33.96,"total":626,"suburb":"Rustdal","id":"a6bzri7yaxy6","longitude":18.7011},"type":"Feature","geometry":{"type":"Point","coordinates":[18.7011,-33.96]}},{"properties":{"latitude":-33.9807,"total":344,"suburb":"Dennemere","id":"a6bzrhtdsr3y","longitude":18.7093},"type":"Feature","geometry":{"type":"Point","coordinates":[18.7093,-33.9807]}},{"properties":{"latitude":-33.9873,"total":1019,"suburb":"Sunset Glen","id":"a6bzri0gs7w7","longitude":18.6886},"type":"Feature","geometry":{"type":"Point","coordinates":[18.6886,-33.9873]}},{"properties":{"latitude":-33.9753,"total":1057,"suburb":"Gaylee","id":"a6bzri3gcmlf","longitude":18.7019},"type":"Feature","geometry":{"type":"Point","coordinates":[18.7019,-33.9753]}},{"properties":{"latitude":-33.9675,"total":2091,"suburb":"Blackheath Industria","id":"a6bzrhy1q2lj","longitude":18.6973},"type":"Feature","geometry":{"type":"Point","coordinates":[18.6973,-33.9675]}},{"properties":{"latitude":-33.9273,"total":1525,"suburb":"Bosonia","id":"a6bzrhvmh35s","longitude":18.6823},"type":"Feature","geometry":{"type":"Point","coordinates":[18.6823,-33.9273]}},{"properties":{"latitude":-33.9306,"total":1151,"suburb":"Klipdam","id":"a6bzrhtl5t9l","longitude":18.686},"type":"Feature","geometry":{"type":"Point","coordinates":[18.686,-33.9306]}},{"properties":{"latitude":-33.9206,"total":9,"suburb":"Rouxville","id":"a6bzri4s4w18","longitude":18.6973},"type":"Feature","geometry":{"type":"Point","coordinates":[18.6973,-33.9206]}},{"properties":{"latitude":-33.9303,"total":45,"suburb":"Des Hampden","id":"a6bzrhte2o09","longitude":18.6737},"type":"Feature","geometry":{"type":"Point","coordinates":[18.6737,-33.9303]}},{"properties":{"latitude":-33.9139,"total":874,"suburb":"Drosty Park","id":"a6bzri2izzvl","longitude":18.6719},"type":"Feature","geometry":{"type":"Point","coordinates":[18.6719,-33.9139]}},{"properties":{"latitude":-33.9609,"total":802,"suburb":"Roosendaal","id":"a6bzri7ja2q9","longitude":18.6511},"type":"Feature","geometry":{"type":"Point","coordinates":[18.6511,-33.9609]}},{"properties":{"latitude":-33.959,"total":1000,"suburb":"The Hague","id":"a6bzrhygeij7","longitude":18.6403},"type":"Feature","geometry":{"type":"Point","coordinates":[18.6403,-33.959]}},{"properties":{"latitude":-33.973,"total":16791,"suburb":"Cape Town International Airport","id":"a6bzrhye9ytd","longitude":18.6109},"type":"Feature","geometry":{"type":"Point","coordinates":[18.6109,-33.973]}},{"properties":{"latitude":-33.9346,"total":1220,"suburb":"Peninsula Technicon","id":"a6bzrhxejjp3","longitude":18.6492},"type":"Feature","geometry":{"type":"Point","coordinates":[18.6492,-33.9346]}},{"properties":{"latitude":-33.944,"total":428,"suburb":"Belhar","id":"a6bzrhsxo1rd","longitude":18.6576},"type":"Feature","geometry":{"type":"Point","coordinates":[18.6576,-33.944]}},{"properties":{"latitude":-33.9652,"total":1040,"suburb":"Wimbledon Estate","id":"a6bzri5o96cd","longitude":18.687},"type":"Feature","geometry":{"type":"Point","coordinates":[18.687,-33.9652]}},{"properties":{"latitude":-33.9171,"total":653,"suburb":"Sonnekuil","id":"a6bzri64l67z","longitude":18.6745},"type":"Feature","geometry":{"type":"Point","coordinates":[18.6745,-33.9171]}},{"properties":{"latitude":-34.1636,"total":1,"suburb":"Gordon's Bay Outlying","id":"a6bzri5ck1x4","longitude":18.8821},"type":"Feature","geometry":{"type":"Point","coordinates":[18.8821,-34.1636]}},{"properties":{"latitude":-34.1516,"total":725,"suburb":"Winslow","id":"a6bzri8ty43v","longitude":18.869},"type":"Feature","geometry":{"type":"Point","coordinates":[18.869,-34.1516]}},{"properties":{"latitude":-34.1587,"total":150,"suburb":"Mountainside Estate","id":"a6bzri3ucmel","longitude":18.8759},"type":"Feature","geometry":{"type":"Point","coordinates":[18.8759,-34.1587]}},{"properties":{"latitude":-34.1537,"total":62,"suburb":"Mountainview","id":"a6bzri0v7cco","longitude":18.8801},"type":"Feature","geometry":{"type":"Point","coordinates":[18.8801,-34.1537]}},{"properties":{"latitude":-34.1491,"total":25,"suburb":"Anchorage Park","id":"a6bzrhybig3v","longitude":18.8762},"type":"Feature","geometry":{"type":"Point","coordinates":[18.8762,-34.1491]}},{"properties":{"latitude":-34.1444,"total":532,"suburb":"Admirals Park","id":"a6bzrhvwy0ss","longitude":18.8975},"type":"Feature","geometry":{"type":"Point","coordinates":[18.8975,-34.1444]}},{"properties":{"latitude":-34.1366,"total":127,"suburb":"Gustrow","id":"a6bzrhyarb4x","longitude":18.8519},"type":"Feature","geometry":{"type":"Point","coordinates":[18.8519,-34.1366]}},{"properties":{"latitude":-34.1285,"total":355,"suburb":"Rusthof","id":"a6bzrht89rfj","longitude":18.8516},"type":"Feature","geometry":{"type":"Point","coordinates":[18.8516,-34.1285]}},{"properties":{"latitude":-34.1253,"total":512,"suburb":"Weltevreden","id":"a6bzri2si6bs","longitude":18.8422},"type":"Feature","geometry":{"type":"Point","coordinates":[18.8422,-34.1253]}},{"properties":{"latitude":-34.1197,"total":2011,"suburb":"Guldenland","id":"a6bzri0w4yts","longitude":18.8505},"type":"Feature","geometry":{"type":"Point","coordinates":[18.8505,-34.1197]}},{"properties":{"latitude":-34.1158,"total":2051,"suburb":"Nomzamo","id":"a6bzrhvtujm5","longitude":18.8608},"type":"Feature","geometry":{"type":"Point","coordinates":[18.8608,-34.1158]}},{"properties":{"latitude":-34.1222,"total":2232,"suburb":"Lwandle","id":"a6bzri42fq1w","longitude":18.8663},"type":"Feature","geometry":{"type":"Point","coordinates":[18.8663,-34.1222]}},{"properties":{"latitude":-34.1266,"total":677,"suburb":"Broadlands","id":"a6bzri5giny3","longitude":18.8743},"type":"Feature","geometry":{"type":"Point","coordinates":[18.8743,-34.1266]}},{"properties":{"latitude":-34.1251,"total":469,"suburb":"Sun Valley","id":"a6bzri6rl63w","longitude":18.3969},"type":"Feature","geometry":{"type":"Point","coordinates":[18.3969,-34.1251]}},{"properties":{"latitude":-34.1198,"total":1433,"suburb":"Hazelwood Park","id":"a6bzrhxlrdby","longitude":18.3938},"type":"Feature","geometry":{"type":"Point","coordinates":[18.3938,-34.1198]}},{"properties":{"latitude":-34.0931,"total":1714,"suburb":"Costa Da Gama","id":"a6bzrhynesqe","longitude":18.4838},"type":"Feature","geometry":{"type":"Point","coordinates":[18.4838,-34.0931]}},{"properties":{"latitude":-34.0883,"total":1422,"suburb":"Capricorn","id":"a6bzrhzzz4xy","longitude":18.5002},"type":"Feature","geometry":{"type":"Point","coordinates":[18.5002,-34.0883]}},{"properties":{"latitude":-34.1411,"total":5,"suburb":"Capri","id":"a6bzri6gfqjr","longitude":18.3848},"type":"Feature","geometry":{"type":"Point","coordinates":[18.3848,-34.1411]}},{"properties":{"latitude":-34.1301,"total":181,"suburb":"Lekkerwater","id":"a6bzri4v344h","longitude":18.3817},"type":"Feature","geometry":{"type":"Point","coordinates":[18.3817,-34.1301]}},{"properties":{"latitude":-34.0016,"total":1558,"suburb":"Springfield","id":"a6bzri30v0vb","longitude":18.5316},"type":"Feature","geometry":{"type":"Point","coordinates":[18.5316,-34.0016]}},{"properties":{"latitude":-34.0048,"total":827,"suburb":"Philippi","id":"a6bzri2zhuuz","longitude":18.5309},"type":"Feature","geometry":{"type":"Point","coordinates":[18.5309,-34.0048]}},{"properties":{"latitude":-34.0259,"total":2469,"suburb":"Knole Park","id":"a6bzrhyoa45m","longitude":18.5272},"type":"Feature","geometry":{"type":"Point","coordinates":[18.5272,-34.0259]}},{"properties":{"latitude":-34.0745,"total":1358,"suburb":"Strandfontein","id":"a6bzri0kzlo0","longitude":18.5836},"type":"Feature","geometry":{"type":"Point","coordinates":[18.5836,-34.0745]}},{"properties":{"latitude":-34.0573,"total":220,"suburb":"Montagu's Gift","id":"a6bzri19hke3","longitude":18.5883},"type":"Feature","geometry":{"type":"Point","coordinates":[18.5883,-34.0573]}},{"properties":{"latitude":-34.0626,"total":2423,"suburb":"Rocklands","id":"a6bzri52lyti","longitude":18.6067},"type":"Feature","geometry":{"type":"Point","coordinates":[18.6067,-34.0626]}},{"properties":{"latitude":-34.0312,"total":1582,"suburb":"Woodlands","id":"a6bzri3en118","longitude":18.5982},"type":"Feature","geometry":{"type":"Point","coordinates":[18.5982,-34.0312]}},{"properties":{"latitude":-34.0259,"total":726,"suburb":"Colorado","id":"a6bzrhv0xawk","longitude":18.5922},"type":"Feature","geometry":{"type":"Point","coordinates":[18.5922,-34.0259]}},{"properties":{"latitude":-34.0269,"total":262,"suburb":"Weltevreden Valley","id":"a6bzrhyzbpxk","longitude":18.5874},"type":"Feature","geometry":{"type":"Point","coordinates":[18.5874,-34.0269]}},{"properties":{"latitude":-34.0252,"total":1927,"suburb":"London Village","id":"a6bzrhuvnj4w","longitude":18.5789},"type":"Feature","geometry":{"type":"Point","coordinates":[18.5789,-34.0252]}},{"properties":{"latitude":-34.0069,"total":3962,"suburb":"Brown's Farm","id":"a6bzri2gr8pe","longitude":18.5763},"type":"Feature","geometry":{"type":"Point","coordinates":[18.5763,-34.0069]}},{"properties":{"latitude":-34.0158,"total":1343,"suburb":"Heinz Park","id":"a6bzri0fykis","longitude":18.6107},"type":"Feature","geometry":{"type":"Point","coordinates":[18.6107,-34.0158]}},{"properties":{"latitude":-34.0299,"total":2698,"suburb":"Lentegeur","id":"a6bzrhwb5xxi","longitude":18.6164},"type":"Feature","geometry":{"type":"Point","coordinates":[18.6164,-34.0299]}},{"properties":{"latitude":-34.0407,"total":2320,"suburb":"Beacon Valley","id":"a6bzri0fsuj2","longitude":18.6244},"type":"Feature","geometry":{"type":"Point","coordinates":[18.6244,-34.0407]}},{"properties":{"latitude":-34.0501,"total":967,"suburb":"Mitchell's Plain","id":"a6bzri20ko8u","longitude":18.6138},"type":"Feature","geometry":{"type":"Point","coordinates":[18.6138,-34.0501]}},{"properties":{"latitude":-34.0504,"total":1376,"suburb":"Eastridge","id":"a6bzri51ayas","longitude":18.6307},"type":"Feature","geometry":{"type":"Point","coordinates":[18.6307,-34.0504]}},{"properties":{"latitude":-34.0592,"total":1497,"suburb":"Tafelsig","id":"a6bzri6yfn6k","longitude":18.6398},"type":"Feature","geometry":{"type":"Point","coordinates":[18.6398,-34.0592]}},{"properties":{"latitude":-34.0695,"total":408,"suburb":"Wolfgat Nature Reserve","id":"a6bzri4f8ppp","longitude":18.6486},"type":"Feature","geometry":{"type":"Point","coordinates":[18.6486,-34.0695]}},{"properties":{"latitude":-34.0151,"total":1101,"suburb":"Mandalay","id":"a6bzrhtjmmbm","longitude":18.62},"type":"Feature","geometry":{"type":"Point","coordinates":[18.62,-34.0151]}},{"properties":{"latitude":-34.0082,"total":2985,"suburb":"Philippi East","id":"a6bzrhz0n2g8","longitude":18.6111},"type":"Feature","geometry":{"type":"Point","coordinates":[18.6111,-34.0082]}},{"properties":{"latitude":-34.0184,"total":2611,"suburb":"Weltevreden Valley North","id":"a6bzri56ou9x","longitude":18.5846},"type":"Feature","geometry":{"type":"Point","coordinates":[18.5846,-34.0184]}},{"properties":{"latitude":-34.0506,"total":940,"suburb":"Westridge","id":"a6bzri50nse9","longitude":18.5989},"type":"Feature","geometry":{"type":"Point","coordinates":[18.5989,-34.0506]}},{"properties":{"latitude":-34.037,"total":1433,"suburb":"Weltevreden","id":"a6bzri4kon2j","longitude":18.5879},"type":"Feature","geometry":{"type":"Point","coordinates":[18.5879,-34.037]}},{"properties":{"latitude":-34.048,"total":888,"suburb":"Westgate","id":"a6bzri7bx2mv","longitude":18.5889},"type":"Feature","geometry":{"type":"Point","coordinates":[18.5889,-34.048]}},{"properties":{"latitude":-34.0375,"total":459,"suburb":"Khayelitsha","id":"a6bzrhyogxkq","longitude":18.6602},"type":"Feature","geometry":{"type":"Point","coordinates":[18.6602,-34.0375]}},{"properties":{"latitude":-34.0518,"total":1145,"suburb":"Schaap Kraal","id":"a6bzrhto4ivg","longitude":18.556},"type":"Feature","geometry":{"type":"Point","coordinates":[18.556,-34.0518]}},{"properties":{"latitude":-34.0232,"total":2932,"suburb":"Khayelitsha T1 V3 Site B","id":"a6bzri0v3cer","longitude":18.6671},"type":"Feature","geometry":{"type":"Point","coordinates":[18.6671,-34.0232]}},{"properties":{"latitude":-34.0078,"total":4162,"suburb":"Ikwezipark","id":"a6bzri3z1kty","longitude":18.6344},"type":"Feature","geometry":{"type":"Point","coordinates":[18.6344,-34.0078]}},{"properties":{"latitude":-34.0115,"total":292,"suburb":"Washington Square","id":"a6bzri8etn5u","longitude":18.6328},"type":"Feature","geometry":{"type":"Point","coordinates":[18.6328,-34.0115]}},{"properties":{"latitude":-34.1492,"total":455,"suburb":"Gordon Strand","id":"a6bzri5p4cqm","longitude":18.8604},"type":"Feature","geometry":{"type":"Point","coordinates":[18.8604,-34.1492]}},{"properties":{"latitude":-34.1486,"total":136,"suburb":"Bay Park","id":"a6bzri163bap","longitude":18.8617},"type":"Feature","geometry":{"type":"Point","coordinates":[18.8617,-34.1486]}},{"properties":{"latitude":-34.1413,"total":104,"suburb":"Whispering Pines","id":"a6bzri6b4qet","longitude":18.8634},"type":"Feature","geometry":{"type":"Point","coordinates":[18.8634,-34.1413]}},{"properties":{"latitude":-34.1476,"total":153,"suburb":"Onverwacht","id":"a6bzrhwwqkz8","longitude":18.8632},"type":"Feature","geometry":{"type":"Point","coordinates":[18.8632,-34.1476]}},{"properties":{"latitude":-34.0969,"total":602,"suburb":"Strandvale","id":"a6bzri68aqgb","longitude":18.8375},"type":"Feature","geometry":{"type":"Point","coordinates":[18.8375,-34.0969]}},{"properties":{"latitude":-34.1063,"total":1045,"suburb":"Lochnerhof","id":"a6bzri66gji2","longitude":18.8247},"type":"Feature","geometry":{"type":"Point","coordinates":[18.8247,-34.1063]}},{"properties":{"latitude":-34.0927,"total":156,"suburb":"Clanwick","id":"a6bzrhw3yaeu","longitude":18.8548},"type":"Feature","geometry":{"type":"Point","coordinates":[18.8548,-34.0927]}},{"properties":{"latitude":-34.0929,"total":357,"suburb":"Van Der Stel","id":"a6bzri3gp6du","longitude":18.8578},"type":"Feature","geometry":{"type":"Point","coordinates":[18.8578,-34.0929]}},{"properties":{"latitude":-34.0924,"total":75,"suburb":"Brigebank","id":"a6bzri4aebgg","longitude":18.8501},"type":"Feature","geometry":{"type":"Point","coordinates":[18.8501,-34.0924]}},{"properties":{"latitude":-34.1088,"total":1166,"suburb":"Rome","id":"a6bzri931gqb","longitude":18.8387},"type":"Feature","geometry":{"type":"Point","coordinates":[18.8387,-34.1088]}},{"properties":{"latitude":-34.0926,"total":1802,"suburb":"Helderzicht","id":"a6bzri6tdiq8","longitude":18.8316},"type":"Feature","geometry":{"type":"Point","coordinates":[18.8316,-34.0926]}},{"properties":{"latitude":-34.0876,"total":1992,"suburb":"Garden Village","id":"a6bzrhy9oia6","longitude":18.8395},"type":"Feature","geometry":{"type":"Point","coordinates":[18.8395,-34.0876]}},{"properties":{"latitude":-34.0816,"total":1661,"suburb":"Andas Estate","id":"a6bzrhwfw30r","longitude":18.8457},"type":"Feature","geometry":{"type":"Point","coordinates":[18.8457,-34.0816]}},{"properties":{"latitude":-34.0776,"total":189,"suburb":"Westridge","id":"a6bzrhyeld8o","longitude":18.8366},"type":"Feature","geometry":{"type":"Point","coordinates":[18.8366,-34.0776]}},{"properties":{"latitude":-34.0721,"total":281,"suburb":"The Links","id":"a6bzri3rtkc9","longitude":18.8372},"type":"Feature","geometry":{"type":"Point","coordinates":[18.8372,-34.0721]}},{"properties":{"latitude":-34.0671,"total":258,"suburb":"Griselda","id":"a6bzri3fbsdl","longitude":18.8305},"type":"Feature","geometry":{"type":"Point","coordinates":[18.8305,-34.0671]}},{"properties":{"latitude":-34.0602,"total":344,"suburb":"Die Wingerd","id":"a6bzri26d8rl","longitude":18.8316},"type":"Feature","geometry":{"type":"Point","coordinates":[18.8316,-34.0602]}},{"properties":{"latitude":-34.0582,"total":265,"suburb":"Helena Heights","id":"a6bzrhybnuad","longitude":18.8354},"type":"Feature","geometry":{"type":"Point","coordinates":[18.8354,-34.0582]}},{"properties":{"latitude":-34.0677,"total":8,"suburb":"Briza","id":"a6bzrhuebxk3","longitude":18.8409},"type":"Feature","geometry":{"type":"Point","coordinates":[18.8409,-34.0677]}},{"properties":{"latitude":-34.075,"total":240,"suburb":"Jacques Hill Estate","id":"a6bzri6bs5jy","longitude":18.8502},"type":"Feature","geometry":{"type":"Point","coordinates":[18.8502,-34.075]}},{"properties":{"latitude":-34.061,"total":143,"suburb":"Parel Valley","id":"a6bzrhzy96dw","longitude":18.8511},"type":"Feature","geometry":{"type":"Point","coordinates":[18.8511,-34.061]}},{"properties":{"latitude":-34.0655,"total":113,"suburb":"Nutwood","id":"a6bzri44hgj7","longitude":18.8483},"type":"Feature","geometry":{"type":"Point","coordinates":[18.8483,-34.0655]}},{"properties":{"latitude":-34.0809,"total":164,"suburb":"Roundhay","id":"a6bzrhvahyrg","longitude":18.8652},"type":"Feature","geometry":{"type":"Point","coordinates":[18.8652,-34.0809]}},{"properties":{"latitude":-34.0755,"total":323,"suburb":"Golden Acre","id":"a6bzrhvqscpf","longitude":18.8624},"type":"Feature","geometry":{"type":"Point","coordinates":[18.8624,-34.0755]}},{"properties":{"latitude":-34.0672,"total":301,"suburb":"Golden Hill","id":"a6bzri5sc6a1","longitude":18.8644},"type":"Feature","geometry":{"type":"Point","coordinates":[18.8644,-34.0672]}},{"properties":{"latitude":-34.0706,"total":40,"suburb":"Natures Valley","id":"a6bzri8hyczr","longitude":18.8763},"type":"Feature","geometry":{"type":"Point","coordinates":[18.8763,-34.0706]}},{"properties":{"latitude":-34.0905,"total":104,"suburb":"Rome Glen","id":"a6bzri3s17a3","longitude":18.8702},"type":"Feature","geometry":{"type":"Point","coordinates":[18.8702,-34.0905]}},{"properties":{"latitude":-34.0905,"total":722,"suburb":"Longdown Estate","id":"a6bzrhw3zaeg","longitude":18.8532},"type":"Feature","geometry":{"type":"Point","coordinates":[18.8532,-34.0905]}},{"properties":{"latitude":-34.107,"total":749,"suburb":"Kleinbos","id":"a6bzri0ovaqm","longitude":18.8422},"type":"Feature","geometry":{"type":"Point","coordinates":[18.8422,-34.107]}},{"properties":{"latitude":-34.0976,"total":554,"suburb":"Somerset Park","id":"a6bzri5dnjzl","longitude":18.8539},"type":"Feature","geometry":{"type":"Point","coordinates":[18.8539,-34.0976]}},{"properties":{"latitude":-34.0977,"total":1914,"suburb":"Strand Halt","id":"a6bzri57ygbm","longitude":18.848},"type":"Feature","geometry":{"type":"Point","coordinates":[18.848,-34.0977]}},{"properties":{"latitude":-34.0869,"total":12,"suburb":"Kalamuda","id":"a6bzrhw18vqz","longitude":18.8612},"type":"Feature","geometry":{"type":"Point","coordinates":[18.8612,-34.0869]}},{"properties":{"latitude":-34.1086,"total":786,"suburb":"Die Bos","id":"a6bzri1u7l6f","longitude":18.8502},"type":"Feature","geometry":{"type":"Point","coordinates":[18.8502,-34.1086]}},{"properties":{"latitude":-34.0987,"total":905,"suburb":"Goede Hoop","id":"a6bzri4uml3m","longitude":18.8302},"type":"Feature","geometry":{"type":"Point","coordinates":[18.8302,-34.0987]}},{"properties":{"latitude":-34.1474,"total":365,"suburb":"Harbour Island","id":"a6bzri21potj","longitude":18.8557},"type":"Feature","geometry":{"type":"Point","coordinates":[18.8557,-34.1474]}},{"properties":{"latitude":-34.1652,"total":322,"suburb":"Gordon's Bay","id":"a6bzrhw314mm","longitude":18.8643},"type":"Feature","geometry":{"type":"Point","coordinates":[18.8643,-34.1652]}},{"properties":{"latitude":-33.9288,"total":22,"suburb":"Amandelsig","id":"a6bzri1aww7c","longitude":18.6948},"type":"Feature","geometry":{"type":"Point","coordinates":[18.6948,-33.9288]}},{"properties":{"latitude":-33.9313,"total":73,"suburb":"Mikro Park","id":"a6bzri0vkejp","longitude":18.6955},"type":"Feature","geometry":{"type":"Point","coordinates":[18.6955,-33.9313]}},{"properties":{"latitude":-33.9441,"total":92,"suburb":"Highbury","id":"a6bzrhtz4utu","longitude":18.6822},"type":"Feature","geometry":{"type":"Point","coordinates":[18.6822,-33.9441]}},{"properties":{"latitude":-33.9371,"total":83,"suburb":"Oakdene","id":"a6bzrhyw2c6o","longitude":18.6745},"type":"Feature","geometry":{"type":"Point","coordinates":[18.6745,-33.9371]}},{"properties":{"latitude":-33.8996,"total":1459,"suburb":"Kaymor","id":"a6bzri6i1v1m","longitude":18.6679},"type":"Feature","geometry":{"type":"Point","coordinates":[18.6679,-33.8996]}},{"properties":{"latitude":-33.9119,"total":2069,"suburb":"Access City","id":"a6bzri2dlypk","longitude":18.6679},"type":"Feature","geometry":{"type":"Point","coordinates":[18.6679,-33.9119]}},{"properties":{"latitude":-33.9226,"total":1556,"suburb":"Brantwood","id":"a6bzri3kf2ax","longitude":18.6734},"type":"Feature","geometry":{"type":"Point","coordinates":[18.6734,-33.9226]}},{"properties":{"latitude":-33.9284,"total":1738,"suburb":"De Kuilen","id":"a6bzri1iatww","longitude":18.6779},"type":"Feature","geometry":{"type":"Point","coordinates":[18.6779,-33.9284]}},{"properties":{"latitude":-33.9201,"total":731,"suburb":"Glenhaven","id":"a6bzri1ez07f","longitude":18.6586},"type":"Feature","geometry":{"type":"Point","coordinates":[18.6586,-33.9201]}},{"properties":{"latitude":-33.9155,"total":524,"suburb":"Marinda Heights","id":"a6bzrhynd1fv","longitude":18.6651},"type":"Feature","geometry":{"type":"Point","coordinates":[18.6651,-33.9155]}},{"properties":{"latitude":-33.9183,"total":266,"suburb":"Mabille Park","id":"a6bzri5qvz95","longitude":18.6696},"type":"Feature","geometry":{"type":"Point","coordinates":[18.6696,-33.9183]}},{"properties":{"latitude":-33.9358,"total":155,"suburb":"Silveroaks","id":"a6bzri76bod3","longitude":18.6884},"type":"Feature","geometry":{"type":"Point","coordinates":[18.6884,-33.9358]}},{"properties":{"latitude":-33.9547,"total":2619,"suburb":"Blackheath","id":"a6bzrhvmev7n","longitude":18.6953},"type":"Feature","geometry":{"type":"Point","coordinates":[18.6953,-33.9547]}},{"properties":{"latitude":-33.9414,"total":9024,"suburb":"Kuils River Industrial","id":"a6bzri84ldg7","longitude":18.6859},"type":"Feature","geometry":{"type":"Point","coordinates":[18.6859,-33.9414]}},{"properties":{"latitude":-33.9404,"total":973,"suburb":"Saint Dumas","id":"a6bzri80onmw","longitude":18.693},"type":"Feature","geometry":{"type":"Point","coordinates":[18.693,-33.9404]}},{"properties":{"latitude":-33.9477,"total":140,"suburb":"Blue Downs","id":"a6bzrhwkgu2z","longitude":18.665},"type":"Feature","geometry":{"type":"Point","coordinates":[18.665,-33.9477]}},{"properties":{"latitude":-33.9463,"total":495,"suburb":"Gersham","id":"a6bzri6yx02d","longitude":18.6738},"type":"Feature","geometry":{"type":"Point","coordinates":[18.6738,-33.9463]}},{"properties":{"latitude":-33.9424,"total":734,"suburb":"Kalkfontein","id":"a6bzrhz7v1ol","longitude":18.6628},"type":"Feature","geometry":{"type":"Point","coordinates":[18.6628,-33.9424]}},{"properties":{"latitude":-33.9299,"total":1233,"suburb":"Sarepta","id":"a6bzrhsmzkfd","longitude":18.6671},"type":"Feature","geometry":{"type":"Point","coordinates":[18.6671,-33.9299]}},{"properties":{"latitude":-33.9414,"total":55,"suburb":"Jagtershof","id":"a6bzri4zw2n4","longitude":18.7006},"type":"Feature","geometry":{"type":"Point","coordinates":[18.7006,-33.9414]}},{"properties":{"latitude":-33.9409,"total":81,"suburb":"Zevendal","id":"a6bzri3rjhn9","longitude":18.7113},"type":"Feature","geometry":{"type":"Point","coordinates":[18.7113,-33.9409]}},{"properties":{"latitude":-33.9532,"total":1292,"suburb":"Saxenburg Industrial Park","id":"a6bzrhx9p46t","longitude":18.7012},"type":"Feature","geometry":{"type":"Point","coordinates":[18.7012,-33.9532]}},{"properties":{"latitude":-33.8891,"total":829,"suburb":"Brackenfell","id":"a6bzrhtpm88f","longitude":18.7202},"type":"Feature","geometry":{"type":"Point","coordinates":[18.7202,-33.8891]}},{"properties":{"latitude":-33.9149,"total":148,"suburb":"Soneike","id":"a6bzrhyexmsm","longitude":18.6802},"type":"Feature","geometry":{"type":"Point","coordinates":[18.6802,-33.9149]}},{"properties":{"latitude":-33.9151,"total":671,"suburb":"Brandwag","id":"a6bzrhw6oro6","longitude":18.685},"type":"Feature","geometry":{"type":"Point","coordinates":[18.685,-33.9151]}},{"properties":{"latitude":-33.9228,"total":78,"suburb":"Kuils River","id":"a6bzri8v8fxa","longitude":18.6864},"type":"Feature","geometry":{"type":"Point","coordinates":[18.6864,-33.9228]}},{"properties":{"latitude":-34.0232,"total":2010,"suburb":"Philippi AH","id":"a6bzrhux0o1e","longitude":18.5538},"type":"Feature","geometry":{"type":"Point","coordinates":[18.5538,-34.0232]}},{"properties":{"latitude":-34.0244,"total":1176,"suburb":"Khayelitsha T1 V4 Site B","id":"a6bzrhyxgfdu","longitude":18.6576},"type":"Feature","geometry":{"type":"Point","coordinates":[18.6576,-34.0244]}},{"properties":{"latitude":-34.0519,"total":1471,"suburb":"Khayelitsha Town 2 Village","id":"a6bzri3uxtnw","longitude":18.6596},"type":"Feature","geometry":{"type":"Point","coordinates":[18.6596,-34.0519]}},{"properties":{"latitude":-34.0666,"total":695,"suburb":"Khayelitsha T2 V2B","id":"a6bzri6sllnm","longitude":18.6785},"type":"Feature","geometry":{"type":"Point","coordinates":[18.6785,-34.0666]}},{"properties":{"latitude":-34.0605,"total":644,"suburb":"Khayelitsha T3 V1","id":"a6bzri5nkhn7","longitude":18.6899},"type":"Feature","geometry":{"type":"Point","coordinates":[18.6899,-34.0605]}},{"properties":{"latitude":-34.0597,"total":653,"suburb":"Khayelitsha T3 V2","id":"a6bzri1aso56","longitude":18.7038},"type":"Feature","geometry":{"type":"Point","coordinates":[18.7038,-34.0597]}},{"properties":{"latitude":-34.0505,"total":980,"suburb":"Khayelitsha T3 V3","id":"a6bzri2kudtx","longitude":18.7084},"type":"Feature","geometry":{"type":"Point","coordinates":[18.7084,-34.0505]}},{"properties":{"latitude":-34.0507,"total":594,"suburb":"Khayelitsha T3 V4","id":"a6bzri1vcjj4","longitude":18.6955},"type":"Feature","geometry":{"type":"Point","coordinates":[18.6955,-34.0507]}},{"properties":{"latitude":-34.0423,"total":1468,"suburb":"Khayelitsha T3 V5","id":"a6bzri246ysv","longitude":18.7036},"type":"Feature","geometry":{"type":"Point","coordinates":[18.7036,-34.0423]}},{"properties":{"latitude":-34.0647,"total":112,"suburb":"Khayelitsha SP Outlying","id":"a6bzri5wy9n8","longitude":18.7166},"type":"Feature","geometry":{"type":"Point","coordinates":[18.7166,-34.0647]}},{"properties":{"latitude":-34.0361,"total":1475,"suburb":"Khayelitsha SP","id":"a6bzri2bna0v","longitude":18.6972},"type":"Feature","geometry":{"type":"Point","coordinates":[18.6972,-34.0361]}},{"properties":{"latitude":-33.9293,"total":36,"suburb":"Mikro Park Outlying","id":"a6bzrhwnqf7d","longitude":18.7015},"type":"Feature","geometry":{"type":"Point","coordinates":[18.7015,-33.9293]}},{"properties":{"latitude":-33.9579,"total":605,"suburb":"Kuils River NU","id":"a6bzri93hesq","longitude":18.7236},"type":"Feature","geometry":{"type":"Point","coordinates":[18.7236,-33.9579]}},{"properties":{"latitude":-34.0295,"total":25,"suburb":"Kronenzicht","id":"a6bzrhz9kvgg","longitude":18.3442},"type":"Feature","geometry":{"type":"Point","coordinates":[18.3442,-34.0295]}},{"properties":{"latitude":-34.0283,"total":234,"suburb":"Helgarda Estate","id":"a6bzri61pydu","longitude":18.3469},"type":"Feature","geometry":{"type":"Point","coordinates":[18.3469,-34.0283]}},{"properties":{"latitude":-34.0241,"total":105,"suburb":"Penzance Estate","id":"a6bzri351qr0","longitude":18.3601},"type":"Feature","geometry":{"type":"Point","coordinates":[18.3601,-34.0241]}},{"properties":{"latitude":-34.0297,"total":357,"suburb":"Tierboskloof","id":"a6bzri2gobfj","longitude":18.3726},"type":"Feature","geometry":{"type":"Point","coordinates":[18.3726,-34.0297]}},{"properties":{"latitude":-34.0384,"total":404,"suburb":"Berg-en-Dal","id":"a6bzri2khvmd","longitude":18.3674},"type":"Feature","geometry":{"type":"Point","coordinates":[18.3674,-34.0384]}},{"properties":{"latitude":-34.1259,"total":716,"suburb":"Sunnydale","id":"a6bzri351huh","longitude":18.3839},"type":"Feature","geometry":{"type":"Point","coordinates":[18.3839,-34.1259]}},{"properties":{"latitude":-33.7221,"total":3031,"suburb":"Excelsior","id":"a6bzri2kiqvh","longitude":18.7085},"type":"Feature","geometry":{"type":"Point","coordinates":[18.7085,-33.7221]}},{"properties":{"latitude":-33.9047,"total":1451,"suburb":"Goodwood","id":"a6bzri0fmnia","longitude":18.5509},"type":"Feature","geometry":{"type":"Point","coordinates":[18.5509,-33.9047]}},{"properties":{"latitude":-33.644,"total":17574,"suburb":"Wellington","id":"a6bzri2egcrr","longitude":18.9968},"type":"Feature","geometry":{"type":"Point","coordinates":[18.9968,-33.644]}},{"properties":{"latitude":-33.5636,"total":2091,"suburb":"Atlantis","id":"a6bzrhwf8eg5","longitude":18.494},"type":"Feature","geometry":{"type":"Point","coordinates":[18.494,-33.5636]}},{"properties":{"latitude":-33.9218,"total":22139,"suburb":"Cape Town","id":"a6bzri3ge98e","longitude":18.4233},"type":"Feature","geometry":{"type":"Point","coordinates":[18.4233,-33.9218]}},{"properties":{"latitude":-34.0244,"total":60,"suburb":"Constantia","id":"a6bzri7wlhgh","longitude":18.4189},"type":"Feature","geometry":{"type":"Point","coordinates":[18.4189,-34.0244]}},{"properties":{"latitude":-33.7348,"total":34783,"suburb":"Paarl","id":"a6bzri0h2dq0","longitude":18.9594},"type":"Feature","geometry":{"type":"Point","coordinates":[18.9594,-33.7348]}},{"properties":{"latitude":-33.984,"total":1729,"suburb":"Steynsrust","id":"a6bzrhws4uue","longitude":18.8221},"type":"Feature","geometry":{"type":"Point","coordinates":[18.8221,-33.984]}},{"properties":{"latitude":-33.934,"total":13595,"suburb":"Epping Industrial","id":"a6bzrhvrg6qf","longitude":18.5551},"type":"Feature","geometry":{"type":"Point","coordinates":[18.5551,-33.934]}},{"properties":{"latitude":-33.9333,"total":3413,"suburb":"Stellenbosch","id":"a6bzrhzainav","longitude":18.8636},"type":"Feature","geometry":{"type":"Point","coordinates":[18.8636,-33.9333]}},{"properties":{"latitude":-34.0794,"total":1949,"suburb":"Westlake","id":"a6bzrhxk4li7","longitude":18.4394},"type":"Feature","geometry":{"type":"Point","coordinates":[18.4394,-34.0794]}},{"properties":{"latitude":-33.5827,"total":1487,"suburb":"Atlantis Outlying","id":"a6bzrhxnx4ej","longitude":18.5439},"type":"Feature","geometry":{"type":"Point","coordinates":[18.5439,-33.5827]}},{"properties":{"latitude":-33.8343,"total":188,"suburb":"Aurora Ext D22","id":"a6bzrht286fx","longitude":18.6295},"type":"Feature","geometry":{"type":"Point","coordinates":[18.6295,-33.8343]}},{"properties":{"latitude":-33.8274,"total":238,"suburb":"Aurora Ext D33","id":"a6bzri0dcujy","longitude":18.6307},"type":"Feature","geometry":{"type":"Point","coordinates":[18.6307,-33.8274]}},{"properties":{"latitude":-33.5947,"total":5887,"suburb":"Atlantis Industrial","id":"a6bzri2bvdsd","longitude":18.4761},"type":"Feature","geometry":{"type":"Point","coordinates":[18.4761,-33.5947]}},{"properties":{"latitude":-33.6911,"total":361,"suburb":"Duynefontein","id":"a6bzrhxdrij4","longitude":18.4506},"type":"Feature","geometry":{"type":"Point","coordinates":[18.4506,-33.6911]}},{"properties":{"latitude":-33.7425,"total":3284,"suburb":"Morningstar AH","id":"a6bzri6j9wyb","longitude":18.5314},"type":"Feature","geometry":{"type":"Point","coordinates":[18.5314,-33.7425]}},{"properties":{"latitude":-33.8484,"total":107,"suburb":"Kenridge Heights","id":"a6bzri4pr61d","longitude":18.631},"type":"Feature","geometry":{"type":"Point","coordinates":[18.631,-33.8484]}},{"properties":{"latitude":-33.8357,"total":53,"suburb":"Joostenberg","id":"a6bzri0lra85","longitude":18.7143},"type":"Feature","geometry":{"type":"Point","coordinates":[18.7143,-33.8357]}},{"properties":{"latitude":-33.8388,"total":23,"suburb":"Monument Park","id":"a6bzri1pwfvm","longitude":18.7138},"type":"Feature","geometry":{"type":"Point","coordinates":[18.7138,-33.8388]}},{"properties":{"latitude":-33.788,"total":5382,"suburb":"Fisantkraal","id":"a6bzri7dx3d9","longitude":18.7041},"type":"Feature","geometry":{"type":"Point","coordinates":[18.7041,-33.788]}},{"properties":{"latitude":-33.6667,"total":6457,"suburb":"Philadelphia","id":"a6bzri5uai8c","longitude":18.5822},"type":"Feature","geometry":{"type":"Point","coordinates":[18.5822,-33.6667]}},{"properties":{"latitude":-34.0885,"total":641,"suburb":"Humanshof Ext 1","id":"a6bzrhthe1s8","longitude":18.8431},"type":"Feature","geometry":{"type":"Point","coordinates":[18.8431,-34.0885]}},{"properties":{"latitude":-33.8314,"total":72,"suburb":"Durbanville Ext 37","id":"a6bzri4apnnu","longitude":18.6733},"type":"Feature","geometry":{"type":"Point","coordinates":[18.6733,-33.8314]}},{"properties":{"latitude":-33.9446,"total":2168,"suburb":"Belhar Ext 1","id":"a6bzrhzqj80j","longitude":18.6067},"type":"Feature","geometry":{"type":"Point","coordinates":[18.6067,-33.9446]}},{"properties":{"latitude":-33.9431,"total":198,"suburb":"Belhar Ext 10","id":"a6bzri3dc5bx","longitude":18.6432},"type":"Feature","geometry":{"type":"Point","coordinates":[18.6432,-33.9431]}},{"properties":{"latitude":-33.9452,"total":176,"suburb":"Belhar Ext 11","id":"a6bzrhyym8do","longitude":18.6445},"type":"Feature","geometry":{"type":"Point","coordinates":[18.6445,-33.9452]}},{"properties":{"latitude":-33.9514,"total":340,"suburb":"Belhar Ext 13","id":"a6bzri4qo49k","longitude":18.6391},"type":"Feature","geometry":{"type":"Point","coordinates":[18.6391,-33.9514]}},{"properties":{"latitude":-33.9446,"total":430,"suburb":"Belhar Ext 14","id":"a6bzrhwp6jzj","longitude":18.6375},"type":"Feature","geometry":{"type":"Point","coordinates":[18.6375,-33.9446]}},{"properties":{"latitude":-33.9492,"total":704,"suburb":"Belhar Ext 16","id":"a6bzrhycbth2","longitude":18.6434},"type":"Feature","geometry":{"type":"Point","coordinates":[18.6434,-33.9492]}},{"properties":{"latitude":-33.9395,"total":618,"suburb":"Belhar Ext 17","id":"a6bzrhvgr0ek","longitude":18.6299},"type":"Feature","geometry":{"type":"Point","coordinates":[18.6299,-33.9395]}},{"properties":{"latitude":-33.9509,"total":1442,"suburb":"Belhar Ext 18","id":"a6bzri4kw0pl","longitude":18.6563},"type":"Feature","geometry":{"type":"Point","coordinates":[18.6563,-33.9509]}},{"properties":{"latitude":-33.9497,"total":681,"suburb":"Belhar Ext 19","id":"a6bzri3yah63","longitude":18.6514},"type":"Feature","geometry":{"type":"Point","coordinates":[18.6514,-33.9497]}},{"properties":{"latitude":-33.9482,"total":423,"suburb":"Belhar Ext 2","id":"a6bzri4cn79v","longitude":18.6077},"type":"Feature","geometry":{"type":"Point","coordinates":[18.6077,-33.9482]}},{"properties":{"latitude":-33.9469,"total":276,"suburb":"Belhar Ext 20","id":"a6bzri2ta9z3","longitude":18.6518},"type":"Feature","geometry":{"type":"Point","coordinates":[18.6518,-33.9469]}},{"properties":{"latitude":-33.9434,"total":42,"suburb":"Belhar Ext 21","id":"a6bzrhtk3kry","longitude":18.6525},"type":"Feature","geometry":{"type":"Point","coordinates":[18.6525,-33.9434]}},{"properties":{"latitude":-33.9386,"total":434,"suburb":"Belhar Ext 23","id":"a6bzrhue00rl","longitude":18.6416},"type":"Feature","geometry":{"type":"Point","coordinates":[18.6416,-33.9386]}},{"properties":{"latitude":-33.9493,"total":381,"suburb":"Belhar Ext 3","id":"a6bzrhxm5swf","longitude":18.6209},"type":"Feature","geometry":{"type":"Point","coordinates":[18.6209,-33.9493]}},{"properties":{"latitude":-33.9459,"total":92,"suburb":"Belhar Ext 4","id":"a6bzri6i2t2j","longitude":18.6167},"type":"Feature","geometry":{"type":"Point","coordinates":[18.6167,-33.9459]}},{"properties":{"latitude":-33.947,"total":487,"suburb":"Belhar Ext 6","id":"a6bzrhx80eko","longitude":18.6292},"type":"Feature","geometry":{"type":"Point","coordinates":[18.6292,-33.947]}},{"properties":{"latitude":-33.9476,"total":127,"suburb":"Belhar Ext 7","id":"a6bzrhudv8nu","longitude":18.6343},"type":"Feature","geometry":{"type":"Point","coordinates":[18.6343,-33.9476]}},{"properties":{"latitude":-33.9414,"total":326,"suburb":"Belhar Ext 8","id":"a6bzrhunt4q1","longitude":18.6306},"type":"Feature","geometry":{"type":"Point","coordinates":[18.6306,-33.9414]}},{"properties":{"latitude":-33.9454,"total":7,"suburb":"Belhar Ext 9","id":"a6bzri10efkm","longitude":18.6392},"type":"Feature","geometry":{"type":"Point","coordinates":[18.6392,-33.9454]}},{"properties":{"latitude":-33.8774,"total":829,"suburb":"Bellville Ext 19","id":"a6bzri6o0c18","longitude":18.6576},"type":"Feature","geometry":{"type":"Point","coordinates":[18.6576,-33.8774]}},{"properties":{"latitude":-33.8874,"total":623,"suburb":"Bellville Ext 20","id":"a6bzrhzg783o","longitude":18.6192},"type":"Feature","geometry":{"type":"Point","coordinates":[18.6192,-33.8874]}},{"properties":{"latitude":-33.8797,"total":71,"suburb":"Bellville Ext 22","id":"a6bzri4n6xsk","longitude":18.6626},"type":"Feature","geometry":{"type":"Point","coordinates":[18.6626,-33.8797]}},{"properties":{"latitude":-33.8795,"total":97,"suburb":"Bellville Ext 28","id":"a6bzrhwwkf8b","longitude":18.6667},"type":"Feature","geometry":{"type":"Point","coordinates":[18.6667,-33.8795]}},{"properties":{"latitude":-33.868,"total":119,"suburb":"Bellville Ext 36","id":"a6bzri37xusl","longitude":18.6481},"type":"Feature","geometry":{"type":"Point","coordinates":[18.6481,-33.868]}},{"properties":{"latitude":-33.8829,"total":137,"suburb":"Bellville Ext 39","id":"a6bzri43limu","longitude":18.6677},"type":"Feature","geometry":{"type":"Point","coordinates":[18.6677,-33.8829]}},{"properties":{"latitude":-33.8656,"total":2,"suburb":"Bellville Ext 40","id":"a6bzri67ky4q","longitude":18.6459},"type":"Feature","geometry":{"type":"Point","coordinates":[18.6459,-33.8656]}},{"properties":{"latitude":-33.8624,"total":92,"suburb":"Bellville Ext 41","id":"a6bzrhwbagj5","longitude":18.6438},"type":"Feature","geometry":{"type":"Point","coordinates":[18.6438,-33.8624]}},{"properties":{"latitude":-33.8646,"total":376,"suburb":"Bellville Ext 43","id":"a6bzri4sdx2q","longitude":18.6284},"type":"Feature","geometry":{"type":"Point","coordinates":[18.6284,-33.8646]}},{"properties":{"latitude":-33.8657,"total":4,"suburb":"Bellville Ext 53","id":"a6bzri34tqk9","longitude":18.6098},"type":"Feature","geometry":{"type":"Point","coordinates":[18.6098,-33.8657]}},{"properties":{"latitude":-33.9125,"total":137,"suburb":"Bellville South Ext 5","id":"a6bzri6o6i1f","longitude":18.6375},"type":"Feature","geometry":{"type":"Point","coordinates":[18.6375,-33.9125]}},{"properties":{"latitude":-33.916,"total":155,"suburb":"Bellville South Ext 7","id":"a6bzri8he3rz","longitude":18.6409},"type":"Feature","geometry":{"type":"Point","coordinates":[18.6409,-33.916]}},{"properties":{"latitude":-33.8956,"total":534,"suburb":"Bellville West Ext 1","id":"a6bzri8qdd29","longitude":18.6097},"type":"Feature","geometry":{"type":"Point","coordinates":[18.6097,-33.8956]}},{"properties":{"latitude":-33.8443,"total":243,"suburb":"Bloekombos Outlying","id":"a6bzrhv75e3m","longitude":18.7407},"type":"Feature","geometry":{"type":"Point","coordinates":[18.7407,-33.8443]}},{"properties":{"latitude":-33.9972,"total":53,"suburb":"Blue Downs Outlying","id":"a6bzri0os7uo","longitude":18.6977},"type":"Feature","geometry":{"type":"Point","coordinates":[18.6977,-33.9972]}},{"properties":{"latitude":-34.0888,"total":93,"suburb":"Brigewater Ext 1","id":"a6bzri1tcozi","longitude":18.86},"type":"Feature","geometry":{"type":"Point","coordinates":[18.86,-34.0888]}},{"properties":{"latitude":-34.1633,"total":405,"suburb":"Caledon Outlying","id":"a6bzrhufkfco","longitude":19.0026},"type":"Feature","geometry":{"type":"Point","coordinates":[19.0026,-34.1633]}},{"properties":{"latitude":-34.0297,"total":334,"suburb":"Imizamo Yethu","id":"a6bzri1efnff","longitude":18.3591},"type":"Feature","geometry":{"type":"Point","coordinates":[18.3591,-34.0297]}},{"properties":{"latitude":-34.0287,"total":49,"suburb":"Imajamojeal","id":"a6bzrhywgb0v","longitude":18.3625},"type":"Feature","geometry":{"type":"Point","coordinates":[18.3625,-34.0287]}},{"properties":{"latitude":-34.0262,"total":92,"suburb":"Houtbaai","id":"a6bzri28tof2","longitude":18.3634},"type":"Feature","geometry":{"type":"Point","coordinates":[18.3634,-34.0262]}},{"properties":{"latitude":-34.0736,"total":4983,"suburb":"The Links SH","id":"a6bzri1xfhxx","longitude":18.8275},"type":"Feature","geometry":{"type":"Point","coordinates":[18.8275,-34.0736]}},{"properties":{"latitude":-33.8661,"total":233,"suburb":"Welgelegen 3","id":"a6bzrhxsy2pj","longitude":18.5647},"type":"Feature","geometry":{"type":"Point","coordinates":[18.5647,-33.8661]}},{"properties":{"latitude":-33.8705,"total":264,"suburb":"Welgelegen 2","id":"a6bzrhwlmqrg","longitude":18.5674},"type":"Feature","geometry":{"type":"Point","coordinates":[18.5674,-33.8705]}},{"properties":{"latitude":-33.875,"total":75,"suburb":"Welgelegen 1","id":"a6bzri2dkygn","longitude":18.5698},"type":"Feature","geometry":{"type":"Point","coordinates":[18.5698,-33.875]}},{"properties":{"latitude":-34.2027,"total":41,"suburb":"Scarborough","id":"a6bzri6cofje","longitude":18.3861},"type":"Feature","geometry":{"type":"Point","coordinates":[18.3861,-34.2027]}},{"properties":{"latitude":-33.8263,"total":23,"suburb":"Roosendal","id":"a6bzri5z8lzu","longitude":18.6779},"type":"Feature","geometry":{"type":"Point","coordinates":[18.6779,-33.8263]}},{"properties":{"latitude":-33.9983,"total":783,"suburb":"Rosedale","id":"a6bzrhumj0i8","longitude":18.7238},"type":"Feature","geometry":{"type":"Point","coordinates":[18.7238,-33.9983]}},{"properties":{"latitude":-34.1236,"total":38,"suburb":"Peers Hill","id":"a6bzri3f5cw2","longitude":18.4196},"type":"Feature","geometry":{"type":"Point","coordinates":[18.4196,-34.1236]}},{"properties":{"latitude":-33.686,"total":3534,"suburb":"Mbekweni","id":"a6bzri0bkqlg","longitude":18.9868},"type":"Feature","geometry":{"type":"Point","coordinates":[18.9868,-33.686]}},{"properties":{"latitude":-33.6797,"total":5997,"suburb":"Mbekweni","id":"a6bzri6xuhin","longitude":18.9924},"type":"Feature","geometry":{"type":"Point","coordinates":[18.9924,-33.6797]}},{"properties":{"latitude":-33.9658,"total":12,"suburb":"Stellenbosch Part 1 Outlying","id":"a6bzrhtn1ep7","longitude":18.8599},"type":"Feature","geometry":{"type":"Point","coordinates":[18.8599,-33.9658]}},{"properties":{"latitude":-33.8894,"total":63,"suburb":"Chrismar Ext 1","id":"a6bzri71xpda","longitude":18.6453},"type":"Feature","geometry":{"type":"Point","coordinates":[18.6453,-33.8894]}},{"properties":{"latitude":-33.9017,"total":651,"suburb":"Bellville","id":"a6bzri58eey2","longitude":18.6206},"type":"Feature","geometry":{"type":"Point","coordinates":[18.6206,-33.9017]}},{"properties":{"latitude":-33.855,"total":23,"suburb":"Bellville NU","id":"a6bzrhzv727t","longitude":18.6231},"type":"Feature","geometry":{"type":"Point","coordinates":[18.6231,-33.855]}},{"properties":{"latitude":-33.9899,"total":4956,"suburb":"Crossroads","id":"a6bzri4cqj56","longitude":18.6},"type":"Feature","geometry":{"type":"Point","coordinates":[18.6,-33.9899]}},{"properties":{"latitude":-34.0497,"total":3895,"suburb":"Mitchell's Plain Town Centre","id":"a6bzri1i3l9o","longitude":18.6215},"type":"Feature","geometry":{"type":"Point","coordinates":[18.6215,-34.0497]}},{"properties":{"latitude":-33.902,"total":1339,"suburb":"Franschhoek Outlying","id":"a6bzri8px2sr","longitude":19.1639},"type":"Feature","geometry":{"type":"Point","coordinates":[19.1639,-33.902]}},{"properties":{"latitude":-33.9004,"total":677,"suburb":"Franschhoek","id":"a6bzri7oasy3","longitude":19.1299},"type":"Feature","geometry":{"type":"Point","coordinates":[19.1299,-33.9004]}},{"properties":{"latitude":-34.2214,"total":7285,"suburb":"Botrivier","id":"a6bzrhwr0d4w","longitude":19.1992},"type":"Feature","geometry":{"type":"Point","coordinates":[19.1992,-34.2214]}},{"properties":{"latitude":-33.9939,"total":45,"suburb":"Penhill","id":"a6bzri8qr72z","longitude":18.7332},"type":"Feature","geometry":{"type":"Point","coordinates":[18.7332,-33.9939]}},{"properties":{"latitude":-34.0094,"total":171,"suburb":"Eersterivier","id":"a6bzrhwtn5ed","longitude":18.7378},"type":"Feature","geometry":{"type":"Point","coordinates":[18.7378,-34.0094]}},{"properties":{"latitude":-33.9824,"total":1706,"suburb":"Lynedoch","id":"a6bzrhuy6v40","longitude":18.7699},"type":"Feature","geometry":{"type":"Point","coordinates":[18.7699,-33.9824]}},{"properties":{"latitude":-34.063,"total":1540,"suburb":"Macassar","id":"a6bzrhtgsf9l","longitude":18.7503},"type":"Feature","geometry":{"type":"Point","coordinates":[18.7503,-34.063]}},{"properties":{"latitude":-34.0761,"total":406,"suburb":"Somerset West","id":"a6bzri3ht35v","longitude":18.8051},"type":"Feature","geometry":{"type":"Point","coordinates":[18.8051,-34.0761]}},{"properties":{"latitude":-34.1351,"total":3911,"suburb":"Somerset West NU","id":"a6bzri1l4lss","longitude":18.9288},"type":"Feature","geometry":{"type":"Point","coordinates":[18.9288,-34.1351]}},{"properties":{"latitude":-34.121,"total":611,"suburb":"Saint James","id":"a6bzrhv884gi","longitude":18.4547},"type":"Feature","geometry":{"type":"Point","coordinates":[18.4547,-34.121]}},{"properties":{"latitude":-34.1272,"total":881,"suburb":"Kalk Bay","id":"a6bzri71ruea","longitude":18.4456},"type":"Feature","geometry":{"type":"Point","coordinates":[18.4456,-34.1272]}},{"properties":{"latitude":-34.1208,"total":70,"suburb":"Clovelly","id":"a6bzri73na1a","longitude":18.4301},"type":"Feature","geometry":{"type":"Point","coordinates":[18.4301,-34.1208]}},{"properties":{"latitude":-34.1394,"total":1277,"suburb":"Fish Hoek","id":"a6bzrhwclhwb","longitude":18.421},"type":"Feature","geometry":{"type":"Point","coordinates":[18.421,-34.1394]}},{"properties":{"latitude":-34.0682,"total":1142,"suburb":"Pelikan Park","id":"a6bzrhzedx39","longitude":18.5265},"type":"Feature","geometry":{"type":"Point","coordinates":[18.5265,-34.0682]}},{"properties":{"latitude":-34.0994,"total":1632,"suburb":"Muizenberg","id":"a6bzrhzwx0fi","longitude":18.4773},"type":"Feature","geometry":{"type":"Point","coordinates":[18.4773,-34.0994]}},{"properties":{"latitude":-34.2418,"total":96,"suburb":"Castle Rock","id":"a6bzri6up06n","longitude":18.4745},"type":"Feature","geometry":{"type":"Point","coordinates":[18.4745,-34.2418]}},{"properties":{"latitude":-34.0798,"total":132,"suburb":"Cape Farms","id":"a6bzri06wmj6","longitude":18.3653},"type":"Feature","geometry":{"type":"Point","coordinates":[18.3653,-34.0798]}},{"properties":{"latitude":-33.9866,"total":407,"suburb":"Oudekraal","id":"a6bzrhv6m8nm","longitude":18.3666},"type":"Feature","geometry":{"type":"Point","coordinates":[18.3666,-33.9866]}},{"properties":{"latitude":-33.9104,"total":4810,"suburb":"Paarden Eiland","id":"a6bzri0xxwrp","longitude":18.471},"type":"Feature","geometry":{"type":"Point","coordinates":[18.471,-33.9104]}},{"properties":{"latitude":-33.9286,"total":6111,"suburb":"Woodstock","id":"a6bzrhtcngq4","longitude":18.45},"type":"Feature","geometry":{"type":"Point","coordinates":[18.45,-33.9286]}},{"properties":{"latitude":-33.9096,"total":6352,"suburb":"Brooklyn","id":"a6bzri31z1x6","longitude":18.4826},"type":"Feature","geometry":{"type":"Point","coordinates":[18.4826,-33.9096]}},{"properties":{"latitude":-33.769,"total":387,"suburb":"Milnerton Outlying","id":"a6bzrhz9e0x9","longitude":18.456},"type":"Feature","geometry":{"type":"Point","coordinates":[18.456,-33.769]}},{"properties":{"latitude":-34.044,"total":628,"suburb":"Graceland","id":"a6bzrhye5hhk","longitude":18.676},"type":"Feature","geometry":{"type":"Point","coordinates":[18.676,-34.044]}},{"properties":{"latitude":-34.4172,"total":786,"suburb":"Mount Pleasant","id":"a6bzri3658i8","longitude":19.2142},"type":"Feature","geometry":{"type":"Point","coordinates":[19.2142,-34.4172]}},{"properties":{"latitude":-34.3568,"total":103,"suburb":"Betty's Bay","id":"a6bzri7gfgbg","longitude":18.9243},"type":"Feature","geometry":{"type":"Point","coordinates":[18.9243,-34.3568]}},{"properties":{"latitude":-34.3475,"total":184,"suburb":"Pringle Bay","id":"a6bzri48knla","longitude":18.8316},"type":"Feature","geometry":{"type":"Point","coordinates":[18.8316,-34.3475]}},{"properties":{"latitude":-34.3696,"total":9,"suburb":"Hangklip","id":"a6bzri4q8mdv","longitude":18.8413},"type":"Feature","geometry":{"type":"Point","coordinates":[18.8413,-34.3696]}},{"properties":{"latitude":-33.8852,"total":673,"suburb":"Woodbridge Island","id":"a6bzri46uowa","longitude":18.4866},"type":"Feature","geometry":{"type":"Point","coordinates":[18.4866,-33.8852]}},{"properties":{"latitude":-33.8692,"total":438,"suburb":"Milnerton Golf Course","id":"a6bzri5xnrm3","longitude":18.492},"type":"Feature","geometry":{"type":"Point","coordinates":[18.492,-33.8692]}},{"properties":{"latitude":-33.7942,"total":827,"suburb":"Bloubergstrand","id":"a6bzri4ou8xo","longitude":18.4611},"type":"Feature","geometry":{"type":"Point","coordinates":[18.4611,-33.7942]}},{"properties":{"latitude":-33.8422,"total":3166,"suburb":"Bloekombos","id":"a6bzri25hkzd","longitude":18.748},"type":"Feature","geometry":{"type":"Point","coordinates":[18.748,-33.8422]}},{"properties":{"latitude":-33.8022,"total":6468,"suburb":"Kuilsrivier NU","id":"a6bzri8stw64","longitude":18.7529},"type":"Feature","geometry":{"type":"Point","coordinates":[18.7529,-33.8022]}},{"properties":{"latitude":-34.4286,"total":346,"suburb":"Zwelihle","id":"a6bzrhwh06z3","longitude":19.2117},"type":"Feature","geometry":{"type":"Point","coordinates":[19.2117,-34.4286]}},{"properties":{"latitude":-34.4179,"total":272,"suburb":"Sandbaai","id":"a6bzrhv1ap08","longitude":19.1952},"type":"Feature","geometry":{"type":"Point","coordinates":[19.1952,-34.4179]}},{"properties":{"latitude":-33.9235,"total":81,"suburb":"Stellenbosch NU","id":"a6bzrhze35nb","longitude":18.8334},"type":"Feature","geometry":{"type":"Point","coordinates":[18.8334,-33.9235]}},{"properties":{"latitude":-33.9444,"total":1057,"suburb":"Devonvallei","id":"a6bzrhz0qr3k","longitude":18.8293},"type":"Feature","geometry":{"type":"Point","coordinates":[18.8293,-33.9444]}},{"properties":{"latitude":-33.5862,"total":4974,"suburb":"Witsand","id":"a6bzri1lh8c7","longitude":18.5053},"type":"Feature","geometry":{"type":"Point","coordinates":[18.5053,-33.5862]}},{"properties":{"latitude":-34.1629,"total":141,"suburb":"Simon's Town SP","id":"a6bzri5tp8k8","longitude":18.4321},"type":"Feature","geometry":{"type":"Point","coordinates":[18.4321,-34.1629]}},{"properties":{"latitude":-34.1702,"total":97,"suburb":"Marine Oil Refinery","id":"a6bzrhx4rru6","longitude":18.4278},"type":"Feature","geometry":{"type":"Point","coordinates":[18.4278,-34.1702]}},{"properties":{"latitude":-34.1678,"total":26,"suburb":"Glen Marine","id":"a6bzri409byl","longitude":18.4264},"type":"Feature","geometry":{"type":"Point","coordinates":[18.4264,-34.1678]}},{"properties":{"latitude":-34.1558,"total":208,"suburb":"Glen Ridge","id":"a6bzri6x8dct","longitude":18.4334},"type":"Feature","geometry":{"type":"Point","coordinates":[18.4334,-34.1558]}},{"properties":{"latitude":-34.1651,"total":29,"suburb":"Cairnside","id":"a6bzrhz3j0xw","longitude":18.4281},"type":"Feature","geometry":{"type":"Point","coordinates":[18.4281,-34.1651]}},{"properties":{"latitude":-34.1522,"total":131,"suburb":"Glencairn Heights","id":"a6bzri2t74nx","longitude":18.4311},"type":"Feature","geometry":{"type":"Point","coordinates":[18.4311,-34.1522]}},{"properties":{"latitude":-34.1572,"total":32,"suburb":"Glencairn","id":"a6bzri4fuae4","longitude":18.4212},"type":"Feature","geometry":{"type":"Point","coordinates":[18.4212,-34.1572]}},{"properties":{"latitude":-34.1634,"total":8,"suburb":"Cape Farms","id":"a6bzri0tk0wc","longitude":18.4144},"type":"Feature","geometry":{"type":"Point","coordinates":[18.4144,-34.1634]}},{"properties":{"latitude":-34.1539,"total":92,"suburb":"Welcome Glen","id":"a6bzri7plaaj","longitude":18.4056},"type":"Feature","geometry":{"type":"Point","coordinates":[18.4056,-34.1539]}},{"properties":{"latitude":-34.1623,"total":2,"suburb":"Da Gama Park","id":"a6bzri4ova2h","longitude":18.4042},"type":"Feature","geometry":{"type":"Point","coordinates":[18.4042,-34.1623]}},{"properties":{"latitude":-34.1825,"total":10,"suburb":"Pine Haven","id":"a6bzri0avq3f","longitude":18.415},"type":"Feature","geometry":{"type":"Point","coordinates":[18.415,-34.1825]}},{"properties":{"latitude":-34.1834,"total":82,"suburb":"Bay View Village","id":"a6bzri6kztuj","longitude":18.4204},"type":"Feature","geometry":{"type":"Point","coordinates":[18.4204,-34.1834]}},{"properties":{"latitude":-34.1938,"total":7,"suburb":"Admirals Kloof","id":"a6bzri8sqx7h","longitude":18.4237},"type":"Feature","geometry":{"type":"Point","coordinates":[18.4237,-34.1938]}},{"properties":{"latitude":-34.1965,"total":527,"suburb":"Dorion Place","id":"a6bzri0ohkx6","longitude":18.4422},"type":"Feature","geometry":{"type":"Point","coordinates":[18.4422,-34.1965]}},{"properties":{"latitude":-34.1962,"total":38,"suburb":"Habour Heights","id":"a6bzri2zm51h","longitude":18.4397},"type":"Feature","geometry":{"type":"Point","coordinates":[18.4397,-34.1962]}},{"properties":{"latitude":-34.1961,"total":142,"suburb":"Simonskloof","id":"a6bzri6u7toh","longitude":18.4325},"type":"Feature","geometry":{"type":"Point","coordinates":[18.4325,-34.1961]}},{"properties":{"latitude":-34.1947,"total":31,"suburb":"Mount Pleasant","id":"a6bzrhueh6uk","longitude":18.4246},"type":"Feature","geometry":{"type":"Point","coordinates":[18.4246,-34.1947]}},{"properties":{"latitude":-34.1903,"total":51,"suburb":"Simon's Town Harbour","id":"a6bzrhub4l78","longitude":18.4403},"type":"Feature","geometry":{"type":"Point","coordinates":[18.4403,-34.1903]}},{"properties":{"latitude":-34.1916,"total":195,"suburb":"Simon's Town","id":"a6bzri3nheyg","longitude":18.428},"type":"Feature","geometry":{"type":"Point","coordinates":[18.428,-34.1916]}},{"properties":{"latitude":-34.1985,"total":1,"suburb":"Boulders","id":"a6bzri6l7be6","longitude":18.4521},"type":"Feature","geometry":{"type":"Point","coordinates":[18.4521,-34.1985]}},{"properties":{"latitude":-34.1998,"total":31,"suburb":"Seaforth Sound","id":"a6bzri0gpaud","longitude":18.4475},"type":"Feature","geometry":{"type":"Point","coordinates":[18.4475,-34.1998]}},{"properties":{"latitude":-34.2068,"total":2,"suburb":"Froggy Farm","id":"a6bzri6szxdm","longitude":18.4547},"type":"Feature","geometry":{"type":"Point","coordinates":[18.4547,-34.2068]}},{"properties":{"latitude":-34.2459,"total":1832,"suburb":"Cape of Good Hope Nature Reserve","id":"a6bzri57seo9","longitude":18.408},"type":"Feature","geometry":{"type":"Point","coordinates":[18.408,-34.2459]}},{"properties":{"latitude":-34.2113,"total":5,"suburb":"Murdock Valley","id":"a6bzri87fkyk","longitude":18.4578},"type":"Feature","geometry":{"type":"Point","coordinates":[18.4578,-34.2113]}},{"properties":{"latitude":-34.2172,"total":11,"suburb":"Rocklands Fynbos Ridge","id":"a6bzri2z1jzq","longitude":18.4612},"type":"Feature","geometry":{"type":"Point","coordinates":[18.4612,-34.2172]}},{"properties":{"latitude":-33.6997,"total":24751,"suburb":"Klipheuwel","id":"a6bzri1rkqpq","longitude":18.7006},"type":"Feature","geometry":{"type":"Point","coordinates":[18.7006,-33.6997]}},{"properties":{"latitude":-34.0101,"total":433,"suburb":"Llandudno","id":"a6bzri2hh46k","longitude":18.3414},"type":"Feature","geometry":{"type":"Point","coordinates":[18.3414,-34.0101]}},{"properties":{"latitude":-34.0047,"total":651,"suburb":"Drift Sands","id":"a6bzri0h5dbd","longitude":18.6595},"type":"Feature","geometry":{"type":"Point","coordinates":[18.6595,-34.0047]}},{"properties":{"latitude":-33.9812,"total":330,"suburb":"Drift Sands","id":"a6bzri7g2mds","longitude":18.6607},"type":"Feature","geometry":{"type":"Point","coordinates":[18.6607,-33.9812]}}],"is_temporal":false,"author":{"url":"","metadata":"","contact_name":"","contact_address":"","source":"","contact_phone":""},"source":"","pagination":{"sort":null,"start":0,"total":929,"limit":1000000},"state":"complete","tags":"","published":"2014-08-13T04:20:52-04:00","id":155347}