{"type":"FeatureCollection","data_type":"Dataset","url_type":null,"permissions":[{"permissions":{"download":true,"view":true},"group_id":"everyone"}],"classification":null,"title":"address","count":496,"stream_id":155334,"contributor":{"url":"http://geocommons.com/users/32751","name":"scampbell6"},"data_attributes":null,"calculation_params":null,"icon_link":null,"link":"http://geocommons.com/overlays/155334.json","extent":[-77.1964,38.8304,-71.5455,42.3491],"geometry_types":["point"],"unique_name":null,"name":"address","feature_count":496,"description":"","next_feature":null,"is_raster":false,"short_classification":"Y","stats":{"closings":{"max":60.0,"mean":2.88004032258065,"variance":32.0477018165528,"stdev":5.66106896412266,"min":0.0,"median":1.0}},"features":[{"properties":{"city":"Annandale","closings":60.0,"zip":"22003","last name":"Shafik","geo_score":0.857,"office name":"Fairfax Realty, Inc.","id":"a67x56gd45j0","geo_precision":"zip","first name":"Sharif"},"type":"Feature","geometry":{"type":"Point","coordinates":[-77.1963703,38.8303905]}},{"properties":{"city":"Annandale","closings":6.0,"zip":"22003","last name":"Columbel","geo_score":0.857,"office name":"Fairfax Realty, Inc.","id":"a67x56c763uf","geo_precision":"zip","first name":"Darien"},"type":"Feature","geometry":{"type":"Point","coordinates":[-77.1963703,38.8303905]}},{"properties":{"city":"Annandale","closings":25.0,"zip":"22003","last name":"Dang","geo_score":0.857,"office name":"Fairfax Realty, Inc.","id":"a67x56jbq9s9","geo_precision":"zip","first name":"Minh"},"type":"Feature","geometry":{"type":"Point","coordinates":[-77.1963703,38.8303905]}},{"properties":{"city":"Upper Marlboro","closings":43.0,"zip":"20774","last name":"BELL","geo_score":0.769,"office name":"Keller Williams Preferred Properties","id":"a67x56rhawy6","geo_precision":"zip","first name":"CECELIA"},"type":"Feature","geometry":{"type":"Point","coordinates":[-71.5454578399658,42.3490930324696]}},{"properties":{"city":"Annandale","closings":8.0,"zip":"22003","last name":"Lee","geo_score":0.857,"office name":"Fairfax Realty, Inc.","id":"a67x56f7wkkz","geo_precision":"zip","first name":"Eun"},"type":"Feature","geometry":{"type":"Point","coordinates":[-77.1963703,38.8303905]}},{"properties":{"city":"Upper Marlboro","closings":48.0,"zip":"20774","last name":"Peace","geo_score":0.769,"office name":"Keller Williams Preferred Properties","id":"a67x56p0352d","geo_precision":"zip","first name":"Emerick"},"type":"Feature","geometry":{"type":"Point","coordinates":[-71.5454578399658,42.3490930324696]}},{"properties":{"city":"Annandale","closings":31.0,"zip":"22003","last name":"Matos","geo_score":0.857,"office name":"Fairfax Realty, Inc.","id":"a67x56m8rvhu","geo_precision":"zip","first name":"Ramiro"},"type":"Feature","geometry":{"type":"Point","coordinates":[-77.1963703,38.8303905]}},{"properties":{"city":"Annandale","closings":16.0,"zip":"22003","last name":"Miller","geo_score":0.857,"office name":"Fairfax Realty, Inc.","id":"a67x56nvotkj","geo_precision":"zip","first name":"Lane"},"type":"Feature","geometry":{"type":"Point","coordinates":[-77.1963703,38.8303905]}},{"properties":{"city":"Annandale","closings":10.0,"zip":"22003","last name":"Harrington","geo_score":0.857,"office name":"Fairfax Realty, Inc.","id":"a67x56jkpjq0","geo_precision":"zip","first name":"Patsy Jean"},"type":"Feature","geometry":{"type":"Point","coordinates":[-77.1963703,38.8303905]}},{"properties":{"city":"Annandale","closings":14.0,"zip":"22003","last name":"Heppenstall","geo_score":0.857,"office name":"Fairfax Realty, Inc.","id":"a67x56goqpmr","geo_precision":"zip","first name":"Fredia"},"type":"Feature","geometry":{"type":"Point","coordinates":[-77.1963703,38.8303905]}},{"properties":{"city":"Annandale","closings":3.0,"zip":"22003","last name":"Argandona","geo_score":0.857,"office name":"Fairfax Realty, Inc.","id":"a67x56eoc76j","geo_precision":"zip","first name":"Pedro"},"type":"Feature","geometry":{"type":"Point","coordinates":[-77.1963703,38.8303905]}},{"properties":{"city":"Annandale","closings":14.0,"zip":"22003","last name":"Wang","geo_score":0.857,"office name":"Fairfax Realty, Inc.","id":"a67x56lzocla","geo_precision":"zip","first name":"Ruey"},"type":"Feature","geometry":{"type":"Point","coordinates":[-77.1963703,38.8303905]}},{"properties":{"city":"Annandale","closings":11.0,"zip":"22003","last name":"Urel","geo_score":0.857,"office name":"Fairfax Realty, Inc.","id":"a67x56o8v09x","geo_precision":"zip","first name":"Ihsan"},"type":"Feature","geometry":{"type":"Point","coordinates":[-77.1963703,38.8303905]}},{"properties":{"city":"Annandale","closings":12.0,"zip":"22003","last name":"Szymanski","geo_score":0.857,"office name":"Fairfax Realty, Inc.","id":"a67x56gh0jb2","geo_precision":"zip","first name":"Kathleen"},"type":"Feature","geometry":{"type":"Point","coordinates":[-77.1963703,38.8303905]}},{"properties":{"city":"Annandale","closings":23.0,"zip":"22003","last name":"Rojas","geo_score":0.857,"office name":"Fairfax Realty, Inc.","id":"a67x56s4ad2w","geo_precision":"zip","first name":"Gloria"},"type":"Feature","geometry":{"type":"Point","coordinates":[-77.1963703,38.8303905]}},{"properties":{"city":"Annandale","closings":16.0,"zip":"22003","last name":"Zheng","geo_score":0.857,"office name":"Fairfax Realty, Inc.","id":"a67x56iqjks7","geo_precision":"zip","first name":"Qin"},"type":"Feature","geometry":{"type":"Point","coordinates":[-77.1963703,38.8303905]}},{"properties":{"city":"Upper Marlboro","closings":20.0,"zip":"20774","last name":"Wooten Jr","geo_score":0.769,"office name":"Keller Williams Preferred Properties","id":"a67x56k2q6sw","geo_precision":"zip","first name":"Lorenzo"},"type":"Feature","geometry":{"type":"Point","coordinates":[-71.5454578399658,42.3490930324696]}},{"properties":{"city":"Annandale","closings":17.0,"zip":"22003","last name":"Wright","geo_score":0.857,"office name":"Fairfax Realty, Inc.","id":"a67x56et9h7o","geo_precision":"zip","first name":"Kenneth"},"type":"Feature","geometry":{"type":"Point","coordinates":[-77.1963703,38.8303905]}},{"properties":{"city":"Upper Marlboro","closings":24.0,"zip":"20774","last name":"Folk","geo_score":0.769,"office name":"Keller Williams Preferred Properties","id":"a67x56p3a1h8","geo_precision":"zip","first name":"Germaine"},"type":"Feature","geometry":{"type":"Point","coordinates":[-71.5454578399658,42.3490930324696]}},{"properties":{"city":"Annandale","closings":25.0,"zip":"22003","last name":"Li","geo_score":0.857,"office name":"Fairfax Realty, Inc.","id":"a67x56oxa0m3","geo_precision":"zip","first name":"Wan"},"type":"Feature","geometry":{"type":"Point","coordinates":[-77.1963703,38.8303905]}},{"properties":{"city":"Annandale","closings":15.5,"zip":"22003","last name":"Moreno","geo_score":0.857,"office name":"Fairfax Realty, Inc.","id":"a67x56lq5juh","geo_precision":"zip","first name":"Luis"},"type":"Feature","geometry":{"type":"Point","coordinates":[-77.1963703,38.8303905]}},{"properties":{"city":"Upper Marlboro","closings":15.0,"zip":"20774","last name":"Lawson","geo_score":0.769,"office name":"Keller Williams Preferred Properties","id":"a67x56clvqhc","geo_precision":"zip","first name":"Brenda"},"type":"Feature","geometry":{"type":"Point","coordinates":[-71.5454578399658,42.3490930324696]}},{"properties":{"city":"Annandale","closings":16.0,"zip":"22003","last name":"Porteria","geo_score":0.857,"office name":"Fairfax Realty, Inc.","id":"a67x56jw5w94","geo_precision":"zip","first name":"Jocelyn"},"type":"Feature","geometry":{"type":"Point","coordinates":[-77.1963703,38.8303905]}},{"properties":{"city":"Annandale","closings":12.5,"zip":"22003","last name":"Larios","geo_score":0.857,"office name":"Fairfax Realty, Inc.","id":"a67x56cufu6w","geo_precision":"zip","first name":"Otoniel"},"type":"Feature","geometry":{"type":"Point","coordinates":[-77.1963703,38.8303905]}},{"properties":{"city":"Annandale","closings":9.0,"zip":"22003","last name":"Doherty","geo_score":0.857,"office name":"Fairfax Realty, Inc.","id":"a67x56cj7if1","geo_precision":"zip","first name":"Liam"},"type":"Feature","geometry":{"type":"Point","coordinates":[-77.1963703,38.8303905]}},{"properties":{"city":"Annandale","closings":7.0,"zip":"22003","last name":"Bender","geo_score":0.857,"office name":"Fairfax Realty, Inc.","id":"a67x56onwv4t","geo_precision":"zip","first name":"Kevin"},"type":"Feature","geometry":{"type":"Point","coordinates":[-77.1963703,38.8303905]}},{"properties":{"city":"Annandale","closings":12.0,"zip":"22003","last name":"Claggion","geo_score":0.857,"office name":"Fairfax Realty, Inc.","id":"a67x56nc92l2","geo_precision":"zip","first name":"Jamaal"},"type":"Feature","geometry":{"type":"Point","coordinates":[-77.1963703,38.8303905]}},{"properties":{"city":"Upper Marlboro","closings":13.0,"zip":"20774","last name":"Gittens-Smith","geo_score":0.769,"office name":"Keller Williams Preferred Properties","id":"a67x56gjfjq7","geo_precision":"zip","first name":"Adina"},"type":"Feature","geometry":{"type":"Point","coordinates":[-71.5454578399658,42.3490930324696]}},{"properties":{"city":"Upper Marlboro","closings":17.0,"zip":"20774","last name":"Woodruff","geo_score":0.769,"office name":"Keller Williams Preferred Properties","id":"a67x56lv8aj3","geo_precision":"zip","first name":"Lorie"},"type":"Feature","geometry":{"type":"Point","coordinates":[-71.5454578399658,42.3490930324696]}},{"properties":{"city":"Annandale","closings":11.0,"zip":"22003","last name":"Jaldin","geo_score":0.857,"office name":"Fairfax Realty, Inc.","id":"a67x56h9se91","geo_precision":"zip","first name":"Roger"},"type":"Feature","geometry":{"type":"Point","coordinates":[-77.1963703,38.8303905]}},{"properties":{"city":"Upper Marlboro","closings":13.5,"zip":"20774","last name":"Whitby","geo_score":0.769,"office name":"Keller Williams Preferred Properties","id":"a67x56pr3sd8","geo_precision":"zip","first name":"Tyrone"},"type":"Feature","geometry":{"type":"Point","coordinates":[-71.5454578399658,42.3490930324696]}},{"properties":{"city":"Annandale","closings":11.0,"zip":"22003","last name":"Lagdameo","geo_score":0.857,"office name":"Fairfax Realty, Inc.","id":"a67x56mt48sl","geo_precision":"zip","first name":"Salvador"},"type":"Feature","geometry":{"type":"Point","coordinates":[-77.1963703,38.8303905]}},{"properties":{"city":"Annandale","closings":8.0,"zip":"22003","last name":"Khan","geo_score":0.857,"office name":"Fairfax Realty, Inc.","id":"a67x56icnqip","geo_precision":"zip","first name":"Amir"},"type":"Feature","geometry":{"type":"Point","coordinates":[-77.1963703,38.8303905]}},{"properties":{"city":"Annandale","closings":11.0,"zip":"22003","last name":"Lama","geo_score":0.857,"office name":"Fairfax Realty, Inc.","id":"a67x56pokkdw","geo_precision":"zip","first name":"Buddha"},"type":"Feature","geometry":{"type":"Point","coordinates":[-77.1963703,38.8303905]}},{"properties":{"city":"Annandale","closings":9.0,"zip":"22003","last name":"Yi","geo_score":0.857,"office name":"Fairfax Realty, Inc.","id":"a67x56mui1il","geo_precision":"zip","first name":"Jay"},"type":"Feature","geometry":{"type":"Point","coordinates":[-77.1963703,38.8303905]}},{"properties":{"city":"Annandale","closings":17.5,"zip":"22003","last name":"Akpati","geo_score":0.857,"office name":"Fairfax Realty, Inc.","id":"a67x56hufsmj","geo_precision":"zip","first name":"Olisa"},"type":"Feature","geometry":{"type":"Point","coordinates":[-77.1963703,38.8303905]}},{"properties":{"city":"Annandale","closings":8.5,"zip":"22003","last name":"Tecson","geo_score":0.857,"office name":"Fairfax Realty, Inc.","id":"a67x56oq21vj","geo_precision":"zip","first name":"Milagros"},"type":"Feature","geometry":{"type":"Point","coordinates":[-77.1963703,38.8303905]}},{"properties":{"city":"Upper Marlboro","closings":10.0,"zip":"20774","last name":"Sibert","geo_score":0.769,"office name":"Keller Williams Preferred Properties","id":"a67x56lnxgq1","geo_precision":"zip","first name":"Lester"},"type":"Feature","geometry":{"type":"Point","coordinates":[-71.5454578399658,42.3490930324696]}},{"properties":{"city":"Upper Marlboro","closings":8.0,"zip":"20774","last name":"McCray","geo_score":0.769,"office name":"Keller Williams Preferred Properties","id":"a67x56jz0p7w","geo_precision":"zip","first name":"Kathryn"},"type":"Feature","geometry":{"type":"Point","coordinates":[-71.5454578399658,42.3490930324696]}},{"properties":{"city":"Upper Marlboro","closings":8.0,"zip":"20774","last name":"Holmes","geo_score":0.769,"office name":"Keller Williams Preferred Properties","id":"a67x56eiu6cf","geo_precision":"zip","first name":"Kevin"},"type":"Feature","geometry":{"type":"Point","coordinates":[-71.5454578399658,42.3490930324696]}},{"properties":{"city":"Upper Marlboro","closings":10.5,"zip":"20774","last name":"Fayson","geo_score":0.769,"office name":"Keller Williams Preferred Properties","id":"a67x56j13uw2","geo_precision":"zip","first name":"Treshawnna"},"type":"Feature","geometry":{"type":"Point","coordinates":[-71.5454578399658,42.3490930324696]}},{"properties":{"city":"Annandale","closings":7.0,"zip":"22003","last name":"Lam","geo_score":0.857,"office name":"Fairfax Realty, Inc.","id":"a67x56ejudpn","geo_precision":"zip","first name":"Sa"},"type":"Feature","geometry":{"type":"Point","coordinates":[-77.1963703,38.8303905]}},{"properties":{"city":"Annandale","closings":6.0,"zip":"22003","last name":"Gehrig","geo_score":0.857,"office name":"Fairfax Realty, Inc.","id":"a67x56ovp6cx","geo_precision":"zip","first name":"Benjamin"},"type":"Feature","geometry":{"type":"Point","coordinates":[-77.1963703,38.8303905]}},{"properties":{"city":"Annandale","closings":14.0,"zip":"22003","last name":"Fuentes","geo_score":0.857,"office name":"Fairfax Realty, Inc.","id":"a67x56kmll3x","geo_precision":"zip","first name":"Jose"},"type":"Feature","geometry":{"type":"Point","coordinates":[-77.1963703,38.8303905]}},{"properties":{"city":"Annandale","closings":9.5,"zip":"22003","last name":"Bashir","geo_score":0.857,"office name":"Fairfax Realty, Inc.","id":"a67x56octshh","geo_precision":"zip","first name":"Junaid"},"type":"Feature","geometry":{"type":"Point","coordinates":[-77.1963703,38.8303905]}},{"properties":{"city":"Annandale","closings":5.0,"zip":"22003","last name":"Zhong","geo_score":0.857,"office name":"Fairfax Realty, Inc.","id":"a67x56kxygqu","geo_precision":"zip","first name":"Jing"},"type":"Feature","geometry":{"type":"Point","coordinates":[-77.1963703,38.8303905]}},{"properties":{"city":"Annandale","closings":4.0,"zip":"22003","last name":"Yaman","geo_score":0.857,"office name":"Fairfax Realty, Inc.","id":"a67x56pyv3di","geo_precision":"zip","first name":"Huseyin"},"type":"Feature","geometry":{"type":"Point","coordinates":[-77.1963703,38.8303905]}},{"properties":{"city":"Annandale","closings":9.0,"zip":"22003","last name":"Harding","geo_score":0.857,"office name":"Fairfax Realty, Inc.","id":"a67x56j93wg7","geo_precision":"zip","first name":"Paul"},"type":"Feature","geometry":{"type":"Point","coordinates":[-77.1963703,38.8303905]}},{"properties":{"city":"Annandale","closings":12.0,"zip":"22003","last name":"Rife","geo_score":0.857,"office name":"Fairfax Realty, Inc.","id":"a67x56llql5m","geo_precision":"zip","first name":"Kim-Oanh"},"type":"Feature","geometry":{"type":"Point","coordinates":[-77.1963703,38.8303905]}},{"properties":{"city":"Annandale","closings":9.0,"zip":"22003","last name":"Daluz","geo_score":0.857,"office name":"Fairfax Realty, Inc.","id":"a67x56iy9eox","geo_precision":"zip","first name":"Elmer"},"type":"Feature","geometry":{"type":"Point","coordinates":[-77.1963703,38.8303905]}},{"properties":{"city":"Annandale","closings":11.0,"zip":"22003","last name":"Blumen","geo_score":0.857,"office name":"Fairfax Realty, Inc.","id":"a67x56ko9vlq","geo_precision":"zip","first name":"Aida"},"type":"Feature","geometry":{"type":"Point","coordinates":[-77.1963703,38.8303905]}},{"properties":{"city":"Upper Marlboro","closings":9.0,"zip":"20774","last name":"Simpson","geo_score":0.769,"office name":"Keller Williams Preferred Properties","id":"a67x56lpmm49","geo_precision":"zip","first name":"Sharnita"},"type":"Feature","geometry":{"type":"Point","coordinates":[-71.5454578399658,42.3490930324696]}},{"properties":{"city":"Annandale","closings":8.0,"zip":"22003","last name":"Castillo-Bardales","geo_score":0.857,"office name":"Fairfax Realty, Inc.","id":"a67x56hcqzg8","geo_precision":"zip","first name":"Manuel"},"type":"Feature","geometry":{"type":"Point","coordinates":[-77.1963703,38.8303905]}},{"properties":{"city":"Annandale","closings":7.0,"zip":"22003","last name":"Katz","geo_score":0.857,"office name":"Fairfax Realty, Inc.","id":"a67x56nw4juq","geo_precision":"zip","first name":"Ivan"},"type":"Feature","geometry":{"type":"Point","coordinates":[-77.1963703,38.8303905]}},{"properties":{"city":"Upper Marlboro","closings":8.0,"zip":"20774","last name":"Collins","geo_score":0.769,"office name":"Keller Williams Preferred Properties","id":"a67x56rcmxor","geo_precision":"zip","first name":"Sanford"},"type":"Feature","geometry":{"type":"Point","coordinates":[-71.5454578399658,42.3490930324696]}},{"properties":{"city":"Annandale","closings":6.0,"zip":"22003","last name":"Ho","geo_score":0.857,"office name":"Fairfax Realty, Inc.","id":"a67x56hdo43b","geo_precision":"zip","first name":"Dzung"},"type":"Feature","geometry":{"type":"Point","coordinates":[-77.1963703,38.8303905]}},{"properties":{"city":"Upper Marlboro","closings":7.0,"zip":"20774","last name":"Loucas","geo_score":0.769,"office name":"Keller Williams Preferred Properties","id":"a67x56dh68ug","geo_precision":"zip","first name":"Ariana"},"type":"Feature","geometry":{"type":"Point","coordinates":[-71.5454578399658,42.3490930324696]}},{"properties":{"city":"Annandale","closings":8.0,"zip":"22003","last name":"Sapra","geo_score":0.857,"office name":"Fairfax Realty, Inc.","id":"a67x56pbbphj","geo_precision":"zip","first name":"Alka"},"type":"Feature","geometry":{"type":"Point","coordinates":[-77.1963703,38.8303905]}},{"properties":{"city":"Annandale","closings":3.0,"zip":"22003","last name":"Vo","geo_score":0.857,"office name":"Fairfax Realty, Inc.","id":"a67x56f0rkfs","geo_precision":"zip","first name":"Tony"},"type":"Feature","geometry":{"type":"Point","coordinates":[-77.1963703,38.8303905]}},{"properties":{"city":"Annandale","closings":6.5,"zip":"22003","last name":"Tagle","geo_score":0.857,"office name":"Fairfax Realty, Inc.","id":"a67x56pcdpmi","geo_precision":"zip","first name":"Manuel"},"type":"Feature","geometry":{"type":"Point","coordinates":[-77.1963703,38.8303905]}},{"properties":{"city":"Annandale","closings":4.0,"zip":"22003","last name":"Eldakdoky","geo_score":0.857,"office name":"Fairfax Realty, Inc.","id":"a67x56qervrz","geo_precision":"zip","first name":"Hazem"},"type":"Feature","geometry":{"type":"Point","coordinates":[-77.1963703,38.8303905]}},{"properties":{"city":"Annandale","closings":10.5,"zip":"22003","last name":"Muotoh","geo_score":0.857,"office name":"Fairfax Realty, Inc.","id":"a67x56semaxa","geo_precision":"zip","first name":"Charles"},"type":"Feature","geometry":{"type":"Point","coordinates":[-77.1963703,38.8303905]}},{"properties":{"city":"Annandale","closings":4.0,"zip":"22003","last name":"Michalski","geo_score":0.857,"office name":"Fairfax Realty, Inc.","id":"a67x56q2f1zn","geo_precision":"zip","first name":"David"},"type":"Feature","geometry":{"type":"Point","coordinates":[-77.1963703,38.8303905]}},{"properties":{"city":"Annandale","closings":10.0,"zip":"22003","last name":"Golden","geo_score":0.857,"office name":"Fairfax Realty, Inc.","id":"a67x56c9hikp","geo_precision":"zip","first name":"Kwauattii"},"type":"Feature","geometry":{"type":"Point","coordinates":[-77.1963703,38.8303905]}},{"properties":{"city":"Upper Marlboro","closings":7.0,"zip":"20774","last name":"Meredith","geo_score":0.769,"office name":"Keller Williams Preferred Properties","id":"a67x56lq4gby","geo_precision":"zip","first name":"Janelle"},"type":"Feature","geometry":{"type":"Point","coordinates":[-71.5454578399658,42.3490930324696]}},{"properties":{"city":"Upper Marlboro","closings":7.0,"zip":"20774","last name":"Seldon","geo_score":0.769,"office name":"Keller Williams Preferred Properties","id":"a67x56r1mecu","geo_precision":"zip","first name":"Sheila"},"type":"Feature","geometry":{"type":"Point","coordinates":[-71.5454578399658,42.3490930324696]}},{"properties":{"city":"Annandale","closings":7.0,"zip":"22003","last name":"Kung","geo_score":0.857,"office name":"Fairfax Realty, Inc.","id":"a67x56i40m1z","geo_precision":"zip","first name":"Siang"},"type":"Feature","geometry":{"type":"Point","coordinates":[-77.1963703,38.8303905]}},{"properties":{"city":"Annandale","closings":4.0,"zip":"22003","last name":"Bednov","geo_score":0.857,"office name":"Fairfax Realty, Inc.","id":"a67x56dcz61o","geo_precision":"zip","first name":"Vitaly"},"type":"Feature","geometry":{"type":"Point","coordinates":[-77.1963703,38.8303905]}},{"properties":{"city":"Annandale","closings":12.0,"zip":"22003","last name":"Pham","geo_score":0.857,"office name":"Fairfax Realty, Inc.","id":"a67x56rc4okd","geo_precision":"zip","first name":"Quang"},"type":"Feature","geometry":{"type":"Point","coordinates":[-77.1963703,38.8303905]}},{"properties":{"city":"Annandale","closings":5.0,"zip":"22003","last name":"Boura","geo_score":0.857,"office name":"Fairfax Realty, Inc.","id":"a67x56m79ik4","geo_precision":"zip","first name":"Abdul"},"type":"Feature","geometry":{"type":"Point","coordinates":[-77.1963703,38.8303905]}},{"properties":{"city":"Annandale","closings":3.0,"zip":"22003","last name":"Nikmaram","geo_score":0.857,"office name":"Fairfax Realty, Inc.","id":"a67x56l1j85u","geo_precision":"zip","first name":"May"},"type":"Feature","geometry":{"type":"Point","coordinates":[-77.1963703,38.8303905]}},{"properties":{"city":"Annandale","closings":4.0,"zip":"22003","last name":"Chandra","geo_score":0.857,"office name":"Fairfax Realty, Inc.","id":"a67x56e5p1lq","geo_precision":"zip","first name":"Ramesh"},"type":"Feature","geometry":{"type":"Point","coordinates":[-77.1963703,38.8303905]}},{"properties":{"city":"Upper Marlboro","closings":2.0,"zip":"20774","last name":"Blackett","geo_score":0.769,"office name":"Keller Williams Preferred Properties","id":"a67x56de1z0v","geo_precision":"zip","first name":"Sharon"},"type":"Feature","geometry":{"type":"Point","coordinates":[-71.5454578399658,42.3490930324696]}},{"properties":{"city":"Upper Marlboro","closings":6.0,"zip":"20774","last name":"Harper","geo_score":0.769,"office name":"Keller Williams Preferred Properties","id":"a67x56ny3qd0","geo_precision":"zip","first name":"Carl"},"type":"Feature","geometry":{"type":"Point","coordinates":[-71.5454578399658,42.3490930324696]}},{"properties":{"city":"Upper Marlboro","closings":8.0,"zip":"20774","last name":"Page","geo_score":0.769,"office name":"Keller Williams Preferred Properties","id":"a67x56lanf0z","geo_precision":"zip","first name":"Stephanie"},"type":"Feature","geometry":{"type":"Point","coordinates":[-71.5454578399658,42.3490930324696]}},{"properties":{"city":"Upper Marlboro","closings":6.0,"zip":"20774","last name":"Wilson","geo_score":0.769,"office name":"Keller Williams Preferred Properties","id":"a67x56dg0m0o","geo_precision":"zip","first name":"Jamie"},"type":"Feature","geometry":{"type":"Point","coordinates":[-71.5454578399658,42.3490930324696]}},{"properties":{"city":"Annandale","closings":6.5,"zip":"22003","last name":"Lebron","geo_score":0.857,"office name":"Fairfax Realty, Inc.","id":"a67x56ffzzai","geo_precision":"zip","first name":"Francisco"},"type":"Feature","geometry":{"type":"Point","coordinates":[-77.1963703,38.8303905]}},{"properties":{"city":"Annandale","closings":4.0,"zip":"22003","last name":"Ly","geo_score":0.857,"office name":"Fairfax Realty, Inc.","id":"a67x56mu5lke","geo_precision":"zip","first name":"Dan"},"type":"Feature","geometry":{"type":"Point","coordinates":[-77.1963703,38.8303905]}},{"properties":{"city":"Annandale","closings":3.0,"zip":"22003","last name":"Mok","geo_score":0.857,"office name":"Fairfax Realty, Inc.","id":"a67x56mhwbf7","geo_precision":"zip","first name":"Philip"},"type":"Feature","geometry":{"type":"Point","coordinates":[-77.1963703,38.8303905]}},{"properties":{"city":"Annandale","closings":4.0,"zip":"22003","last name":"Gardizi","geo_score":0.857,"office name":"Fairfax Realty, Inc.","id":"a67x56h43cw1","geo_precision":"zip","first name":"Breshkie"},"type":"Feature","geometry":{"type":"Point","coordinates":[-77.1963703,38.8303905]}},{"properties":{"city":"Annandale","closings":5.0,"zip":"22003","last name":"Ishag","geo_score":0.857,"office name":"Fairfax Realty, Inc.","id":"a67x56ed5v2w","geo_precision":"zip","first name":"Suliman"},"type":"Feature","geometry":{"type":"Point","coordinates":[-77.1963703,38.8303905]}},{"properties":{"city":"Upper Marlboro","closings":9.0,"zip":"20774","last name":"Murry","geo_score":0.769,"office name":"Keller Williams Preferred Properties","id":"a67x56dwuucf","geo_precision":"zip","first name":"William"},"type":"Feature","geometry":{"type":"Point","coordinates":[-71.5454578399658,42.3490930324696]}},{"properties":{"city":"Annandale","closings":4.0,"zip":"22003","last name":"Baig","geo_score":0.857,"office name":"Fairfax Realty, Inc.","id":"a67x56de574w","geo_precision":"zip","first name":"Jerry"},"type":"Feature","geometry":{"type":"Point","coordinates":[-77.1963703,38.8303905]}},{"properties":{"city":"Annandale","closings":3.0,"zip":"22003","last name":"Oliverio","geo_score":0.857,"office name":"Fairfax Realty, Inc.","id":"a67x56dobxr5","geo_precision":"zip","first name":"Duby"},"type":"Feature","geometry":{"type":"Point","coordinates":[-77.1963703,38.8303905]}},{"properties":{"city":"Upper Marlboro","closings":5.5,"zip":"20774","last name":"Jones","geo_score":0.769,"office name":"Keller Williams Preferred Properties","id":"a67x56icktf9","geo_precision":"zip","first name":"James"},"type":"Feature","geometry":{"type":"Point","coordinates":[-71.5454578399658,42.3490930324696]}},{"properties":{"city":"Annandale","closings":4.0,"zip":"22003","last name":"Aguero","geo_score":0.857,"office name":"Fairfax Realty, Inc.","id":"a67x56nvix10","geo_precision":"zip","first name":"Wuilder"},"type":"Feature","geometry":{"type":"Point","coordinates":[-77.1963703,38.8303905]}},{"properties":{"city":"Annandale","closings":7.0,"zip":"22003","last name":"Bakalo","geo_score":0.857,"office name":"Fairfax Realty, Inc.","id":"a67x56e5wh0q","geo_precision":"zip","first name":"Sitota"},"type":"Feature","geometry":{"type":"Point","coordinates":[-77.1963703,38.8303905]}},{"properties":{"city":"Annandale","closings":7.5,"zip":"22003","last name":"Rodriguez","geo_score":0.857,"office name":"Fairfax Realty, Inc.","id":"a67x56l5pye9","geo_precision":"zip","first name":"Maria"},"type":"Feature","geometry":{"type":"Point","coordinates":[-77.1963703,38.8303905]}},{"properties":{"city":"Annandale","closings":2.0,"zip":"22003","last name":"Kwon","geo_score":0.857,"office name":"Fairfax Realty, Inc.","id":"a67x56je0ryw","geo_precision":"zip","first name":"Tae"},"type":"Feature","geometry":{"type":"Point","coordinates":[-77.1963703,38.8303905]}},{"properties":{"city":"Annandale","closings":3.0,"zip":"22003","last name":"Tanedo","geo_score":0.857,"office name":"Fairfax Realty, Inc.","id":"a67x56i7ort7","geo_precision":"zip","first name":"Paul"},"type":"Feature","geometry":{"type":"Point","coordinates":[-77.1963703,38.8303905]}},{"properties":{"city":"Annandale","closings":4.5,"zip":"22003","last name":"Valdez","geo_score":0.857,"office name":"Fairfax Realty, Inc.","id":"a67x56fzwfds","geo_precision":"zip","first name":"Ytxaropena"},"type":"Feature","geometry":{"type":"Point","coordinates":[-77.1963703,38.8303905]}},{"properties":{"city":"Annandale","closings":5.0,"zip":"22003","last name":"Melgar","geo_score":0.857,"office name":"Fairfax Realty, Inc.","id":"a67x56n1h5h2","geo_precision":"zip","first name":"Isela"},"type":"Feature","geometry":{"type":"Point","coordinates":[-77.1963703,38.8303905]}},{"properties":{"city":"Annandale","closings":3.0,"zip":"22003","last name":"Motz","geo_score":0.857,"office name":"Fairfax Realty, Inc.","id":"a67x56qno1y7","geo_precision":"zip","first name":"Ingrid (Ilona)"},"type":"Feature","geometry":{"type":"Point","coordinates":[-77.1963703,38.8303905]}},{"properties":{"city":"Annandale","closings":2.0,"zip":"22003","last name":"Oakley","geo_score":0.857,"office name":"Fairfax Realty, Inc.","id":"a67x56i4aoa2","geo_precision":"zip","first name":"Philip"},"type":"Feature","geometry":{"type":"Point","coordinates":[-77.1963703,38.8303905]}},{"properties":{"city":"Annandale","closings":3.0,"zip":"22003","last name":"Anderson","geo_score":0.857,"office name":"Fairfax Realty, Inc.","id":"a67x56e40hah","geo_precision":"zip","first name":"Larry"},"type":"Feature","geometry":{"type":"Point","coordinates":[-77.1963703,38.8303905]}},{"properties":{"city":"Upper Marlboro","closings":5.0,"zip":"20774","last name":"Agyeman","geo_score":0.769,"office name":"Keller Williams Preferred Properties","id":"a67x56njof3k","geo_precision":"zip","first name":"Serwa"},"type":"Feature","geometry":{"type":"Point","coordinates":[-71.5454578399658,42.3490930324696]}},{"properties":{"city":"Upper Marlboro","closings":4.0,"zip":"20774","last name":"Gilbert","geo_score":0.769,"office name":"Keller Williams Preferred Properties","id":"a67x56pbnski","geo_precision":"zip","first name":"Alicia"},"type":"Feature","geometry":{"type":"Point","coordinates":[-71.5454578399658,42.3490930324696]}},{"properties":{"city":"Annandale","closings":4.0,"zip":"22003","last name":"Moon","geo_score":0.857,"office name":"Fairfax Realty, Inc.","id":"a67x56cidogr","geo_precision":"zip","first name":"Sung-Bae"},"type":"Feature","geometry":{"type":"Point","coordinates":[-77.1963703,38.8303905]}},{"properties":{"city":"Upper Marlboro","closings":8.0,"zip":"20774","last name":"Walker","geo_score":0.769,"office name":"Keller Williams Preferred Properties","id":"a67x56nninvc","geo_precision":"zip","first name":"Garfield"},"type":"Feature","geometry":{"type":"Point","coordinates":[-71.5454578399658,42.3490930324696]}},{"properties":{"city":"Annandale","closings":4.0,"zip":"22003","last name":"Jabaly","geo_score":0.857,"office name":"Fairfax Realty, Inc.","id":"a67x56kcluwt","geo_precision":"zip","first name":"Chawky"},"type":"Feature","geometry":{"type":"Point","coordinates":[-77.1963703,38.8303905]}},{"properties":{"city":"Annandale","closings":2.0,"zip":"22003","last name":"Plymire","geo_score":0.857,"office name":"Fairfax Realty, Inc.","id":"a67x56gm4chw","geo_precision":"zip","first name":"Charles"},"type":"Feature","geometry":{"type":"Point","coordinates":[-77.1963703,38.8303905]}},{"properties":{"city":"Annandale","closings":6.0,"zip":"22003","last name":"Yehdego","geo_score":0.857,"office name":"Fairfax Realty, Inc.","id":"a67x56slvvdr","geo_precision":"zip","first name":"Ruth"},"type":"Feature","geometry":{"type":"Point","coordinates":[-77.1963703,38.8303905]}},{"properties":{"city":"Annandale","closings":5.0,"zip":"22003","last name":"Parada","geo_score":0.857,"office name":"Fairfax Realty, Inc.","id":"a67x56jiieqx","geo_precision":"zip","first name":"Maritza"},"type":"Feature","geometry":{"type":"Point","coordinates":[-77.1963703,38.8303905]}},{"properties":{"city":"Upper Marlboro","closings":5.0,"zip":"20774","last name":"Yette","geo_score":0.769,"office name":"Keller Williams Preferred Properties","id":"a67x56izuts7","geo_precision":"zip","first name":"Michael"},"type":"Feature","geometry":{"type":"Point","coordinates":[-71.5454578399658,42.3490930324696]}},{"properties":{"city":"Upper Marlboro","closings":2.0,"zip":"20774","last name":"Hamlette","geo_score":0.769,"office name":"Keller Williams Preferred Properties","id":"a67x56jhh0xq","geo_precision":"zip","first name":"Harold"},"type":"Feature","geometry":{"type":"Point","coordinates":[-71.5454578399658,42.3490930324696]}},{"properties":{"city":"Annandale","closings":1.0,"zip":"22003","last name":"Yoon","geo_score":0.857,"office name":"Fairfax Realty, Inc.","id":"a67x56rx1p3f","geo_precision":"zip","first name":"Judy"},"type":"Feature","geometry":{"type":"Point","coordinates":[-77.1963703,38.8303905]}},{"properties":{"city":"Upper Marlboro","closings":6.0,"zip":"20774","last name":"Connley","geo_score":0.769,"office name":"Keller Williams Preferred Properties","id":"a67x56kecf5i","geo_precision":"zip","first name":"Donna"},"type":"Feature","geometry":{"type":"Point","coordinates":[-71.5454578399658,42.3490930324696]}},{"properties":{"city":"Upper Marlboro","closings":6.0,"zip":"20774","last name":"Stroud","geo_score":0.769,"office name":"Keller Williams Preferred Properties","id":"a67x56hybwd2","geo_precision":"zip","first name":"Rachel"},"type":"Feature","geometry":{"type":"Point","coordinates":[-71.5454578399658,42.3490930324696]}},{"properties":{"city":"Upper Marlboro","closings":6.0,"zip":"20774","last name":"Benjamin","geo_score":0.769,"office name":"Keller Williams Preferred Properties","id":"a67x56p9zbdm","geo_precision":"zip","first name":"Kayren Janice"},"type":"Feature","geometry":{"type":"Point","coordinates":[-71.5454578399658,42.3490930324696]}},{"properties":{"city":"Annandale","closings":2.0,"zip":"22003","last name":"Walker","geo_score":0.857,"office name":"Fairfax Realty, Inc.","id":"a67x56jvebyo","geo_precision":"zip","first name":"Paula"},"type":"Feature","geometry":{"type":"Point","coordinates":[-77.1963703,38.8303905]}},{"properties":{"city":"Annandale","closings":3.0,"zip":"22003","last name":"Mesfin","geo_score":0.857,"office name":"Fairfax Realty, Inc.","id":"a67x56hgc979","geo_precision":"zip","first name":"Dereje"},"type":"Feature","geometry":{"type":"Point","coordinates":[-77.1963703,38.8303905]}},{"properties":{"city":"Annandale","closings":1.0,"zip":"22003","last name":"Chandna","geo_score":0.857,"office name":"Fairfax Realty, Inc.","id":"a67x56ks5u56","geo_precision":"zip","first name":"Jitendra"},"type":"Feature","geometry":{"type":"Point","coordinates":[-77.1963703,38.8303905]}},{"properties":{"city":"Upper Marlboro","closings":4.0,"zip":"20774","last name":"Richardson","geo_score":0.769,"office name":"Keller Williams Preferred Properties","id":"a67x56f9f4zx","geo_precision":"zip","first name":"Lucille"},"type":"Feature","geometry":{"type":"Point","coordinates":[-71.5454578399658,42.3490930324696]}},{"properties":{"city":"Annandale","closings":3.0,"zip":"22003","last name":"Tanvir","geo_score":0.857,"office name":"Fairfax Realty, Inc.","id":"a67x56cknugg","geo_precision":"zip","first name":"Shafia"},"type":"Feature","geometry":{"type":"Point","coordinates":[-77.1963703,38.8303905]}},{"properties":{"city":"Annandale","closings":3.0,"zip":"22003","last name":"Miller","geo_score":0.857,"office name":"Fairfax Realty, Inc.","id":"a67x56fbo9y4","geo_precision":"zip","first name":"Nicholas"},"type":"Feature","geometry":{"type":"Point","coordinates":[-77.1963703,38.8303905]}},{"properties":{"city":"Annandale","closings":3.0,"zip":"22003","last name":"Seong","geo_score":0.857,"office name":"Fairfax Realty, Inc.","id":"a67x56klfxcp","geo_precision":"zip","first name":"Kyungran"},"type":"Feature","geometry":{"type":"Point","coordinates":[-77.1963703,38.8303905]}},{"properties":{"city":"Upper Marlboro","closings":7.0,"zip":"20774","last name":"Johnson","geo_score":0.769,"office name":"Keller Williams Preferred Properties","id":"a67x56qo6oxu","geo_precision":"zip","first name":"Renee"},"type":"Feature","geometry":{"type":"Point","coordinates":[-71.5454578399658,42.3490930324696]}},{"properties":{"city":"Upper Marlboro","closings":6.0,"zip":"20774","last name":"Thomas","geo_score":0.769,"office name":"Keller Williams Preferred Properties","id":"a67x56opylmq","geo_precision":"zip","first name":"Dominique"},"type":"Feature","geometry":{"type":"Point","coordinates":[-71.5454578399658,42.3490930324696]}},{"properties":{"city":"Upper Marlboro","closings":3.0,"zip":"20774","last name":"Blount","geo_score":0.769,"office name":"Keller Williams Preferred Properties","id":"a67x56jy6jz5","geo_precision":"zip","first name":"Ronald"},"type":"Feature","geometry":{"type":"Point","coordinates":[-71.5454578399658,42.3490930324696]}},{"properties":{"city":"Annandale","closings":4.0,"zip":"22003","last name":"Dhramapitaksook","geo_score":0.857,"office name":"Fairfax Realty, Inc.","id":"a67x56gnogoy","geo_precision":"zip","first name":"Sombat"},"type":"Feature","geometry":{"type":"Point","coordinates":[-77.1963703,38.8303905]}},{"properties":{"city":"Annandale","closings":4.5,"zip":"22003","last name":"Atashi","geo_score":0.857,"office name":"Fairfax Realty, Inc.","id":"a67x56phgkbz","geo_precision":"zip","first name":"Mahnaz"},"type":"Feature","geometry":{"type":"Point","coordinates":[-77.1963703,38.8303905]}},{"properties":{"city":"Annandale","closings":3.0,"zip":"22003","last name":"Dingley","geo_score":0.857,"office name":"Fairfax Realty, Inc.","id":"a67x56ks7gnh","geo_precision":"zip","first name":"Emmett"},"type":"Feature","geometry":{"type":"Point","coordinates":[-77.1963703,38.8303905]}},{"properties":{"city":"Annandale","closings":3.0,"zip":"22003","last name":"Carballo","geo_score":0.857,"office name":"Fairfax Realty, Inc.","id":"a67x56jwr5pk","geo_precision":"zip","first name":"Rosario"},"type":"Feature","geometry":{"type":"Point","coordinates":[-77.1963703,38.8303905]}},{"properties":{"city":"Upper Marlboro","closings":4.0,"zip":"20774","last name":"Rosser","geo_score":0.769,"office name":"Keller Williams Preferred Properties","id":"a67x56l6hbve","geo_precision":"zip","first name":"Lisa"},"type":"Feature","geometry":{"type":"Point","coordinates":[-71.5454578399658,42.3490930324696]}},{"properties":{"city":"Upper Marlboro","closings":6.0,"zip":"20774","last name":"Phillips","geo_score":0.769,"office name":"Keller Williams Preferred Properties","id":"a67x56ggi2h2","geo_precision":"zip","first name":"Veera"},"type":"Feature","geometry":{"type":"Point","coordinates":[-71.5454578399658,42.3490930324696]}},{"properties":{"city":"Annandale","closings":2.0,"zip":"22003","last name":"Bohorquez","geo_score":0.857,"office name":"Fairfax Realty, Inc.","id":"a67x56f400b2","geo_precision":"zip","first name":"Edgar"},"type":"Feature","geometry":{"type":"Point","coordinates":[-77.1963703,38.8303905]}},{"properties":{"city":"Upper Marlboro","closings":3.0,"zip":"20774","last name":"Akojie","geo_score":0.769,"office name":"Keller Williams Preferred Properties","id":"a67x56hhuu8p","geo_precision":"zip","first name":"Temitope"},"type":"Feature","geometry":{"type":"Point","coordinates":[-71.5454578399658,42.3490930324696]}},{"properties":{"city":"Upper Marlboro","closings":2.0,"zip":"20774","last name":"Buggappa","geo_score":0.769,"office name":"Keller Williams Preferred Properties","id":"a67x56mt3edo","geo_precision":"zip","first name":"Paul"},"type":"Feature","geometry":{"type":"Point","coordinates":[-71.5454578399658,42.3490930324696]}},{"properties":{"city":"Upper Marlboro","closings":5.0,"zip":"20774","last name":"Harrod","geo_score":0.769,"office name":"Keller Williams Preferred Properties","id":"a67x56cj0meb","geo_precision":"zip","first name":"Donna"},"type":"Feature","geometry":{"type":"Point","coordinates":[-71.5454578399658,42.3490930324696]}},{"properties":{"city":"Annandale","closings":2.0,"zip":"22003","last name":"Hoang","geo_score":0.857,"office name":"Fairfax Realty, Inc.","id":"a67x56ggu3un","geo_precision":"zip","first name":"Vinh"},"type":"Feature","geometry":{"type":"Point","coordinates":[-77.1963703,38.8303905]}},{"properties":{"city":"Upper Marlboro","closings":3.0,"zip":"20774","last name":"Stanard","geo_score":0.769,"office name":"Keller Williams Preferred Properties","id":"a67x56e9msoh","geo_precision":"zip","first name":"Sherrod"},"type":"Feature","geometry":{"type":"Point","coordinates":[-71.5454578399658,42.3490930324696]}},{"properties":{"city":"Annandale","closings":1.0,"zip":"22003","last name":"Moore","geo_score":0.857,"office name":"Fairfax Realty, Inc.","id":"a67x56c62ifj","geo_precision":"zip","first name":"Dean"},"type":"Feature","geometry":{"type":"Point","coordinates":[-77.1963703,38.8303905]}},{"properties":{"city":"Annandale","closings":3.0,"zip":"22003","last name":"Lee","geo_score":0.857,"office name":"Fairfax Realty, Inc.","id":"a67x56grhfkb","geo_precision":"zip","first name":"Hyun"},"type":"Feature","geometry":{"type":"Point","coordinates":[-77.1963703,38.8303905]}},{"properties":{"city":"Upper Marlboro","closings":1.0,"zip":"20774","last name":"Gaines-Still","geo_score":0.769,"office name":"Keller Williams Preferred Properties","id":"a67x56dxv7y2","geo_precision":"zip","first name":"Kathy"},"type":"Feature","geometry":{"type":"Point","coordinates":[-71.5454578399658,42.3490930324696]}},{"properties":{"city":"Annandale","closings":7.0,"zip":"22003","last name":"Sweetland","geo_score":0.857,"office name":"Fairfax Realty, Inc.","id":"a67x56qkdqe1","geo_precision":"zip","first name":"Richard"},"type":"Feature","geometry":{"type":"Point","coordinates":[-77.1963703,38.8303905]}},{"properties":{"city":"Annandale","closings":3.0,"zip":"22003","last name":"Crigler","geo_score":0.857,"office name":"Fairfax Realty, Inc.","id":"a67x56maj6di","geo_precision":"zip","first name":"Constance"},"type":"Feature","geometry":{"type":"Point","coordinates":[-77.1963703,38.8303905]}},{"properties":{"city":"Annandale","closings":2.0,"zip":"22003","last name":"Tekmen","geo_score":0.857,"office name":"Fairfax Realty, Inc.","id":"a67x56rv7nx3","geo_precision":"zip","first name":"Ahmet"},"type":"Feature","geometry":{"type":"Point","coordinates":[-77.1963703,38.8303905]}},{"properties":{"city":"Upper Marlboro","closings":2.0,"zip":"20774","last name":"Reid","geo_score":0.769,"office name":"Keller Williams Preferred Properties","id":"a67x56p50cch","geo_precision":"zip","first name":"L."},"type":"Feature","geometry":{"type":"Point","coordinates":[-71.5454578399658,42.3490930324696]}},{"properties":{"city":"Annandale","closings":4.0,"zip":"22003","last name":"Nguyen","geo_score":0.857,"office name":"Fairfax Realty, Inc.","id":"a67x56jkup65","geo_precision":"zip","first name":"Andy"},"type":"Feature","geometry":{"type":"Point","coordinates":[-77.1963703,38.8303905]}},{"properties":{"city":"Annandale","closings":1.0,"zip":"22003","last name":"Pham","geo_score":0.857,"office name":"Fairfax Realty, Inc.","id":"a67x56g0ebef","geo_precision":"zip","first name":"Phan"},"type":"Feature","geometry":{"type":"Point","coordinates":[-77.1963703,38.8303905]}},{"properties":{"city":"Upper Marlboro","closings":2.0,"zip":"20774","last name":"Wilson","geo_score":0.769,"office name":"Keller Williams Preferred Properties","id":"a67x56rwo7d9","geo_precision":"zip","first name":"Sheila"},"type":"Feature","geometry":{"type":"Point","coordinates":[-71.5454578399658,42.3490930324696]}},{"properties":{"city":"Annandale","closings":2.0,"zip":"22003","last name":"Carroll","geo_score":0.857,"office name":"Fairfax Realty, Inc.","id":"a67x56lg0u3y","geo_precision":"zip","first name":"Gerard"},"type":"Feature","geometry":{"type":"Point","coordinates":[-77.1963703,38.8303905]}},{"properties":{"city":"Upper Marlboro","closings":4.0,"zip":"20774","last name":"Hinton","geo_score":0.769,"office name":"Keller Williams Preferred Properties","id":"a67x56hy3kc0","geo_precision":"zip","first name":"LaShawn"},"type":"Feature","geometry":{"type":"Point","coordinates":[-71.5454578399658,42.3490930324696]}},{"properties":{"city":"Upper Marlboro","closings":3.0,"zip":"20774","last name":"Williams","geo_score":0.769,"office name":"Keller Williams Preferred Properties","id":"a67x56h43bq7","geo_precision":"zip","first name":"Felita"},"type":"Feature","geometry":{"type":"Point","coordinates":[-71.5454578399658,42.3490930324696]}},{"properties":{"city":"Annandale","closings":1.0,"zip":"22003","last name":"Ntonme","geo_score":0.857,"office name":"Fairfax Realty, Inc.","id":"a67x56fhpd8z","geo_precision":"zip","first name":"Jean"},"type":"Feature","geometry":{"type":"Point","coordinates":[-77.1963703,38.8303905]}},{"properties":{"city":"Annandale","closings":1.0,"zip":"22003","last name":"Lee","geo_score":0.857,"office name":"Fairfax Realty, Inc.","id":"a67x56h9t8ms","geo_precision":"zip","first name":"Sonnet"},"type":"Feature","geometry":{"type":"Point","coordinates":[-77.1963703,38.8303905]}},{"properties":{"city":"Annandale","closings":4.0,"zip":"22003","last name":"Pavia","geo_score":0.857,"office name":"Fairfax Realty, Inc.","id":"a67x56simoxy","geo_precision":"zip","first name":"Ronald"},"type":"Feature","geometry":{"type":"Point","coordinates":[-77.1963703,38.8303905]}},{"properties":{"city":"Annandale","closings":2.0,"zip":"22003","last name":"Yang","geo_score":0.857,"office name":"Fairfax Realty, Inc.","id":"a67x56nxh3ui","geo_precision":"zip","first name":"Stephanie"},"type":"Feature","geometry":{"type":"Point","coordinates":[-77.1963703,38.8303905]}},{"properties":{"city":"Annandale","closings":3.0,"zip":"22003","last name":"Owolabi","geo_score":0.857,"office name":"Fairfax Realty, Inc.","id":"a67x56eajxdj","geo_precision":"zip","first name":"Kolawole"},"type":"Feature","geometry":{"type":"Point","coordinates":[-77.1963703,38.8303905]}},{"properties":{"city":"Upper Marlboro","closings":3.0,"zip":"20774","last name":"Burke-Hill","geo_score":0.769,"office name":"Keller Williams Preferred Properties","id":"a67x56ifb5xj","geo_precision":"zip","first name":"JoAnn"},"type":"Feature","geometry":{"type":"Point","coordinates":[-71.5454578399658,42.3490930324696]}},{"properties":{"city":"Upper Marlboro","closings":5.0,"zip":"20774","last name":"Benjamin","geo_score":0.769,"office name":"Keller Williams Preferred Properties","id":"a67x56l2e8ly","geo_precision":"zip","first name":"Chester"},"type":"Feature","geometry":{"type":"Point","coordinates":[-71.5454578399658,42.3490930324696]}},{"properties":{"city":"Annandale","closings":3.0,"zip":"22003","last name":"Hwang","geo_score":0.857,"office name":"Fairfax Realty, Inc.","id":"a67x56n51n1h","geo_precision":"zip","first name":"Geehee"},"type":"Feature","geometry":{"type":"Point","coordinates":[-77.1963703,38.8303905]}},{"properties":{"city":"Upper Marlboro","closings":3.0,"zip":"20774","last name":"Johnson","geo_score":0.769,"office name":"Keller Williams Preferred Properties","id":"a67x56eb8san","geo_precision":"zip","first name":"Maria"},"type":"Feature","geometry":{"type":"Point","coordinates":[-71.5454578399658,42.3490930324696]}},{"properties":{"city":"Annandale","closings":1.0,"zip":"22003","last name":"Rafiqzad","geo_score":0.857,"office name":"Fairfax Realty, Inc.","id":"a67x56dc1qij","geo_precision":"zip","first name":"Khalilullah"},"type":"Feature","geometry":{"type":"Point","coordinates":[-77.1963703,38.8303905]}},{"properties":{"city":"Annandale","closings":2.0,"zip":"22003","last name":"Maddala","geo_score":0.857,"office name":"Fairfax Realty, Inc.","id":"a67x56dzelzy","geo_precision":"zip","first name":"Venkata"},"type":"Feature","geometry":{"type":"Point","coordinates":[-77.1963703,38.8303905]}},{"properties":{"city":"Annandale","closings":2.0,"zip":"22003","last name":"Haig","geo_score":0.857,"office name":"Fairfax Realty, Inc.","id":"a67x56hm35hv","geo_precision":"zip","first name":"Marie"},"type":"Feature","geometry":{"type":"Point","coordinates":[-77.1963703,38.8303905]}},{"properties":{"city":"Upper Marlboro","closings":4.0,"zip":"20774","last name":"Bryant","geo_score":0.769,"office name":"Keller Williams Preferred Properties","id":"a67x56nd2fl7","geo_precision":"zip","first name":"Tyrone"},"type":"Feature","geometry":{"type":"Point","coordinates":[-71.5454578399658,42.3490930324696]}},{"properties":{"city":"Annandale","closings":4.0,"zip":"22003","last name":"Rodriguez-Angobaldo","geo_score":0.857,"office name":"Fairfax Realty, Inc.","id":"a67x56nbx4f7","geo_precision":"zip","first name":"Marco"},"type":"Feature","geometry":{"type":"Point","coordinates":[-77.1963703,38.8303905]}},{"properties":{"city":"Annandale","closings":1.0,"zip":"22003","last name":"McConnell","geo_score":0.857,"office name":"Fairfax Realty, Inc.","id":"a67x56mgniyp","geo_precision":"zip","first name":"Robin"},"type":"Feature","geometry":{"type":"Point","coordinates":[-77.1963703,38.8303905]}},{"properties":{"city":"Annandale","closings":2.0,"zip":"22003","last name":"Duttine","geo_score":0.857,"office name":"Fairfax Realty, Inc.","id":"a67x56pu79pe","geo_precision":"zip","first name":"Stephen"},"type":"Feature","geometry":{"type":"Point","coordinates":[-77.1963703,38.8303905]}},{"properties":{"city":"Upper Marlboro","closings":3.5,"zip":"20774","last name":"Adkins","geo_score":0.769,"office name":"Keller Williams Preferred Properties","id":"a67x56ixorv5","geo_precision":"zip","first name":"Dominique"},"type":"Feature","geometry":{"type":"Point","coordinates":[-71.5454578399658,42.3490930324696]}},{"properties":{"city":"Upper Marlboro","closings":4.0,"zip":"20774","last name":"Westfield","geo_score":0.769,"office name":"Keller Williams Preferred Properties","id":"a67x56mnrxew","geo_precision":"zip","first name":"Maggie"},"type":"Feature","geometry":{"type":"Point","coordinates":[-71.5454578399658,42.3490930324696]}},{"properties":{"city":"Upper Marlboro","closings":2.0,"zip":"20774","last name":"Baukman","geo_score":0.769,"office name":"Keller Williams Preferred Properties","id":"a67x56f90536","geo_precision":"zip","first name":"Lisa"},"type":"Feature","geometry":{"type":"Point","coordinates":[-71.5454578399658,42.3490930324696]}},{"properties":{"city":"Annandale","closings":1.0,"zip":"22003","last name":"Rubio","geo_score":0.857,"office name":"Fairfax Realty, Inc.","id":"a67x56lfdhum","geo_precision":"zip","first name":"Mirna"},"type":"Feature","geometry":{"type":"Point","coordinates":[-77.1963703,38.8303905]}},{"properties":{"city":"Annandale","closings":1.0,"zip":"22003","last name":"Agbaegbu","geo_score":0.857,"office name":"Fairfax Realty, Inc.","id":"a67x56hyc92e","geo_precision":"zip","first name":"Oliver"},"type":"Feature","geometry":{"type":"Point","coordinates":[-77.1963703,38.8303905]}},{"properties":{"city":"Annandale","closings":2.0,"zip":"22003","last name":"Vallido","geo_score":0.857,"office name":"Fairfax Realty, Inc.","id":"a67x56q97prn","geo_precision":"zip","first name":"Luz"},"type":"Feature","geometry":{"type":"Point","coordinates":[-77.1963703,38.8303905]}},{"properties":{"city":"Annandale","closings":2.0,"zip":"22003","last name":"Mujezinovic","geo_score":0.857,"office name":"Fairfax Realty, Inc.","id":"a67x56fizra1","geo_precision":"zip","first name":"Dzejna"},"type":"Feature","geometry":{"type":"Point","coordinates":[-77.1963703,38.8303905]}},{"properties":{"city":"Annandale","closings":3.0,"zip":"22003","last name":"Bezuneh","geo_score":0.857,"office name":"Fairfax Realty, Inc.","id":"a67x56sj74as","geo_precision":"zip","first name":"Zemede"},"type":"Feature","geometry":{"type":"Point","coordinates":[-77.1963703,38.8303905]}},{"properties":{"city":"Annandale","closings":3.0,"zip":"22003","last name":"Hooshmandnia","geo_score":0.857,"office name":"Fairfax Realty, Inc.","id":"a67x56ihn0nh","geo_precision":"zip","first name":"Ali"},"type":"Feature","geometry":{"type":"Point","coordinates":[-77.1963703,38.8303905]}},{"properties":{"city":"Upper Marlboro","closings":2.0,"zip":"20774","last name":"Harrison","geo_score":0.769,"office name":"Keller Williams Preferred Properties","id":"a67x56lnjowa","geo_precision":"zip","first name":"Lewis"},"type":"Feature","geometry":{"type":"Point","coordinates":[-71.5454578399658,42.3490930324696]}},{"properties":{"city":"Annandale","closings":3.0,"zip":"22003","last name":"Paguaga","geo_score":0.857,"office name":"Fairfax Realty, Inc.","id":"a67x56nf1xac","geo_precision":"zip","first name":"Octavio"},"type":"Feature","geometry":{"type":"Point","coordinates":[-77.1963703,38.8303905]}},{"properties":{"city":"Annandale","closings":2.0,"zip":"22003","last name":"Recto","geo_score":0.857,"office name":"Fairfax Realty, Inc.","id":"a67x56ivcbqs","geo_precision":"zip","first name":"Rodolfo"},"type":"Feature","geometry":{"type":"Point","coordinates":[-77.1963703,38.8303905]}},{"properties":{"city":"Upper Marlboro","closings":2.0,"zip":"20774","last name":"Kennedy","geo_score":0.769,"office name":"Keller Williams Preferred Properties","id":"a67x56h8jalg","geo_precision":"zip","first name":"Shawna"},"type":"Feature","geometry":{"type":"Point","coordinates":[-71.5454578399658,42.3490930324696]}},{"properties":{"city":"Annandale","closings":3.0,"zip":"22003","last name":"Lopez","geo_score":0.857,"office name":"Fairfax Realty, Inc.","id":"a67x56no7hjh","geo_precision":"zip","first name":"Rolando"},"type":"Feature","geometry":{"type":"Point","coordinates":[-77.1963703,38.8303905]}},{"properties":{"city":"Upper Marlboro","closings":3.0,"zip":"20774","last name":"Hallam","geo_score":0.769,"office name":"Keller Williams Preferred Properties","id":"a67x56dxn2ta","geo_precision":"zip","first name":"Wendy"},"type":"Feature","geometry":{"type":"Point","coordinates":[-71.5454578399658,42.3490930324696]}},{"properties":{"city":"Annandale","closings":2.0,"zip":"22003","last name":"Khan","geo_score":0.857,"office name":"Fairfax Realty, Inc.","id":"a67x56o8hrxh","geo_precision":"zip","first name":"Tariq"},"type":"Feature","geometry":{"type":"Point","coordinates":[-77.1963703,38.8303905]}},{"properties":{"city":"Upper Marlboro","closings":3.0,"zip":"20774","last name":"Johnson","geo_score":0.769,"office name":"Keller Williams Preferred Properties","id":"a67x56fs7ick","geo_precision":"zip","first name":"Annie"},"type":"Feature","geometry":{"type":"Point","coordinates":[-71.5454578399658,42.3490930324696]}},{"properties":{"city":"Annandale","closings":3.0,"zip":"22003","last name":"Abreu","geo_score":0.857,"office name":"Fairfax Realty, Inc.","id":"a67x56dd3ie6","geo_precision":"zip","first name":"Andrea"},"type":"Feature","geometry":{"type":"Point","coordinates":[-77.1963703,38.8303905]}},{"properties":{"city":"Annandale","closings":1.0,"zip":"22003","last name":"McCoy","geo_score":0.857,"office name":"Fairfax Realty, Inc.","id":"a67x56lr0ek3","geo_precision":"zip","first name":"Eddymarie"},"type":"Feature","geometry":{"type":"Point","coordinates":[-77.1963703,38.8303905]}},{"properties":{"city":"Upper Marlboro","closings":4.0,"zip":"20774","last name":"Petty","geo_score":0.769,"office name":"Keller Williams Preferred Properties","id":"a67x56eqqf30","geo_precision":"zip","first name":"Wanda"},"type":"Feature","geometry":{"type":"Point","coordinates":[-71.5454578399658,42.3490930324696]}},{"properties":{"city":"Annandale","closings":1.0,"zip":"22003","last name":"Abebe","geo_score":0.857,"office name":"Fairfax Realty, Inc.","id":"a67x56oqjl14","geo_precision":"zip","first name":"Dagnachew"},"type":"Feature","geometry":{"type":"Point","coordinates":[-77.1963703,38.8303905]}},{"properties":{"city":"Annandale","closings":1.0,"zip":"22003","last name":"Martinez","geo_score":0.857,"office name":"Fairfax Realty, Inc.","id":"a67x56jf3h4k","geo_precision":"zip","first name":"Samuel"},"type":"Feature","geometry":{"type":"Point","coordinates":[-77.1963703,38.8303905]}},{"properties":{"city":"Upper Marlboro","closings":3.0,"zip":"20774","last name":"Jefferies","geo_score":0.769,"office name":"Keller Williams Preferred Properties","id":"a67x56of7o5f","geo_precision":"zip","first name":"Edward"},"type":"Feature","geometry":{"type":"Point","coordinates":[-71.5454578399658,42.3490930324696]}},{"properties":{"city":"Upper Marlboro","closings":3.0,"zip":"20774","last name":"Welch","geo_score":0.769,"office name":"Keller Williams Preferred Properties","id":"a67x56gy81tu","geo_precision":"zip","first name":"Tanisha"},"type":"Feature","geometry":{"type":"Point","coordinates":[-71.5454578399658,42.3490930324696]}},{"properties":{"city":"Annandale","closings":1.0,"zip":"22003","last name":"Novean","geo_score":0.857,"office name":"Fairfax Realty, Inc.","id":"a67x56irphx9","geo_precision":"zip","first name":"Dennis"},"type":"Feature","geometry":{"type":"Point","coordinates":[-77.1963703,38.8303905]}},{"properties":{"city":"Annandale","closings":1.0,"zip":"22003","last name":"Gosain","geo_score":0.857,"office name":"Fairfax Realty, Inc.","id":"a67x56rpl5zz","geo_precision":"zip","first name":"Jyoti"},"type":"Feature","geometry":{"type":"Point","coordinates":[-77.1963703,38.8303905]}},{"properties":{"city":"Annandale","closings":2.0,"zip":"22003","last name":"Ramos","geo_score":0.857,"office name":"Fairfax Realty, Inc.","id":"a67x56jfupi8","geo_precision":"zip","first name":"Joseph"},"type":"Feature","geometry":{"type":"Point","coordinates":[-77.1963703,38.8303905]}},{"properties":{"city":"Annandale","closings":1.0,"zip":"22003","last name":"ALI","geo_score":0.857,"office name":"Fairfax Realty, Inc.","id":"a67x56qwoqbd","geo_precision":"zip","first name":"MOHAMMED"},"type":"Feature","geometry":{"type":"Point","coordinates":[-77.1963703,38.8303905]}},{"properties":{"city":"Annandale","closings":4.0,"zip":"22003","last name":"Villegas","geo_score":0.857,"office name":"Fairfax Realty, Inc.","id":"a67x56i5e6yv","geo_precision":"zip","first name":"Nora"},"type":"Feature","geometry":{"type":"Point","coordinates":[-77.1963703,38.8303905]}},{"properties":{"city":"Annandale","closings":1.0,"zip":"22003","last name":"Clawes","geo_score":0.857,"office name":"Fairfax Realty, Inc.","id":"a67x56nt96j5","geo_precision":"zip","first name":"Roy"},"type":"Feature","geometry":{"type":"Point","coordinates":[-77.1963703,38.8303905]}},{"properties":{"city":"Annandale","closings":1.0,"zip":"22003","last name":"Haynie","geo_score":0.857,"office name":"Fairfax Realty, Inc.","id":"a67x56m2a4c2","geo_precision":"zip","first name":"Russell"},"type":"Feature","geometry":{"type":"Point","coordinates":[-77.1963703,38.8303905]}},{"properties":{"city":"Annandale","closings":2.0,"zip":"22003","last name":"Vazquez","geo_score":0.857,"office name":"Fairfax Realty, Inc.","id":"a67x56co2h8n","geo_precision":"zip","first name":"Irma"},"type":"Feature","geometry":{"type":"Point","coordinates":[-77.1963703,38.8303905]}},{"properties":{"city":"Upper Marlboro","closings":2.0,"zip":"20774","last name":"Calhoun","geo_score":0.769,"office name":"Keller Williams Preferred Properties","id":"a67x56gj9h1z","geo_precision":"zip","first name":"Charnise"},"type":"Feature","geometry":{"type":"Point","coordinates":[-71.5454578399658,42.3490930324696]}},{"properties":{"city":"Upper Marlboro","closings":1.0,"zip":"20774","last name":"Wheeler","geo_score":0.769,"office name":"Keller Williams Preferred Properties","id":"a67x56ens25d","geo_precision":"zip","first name":"Brenda"},"type":"Feature","geometry":{"type":"Point","coordinates":[-71.5454578399658,42.3490930324696]}},{"properties":{"city":"Annandale","closings":1.0,"zip":"22003","last name":"Gupta","geo_score":0.857,"office name":"Fairfax Realty, Inc.","id":"a67x56gstyhg","geo_precision":"zip","first name":"Rajeev"},"type":"Feature","geometry":{"type":"Point","coordinates":[-77.1963703,38.8303905]}},{"properties":{"city":"Upper Marlboro","closings":4.0,"zip":"20774","last name":"Oni","geo_score":0.769,"office name":"Keller Williams Preferred Properties","id":"a67x56oo2tut","geo_precision":"zip","first name":"Tim"},"type":"Feature","geometry":{"type":"Point","coordinates":[-71.5454578399658,42.3490930324696]}},{"properties":{"city":"Annandale","closings":2.0,"zip":"22003","last name":"chang","geo_score":0.857,"office name":"Fairfax Realty, Inc.","id":"a67x56id8bmw","geo_precision":"zip","first name":"jeannie"},"type":"Feature","geometry":{"type":"Point","coordinates":[-77.1963703,38.8303905]}},{"properties":{"city":"Annandale","closings":2.0,"zip":"22003","last name":"Henriquez","geo_score":0.857,"office name":"Fairfax Realty, Inc.","id":"a67x56jrapnp","geo_precision":"zip","first name":"Jose"},"type":"Feature","geometry":{"type":"Point","coordinates":[-77.1963703,38.8303905]}},{"properties":{"city":"Annandale","closings":3.0,"zip":"22003","last name":"Amde","geo_score":0.857,"office name":"Fairfax Realty, Inc.","id":"a67x56gp9v4n","geo_precision":"zip","first name":"Rahel"},"type":"Feature","geometry":{"type":"Point","coordinates":[-77.1963703,38.8303905]}},{"properties":{"city":"Annandale","closings":1.0,"zip":"22003","last name":"Akay","geo_score":0.857,"office name":"Fairfax Realty, Inc.","id":"a67x56nc5k9j","geo_precision":"zip","first name":"Necmettin"},"type":"Feature","geometry":{"type":"Point","coordinates":[-77.1963703,38.8303905]}},{"properties":{"city":"Upper Marlboro","closings":4.0,"zip":"20774","last name":"Hamilton","geo_score":0.769,"office name":"Keller Williams Preferred Properties","id":"a67x56f2ns1t","geo_precision":"zip","first name":"Wanda"},"type":"Feature","geometry":{"type":"Point","coordinates":[-71.5454578399658,42.3490930324696]}},{"properties":{"city":"Upper Marlboro","closings":2.0,"zip":"20774","last name":"McLendon","geo_score":0.769,"office name":"Keller Williams Preferred Properties","id":"a67x56me88dj","geo_precision":"zip","first name":"Rayna"},"type":"Feature","geometry":{"type":"Point","coordinates":[-71.5454578399658,42.3490930324696]}},{"properties":{"city":"Upper Marlboro","closings":2.0,"zip":"20774","last name":"Williams","geo_score":0.769,"office name":"Keller Williams Preferred Properties","id":"a67x56poyd8d","geo_precision":"zip","first name":"June"},"type":"Feature","geometry":{"type":"Point","coordinates":[-71.5454578399658,42.3490930324696]}},{"properties":{"city":"Annandale","closings":1.0,"zip":"22003","last name":"Hagan","geo_score":0.857,"office name":"Fairfax Realty, Inc.","id":"a67x56cfnblm","geo_precision":"zip","first name":"Aurora"},"type":"Feature","geometry":{"type":"Point","coordinates":[-77.1963703,38.8303905]}},{"properties":{"city":"Upper Marlboro","closings":2.0,"zip":"20774","last name":"Hamilton","geo_score":0.769,"office name":"Keller Williams Preferred Properties","id":"a67x56gsjobb","geo_precision":"zip","first name":"Gustav"},"type":"Feature","geometry":{"type":"Point","coordinates":[-71.5454578399658,42.3490930324696]}},{"properties":{"city":"Upper Marlboro","closings":3.0,"zip":"20774","last name":"Russell","geo_score":0.769,"office name":"Keller Williams Preferred Properties","id":"a67x56ds59ql","geo_precision":"zip","first name":"Wanda"},"type":"Feature","geometry":{"type":"Point","coordinates":[-71.5454578399658,42.3490930324696]}},{"properties":{"city":"Annandale","closings":2.0,"zip":"22003","last name":"Gomez","geo_score":0.857,"office name":"Fairfax Realty, Inc.","id":"a67x56fcvntv","geo_precision":"zip","first name":"Guillermo"},"type":"Feature","geometry":{"type":"Point","coordinates":[-77.1963703,38.8303905]}},{"properties":{"city":"Upper Marlboro","closings":2.0,"zip":"20774","last name":"Pichet","geo_score":0.769,"office name":"Keller Williams Preferred Properties","id":"a67x56s5yiq2","geo_precision":"zip","first name":"Laurent"},"type":"Feature","geometry":{"type":"Point","coordinates":[-71.5454578399658,42.3490930324696]}},{"properties":{"city":"Annandale","closings":2.0,"zip":"22003","last name":"Garcia","geo_score":0.857,"office name":"Fairfax Realty, Inc.","id":"a67x56jexbtm","geo_precision":"zip","first name":"Marvin"},"type":"Feature","geometry":{"type":"Point","coordinates":[-77.1963703,38.8303905]}},{"properties":{"city":"Upper Marlboro","closings":2.0,"zip":"20774","last name":"Munford","geo_score":0.769,"office name":"Keller Williams Preferred Properties","id":"a67x56cigwtq","geo_precision":"zip","first name":"Sean"},"type":"Feature","geometry":{"type":"Point","coordinates":[-71.5454578399658,42.3490930324696]}},{"properties":{"city":"Upper Marlboro","closings":4.0,"zip":"20774","last name":"Pulliam-Smith","geo_score":0.769,"office name":"Keller Williams Preferred Properties","id":"a67x56lgvx35","geo_precision":"zip","first name":"Denise"},"type":"Feature","geometry":{"type":"Point","coordinates":[-71.5454578399658,42.3490930324696]}},{"properties":{"city":"Upper Marlboro","closings":2.0,"zip":"20774","last name":"Ross","geo_score":0.769,"office name":"Keller Williams Preferred Properties","id":"a67x56msf2k2","geo_precision":"zip","first name":"Sharon"},"type":"Feature","geometry":{"type":"Point","coordinates":[-71.5454578399658,42.3490930324696]}},{"properties":{"city":"Upper Marlboro","closings":2.0,"zip":"20774","last name":"Awe","geo_score":0.769,"office name":"Keller Williams Preferred Properties","id":"a67x56ej4bnr","geo_precision":"zip","first name":"Oladimeji"},"type":"Feature","geometry":{"type":"Point","coordinates":[-71.5454578399658,42.3490930324696]}},{"properties":{"city":"Annandale","closings":1.0,"zip":"22003","last name":"Ehsan","geo_score":0.857,"office name":"Fairfax Realty, Inc.","id":"a67x56dqs289","geo_precision":"zip","first name":"David"},"type":"Feature","geometry":{"type":"Point","coordinates":[-77.1963703,38.8303905]}},{"properties":{"city":"Upper Marlboro","closings":1.5,"zip":"20774","last name":"Stewart-Adkins","geo_score":0.769,"office name":"Keller Williams Preferred Properties","id":"a67x56fonhwd","geo_precision":"zip","first name":"Christine"},"type":"Feature","geometry":{"type":"Point","coordinates":[-71.5454578399658,42.3490930324696]}},{"properties":{"city":"Upper Marlboro","closings":2.0,"zip":"20774","last name":"DeFour","geo_score":0.769,"office name":"Keller Williams Preferred Properties","id":"a67x56juj9w6","geo_precision":"zip","first name":"Leslie"},"type":"Feature","geometry":{"type":"Point","coordinates":[-71.5454578399658,42.3490930324696]}},{"properties":{"city":"Annandale","closings":1.0,"zip":"22003","last name":"Tran","geo_score":0.857,"office name":"Fairfax Realty, Inc.","id":"a67x56lf4ema","geo_precision":"zip","first name":"Suong (Susan)"},"type":"Feature","geometry":{"type":"Point","coordinates":[-77.1963703,38.8303905]}},{"properties":{"city":"Annandale","closings":2.0,"zip":"22003","last name":"Tavara","geo_score":0.857,"office name":"Fairfax Realty, Inc.","id":"a67x56gt5owt","geo_precision":"zip","first name":"Paul"},"type":"Feature","geometry":{"type":"Point","coordinates":[-77.1963703,38.8303905]}},{"properties":{"city":"Annandale","closings":1.0,"zip":"22003","last name":"Afridi","geo_score":0.857,"office name":"Fairfax Realty, Inc.","id":"a67x56o2jqbb","geo_precision":"zip","first name":"Burhan"},"type":"Feature","geometry":{"type":"Point","coordinates":[-77.1963703,38.8303905]}},{"properties":{"city":"Annandale","closings":1.0,"zip":"22003","last name":"Rodriguez","geo_score":0.857,"office name":"Fairfax Realty, Inc.","id":"a67x56rorbmf","geo_precision":"zip","first name":"Elena"},"type":"Feature","geometry":{"type":"Point","coordinates":[-77.1963703,38.8303905]}},{"properties":{"city":"Annandale","closings":2.0,"zip":"22003","last name":"Fakhouri","geo_score":0.857,"office name":"Fairfax Realty, Inc.","id":"a67x56hn3dd3","geo_precision":"zip","first name":"Sara"},"type":"Feature","geometry":{"type":"Point","coordinates":[-77.1963703,38.8303905]}},{"properties":{"city":"Annandale","closings":1.0,"zip":"22003","last name":"Bagheriford","geo_score":0.857,"office name":"Fairfax Realty, Inc.","id":"a67x56ljt35i","geo_precision":"zip","first name":"Ritru"},"type":"Feature","geometry":{"type":"Point","coordinates":[-77.1963703,38.8303905]}},{"properties":{"city":"Annandale","closings":1.0,"zip":"22003","last name":"Chieu","geo_score":0.857,"office name":"Fairfax Realty, Inc.","id":"a67x56ee22lb","geo_precision":"zip","first name":"Kim"},"type":"Feature","geometry":{"type":"Point","coordinates":[-77.1963703,38.8303905]}},{"properties":{"city":"Upper Marlboro","closings":1.0,"zip":"20774","last name":"Grier","geo_score":0.769,"office name":"Keller Williams Preferred Properties","id":"a67x56rmdla8","geo_precision":"zip","first name":"Kenneth"},"type":"Feature","geometry":{"type":"Point","coordinates":[-71.5454578399658,42.3490930324696]}},{"properties":{"city":"Annandale","closings":1.0,"zip":"22003","last name":"Samaddar","geo_score":0.857,"office name":"Fairfax Realty, Inc.","id":"a67x56dhk88u","geo_precision":"zip","first name":"Subrata"},"type":"Feature","geometry":{"type":"Point","coordinates":[-77.1963703,38.8303905]}},{"properties":{"city":"Annandale","closings":1.0,"zip":"22003","last name":"Hernandez","geo_score":0.857,"office name":"Fairfax Realty, Inc.","id":"a67x56poev9l","geo_precision":"zip","first name":"Virgilio"},"type":"Feature","geometry":{"type":"Point","coordinates":[-77.1963703,38.8303905]}},{"properties":{"city":"Annandale","closings":1.0,"zip":"22003","last name":"Kettler","geo_score":0.857,"office name":"Fairfax Realty, Inc.","id":"a67x56q4c6fu","geo_precision":"zip","first name":"Mark"},"type":"Feature","geometry":{"type":"Point","coordinates":[-77.1963703,38.8303905]}},{"properties":{"city":"Annandale","closings":1.0,"zip":"22003","last name":"Nguyen","geo_score":0.857,"office name":"Fairfax Realty, Inc.","id":"a67x56qn4p85","geo_precision":"zip","first name":"Loan"},"type":"Feature","geometry":{"type":"Point","coordinates":[-77.1963703,38.8303905]}},{"properties":{"city":"Annandale","closings":1.0,"zip":"22003","last name":"Martin","geo_score":0.857,"office name":"Fairfax Realty, Inc.","id":"a67x56iblt3b","geo_precision":"zip","first name":"C. David"},"type":"Feature","geometry":{"type":"Point","coordinates":[-77.1963703,38.8303905]}},{"properties":{"city":"Upper Marlboro","closings":2.0,"zip":"20774","last name":"Jenkins-Boyd","geo_score":0.769,"office name":"Keller Williams Preferred Properties","id":"a67x56gh4ddy","geo_precision":"zip","first name":"Shirley"},"type":"Feature","geometry":{"type":"Point","coordinates":[-71.5454578399658,42.3490930324696]}},{"properties":{"city":"Annandale","closings":2.5,"zip":"22003","last name":"Jordan","geo_score":0.857,"office name":"Fairfax Realty, Inc.","id":"a67x56qe4tmw","geo_precision":"zip","first name":"Manfredo"},"type":"Feature","geometry":{"type":"Point","coordinates":[-77.1963703,38.8303905]}},{"properties":{"city":"Upper Marlboro","closings":1.0,"zip":"20774","last name":"Bethel","geo_score":0.769,"office name":"Keller Williams Preferred Properties","id":"a67x56f6ihu3","geo_precision":"zip","first name":"Paulette"},"type":"Feature","geometry":{"type":"Point","coordinates":[-71.5454578399658,42.3490930324696]}},{"properties":{"city":"Annandale","closings":3.0,"zip":"22003","last name":"Vu","geo_score":0.857,"office name":"Fairfax Realty, Inc.","id":"a67x56pdbuel","geo_precision":"zip","first name":"Huy"},"type":"Feature","geometry":{"type":"Point","coordinates":[-77.1963703,38.8303905]}},{"properties":{"city":"Annandale","closings":1.0,"zip":"22003","last name":"Bui","geo_score":0.857,"office name":"Fairfax Realty, Inc.","id":"a67x56ms8hht","geo_precision":"zip","first name":"Phuong"},"type":"Feature","geometry":{"type":"Point","coordinates":[-77.1963703,38.8303905]}},{"properties":{"city":"Annandale","closings":1.0,"zip":"22003","last name":"Tran","geo_score":0.857,"office name":"Fairfax Realty, Inc.","id":"a67x56grtbay","geo_precision":"zip","first name":"Herbert"},"type":"Feature","geometry":{"type":"Point","coordinates":[-77.1963703,38.8303905]}},{"properties":{"city":"Annandale","closings":1.0,"zip":"22003","last name":"Beladi","geo_score":0.857,"office name":"Fairfax Realty, Inc.","id":"a67x56s4b9u4","geo_precision":"zip","first name":"Beeta"},"type":"Feature","geometry":{"type":"Point","coordinates":[-77.1963703,38.8303905]}},{"properties":{"city":"Annandale","closings":1.5,"zip":"22003","last name":"Molina","geo_score":0.857,"office name":"Fairfax Realty, Inc.","id":"a67x56e1gbtj","geo_precision":"zip","first name":"Cecilia"},"type":"Feature","geometry":{"type":"Point","coordinates":[-77.1963703,38.8303905]}},{"properties":{"city":"Annandale","closings":2.0,"zip":"22003","last name":"Hankin","geo_score":0.857,"office name":"Fairfax Realty, Inc.","id":"a67x56f1xdzv","geo_precision":"zip","first name":"M. Delia"},"type":"Feature","geometry":{"type":"Point","coordinates":[-77.1963703,38.8303905]}},{"properties":{"city":"Upper Marlboro","closings":1.0,"zip":"20774","last name":"Macon","geo_score":0.769,"office name":"Keller Williams Preferred Properties","id":"a67x56kndh8b","geo_precision":"zip","first name":"Warren"},"type":"Feature","geometry":{"type":"Point","coordinates":[-71.5454578399658,42.3490930324696]}},{"properties":{"city":"Upper Marlboro","closings":1.0,"zip":"20774","last name":"Washington","geo_score":0.769,"office name":"Keller Williams Preferred Properties","id":"a67x56fysog1","geo_precision":"zip","first name":"Antoinette"},"type":"Feature","geometry":{"type":"Point","coordinates":[-71.5454578399658,42.3490930324696]}},{"properties":{"city":"Upper Marlboro","closings":1.0,"zip":"20774","last name":"Jones","geo_score":0.769,"office name":"Keller Williams Preferred Properties","id":"a67x56lj5m81","geo_precision":"zip","first name":"Pamela"},"type":"Feature","geometry":{"type":"Point","coordinates":[-71.5454578399658,42.3490930324696]}},{"properties":{"city":"Upper Marlboro","closings":1.0,"zip":"20774","last name":"Carroll","geo_score":0.769,"office name":"Keller Williams Preferred Properties","id":"a67x56ncs7pv","geo_precision":"zip","first name":"Amanda"},"type":"Feature","geometry":{"type":"Point","coordinates":[-71.5454578399658,42.3490930324696]}},{"properties":{"city":"Annandale","closings":1.0,"zip":"22003","last name":"Hernandez","geo_score":0.857,"office name":"Fairfax Realty, Inc.","id":"a67x56l5nley","geo_precision":"zip","first name":"Rene"},"type":"Feature","geometry":{"type":"Point","coordinates":[-77.1963703,38.8303905]}},{"properties":{"city":"Upper Marlboro","closings":3.0,"zip":"20774","last name":"Peterson","geo_score":0.769,"office name":"Keller Williams Preferred Properties","id":"a67x56mnhhds","geo_precision":"zip","first name":"Gloria"},"type":"Feature","geometry":{"type":"Point","coordinates":[-71.5454578399658,42.3490930324696]}},{"properties":{"city":"Upper Marlboro","closings":1.0,"zip":"20774","last name":"Wood","geo_score":0.769,"office name":"Keller Williams Preferred Properties","id":"a67x56ok22km","geo_precision":"zip","first name":"Yvette"},"type":"Feature","geometry":{"type":"Point","coordinates":[-71.5454578399658,42.3490930324696]}},{"properties":{"city":"Annandale","closings":1.0,"zip":"22003","last name":"Hwang","geo_score":0.857,"office name":"Fairfax Realty, Inc.","id":"a67x56g6ewzr","geo_precision":"zip","first name":"Annice"},"type":"Feature","geometry":{"type":"Point","coordinates":[-77.1963703,38.8303905]}},{"properties":{"city":"Annandale","closings":1.0,"zip":"22003","last name":"Cabrera","geo_score":0.857,"office name":"Fairfax Realty, Inc.","id":"a67x56mzr241","geo_precision":"zip","first name":"Pio"},"type":"Feature","geometry":{"type":"Point","coordinates":[-77.1963703,38.8303905]}},{"properties":{"city":"Annandale","closings":2.0,"zip":"22003","last name":"Bhuiyan","geo_score":0.857,"office name":"Fairfax Realty, Inc.","id":"a67x56k4nga0","geo_precision":"zip","first name":"Mohammed"},"type":"Feature","geometry":{"type":"Point","coordinates":[-77.1963703,38.8303905]}},{"properties":{"city":"Annandale","closings":1.0,"zip":"22003","last name":"Kornegay","geo_score":0.857,"office name":"Fairfax Realty, Inc.","id":"a67x56sn1llr","geo_precision":"zip","first name":"Michael"},"type":"Feature","geometry":{"type":"Point","coordinates":[-77.1963703,38.8303905]}},{"properties":{"city":"Annandale","closings":1.0,"zip":"22003","last name":"Vidaurre","geo_score":0.857,"office name":"Fairfax Realty, Inc.","id":"a67x56i4tla1","geo_precision":"zip","first name":"Hilda"},"type":"Feature","geometry":{"type":"Point","coordinates":[-77.1963703,38.8303905]}},{"properties":{"city":"Upper Marlboro","closings":1.0,"zip":"20774","last name":"Moore-Barnett","geo_score":0.769,"office name":"Keller Williams Preferred Properties","id":"a67x56ja1v12","geo_precision":"zip","first name":"Andrea"},"type":"Feature","geometry":{"type":"Point","coordinates":[-71.5454578399658,42.3490930324696]}},{"properties":{"city":"Annandale","closings":1.0,"zip":"22003","last name":"Ekasone","geo_score":0.857,"office name":"Fairfax Realty, Inc.","id":"a67x56el2709","geo_precision":"zip","first name":"Seuk"},"type":"Feature","geometry":{"type":"Point","coordinates":[-77.1963703,38.8303905]}},{"properties":{"city":"Annandale","closings":1.0,"zip":"22003","last name":"Masih","geo_score":0.857,"office name":"Fairfax Realty, Inc.","id":"a67x56ldfiid","geo_precision":"zip","first name":"Neha"},"type":"Feature","geometry":{"type":"Point","coordinates":[-77.1963703,38.8303905]}},{"properties":{"city":"Annandale","closings":1.0,"zip":"22003","last name":"Murad","geo_score":0.857,"office name":"Fairfax Realty, Inc.","id":"a67x56j0ntmf","geo_precision":"zip","first name":"Luay"},"type":"Feature","geometry":{"type":"Point","coordinates":[-77.1963703,38.8303905]}},{"properties":{"city":"Annandale","closings":1.0,"zip":"22003","last name":"Rathore","geo_score":0.857,"office name":"Fairfax Realty, Inc.","id":"a67x56c5ooyo","geo_precision":"zip","first name":"Jagjit"},"type":"Feature","geometry":{"type":"Point","coordinates":[-77.1963703,38.8303905]}},{"properties":{"city":"Upper Marlboro","closings":1.0,"zip":"20774","last name":"Jones","geo_score":0.769,"office name":"Keller Williams Preferred Properties","id":"a67x56ffni6w","geo_precision":"zip","first name":"Lisa"},"type":"Feature","geometry":{"type":"Point","coordinates":[-71.5454578399658,42.3490930324696]}},{"properties":{"city":"Annandale","closings":1.0,"zip":"22003","last name":"Calero","geo_score":0.857,"office name":"Fairfax Realty, Inc.","id":"a67x56giwypd","geo_precision":"zip","first name":"Ada"},"type":"Feature","geometry":{"type":"Point","coordinates":[-77.1963703,38.8303905]}},{"properties":{"city":"Annandale","closings":2.0,"zip":"22003","last name":"Bartzen","geo_score":0.857,"office name":"Fairfax Realty, Inc.","id":"a67x56el8wg0","geo_precision":"zip","first name":"Jorge"},"type":"Feature","geometry":{"type":"Point","coordinates":[-77.1963703,38.8303905]}},{"properties":{"city":"Annandale","closings":0.5,"zip":"22003","last name":"Nguyen","geo_score":0.857,"office name":"Fairfax Realty, Inc.","id":"a67x56oa8kff","geo_precision":"zip","first name":"Chuyen"},"type":"Feature","geometry":{"type":"Point","coordinates":[-77.1963703,38.8303905]}},{"properties":{"city":"Annandale","closings":0.5,"zip":"22003","last name":"Phan","geo_score":0.857,"office name":"Fairfax Realty, Inc.","id":"a67x56pcb5yt","geo_precision":"zip","first name":"Tuyen"},"type":"Feature","geometry":{"type":"Point","coordinates":[-77.1963703,38.8303905]}},{"properties":{"city":"Annandale","closings":1.0,"zip":"22003","last name":"Bibbens","geo_score":0.857,"office name":"Fairfax Realty, Inc.","id":"a67x56d4kb3l","geo_precision":"zip","first name":"Tracy"},"type":"Feature","geometry":{"type":"Point","coordinates":[-77.1963703,38.8303905]}},{"properties":{"city":"Upper Marlboro","closings":2.0,"zip":"20774","last name":"Garner","geo_score":0.769,"office name":"Keller Williams Preferred Properties","id":"a67x56dgufv1","geo_precision":"zip","first name":"Sharion"},"type":"Feature","geometry":{"type":"Point","coordinates":[-71.5454578399658,42.3490930324696]}},{"properties":{"city":"Upper Marlboro","closings":1.0,"zip":"20774","last name":"Combs","geo_score":0.769,"office name":"Keller Williams Preferred Properties","id":"a67x56p1wgij","geo_precision":"zip","first name":"Tiffany"},"type":"Feature","geometry":{"type":"Point","coordinates":[-71.5454578399658,42.3490930324696]}},{"properties":{"city":"Annandale","closings":1.0,"zip":"22003","last name":"Tulu","geo_score":0.857,"office name":"Fairfax Realty, Inc.","id":"a67x56qgcg4i","geo_precision":"zip","first name":"Zewdie"},"type":"Feature","geometry":{"type":"Point","coordinates":[-77.1963703,38.8303905]}},{"properties":{"city":"Annandale","closings":1.0,"zip":"22003","last name":"Shamebo","geo_score":0.857,"office name":"Fairfax Realty, Inc.","id":"a67x56rpz4bm","geo_precision":"zip","first name":"Ephraim"},"type":"Feature","geometry":{"type":"Point","coordinates":[-77.1963703,38.8303905]}},{"properties":{"city":"Upper Marlboro","closings":1.0,"zip":"20774","last name":"Gibbs","geo_score":0.769,"office name":"Keller Williams Preferred Properties","id":"a67x56hr0w0j","geo_precision":"zip","first name":"Trella"},"type":"Feature","geometry":{"type":"Point","coordinates":[-71.5454578399658,42.3490930324696]}},{"properties":{"city":"Annandale","closings":0.5,"zip":"22003","last name":"Banagan","geo_score":0.857,"office name":"Fairfax Realty, Inc.","id":"a67x56jd84rl","geo_precision":"zip","first name":"Miguel"},"type":"Feature","geometry":{"type":"Point","coordinates":[-77.1963703,38.8303905]}},{"properties":{"city":"Annandale","closings":1.0,"zip":"22003","last name":"Paul","geo_score":0.857,"office name":"Fairfax Realty, Inc.","id":"a67x56c7x7rx","geo_precision":"zip","first name":"Lori"},"type":"Feature","geometry":{"type":"Point","coordinates":[-77.1963703,38.8303905]}},{"properties":{"city":"Upper Marlboro","closings":1.0,"zip":"20774","last name":"Thompson","geo_score":0.769,"office name":"Keller Williams Preferred Properties","id":"a67x56pj135h","geo_precision":"zip","first name":"Constance"},"type":"Feature","geometry":{"type":"Point","coordinates":[-71.5454578399658,42.3490930324696]}},{"properties":{"city":"Upper Marlboro","closings":2.0,"zip":"20774","last name":"Hall","geo_score":0.769,"office name":"Keller Williams Preferred Properties","id":"a67x56qdgssz","geo_precision":"zip","first name":"Jennifer"},"type":"Feature","geometry":{"type":"Point","coordinates":[-71.5454578399658,42.3490930324696]}},{"properties":{"city":"Upper Marlboro","closings":1.0,"zip":"20774","last name":"Wiggins","geo_score":0.769,"office name":"Keller Williams Preferred Properties","id":"a67x56rw1ihh","geo_precision":"zip","first name":"Diana"},"type":"Feature","geometry":{"type":"Point","coordinates":[-71.5454578399658,42.3490930324696]}},{"properties":{"city":"Annandale","closings":1.0,"zip":"22003","last name":"Choi","geo_score":0.857,"office name":"Fairfax Realty, Inc.","id":"a67x56kci793","geo_precision":"zip","first name":"Angie"},"type":"Feature","geometry":{"type":"Point","coordinates":[-77.1963703,38.8303905]}},{"properties":{"city":"Upper Marlboro","closings":1.0,"zip":"20774","last name":"Schine","geo_score":0.769,"office name":"Keller Williams Preferred Properties","id":"a67x56ndly8r","geo_precision":"zip","first name":"Laronda"},"type":"Feature","geometry":{"type":"Point","coordinates":[-71.5454578399658,42.3490930324696]}},{"properties":{"city":"Annandale","closings":1.0,"zip":"22003","last name":"Lasker","geo_score":0.857,"office name":"Fairfax Realty, Inc.","id":"a67x56rkhw7l","geo_precision":"zip","first name":"Mohammed"},"type":"Feature","geometry":{"type":"Point","coordinates":[-77.1963703,38.8303905]}},{"properties":{"city":"Annandale","closings":1.0,"zip":"22003","last name":"Tekle","geo_score":0.857,"office name":"Fairfax Realty, Inc.","id":"a67x56haf1hv","geo_precision":"zip","first name":"Mekonnen"},"type":"Feature","geometry":{"type":"Point","coordinates":[-77.1963703,38.8303905]}},{"properties":{"city":"Upper Marlboro","closings":1.0,"zip":"20774","last name":"Sallay","geo_score":0.769,"office name":"Keller Williams Preferred Properties","id":"a67x56fgq52l","geo_precision":"zip","first name":"Terri"},"type":"Feature","geometry":{"type":"Point","coordinates":[-71.5454578399658,42.3490930324696]}},{"properties":{"city":"Annandale","closings":1.0,"zip":"22003","last name":"Rowaiye","geo_score":0.857,"office name":"Fairfax Realty, Inc.","id":"a67x56qckux1","geo_precision":"zip","first name":"Oladipo"},"type":"Feature","geometry":{"type":"Point","coordinates":[-77.1963703,38.8303905]}},{"properties":{"city":"Annandale","closings":1.0,"zip":"22003","last name":"Zakeri","geo_score":0.857,"office name":"Fairfax Realty, Inc.","id":"a67x56ec9rsr","geo_precision":"zip","first name":"Matthew"},"type":"Feature","geometry":{"type":"Point","coordinates":[-77.1963703,38.8303905]}},{"properties":{"city":"Annandale","closings":0.5,"zip":"22003","last name":"Rhoades","geo_score":0.857,"office name":"Fairfax Realty, Inc.","id":"a67x56g5awa7","geo_precision":"zip","first name":"Joel"},"type":"Feature","geometry":{"type":"Point","coordinates":[-77.1963703,38.8303905]}},{"properties":{"city":"Annandale","closings":0.5,"zip":"22003","last name":"Minnich","geo_score":0.857,"office name":"Fairfax Realty, Inc.","id":"a67x56q50h1e","geo_precision":"zip","first name":"Henry"},"type":"Feature","geometry":{"type":"Point","coordinates":[-77.1963703,38.8303905]}},{"properties":{"city":"Upper Marlboro","closings":1.0,"zip":"20774","last name":"General","geo_score":0.769,"office name":"Keller Williams Preferred Properties","id":"a67x56i7n3eb","geo_precision":"zip","first name":"Tyra"},"type":"Feature","geometry":{"type":"Point","coordinates":[-71.5454578399658,42.3490930324696]}},{"properties":{"city":"Annandale","closings":1.0,"zip":"22003","last name":"Shia","geo_score":0.857,"office name":"Fairfax Realty, Inc.","id":"a67x56nfrjvx","geo_precision":"zip","first name":"Relian"},"type":"Feature","geometry":{"type":"Point","coordinates":[-77.1963703,38.8303905]}},{"properties":{"city":"Annandale","closings":1.0,"zip":"22003","last name":"Popal","geo_score":0.857,"office name":"Fairfax Realty, Inc.","id":"a67x56frpx0w","geo_precision":"zip","first name":"Atiqullah"},"type":"Feature","geometry":{"type":"Point","coordinates":[-77.1963703,38.8303905]}},{"properties":{"city":"Upper Marlboro","closings":1.0,"zip":"20774","last name":"Wilson","geo_score":0.769,"office name":"Keller Williams Preferred Properties","id":"a67x56es73xv","geo_precision":"zip","first name":"Vivian"},"type":"Feature","geometry":{"type":"Point","coordinates":[-71.5454578399658,42.3490930324696]}},{"properties":{"city":"Annandale","closings":1.0,"zip":"22003","last name":"Cormier","geo_score":0.857,"office name":"Fairfax Realty, Inc.","id":"a67x56qy8zkv","geo_precision":"zip","first name":"Paul"},"type":"Feature","geometry":{"type":"Point","coordinates":[-77.1963703,38.8303905]}},{"properties":{"city":"Upper Marlboro","closings":1.0,"zip":"20774","last name":"Travers","geo_score":0.769,"office name":"Keller Williams Preferred Properties","id":"a67x56ph1djo","geo_precision":"zip","first name":"Michelle"},"type":"Feature","geometry":{"type":"Point","coordinates":[-71.5454578399658,42.3490930324696]}},{"properties":{"city":"Upper Marlboro","closings":2.0,"zip":"20774","last name":"Wallace","geo_score":0.769,"office name":"Keller Williams Preferred Properties","id":"a67x56i9ork8","geo_precision":"zip","first name":"Paul"},"type":"Feature","geometry":{"type":"Point","coordinates":[-71.5454578399658,42.3490930324696]}},{"properties":{"city":"Upper Marlboro","closings":1.0,"zip":"20774","last name":"Gaddy","geo_score":0.769,"office name":"Keller Williams Preferred Properties","id":"a67x56qyqdqr","geo_precision":"zip","first name":"Karen"},"type":"Feature","geometry":{"type":"Point","coordinates":[-71.5454578399658,42.3490930324696]}},{"properties":{"city":"Annandale","closings":1.0,"zip":"22003","last name":"Inocencio","geo_score":0.857,"office name":"Fairfax Realty, Inc.","id":"a67x56gfq20h","geo_precision":"zip","first name":"Ramy"},"type":"Feature","geometry":{"type":"Point","coordinates":[-77.1963703,38.8303905]}},{"properties":{"city":"Upper Marlboro","closings":1.0,"zip":"20774","last name":"Rogers","geo_score":0.769,"office name":"Keller Williams Preferred Properties","id":"a67x56mldvja","geo_precision":"zip","first name":"Edna"},"type":"Feature","geometry":{"type":"Point","coordinates":[-71.5454578399658,42.3490930324696]}},{"properties":{"city":"Upper Marlboro","closings":1.0,"zip":"20774","last name":"Coffey","geo_score":0.769,"office name":"Keller Williams Preferred Properties","id":"a67x56ehmw5s","geo_precision":"zip","first name":"Tondenica"},"type":"Feature","geometry":{"type":"Point","coordinates":[-71.5454578399658,42.3490930324696]}},{"properties":{"city":"Upper Marlboro","closings":1.0,"zip":"20774","last name":"Horne","geo_score":0.769,"office name":"Keller Williams Preferred Properties","id":"a67x56k2wfye","geo_precision":"zip","first name":"Franchedia"},"type":"Feature","geometry":{"type":"Point","coordinates":[-71.5454578399658,42.3490930324696]}},{"properties":{"city":"Upper Marlboro","closings":0.0,"zip":"20774","last name":"Adams","geo_score":0.769,"office name":"Keller Williams Preferred Properties","id":"a67x56r0nklu","geo_precision":"zip","first name":"Paul"},"type":"Feature","geometry":{"type":"Point","coordinates":[-71.5454578399658,42.3490930324696]}},{"properties":{"city":"Upper Marlboro","closings":0.0,"zip":"20774","last name":"Keyes","geo_score":0.769,"office name":"Keller Williams Preferred Properties","id":"a67x56c5fsvi","geo_precision":"zip","first name":"Lenwood"},"type":"Feature","geometry":{"type":"Point","coordinates":[-71.5454578399658,42.3490930324696]}},{"properties":{"city":"Upper Marlboro","closings":0.0,"zip":"20774","last name":"Williams","geo_score":0.769,"office name":"Keller Williams Preferred Properties","id":"a67x56mepoj1","geo_precision":"zip","first name":"Rodney"},"type":"Feature","geometry":{"type":"Point","coordinates":[-71.5454578399658,42.3490930324696]}},{"properties":{"city":"Upper Marlboro","closings":0.0,"zip":"20774","last name":"Pegram","geo_score":0.769,"office name":"Keller Williams Preferred Properties","id":"a67x56i1f4bo","geo_precision":"zip","first name":"Rodney"},"type":"Feature","geometry":{"type":"Point","coordinates":[-71.5454578399658,42.3490930324696]}},{"properties":{"city":"Upper Marlboro","closings":0.0,"zip":"20774","last name":"Bolling","geo_score":0.769,"office name":"Keller Williams Preferred Properties","id":"a67x56e8v2w7","geo_precision":"zip","first name":"Anthony"},"type":"Feature","geometry":{"type":"Point","coordinates":[-71.5454578399658,42.3490930324696]}},{"properties":{"city":"Upper Marlboro","closings":0.0,"zip":"20774","last name":"Jefferies","geo_score":0.769,"office name":"Keller Williams Preferred Properties","id":"a67x56na28j2","geo_precision":"zip","first name":"Jared"},"type":"Feature","geometry":{"type":"Point","coordinates":[-71.5454578399658,42.3490930324696]}},{"properties":{"city":"Upper Marlboro","closings":0.0,"zip":"20774","last name":"Deadwiler","geo_score":0.769,"office name":"Keller Williams Preferred Properties","id":"a67x56htlxre","geo_precision":"zip","first name":"Angela"},"type":"Feature","geometry":{"type":"Point","coordinates":[-71.5454578399658,42.3490930324696]}},{"properties":{"city":"Upper Marlboro","closings":0.0,"zip":"20774","last name":"Williams","geo_score":0.769,"office name":"Keller Williams Preferred Properties","id":"a67x56c4mix1","geo_precision":"zip","first name":"Donald"},"type":"Feature","geometry":{"type":"Point","coordinates":[-71.5454578399658,42.3490930324696]}},{"properties":{"city":"Upper Marlboro","closings":0.0,"zip":"20774","last name":"Elliott","geo_score":0.769,"office name":"Keller Williams Preferred Properties","id":"a67x56scmqih","geo_precision":"zip","first name":"Dorothy"},"type":"Feature","geometry":{"type":"Point","coordinates":[-71.5454578399658,42.3490930324696]}},{"properties":{"city":"Upper Marlboro","closings":0.0,"zip":"20774","last name":"Joyner","geo_score":0.769,"office name":"Keller Williams Preferred Properties","id":"a67x56rumk9a","geo_precision":"zip","first name":"Winsor"},"type":"Feature","geometry":{"type":"Point","coordinates":[-71.5454578399658,42.3490930324696]}},{"properties":{"city":"Upper Marlboro","closings":0.0,"zip":"20774","last name":"Harrison","geo_score":0.769,"office name":"Keller Williams Preferred Properties","id":"a67x56khnlov","geo_precision":"zip","first name":"Jawana"},"type":"Feature","geometry":{"type":"Point","coordinates":[-71.5454578399658,42.3490930324696]}},{"properties":{"city":"Upper Marlboro","closings":0.0,"zip":"20774","last name":"Fletcher","geo_score":0.769,"office name":"Keller Williams Preferred Properties","id":"a67x56nibppu","geo_precision":"zip","first name":"Lois"},"type":"Feature","geometry":{"type":"Point","coordinates":[-71.5454578399658,42.3490930324696]}},{"properties":{"city":"Annandale","closings":0.0,"zip":"22003","last name":"Aristizabal","geo_score":0.857,"office name":"Fairfax Realty, Inc.","id":"a67x56rtsden","geo_precision":"zip","first name":"Marta"},"type":"Feature","geometry":{"type":"Point","coordinates":[-77.1963703,38.8303905]}},{"properties":{"city":"Annandale","closings":0.0,"zip":"22003","last name":"Jones","geo_score":0.857,"office name":"Fairfax Realty, Inc.","id":"a67x56mhiixp","geo_precision":"zip","first name":"Gordon"},"type":"Feature","geometry":{"type":"Point","coordinates":[-77.1963703,38.8303905]}},{"properties":{"city":"Annandale","closings":0.0,"zip":"22003","last name":"Powers","geo_score":0.857,"office name":"Fairfax Realty, Inc.","id":"a67x56nhhv35","geo_precision":"zip","first name":"Cecil"},"type":"Feature","geometry":{"type":"Point","coordinates":[-77.1963703,38.8303905]}},{"properties":{"city":"Annandale","closings":0.0,"zip":"22003","last name":"Ayele","geo_score":0.857,"office name":"Fairfax Realty, Inc.","id":"a67x56s95yqt","geo_precision":"zip","first name":"Mesfin"},"type":"Feature","geometry":{"type":"Point","coordinates":[-77.1963703,38.8303905]}},{"properties":{"city":"Annandale","closings":0.0,"zip":"22003","last name":"Serrano","geo_score":0.857,"office name":"Fairfax Realty, Inc.","id":"a67x56qwa2f8","geo_precision":"zip","first name":"Walter"},"type":"Feature","geometry":{"type":"Point","coordinates":[-77.1963703,38.8303905]}},{"properties":{"city":"Annandale","closings":0.0,"zip":"22003","last name":"Jung","geo_score":0.857,"office name":"Fairfax Realty, Inc.","id":"a67x56mxgigj","geo_precision":"zip","first name":"Hae"},"type":"Feature","geometry":{"type":"Point","coordinates":[-77.1963703,38.8303905]}},{"properties":{"city":"Annandale","closings":0.0,"zip":"22003","last name":"Edelved","geo_score":0.857,"office name":"Fairfax Realty, Inc.","id":"a67x56d32phg","geo_precision":"zip","first name":"Celia"},"type":"Feature","geometry":{"type":"Point","coordinates":[-77.1963703,38.8303905]}},{"properties":{"city":"Upper Marlboro","closings":0.0,"zip":"20774","last name":"Diggs","geo_score":0.769,"office name":"Keller Williams Preferred Properties","id":"a67x56do07ei","geo_precision":"zip","first name":"Aja"},"type":"Feature","geometry":{"type":"Point","coordinates":[-71.5454578399658,42.3490930324696]}},{"properties":{"city":"Upper Marlboro","closings":0.0,"zip":"20774","last name":"Miller","geo_score":0.769,"office name":"Keller Williams Preferred Properties","id":"a67x56hvm4nr","geo_precision":"zip","first name":"Tanya"},"type":"Feature","geometry":{"type":"Point","coordinates":[-71.5454578399658,42.3490930324696]}},{"properties":{"city":"Upper Marlboro","closings":0.0,"zip":"20774","last name":"Davis","geo_score":0.769,"office name":"Keller Williams Preferred Properties","id":"a67x56dyeb9s","geo_precision":"zip","first name":"Yvonne"},"type":"Feature","geometry":{"type":"Point","coordinates":[-71.5454578399658,42.3490930324696]}},{"properties":{"city":"Upper Marlboro","closings":0.0,"zip":"20774","last name":"Purvis-Wynn","geo_score":0.769,"office name":"Keller Williams Preferred Properties","id":"a67x56onignc","geo_precision":"zip","first name":"Sherry"},"type":"Feature","geometry":{"type":"Point","coordinates":[-71.5454578399658,42.3490930324696]}},{"properties":{"city":"Upper Marlboro","closings":0.0,"zip":"20774","last name":"Lucas","geo_score":0.769,"office name":"Keller Williams Preferred Properties","id":"a67x56fgegis","geo_precision":"zip","first name":"Bianca"},"type":"Feature","geometry":{"type":"Point","coordinates":[-71.5454578399658,42.3490930324696]}},{"properties":{"city":"Upper Marlboro","closings":0.0,"zip":"20774","last name":"Clark","geo_score":0.769,"office name":"Keller Williams Preferred Properties","id":"a67x56pz3ect","geo_precision":"zip","first name":"Njeri"},"type":"Feature","geometry":{"type":"Point","coordinates":[-71.5454578399658,42.3490930324696]}},{"properties":{"city":"Upper Marlboro","closings":0.0,"zip":"20774","last name":"Campbell","geo_score":0.769,"office name":"Keller Williams Preferred Properties","id":"a67x56s07el3","geo_precision":"zip","first name":"Kelly"},"type":"Feature","geometry":{"type":"Point","coordinates":[-71.5454578399658,42.3490930324696]}},{"properties":{"city":"Upper Marlboro","closings":0.0,"zip":"20774","last name":"Slaughter","geo_score":0.769,"office name":"Keller Williams Preferred Properties","id":"a67x56pl1l3f","geo_precision":"zip","first name":"Chandria"},"type":"Feature","geometry":{"type":"Point","coordinates":[-71.5454578399658,42.3490930324696]}},{"properties":{"city":"Upper Marlboro","closings":0.0,"zip":"20774","last name":"Brown","geo_score":0.769,"office name":"Keller Williams Preferred Properties","id":"a67x56rc7vdw","geo_precision":"zip","first name":"Terri"},"type":"Feature","geometry":{"type":"Point","coordinates":[-71.5454578399658,42.3490930324696]}},{"properties":{"city":"Upper Marlboro","closings":0.0,"zip":"20774","last name":"Freeman","geo_score":0.769,"office name":"Keller Williams Preferred Properties","id":"a67x56ll7j6m","geo_precision":"zip","first name":"Brandi"},"type":"Feature","geometry":{"type":"Point","coordinates":[-71.5454578399658,42.3490930324696]}},{"properties":{"city":"Upper Marlboro","closings":0.0,"zip":"20774","last name":"Okwu","geo_score":0.769,"office name":"Keller Williams Preferred Properties","id":"a67x56e7ud90","geo_precision":"zip","first name":"Ikemefuna"},"type":"Feature","geometry":{"type":"Point","coordinates":[-71.5454578399658,42.3490930324696]}},{"properties":{"city":"Upper Marlboro","closings":0.0,"zip":"20774","last name":"Murphy","geo_score":0.769,"office name":"Keller Williams Preferred Properties","id":"a67x56mha8yx","geo_precision":"zip","first name":"Dianka"},"type":"Feature","geometry":{"type":"Point","coordinates":[-71.5454578399658,42.3490930324696]}},{"properties":{"city":"Upper Marlboro","closings":0.0,"zip":"20774","last name":"Hurley","geo_score":0.769,"office name":"Keller Williams Preferred Properties","id":"a67x56pllbmu","geo_precision":"zip","first name":"Jason"},"type":"Feature","geometry":{"type":"Point","coordinates":[-71.5454578399658,42.3490930324696]}},{"properties":{"city":"Upper Marlboro","closings":0.0,"zip":"20774","last name":"Henderson","geo_score":0.769,"office name":"Keller Williams Preferred Properties","id":"a67x56lk0jnr","geo_precision":"zip","first name":"Charlotte"},"type":"Feature","geometry":{"type":"Point","coordinates":[-71.5454578399658,42.3490930324696]}},{"properties":{"city":"Upper Marlboro","closings":0.0,"zip":"20774","last name":"Johnson","geo_score":0.769,"office name":"Keller Williams Preferred Properties","id":"a67x56pwvrjj","geo_precision":"zip","first name":"Cynthia"},"type":"Feature","geometry":{"type":"Point","coordinates":[-71.5454578399658,42.3490930324696]}},{"properties":{"city":"Upper Marlboro","closings":0.0,"zip":"20774","last name":"King","geo_score":0.769,"office name":"Keller Williams Preferred Properties","id":"a67x56ixyr1n","geo_precision":"zip","first name":"Angela"},"type":"Feature","geometry":{"type":"Point","coordinates":[-71.5454578399658,42.3490930324696]}},{"properties":{"city":"Upper Marlboro","closings":0.0,"zip":"20774","last name":"Tshita","geo_score":0.769,"office name":"Keller Williams Preferred Properties","id":"a67x56pi4q4d","geo_precision":"zip","first name":"Mahele"},"type":"Feature","geometry":{"type":"Point","coordinates":[-71.5454578399658,42.3490930324696]}},{"properties":{"city":"Upper Marlboro","closings":0.0,"zip":"20774","last name":"Spicer","geo_score":0.769,"office name":"Keller Williams Preferred Properties","id":"a67x56dtvs0m","geo_precision":"zip","first name":"Jeanette"},"type":"Feature","geometry":{"type":"Point","coordinates":[-71.5454578399658,42.3490930324696]}},{"properties":{"city":"Upper Marlboro","closings":0.0,"zip":"20774","last name":"Gibbs","geo_score":0.769,"office name":"Keller Williams Preferred Properties","id":"a67x56pgf7g5","geo_precision":"zip","first name":"Yvonne"},"type":"Feature","geometry":{"type":"Point","coordinates":[-71.5454578399658,42.3490930324696]}},{"properties":{"city":"Upper Marlboro","closings":0.0,"zip":"20774","last name":"Dozier","geo_score":0.769,"office name":"Keller Williams Preferred Properties","id":"a67x56jszf01","geo_precision":"zip","first name":"Angelita"},"type":"Feature","geometry":{"type":"Point","coordinates":[-71.5454578399658,42.3490930324696]}},{"properties":{"city":"Upper Marlboro","closings":0.0,"zip":"20774","last name":"Moore","geo_score":0.769,"office name":"Keller Williams Preferred Properties","id":"a67x56rehkjk","geo_precision":"zip","first name":"Rufelette"},"type":"Feature","geometry":{"type":"Point","coordinates":[-71.5454578399658,42.3490930324696]}},{"properties":{"city":"Upper Marlboro","closings":0.0,"zip":"20774","last name":"Moore","geo_score":0.769,"office name":"Keller Williams Preferred Properties","id":"a67x56jstyux","geo_precision":"zip","first name":"Charlotte"},"type":"Feature","geometry":{"type":"Point","coordinates":[-71.5454578399658,42.3490930324696]}},{"properties":{"city":"Upper Marlboro","closings":0.0,"zip":"20774","last name":"Scarborough","geo_score":0.769,"office name":"Keller Williams Preferred Properties","id":"a67x56mcuqnx","geo_precision":"zip","first name":"Gary"},"type":"Feature","geometry":{"type":"Point","coordinates":[-71.5454578399658,42.3490930324696]}},{"properties":{"city":"Upper Marlboro","closings":0.0,"zip":"20774","last name":"Jones","geo_score":0.769,"office name":"Keller Williams Preferred Properties","id":"a67x56nknjs4","geo_precision":"zip","first name":"Monica"},"type":"Feature","geometry":{"type":"Point","coordinates":[-71.5454578399658,42.3490930324696]}},{"properties":{"city":"Upper Marlboro","closings":0.0,"zip":"20774","last name":"Graves","geo_score":0.769,"office name":"Keller Williams Preferred Properties","id":"a67x56ccr25h","geo_precision":"zip","first name":"Velma"},"type":"Feature","geometry":{"type":"Point","coordinates":[-71.5454578399658,42.3490930324696]}},{"properties":{"city":"Upper Marlboro","closings":0.0,"zip":"20774","last name":"Williams","geo_score":0.769,"office name":"Keller Williams Preferred Properties","id":"a67x56dlb584","geo_precision":"zip","first name":"Cleveland"},"type":"Feature","geometry":{"type":"Point","coordinates":[-71.5454578399658,42.3490930324696]}},{"properties":{"city":"Upper Marlboro","closings":0.0,"zip":"20774","last name":"Hinson","geo_score":0.769,"office name":"Keller Williams Preferred Properties","id":"a67x56j9pxaa","geo_precision":"zip","first name":"Shannon"},"type":"Feature","geometry":{"type":"Point","coordinates":[-71.5454578399658,42.3490930324696]}},{"properties":{"city":"Upper Marlboro","closings":0.0,"zip":"20774","last name":"GILES","geo_score":0.769,"office name":"Keller Williams Preferred Properties","id":"a67x56r6vjbn","geo_precision":"zip","first name":"DARSHEIKA"},"type":"Feature","geometry":{"type":"Point","coordinates":[-71.5454578399658,42.3490930324696]}},{"properties":{"city":"Upper Marlboro","closings":0.0,"zip":"20774","last name":"Francis","geo_score":0.769,"office name":"Keller Williams Preferred Properties","id":"a67x56mxr0fz","geo_precision":"zip","first name":"Barbara"},"type":"Feature","geometry":{"type":"Point","coordinates":[-71.5454578399658,42.3490930324696]}},{"properties":{"city":"Upper Marlboro","closings":0.0,"zip":"20774","last name":"Stanley","geo_score":0.769,"office name":"Keller Williams Preferred Properties","id":"a67x56looo00","geo_precision":"zip","first name":"Louis"},"type":"Feature","geometry":{"type":"Point","coordinates":[-71.5454578399658,42.3490930324696]}},{"properties":{"city":"Upper Marlboro","closings":0.0,"zip":"20774","last name":"Boulware","geo_score":0.769,"office name":"Keller Williams Preferred Properties","id":"a67x56nx7oc3","geo_precision":"zip","first name":"Saundra"},"type":"Feature","geometry":{"type":"Point","coordinates":[-71.5454578399658,42.3490930324696]}},{"properties":{"city":"Upper Marlboro","closings":0.0,"zip":"20774","last name":"Reese","geo_score":0.769,"office name":"Keller Williams Preferred Properties","id":"a67x56k1y4y9","geo_precision":"zip","first name":"Angelique"},"type":"Feature","geometry":{"type":"Point","coordinates":[-71.5454578399658,42.3490930324696]}},{"properties":{"city":"Upper Marlboro","closings":0.0,"zip":"20774","last name":"Weber","geo_score":0.769,"office name":"Keller Williams Preferred Properties","id":"a67x56rse7e5","geo_precision":"zip","first name":"Allen"},"type":"Feature","geometry":{"type":"Point","coordinates":[-71.5454578399658,42.3490930324696]}},{"properties":{"city":"Upper Marlboro","closings":0.0,"zip":"20774","last name":"Faulk","geo_score":0.769,"office name":"Keller Williams Preferred Properties","id":"a67x56ley6i8","geo_precision":"zip","first name":"Ralph"},"type":"Feature","geometry":{"type":"Point","coordinates":[-71.5454578399658,42.3490930324696]}},{"properties":{"city":"Upper Marlboro","closings":0.0,"zip":"20774","last name":"Bailey","geo_score":0.769,"office name":"Keller Williams Preferred Properties","id":"a67x56nuckk0","geo_precision":"zip","first name":"Richard"},"type":"Feature","geometry":{"type":"Point","coordinates":[-71.5454578399658,42.3490930324696]}},{"properties":{"city":"Upper Marlboro","closings":0.0,"zip":"20774","last name":"Mathis","geo_score":0.769,"office name":"Keller Williams Preferred Properties","id":"a67x56i32zuk","geo_precision":"zip","first name":"Stephanie"},"type":"Feature","geometry":{"type":"Point","coordinates":[-71.5454578399658,42.3490930324696]}},{"properties":{"city":"Upper Marlboro","closings":0.0,"zip":"20774","last name":"Habtesion","geo_score":0.769,"office name":"Keller Williams Preferred Properties","id":"a67x56dlvwl7","geo_precision":"zip","first name":"Yordanos"},"type":"Feature","geometry":{"type":"Point","coordinates":[-71.5454578399658,42.3490930324696]}},{"properties":{"city":"Upper Marlboro","closings":0.0,"zip":"20774","last name":"Alexander","geo_score":0.769,"office name":"Keller Williams Preferred Properties","id":"a67x56kp41r7","geo_precision":"zip","first name":"Stephanie"},"type":"Feature","geometry":{"type":"Point","coordinates":[-71.5454578399658,42.3490930324696]}},{"properties":{"city":"Upper Marlboro","closings":0.0,"zip":"20774","last name":"Gibson","geo_score":0.769,"office name":"Keller Williams Preferred Properties","id":"a67x56hiz7pb","geo_precision":"zip","first name":"Monica"},"type":"Feature","geometry":{"type":"Point","coordinates":[-71.5454578399658,42.3490930324696]}},{"properties":{"city":"Upper Marlboro","closings":0.0,"zip":"20774","last name":"Sibert","geo_score":0.769,"office name":"Keller Williams Preferred Properties","id":"a67x56fpqrqm","geo_precision":"zip","first name":"Jeffrey"},"type":"Feature","geometry":{"type":"Point","coordinates":[-71.5454578399658,42.3490930324696]}},{"properties":{"city":"Upper Marlboro","closings":0.0,"zip":"20774","last name":"Gaston","geo_score":0.769,"office name":"Keller Williams Preferred Properties","id":"a67x56ltfa64","geo_precision":"zip","first name":"Veda"},"type":"Feature","geometry":{"type":"Point","coordinates":[-71.5454578399658,42.3490930324696]}},{"properties":{"city":"Upper Marlboro","closings":0.0,"zip":"20774","last name":"Summers","geo_score":0.769,"office name":"Keller Williams Preferred Properties","id":"a67x56i7sn1j","geo_precision":"zip","first name":"Vilecia"},"type":"Feature","geometry":{"type":"Point","coordinates":[-71.5454578399658,42.3490930324696]}},{"properties":{"city":"Upper Marlboro","closings":0.0,"zip":"20774","last name":"McDavid","geo_score":0.769,"office name":"Keller Williams Preferred Properties","id":"a67x56q7fzcn","geo_precision":"zip","first name":"Marc"},"type":"Feature","geometry":{"type":"Point","coordinates":[-71.5454578399658,42.3490930324696]}},{"properties":{"city":"Upper Marlboro","closings":0.0,"zip":"20774","last name":"Gibson","geo_score":0.769,"office name":"Keller Williams Preferred Properties","id":"a67x56qczo3l","geo_precision":"zip","first name":"Sherri"},"type":"Feature","geometry":{"type":"Point","coordinates":[-71.5454578399658,42.3490930324696]}},{"properties":{"city":"Upper Marlboro","closings":0.0,"zip":"20774","last name":"Singh","geo_score":0.769,"office name":"Keller Williams Preferred Properties","id":"a67x56knymac","geo_precision":"zip","first name":"Sunita"},"type":"Feature","geometry":{"type":"Point","coordinates":[-71.5454578399658,42.3490930324696]}},{"properties":{"city":"Upper Marlboro","closings":0.0,"zip":"20774","last name":"Ireland","geo_score":0.769,"office name":"Keller Williams Preferred Properties","id":"a67x56ota3qz","geo_precision":"zip","first name":"Stephanie"},"type":"Feature","geometry":{"type":"Point","coordinates":[-71.5454578399658,42.3490930324696]}},{"properties":{"city":"Upper Marlboro","closings":0.0,"zip":"20774","last name":"Moody","geo_score":0.769,"office name":"Keller Williams Preferred Properties","id":"a67x56gu8fb4","geo_precision":"zip","first name":"Emma"},"type":"Feature","geometry":{"type":"Point","coordinates":[-71.5454578399658,42.3490930324696]}},{"properties":{"city":"Upper Marlboro","closings":0.0,"zip":"20774","last name":"Evans","geo_score":0.769,"office name":"Keller Williams Preferred Properties","id":"a67x56n27ikb","geo_precision":"zip","first name":"India"},"type":"Feature","geometry":{"type":"Point","coordinates":[-71.5454578399658,42.3490930324696]}},{"properties":{"city":"Upper Marlboro","closings":0.0,"zip":"20774","last name":"Brown","geo_score":0.769,"office name":"Keller Williams Preferred Properties","id":"a67x56fr0y4a","geo_precision":"zip","first name":"Danita"},"type":"Feature","geometry":{"type":"Point","coordinates":[-71.5454578399658,42.3490930324696]}},{"properties":{"city":"Upper Marlboro","closings":0.0,"zip":"20774","last name":"Elliott","geo_score":0.769,"office name":"Keller Williams Preferred Properties","id":"a67x56l4b997","geo_precision":"zip","first name":"Willie"},"type":"Feature","geometry":{"type":"Point","coordinates":[-71.5454578399658,42.3490930324696]}},{"properties":{"city":"Upper Marlboro","closings":0.0,"zip":"20774","last name":"Garner","geo_score":0.769,"office name":"Keller Williams Preferred Properties","id":"a67x56sjxo96","geo_precision":"zip","first name":"Iris"},"type":"Feature","geometry":{"type":"Point","coordinates":[-71.5454578399658,42.3490930324696]}},{"properties":{"city":"Upper Marlboro","closings":0.0,"zip":"20774","last name":"Snipes-Austin","geo_score":0.769,"office name":"Keller Williams Preferred Properties","id":"a67x56p8eiqd","geo_precision":"zip","first name":"Monica"},"type":"Feature","geometry":{"type":"Point","coordinates":[-71.5454578399658,42.3490930324696]}},{"properties":{"city":"Upper Marlboro","closings":0.0,"zip":"20774","last name":"Long","geo_score":0.769,"office name":"Keller Williams Preferred Properties","id":"a67x56ij7j6j","geo_precision":"zip","first name":"Patricia"},"type":"Feature","geometry":{"type":"Point","coordinates":[-71.5454578399658,42.3490930324696]}},{"properties":{"city":"Upper Marlboro","closings":0.0,"zip":"20774","last name":"Paige","geo_score":0.769,"office name":"Keller Williams Preferred Properties","id":"a67x56il4nm8","geo_precision":"zip","first name":"Michael"},"type":"Feature","geometry":{"type":"Point","coordinates":[-71.5454578399658,42.3490930324696]}},{"properties":{"city":"Upper Marlboro","closings":0.0,"zip":"20774","last name":"Brisbon","geo_score":0.769,"office name":"Keller Williams Preferred Properties","id":"a67x56k6xqma","geo_precision":"zip","first name":"Pauline"},"type":"Feature","geometry":{"type":"Point","coordinates":[-71.5454578399658,42.3490930324696]}},{"properties":{"city":"Upper Marlboro","closings":0.0,"zip":"20774","last name":"Ross","geo_score":0.769,"office name":"Keller Williams Preferred Properties","id":"a67x56gjhavv","geo_precision":"zip","first name":"Dwayne"},"type":"Feature","geometry":{"type":"Point","coordinates":[-71.5454578399658,42.3490930324696]}},{"properties":{"city":"Upper Marlboro","closings":0.0,"zip":"20774","last name":"Woodard","geo_score":0.769,"office name":"Keller Williams Preferred Properties","id":"a67x56nnvyh9","geo_precision":"zip","first name":"John"},"type":"Feature","geometry":{"type":"Point","coordinates":[-71.5454578399658,42.3490930324696]}},{"properties":{"city":"Annandale","closings":0.0,"zip":"22003","last name":"Chand","geo_score":0.857,"office name":"Fairfax Realty, Inc.","id":"a67x56r53b2n","geo_precision":"zip","first name":"Usha"},"type":"Feature","geometry":{"type":"Point","coordinates":[-77.1963703,38.8303905]}},{"properties":{"city":"Annandale","closings":0.0,"zip":"22003","last name":"Hernandez","geo_score":0.857,"office name":"Fairfax Realty, Inc.","id":"a67x56eu3c03","geo_precision":"zip","first name":"Jorge"},"type":"Feature","geometry":{"type":"Point","coordinates":[-77.1963703,38.8303905]}},{"properties":{"city":"Annandale","closings":0.0,"zip":"22003","last name":"HoorAzar","geo_score":0.857,"office name":"Fairfax Realty, Inc.","id":"a67x56gydro7","geo_precision":"zip","first name":"Niloufar"},"type":"Feature","geometry":{"type":"Point","coordinates":[-77.1963703,38.8303905]}},{"properties":{"city":"Annandale","closings":0.0,"zip":"22003","last name":"Ward","geo_score":0.857,"office name":"Fairfax Realty, Inc.","id":"a67x56g41vx8","geo_precision":"zip","first name":"Tony"},"type":"Feature","geometry":{"type":"Point","coordinates":[-77.1963703,38.8303905]}},{"properties":{"city":"Annandale","closings":0.0,"zip":"22003","last name":"Rada","geo_score":0.857,"office name":"Fairfax Realty, Inc.","id":"a67x56ea5azo","geo_precision":"zip","first name":"Wilfredo"},"type":"Feature","geometry":{"type":"Point","coordinates":[-77.1963703,38.8303905]}},{"properties":{"city":"Annandale","closings":0.0,"zip":"22003","last name":"Shamim","geo_score":0.857,"office name":"Fairfax Realty, Inc.","id":"a67x56q37jne","geo_precision":"zip","first name":"Mohammad"},"type":"Feature","geometry":{"type":"Point","coordinates":[-77.1963703,38.8303905]}},{"properties":{"city":"Annandale","closings":0.0,"zip":"22003","last name":"Sheldon","geo_score":0.857,"office name":"Fairfax Realty, Inc.","id":"a67x56s3rh0q","geo_precision":"zip","first name":"Norman"},"type":"Feature","geometry":{"type":"Point","coordinates":[-77.1963703,38.8303905]}},{"properties":{"city":"Annandale","closings":0.0,"zip":"22003","last name":"McCulloch","geo_score":0.857,"office name":"Fairfax Realty, Inc.","id":"a67x56kmhylc","geo_precision":"zip","first name":"James"},"type":"Feature","geometry":{"type":"Point","coordinates":[-77.1963703,38.8303905]}},{"properties":{"city":"Annandale","closings":0.0,"zip":"22003","last name":"Rifareal","geo_score":0.857,"office name":"Fairfax Realty, Inc.","id":"a67x56hkhnow","geo_precision":"zip","first name":"Lilian"},"type":"Feature","geometry":{"type":"Point","coordinates":[-77.1963703,38.8303905]}},{"properties":{"city":"Annandale","closings":0.0,"zip":"22003","last name":"Osipchak","geo_score":0.857,"office name":"Fairfax Realty, Inc.","id":"a67x56oohpdf","geo_precision":"zip","first name":"John"},"type":"Feature","geometry":{"type":"Point","coordinates":[-77.1963703,38.8303905]}},{"properties":{"city":"Annandale","closings":0.0,"zip":"22003","last name":"Mazhar","geo_score":0.857,"office name":"Fairfax Realty, Inc.","id":"a67x56h1ol3t","geo_precision":"zip","first name":"Syed"},"type":"Feature","geometry":{"type":"Point","coordinates":[-77.1963703,38.8303905]}},{"properties":{"city":"Annandale","closings":0.0,"zip":"22003","last name":"Batra","geo_score":0.857,"office name":"Fairfax Realty, Inc.","id":"a67x56ppmfua","geo_precision":"zip","first name":"Khem"},"type":"Feature","geometry":{"type":"Point","coordinates":[-77.1963703,38.8303905]}},{"properties":{"city":"Annandale","closings":0.0,"zip":"22003","last name":"Fields","geo_score":0.857,"office name":"Fairfax Realty, Inc.","id":"a67x56hbpim9","geo_precision":"zip","first name":"Iesha"},"type":"Feature","geometry":{"type":"Point","coordinates":[-77.1963703,38.8303905]}},{"properties":{"city":"Annandale","closings":0.0,"zip":"22003","last name":"Landrau","geo_score":0.857,"office name":"Fairfax Realty, Inc.","id":"a67x56m2pdbt","geo_precision":"zip","first name":"Rafael"},"type":"Feature","geometry":{"type":"Point","coordinates":[-77.1963703,38.8303905]}},{"properties":{"city":"Annandale","closings":0.0,"zip":"22003","last name":"Keophanboua","geo_score":0.857,"office name":"Fairfax Realty, Inc.","id":"a67x56czu4xz","geo_precision":"zip","first name":"Vannarith"},"type":"Feature","geometry":{"type":"Point","coordinates":[-77.1963703,38.8303905]}},{"properties":{"city":"Annandale","closings":0.0,"zip":"22003","last name":"Pardo","geo_score":0.857,"office name":"Fairfax Realty, Inc.","id":"a67x56p0z3a4","geo_precision":"zip","first name":"Richard"},"type":"Feature","geometry":{"type":"Point","coordinates":[-77.1963703,38.8303905]}},{"properties":{"city":"Annandale","closings":0.0,"zip":"22003","last name":"Mounkhaty","geo_score":0.857,"office name":"Fairfax Realty, Inc.","id":"a67x56nci23w","geo_precision":"zip","first name":"Phonvong"},"type":"Feature","geometry":{"type":"Point","coordinates":[-77.1963703,38.8303905]}},{"properties":{"city":"Annandale","closings":0.0,"zip":"22003","last name":"Esguerra","geo_score":0.857,"office name":"Fairfax Realty, Inc.","id":"a67x56igkb5k","geo_precision":"zip","first name":"Cielindo"},"type":"Feature","geometry":{"type":"Point","coordinates":[-77.1963703,38.8303905]}},{"properties":{"city":"Annandale","closings":0.0,"zip":"22003","last name":"Anderson","geo_score":0.857,"office name":"Fairfax Realty, Inc.","id":"a67x56hna0r9","geo_precision":"zip","first name":"Yuriko"},"type":"Feature","geometry":{"type":"Point","coordinates":[-77.1963703,38.8303905]}},{"properties":{"city":"Annandale","closings":0.0,"zip":"22003","last name":"Hark","geo_score":0.857,"office name":"Fairfax Realty, Inc.","id":"a67x56fxtx6e","geo_precision":"zip","first name":"Suki"},"type":"Feature","geometry":{"type":"Point","coordinates":[-77.1963703,38.8303905]}},{"properties":{"city":"Annandale","closings":0.0,"zip":"22003","last name":"Fair","geo_score":0.857,"office name":"Fairfax Realty, Inc.","id":"a67x56psqges","geo_precision":"zip","first name":"Willie"},"type":"Feature","geometry":{"type":"Point","coordinates":[-77.1963703,38.8303905]}},{"properties":{"city":"Annandale","closings":0.0,"zip":"22003","last name":"Connelly","geo_score":0.857,"office name":"Fairfax Realty, Inc.","id":"a67x56rox6a7","geo_precision":"zip","first name":"Kevin"},"type":"Feature","geometry":{"type":"Point","coordinates":[-77.1963703,38.8303905]}},{"properties":{"city":"Annandale","closings":0.0,"zip":"22003","last name":"Hairston","geo_score":0.857,"office name":"Fairfax Realty, Inc.","id":"a67x56fn4nfq","geo_precision":"zip","first name":"Michael"},"type":"Feature","geometry":{"type":"Point","coordinates":[-77.1963703,38.8303905]}},{"properties":{"city":"Annandale","closings":0.0,"zip":"22003","last name":"Maldonado","geo_score":0.857,"office name":"Fairfax Realty, Inc.","id":"a67x56owgsv4","geo_precision":"zip","first name":"Gualberto"},"type":"Feature","geometry":{"type":"Point","coordinates":[-77.1963703,38.8303905]}},{"properties":{"city":"Annandale","closings":0.0,"zip":"22003","last name":"Giunta","geo_score":0.857,"office name":"Fairfax Realty, Inc.","id":"a67x56r0cm1n","geo_precision":"zip","first name":"Marie"},"type":"Feature","geometry":{"type":"Point","coordinates":[-77.1963703,38.8303905]}},{"properties":{"city":"Annandale","closings":0.0,"zip":"22003","last name":"Gary","geo_score":0.857,"office name":"Fairfax Realty, Inc.","id":"a67x56lx9y0u","geo_precision":"zip","first name":"Ronald"},"type":"Feature","geometry":{"type":"Point","coordinates":[-77.1963703,38.8303905]}},{"properties":{"city":"Annandale","closings":0.0,"zip":"22003","last name":"Samuel","geo_score":0.857,"office name":"Fairfax Realty, Inc.","id":"a67x56lu3ued","geo_precision":"zip","first name":"Lawrence"},"type":"Feature","geometry":{"type":"Point","coordinates":[-77.1963703,38.8303905]}},{"properties":{"city":"Annandale","closings":0.0,"zip":"22003","last name":"Ibanez","geo_score":0.857,"office name":"Fairfax Realty, Inc.","id":"a67x56hpafke","geo_precision":"zip","first name":"Gonzalo"},"type":"Feature","geometry":{"type":"Point","coordinates":[-77.1963703,38.8303905]}},{"properties":{"city":"Annandale","closings":0.0,"zip":"22003","last name":"Connelly","geo_score":0.857,"office name":"Fairfax Realty, Inc.","id":"a67x56d5y3mt","geo_precision":"zip","first name":"Claudette"},"type":"Feature","geometry":{"type":"Point","coordinates":[-77.1963703,38.8303905]}},{"properties":{"city":"Annandale","closings":0.0,"zip":"22003","last name":"Park","geo_score":0.857,"office name":"Fairfax Realty, Inc.","id":"a67x56dhropl","geo_precision":"zip","first name":"Esther"},"type":"Feature","geometry":{"type":"Point","coordinates":[-77.1963703,38.8303905]}},{"properties":{"city":"Annandale","closings":0.0,"zip":"22003","last name":"McKee","geo_score":0.857,"office name":"Fairfax Realty, Inc.","id":"a67x56s6z34v","geo_precision":"zip","first name":"Myrna"},"type":"Feature","geometry":{"type":"Point","coordinates":[-77.1963703,38.8303905]}},{"properties":{"city":"Annandale","closings":0.0,"zip":"22003","last name":"Robertson","geo_score":0.857,"office name":"Fairfax Realty, Inc.","id":"a67x56hbum49","geo_precision":"zip","first name":"David"},"type":"Feature","geometry":{"type":"Point","coordinates":[-77.1963703,38.8303905]}},{"properties":{"city":"Annandale","closings":0.0,"zip":"22003","last name":"Moore","geo_score":0.857,"office name":"Fairfax Realty, Inc.","id":"a67x56o9pai2","geo_precision":"zip","first name":"Steven"},"type":"Feature","geometry":{"type":"Point","coordinates":[-77.1963703,38.8303905]}},{"properties":{"city":"Annandale","closings":0.0,"zip":"22003","last name":"Le","geo_score":0.857,"office name":"Fairfax Realty, Inc.","id":"a67x56d4k9tq","geo_precision":"zip","first name":"Tri"},"type":"Feature","geometry":{"type":"Point","coordinates":[-77.1963703,38.8303905]}},{"properties":{"city":"Annandale","closings":0.0,"zip":"22003","last name":"Charles","geo_score":0.857,"office name":"Fairfax Realty, Inc.","id":"a67x56fobbp3","geo_precision":"zip","first name":"Anatu"},"type":"Feature","geometry":{"type":"Point","coordinates":[-77.1963703,38.8303905]}},{"properties":{"city":"Annandale","closings":0.0,"zip":"22003","last name":"Dorsey","geo_score":0.857,"office name":"Fairfax Realty, Inc.","id":"a67x56j53pi9","geo_precision":"zip","first name":"Janney"},"type":"Feature","geometry":{"type":"Point","coordinates":[-77.1963703,38.8303905]}},{"properties":{"city":"Annandale","closings":0.0,"zip":"22003","last name":"Khaing","geo_score":0.857,"office name":"Fairfax Realty, Inc.","id":"a67x56rvf734","geo_precision":"zip","first name":"Myat"},"type":"Feature","geometry":{"type":"Point","coordinates":[-77.1963703,38.8303905]}},{"properties":{"city":"Annandale","closings":0.0,"zip":"22003","last name":"Ashour","geo_score":0.857,"office name":"Fairfax Realty, Inc.","id":"a67x56crrgap","geo_precision":"zip","first name":"Mahmoud"},"type":"Feature","geometry":{"type":"Point","coordinates":[-77.1963703,38.8303905]}},{"properties":{"city":"Annandale","closings":0.0,"zip":"22003","last name":"Wright","geo_score":0.857,"office name":"Fairfax Realty, Inc.","id":"a67x56eom6k9","geo_precision":"zip","first name":"Dorothy"},"type":"Feature","geometry":{"type":"Point","coordinates":[-77.1963703,38.8303905]}},{"properties":{"city":"Annandale","closings":0.0,"zip":"22003","last name":"Gebreyes","geo_score":0.857,"office name":"Fairfax Realty, Inc.","id":"a67x56elhm2u","geo_precision":"zip","first name":"Teodros"},"type":"Feature","geometry":{"type":"Point","coordinates":[-77.1963703,38.8303905]}},{"properties":{"city":"Annandale","closings":0.0,"zip":"22003","last name":"Vaanjilnorov","geo_score":0.857,"office name":"Fairfax Realty, Inc.","id":"a67x56jtmt97","geo_precision":"zip","first name":"Achmaa"},"type":"Feature","geometry":{"type":"Point","coordinates":[-77.1963703,38.8303905]}},{"properties":{"city":"Annandale","closings":0.0,"zip":"22003","last name":"Brock","geo_score":0.857,"office name":"Fairfax Realty, Inc.","id":"a67x56hi7ok8","geo_precision":"zip","first name":"Stanley"},"type":"Feature","geometry":{"type":"Point","coordinates":[-77.1963703,38.8303905]}},{"properties":{"city":"Annandale","closings":0.0,"zip":"22003","last name":"Coquia","geo_score":0.857,"office name":"Fairfax Realty, Inc.","id":"a67x56qcqjb5","geo_precision":"zip","first name":"Florencio"},"type":"Feature","geometry":{"type":"Point","coordinates":[-77.1963703,38.8303905]}},{"properties":{"city":"Annandale","closings":0.0,"zip":"22003","last name":"Aksoylu","geo_score":0.857,"office name":"Fairfax Realty, Inc.","id":"a67x56q8422x","geo_precision":"zip","first name":"Won"},"type":"Feature","geometry":{"type":"Point","coordinates":[-77.1963703,38.8303905]}},{"properties":{"city":"Annandale","closings":0.0,"zip":"22003","last name":"Dickerson","geo_score":0.857,"office name":"Fairfax Realty, Inc.","id":"a67x56k81xu8","geo_precision":"zip","first name":"Minnie"},"type":"Feature","geometry":{"type":"Point","coordinates":[-77.1963703,38.8303905]}},{"properties":{"city":"Annandale","closings":0.0,"zip":"22003","last name":"Toor","geo_score":0.857,"office name":"Fairfax Realty, Inc.","id":"a67x56c45tfb","geo_precision":"zip","first name":"Kiran"},"type":"Feature","geometry":{"type":"Point","coordinates":[-77.1963703,38.8303905]}},{"properties":{"city":"Annandale","closings":0.0,"zip":"22003","last name":"Hacker","geo_score":0.857,"office name":"Fairfax Realty, Inc.","id":"a67x56cuctum","geo_precision":"zip","first name":"Sue"},"type":"Feature","geometry":{"type":"Point","coordinates":[-77.1963703,38.8303905]}},{"properties":{"city":"Annandale","closings":0.0,"zip":"22003","last name":"Smith","geo_score":0.857,"office name":"Fairfax Realty, Inc.","id":"a67x56d41mna","geo_precision":"zip","first name":"Brandon"},"type":"Feature","geometry":{"type":"Point","coordinates":[-77.1963703,38.8303905]}},{"properties":{"city":"Annandale","closings":0.0,"zip":"22003","last name":"Hacker","geo_score":0.857,"office name":"Fairfax Realty, Inc.","id":"a67x56ofta1u","geo_precision":"zip","first name":"Fred"},"type":"Feature","geometry":{"type":"Point","coordinates":[-77.1963703,38.8303905]}},{"properties":{"city":"Annandale","closings":0.0,"zip":"22003","last name":"Ngo","geo_score":0.857,"office name":"Fairfax Realty, Inc.","id":"a67x56qety6n","geo_precision":"zip","first name":"Thanh"},"type":"Feature","geometry":{"type":"Point","coordinates":[-77.1963703,38.8303905]}},{"properties":{"city":"Annandale","closings":0.0,"zip":"22003","last name":"Martin","geo_score":0.857,"office name":"Fairfax Realty, Inc.","id":"a67x56cbp4p3","geo_precision":"zip","first name":"Beverley"},"type":"Feature","geometry":{"type":"Point","coordinates":[-77.1963703,38.8303905]}},{"properties":{"city":"Annandale","closings":0.0,"zip":"22003","last name":"Western","geo_score":0.857,"office name":"Fairfax Realty, Inc.","id":"a67x56jy70qj","geo_precision":"zip","first name":"Dan"},"type":"Feature","geometry":{"type":"Point","coordinates":[-77.1963703,38.8303905]}},{"properties":{"city":"Annandale","closings":0.0,"zip":"22003","last name":"Housholder","geo_score":0.857,"office name":"Fairfax Realty, Inc.","id":"a67x56dw9mbt","geo_precision":"zip","first name":"Charles"},"type":"Feature","geometry":{"type":"Point","coordinates":[-77.1963703,38.8303905]}},{"properties":{"city":"Annandale","closings":0.0,"zip":"22003","last name":"Hosseini","geo_score":0.857,"office name":"Fairfax Realty, Inc.","id":"a67x56icr7ym","geo_precision":"zip","first name":"Seyed"},"type":"Feature","geometry":{"type":"Point","coordinates":[-77.1963703,38.8303905]}},{"properties":{"city":"Annandale","closings":0.0,"zip":"22003","last name":"Arbes","geo_score":0.857,"office name":"Fairfax Realty, Inc.","id":"a67x56cs4ukw","geo_precision":"zip","first name":"Carl"},"type":"Feature","geometry":{"type":"Point","coordinates":[-77.1963703,38.8303905]}},{"properties":{"city":"Annandale","closings":0.0,"zip":"22003","last name":"Wilcox","geo_score":0.857,"office name":"Fairfax Realty, Inc.","id":"a67x56k1v4yu","geo_precision":"zip","first name":"Richard"},"type":"Feature","geometry":{"type":"Point","coordinates":[-77.1963703,38.8303905]}},{"properties":{"city":"Annandale","closings":0.0,"zip":"22003","last name":"Wigglesworth","geo_score":0.857,"office name":"Fairfax Realty, Inc.","id":"a67x56dsi3a6","geo_precision":"zip","first name":"Shirley"},"type":"Feature","geometry":{"type":"Point","coordinates":[-77.1963703,38.8303905]}},{"properties":{"city":"Annandale","closings":0.0,"zip":"22003","last name":"Strobach","geo_score":0.857,"office name":"Fairfax Realty, Inc.","id":"a67x56r08uxi","geo_precision":"zip","first name":"Soraya"},"type":"Feature","geometry":{"type":"Point","coordinates":[-77.1963703,38.8303905]}},{"properties":{"city":"Annandale","closings":0.0,"zip":"22003","last name":"Mourad","geo_score":0.857,"office name":"Fairfax Realty, Inc.","id":"a67x56flnb2d","geo_precision":"zip","first name":"Michael"},"type":"Feature","geometry":{"type":"Point","coordinates":[-77.1963703,38.8303905]}},{"properties":{"city":"Annandale","closings":0.0,"zip":"22003","last name":"Pepper","geo_score":0.857,"office name":"Fairfax Realty, Inc.","id":"a67x56ojok58","geo_precision":"zip","first name":"Minnie"},"type":"Feature","geometry":{"type":"Point","coordinates":[-77.1963703,38.8303905]}},{"properties":{"city":"Annandale","closings":0.0,"zip":"22003","last name":"Baah-Dwomoh","geo_score":0.857,"office name":"Fairfax Realty, Inc.","id":"a67x56gzda1u","geo_precision":"zip","first name":"Georgina"},"type":"Feature","geometry":{"type":"Point","coordinates":[-77.1963703,38.8303905]}},{"properties":{"city":"Annandale","closings":0.0,"zip":"22003","last name":"Ghareeb","geo_score":0.857,"office name":"Fairfax Realty, Inc.","id":"a67x56iqxbpg","geo_precision":"zip","first name":"Fauzy"},"type":"Feature","geometry":{"type":"Point","coordinates":[-77.1963703,38.8303905]}},{"properties":{"city":"Annandale","closings":0.0,"zip":"22003","last name":"Puri","geo_score":0.857,"office name":"Fairfax Realty, Inc.","id":"a67x56f29ioj","geo_precision":"zip","first name":"Surjit"},"type":"Feature","geometry":{"type":"Point","coordinates":[-77.1963703,38.8303905]}},{"properties":{"city":"Annandale","closings":0.0,"zip":"22003","last name":"Le","geo_score":0.857,"office name":"Fairfax Realty, Inc.","id":"a67x56eqhy4m","geo_precision":"zip","first name":"Tri"},"type":"Feature","geometry":{"type":"Point","coordinates":[-77.1963703,38.8303905]}},{"properties":{"city":"Annandale","closings":0.0,"zip":"22003","last name":"Rodriguez","geo_score":0.857,"office name":"Fairfax Realty, Inc.","id":"a67x56iz0xgq","geo_precision":"zip","first name":"Walter"},"type":"Feature","geometry":{"type":"Point","coordinates":[-77.1963703,38.8303905]}},{"properties":{"city":"Annandale","closings":0.0,"zip":"22003","last name":"Dangler","geo_score":0.857,"office name":"Fairfax Realty, Inc.","id":"a67x56ckv7c8","geo_precision":"zip","first name":"Christina"},"type":"Feature","geometry":{"type":"Point","coordinates":[-77.1963703,38.8303905]}},{"properties":{"city":"Annandale","closings":0.0,"zip":"22003","last name":"Rivera","geo_score":0.857,"office name":"Fairfax Realty, Inc.","id":"a67x56c44jt3","geo_precision":"zip","first name":"Roberto"},"type":"Feature","geometry":{"type":"Point","coordinates":[-77.1963703,38.8303905]}},{"properties":{"city":"Annandale","closings":0.0,"zip":"22003","last name":"zapf","geo_score":0.857,"office name":"Fairfax Realty, Inc.","id":"a67x56m4bxi2","geo_precision":"zip","first name":"kevin"},"type":"Feature","geometry":{"type":"Point","coordinates":[-77.1963703,38.8303905]}},{"properties":{"city":"Annandale","closings":0.0,"zip":"22003","last name":"Duttine","geo_score":0.857,"office name":"Fairfax Realty, Inc.","id":"a67x56cyh5p1","geo_precision":"zip","first name":"Carolyn"},"type":"Feature","geometry":{"type":"Point","coordinates":[-77.1963703,38.8303905]}},{"properties":{"city":"Annandale","closings":0.0,"zip":"22003","last name":"PARRA","geo_score":0.857,"office name":"Fairfax Realty, Inc.","id":"a67x56pn8svf","geo_precision":"zip","first name":"DIEGO"},"type":"Feature","geometry":{"type":"Point","coordinates":[-77.1963703,38.8303905]}},{"properties":{"city":"Annandale","closings":0.0,"zip":"22003","last name":"Sohrab","geo_score":0.857,"office name":"Fairfax Realty, Inc.","id":"a67x56l7pi2e","geo_precision":"zip","first name":"Shaista"},"type":"Feature","geometry":{"type":"Point","coordinates":[-77.1963703,38.8303905]}},{"properties":{"city":"Annandale","closings":0.0,"zip":"22003","last name":"Espiritu","geo_score":0.857,"office name":"Fairfax Realty, Inc.","id":"a67x56gek0s3","geo_precision":"zip","first name":"Felixberto"},"type":"Feature","geometry":{"type":"Point","coordinates":[-77.1963703,38.8303905]}},{"properties":{"city":"Annandale","closings":0.0,"zip":"22003","last name":"Neissani","geo_score":0.857,"office name":"Fairfax Realty, Inc.","id":"a67x56mp4xh1","geo_precision":"zip","first name":"Sanaz"},"type":"Feature","geometry":{"type":"Point","coordinates":[-77.1963703,38.8303905]}},{"properties":{"city":"Annandale","closings":0.0,"zip":"22003","last name":"Rush","geo_score":0.857,"office name":"Fairfax Realty, Inc.","id":"a67x56rmhzw4","geo_precision":"zip","first name":"Rebecca"},"type":"Feature","geometry":{"type":"Point","coordinates":[-77.1963703,38.8303905]}},{"properties":{"city":"Annandale","closings":0.0,"zip":"22003","last name":"Ho","geo_score":0.857,"office name":"Fairfax Realty, Inc.","id":"a67x56sd1qjn","geo_precision":"zip","first name":"Roberto"},"type":"Feature","geometry":{"type":"Point","coordinates":[-77.1963703,38.8303905]}},{"properties":{"city":"Annandale","closings":0.0,"zip":"22003","last name":"Aziz","geo_score":0.857,"office name":"Fairfax Realty, Inc.","id":"a67x56mwdze1","geo_precision":"zip","first name":"Syed"},"type":"Feature","geometry":{"type":"Point","coordinates":[-77.1963703,38.8303905]}},{"properties":{"city":"Annandale","closings":0.0,"zip":"22003","last name":"Awan","geo_score":0.857,"office name":"Fairfax Realty, Inc.","id":"a67x56kxdurd","geo_precision":"zip","first name":"Imran"},"type":"Feature","geometry":{"type":"Point","coordinates":[-77.1963703,38.8303905]}},{"properties":{"city":"Annandale","closings":0.0,"zip":"22003","last name":"Gamboa","geo_score":0.857,"office name":"Fairfax Realty, Inc.","id":"a67x56cyeql7","geo_precision":"zip","first name":"Enrique"},"type":"Feature","geometry":{"type":"Point","coordinates":[-77.1963703,38.8303905]}},{"properties":{"city":"Annandale","closings":0.0,"zip":"22003","last name":"Sobhi","geo_score":0.857,"office name":"Fairfax Realty, Inc.","id":"a67x56nde5a3","geo_precision":"zip","first name":"Michael"},"type":"Feature","geometry":{"type":"Point","coordinates":[-77.1963703,38.8303905]}},{"properties":{"city":"Annandale","closings":0.0,"zip":"22003","last name":"Dizon","geo_score":0.857,"office name":"Fairfax Realty, Inc.","id":"a67x56hz6m2b","geo_precision":"zip","first name":"Francisca"},"type":"Feature","geometry":{"type":"Point","coordinates":[-77.1963703,38.8303905]}},{"properties":{"city":"Annandale","closings":0.0,"zip":"22003","last name":"Pham","geo_score":0.857,"office name":"Fairfax Realty, Inc.","id":"a67x56j5cppv","geo_precision":"zip","first name":"Phi-Phung"},"type":"Feature","geometry":{"type":"Point","coordinates":[-77.1963703,38.8303905]}},{"properties":{"city":"Annandale","closings":0.0,"zip":"22003","last name":"Bhattarai","geo_score":0.857,"office name":"Fairfax Realty, Inc.","id":"a67x56echzev","geo_precision":"zip","first name":"Rabindra"},"type":"Feature","geometry":{"type":"Point","coordinates":[-77.1963703,38.8303905]}},{"properties":{"city":"Annandale","closings":0.0,"zip":"22003","last name":"Fulton","geo_score":0.857,"office name":"Fairfax Realty, Inc.","id":"a67x56k4o658","geo_precision":"zip","first name":"Christopher"},"type":"Feature","geometry":{"type":"Point","coordinates":[-77.1963703,38.8303905]}},{"properties":{"city":"Annandale","closings":0.0,"zip":"22003","last name":"ALISUAG","geo_score":0.857,"office name":"Fairfax Realty, Inc.","id":"a67x56itluoq","geo_precision":"zip","first name":"ALBERTO"},"type":"Feature","geometry":{"type":"Point","coordinates":[-77.1963703,38.8303905]}},{"properties":{"city":"Annandale","closings":0.0,"zip":"22003","last name":"Zand","geo_score":0.857,"office name":"Fairfax Realty, Inc.","id":"a67x56kamta0","geo_precision":"zip","first name":"Kambiz"},"type":"Feature","geometry":{"type":"Point","coordinates":[-77.1963703,38.8303905]}},{"properties":{"city":"Annandale","closings":0.0,"zip":"22003","last name":"Kafafian","geo_score":0.857,"office name":"Fairfax Realty, Inc.","id":"a67x56dhtdxc","geo_precision":"zip","first name":"Kimberly"},"type":"Feature","geometry":{"type":"Point","coordinates":[-77.1963703,38.8303905]}},{"properties":{"city":"Annandale","closings":0.0,"zip":"22003","last name":"Rahman","geo_score":0.857,"office name":"Fairfax Realty, Inc.","id":"a67x56fqggvm","geo_precision":"zip","first name":"Merina"},"type":"Feature","geometry":{"type":"Point","coordinates":[-77.1963703,38.8303905]}},{"properties":{"city":"Annandale","closings":0.0,"zip":"22003","last name":"Kuhn","geo_score":0.857,"office name":"Fairfax Realty, Inc.","id":"a67x56cf5g0i","geo_precision":"zip","first name":"Robert"},"type":"Feature","geometry":{"type":"Point","coordinates":[-77.1963703,38.8303905]}},{"properties":{"city":"Annandale","closings":0.0,"zip":"22003","last name":"Burgess","geo_score":0.857,"office name":"Fairfax Realty, Inc.","id":"a67x56jcgez9","geo_precision":"zip","first name":"Evelina"},"type":"Feature","geometry":{"type":"Point","coordinates":[-77.1963703,38.8303905]}},{"properties":{"city":"Annandale","closings":0.0,"zip":"22003","last name":"Sakkab","geo_score":0.857,"office name":"Fairfax Realty, Inc.","id":"a67x56r3ykp4","geo_precision":"zip","first name":"Nabil"},"type":"Feature","geometry":{"type":"Point","coordinates":[-77.1963703,38.8303905]}},{"properties":{"city":"Annandale","closings":0.0,"zip":"22003","last name":"Ramthun","geo_score":0.857,"office name":"Fairfax Realty, Inc.","id":"a67x56qju2n6","geo_precision":"zip","first name":"Chad"},"type":"Feature","geometry":{"type":"Point","coordinates":[-77.1963703,38.8303905]}},{"properties":{"city":"Annandale","closings":0.0,"zip":"22003","last name":"Pagdanganan","geo_score":0.857,"office name":"Fairfax Realty, Inc.","id":"a67x56hrgo9n","geo_precision":"zip","first name":"Lynette"},"type":"Feature","geometry":{"type":"Point","coordinates":[-77.1963703,38.8303905]}},{"properties":{"city":"Annandale","closings":0.0,"zip":"22003","last name":"Lopez","geo_score":0.857,"office name":"Fairfax Realty, Inc.","id":"a67x56nep2f1","geo_precision":"zip","first name":"Jessica"},"type":"Feature","geometry":{"type":"Point","coordinates":[-77.1963703,38.8303905]}},{"properties":{"city":"Annandale","closings":0.0,"zip":"22003","last name":"Gebru","geo_score":0.857,"office name":"Fairfax Realty, Inc.","id":"a67x56ldec0l","geo_precision":"zip","first name":"Yemane"},"type":"Feature","geometry":{"type":"Point","coordinates":[-77.1963703,38.8303905]}},{"properties":{"city":"Annandale","closings":0.0,"zip":"22003","last name":"SINGH","geo_score":0.857,"office name":"Fairfax Realty, Inc.","id":"a67x56cka4s9","geo_precision":"zip","first name":"DAMANJIT"},"type":"Feature","geometry":{"type":"Point","coordinates":[-77.1963703,38.8303905]}},{"properties":{"city":"Annandale","closings":0.0,"zip":"22003","last name":"Chapman","geo_score":0.857,"office name":"Fairfax Realty, Inc.","id":"a67x56hztiiz","geo_precision":"zip","first name":"Sherrie"},"type":"Feature","geometry":{"type":"Point","coordinates":[-77.1963703,38.8303905]}},{"properties":{"city":"Annandale","closings":0.0,"zip":"22003","last name":"Noel","geo_score":0.857,"office name":"Fairfax Realty, Inc.","id":"a67x56hh2nh0","geo_precision":"zip","first name":"Candace"},"type":"Feature","geometry":{"type":"Point","coordinates":[-77.1963703,38.8303905]}},{"properties":{"city":"Annandale","closings":0.0,"zip":"22003","last name":"Moore","geo_score":0.857,"office name":"Fairfax Realty, Inc.","id":"a67x56p6h8ts","geo_precision":"zip","first name":"Gary"},"type":"Feature","geometry":{"type":"Point","coordinates":[-77.1963703,38.8303905]}},{"properties":{"city":"Annandale","closings":0.0,"zip":"22003","last name":"Smith","geo_score":0.857,"office name":"Fairfax Realty, Inc.","id":"a67x56j9lfn3","geo_precision":"zip","first name":"Michael"},"type":"Feature","geometry":{"type":"Point","coordinates":[-77.1963703,38.8303905]}},{"properties":{"city":"Annandale","closings":0.0,"zip":"22003","last name":"Joseph","geo_score":0.857,"office name":"Fairfax Realty, Inc.","id":"a67x56pvx1a6","geo_precision":"zip","first name":"Selwyn"},"type":"Feature","geometry":{"type":"Point","coordinates":[-77.1963703,38.8303905]}},{"properties":{"city":"Annandale","closings":0.0,"zip":"22003","last name":"Azizi","geo_score":0.857,"office name":"Fairfax Realty, Inc.","id":"a67x56psdgep","geo_precision":"zip","first name":"Faiz"},"type":"Feature","geometry":{"type":"Point","coordinates":[-77.1963703,38.8303905]}},{"properties":{"city":"Annandale","closings":0.0,"zip":"22003","last name":"Dhramapitaksook","geo_score":0.857,"office name":"Fairfax Realty, Inc.","id":"a67x56hlau9e","geo_precision":"zip","first name":"Sombat"},"type":"Feature","geometry":{"type":"Point","coordinates":[-77.1963703,38.8303905]}},{"properties":{"city":"Annandale","closings":0.0,"zip":"22003","last name":"Riddlemoser","geo_score":0.857,"office name":"Fairfax Realty, Inc.","id":"a67x56nl6crd","geo_precision":"zip","first name":"Michael"},"type":"Feature","geometry":{"type":"Point","coordinates":[-77.1963703,38.8303905]}},{"properties":{"city":"Annandale","closings":0.0,"zip":"22003","last name":"Lawson","geo_score":0.857,"office name":"Fairfax Realty, Inc.","id":"a67x56q5ff20","geo_precision":"zip","first name":"Eric"},"type":"Feature","geometry":{"type":"Point","coordinates":[-77.1963703,38.8303905]}},{"properties":{"city":"Annandale","closings":0.0,"zip":"22003","last name":"Saltzman","geo_score":0.857,"office name":"Fairfax Realty, Inc.","id":"a67x56klmbnm","geo_precision":"zip","first name":"Stuart"},"type":"Feature","geometry":{"type":"Point","coordinates":[-77.1963703,38.8303905]}},{"properties":{"city":"Annandale","closings":0.0,"zip":"22003","last name":"Cornejo","geo_score":0.857,"office name":"Fairfax Realty, Inc.","id":"a67x56emibp1","geo_precision":"zip","first name":"Ana"},"type":"Feature","geometry":{"type":"Point","coordinates":[-77.1963703,38.8303905]}},{"properties":{"city":"Annandale","closings":0.0,"zip":"22003","last name":"Sarbaz","geo_score":0.857,"office name":"Fairfax Realty, Inc.","id":"a67x56j9xvpw","geo_precision":"zip","first name":"Mike"},"type":"Feature","geometry":{"type":"Point","coordinates":[-77.1963703,38.8303905]}},{"properties":{"city":"Annandale","closings":0.0,"zip":"22003","last name":"Torres Garcia","geo_score":0.857,"office name":"Fairfax Realty, Inc.","id":"a67x56phb8s9","geo_precision":"zip","first name":"Amilcar"},"type":"Feature","geometry":{"type":"Point","coordinates":[-77.1963703,38.8303905]}},{"properties":{"city":"Annandale","closings":0.0,"zip":"22003","last name":"Clawes","geo_score":0.857,"office name":"Fairfax Realty, Inc.","id":"a67x56h18ydi","geo_precision":"zip","first name":"Jennifer"},"type":"Feature","geometry":{"type":"Point","coordinates":[-77.1963703,38.8303905]}},{"properties":{"city":"Annandale","closings":0.0,"zip":"22003","last name":"Lewis","geo_score":0.857,"office name":"Fairfax Realty, Inc.","id":"a67x56ffhiw1","geo_precision":"zip","first name":"Ernest"},"type":"Feature","geometry":{"type":"Point","coordinates":[-77.1963703,38.8303905]}},{"properties":{"city":"Annandale","closings":0.0,"zip":"22003","last name":"Kassir","geo_score":0.857,"office name":"Fairfax Realty, Inc.","id":"a67x56hccned","geo_precision":"zip","first name":"David"},"type":"Feature","geometry":{"type":"Point","coordinates":[-77.1963703,38.8303905]}},{"properties":{"city":"Annandale","closings":0.0,"zip":"22003","last name":"Chaudhry","geo_score":0.857,"office name":"Fairfax Realty, Inc.","id":"a67x56qvbgtf","geo_precision":"zip","first name":"Zafar"},"type":"Feature","geometry":{"type":"Point","coordinates":[-77.1963703,38.8303905]}},{"properties":{"city":"Annandale","closings":0.0,"zip":"22003","last name":"Masood","geo_score":0.857,"office name":"Fairfax Realty, Inc.","id":"a67x56mn7czg","geo_precision":"zip","first name":"Ahmar"},"type":"Feature","geometry":{"type":"Point","coordinates":[-77.1963703,38.8303905]}},{"properties":{"city":"Annandale","closings":0.0,"zip":"22003","last name":"Sanchez","geo_score":0.857,"office name":"Fairfax Realty, Inc.","id":"a67x56mijtvw","geo_precision":"zip","first name":"Erika"},"type":"Feature","geometry":{"type":"Point","coordinates":[-77.1963703,38.8303905]}},{"properties":{"city":"Annandale","closings":0.0,"zip":"22003","last name":"Ely","geo_score":0.857,"office name":"Fairfax Realty, Inc.","id":"a67x56joq3uz","geo_precision":"zip","first name":"Clausen"},"type":"Feature","geometry":{"type":"Point","coordinates":[-77.1963703,38.8303905]}},{"properties":{"city":"Annandale","closings":0.0,"zip":"22003","last name":"Cadavis","geo_score":0.857,"office name":"Fairfax Realty, Inc.","id":"a67x56kickde","geo_precision":"zip","first name":"Manolito"},"type":"Feature","geometry":{"type":"Point","coordinates":[-77.1963703,38.8303905]}},{"properties":{"city":"Annandale","closings":0.0,"zip":"22003","last name":"Sohn","geo_score":0.857,"office name":"Fairfax Realty, Inc.","id":"a67x56qxq8go","geo_precision":"zip","first name":"Kristen"},"type":"Feature","geometry":{"type":"Point","coordinates":[-77.1963703,38.8303905]}},{"properties":{"city":"Annandale","closings":0.0,"zip":"22003","last name":"Tan","geo_score":0.857,"office name":"Fairfax Realty, Inc.","id":"a67x56p63xec","geo_precision":"zip","first name":"Daniel"},"type":"Feature","geometry":{"type":"Point","coordinates":[-77.1963703,38.8303905]}},{"properties":{"city":"Annandale","closings":0.0,"zip":"22003","last name":"Bryan","geo_score":0.857,"office name":"Fairfax Realty, Inc.","id":"a67x56hmo4px","geo_precision":"zip","first name":"Nicole"},"type":"Feature","geometry":{"type":"Point","coordinates":[-77.1963703,38.8303905]}},{"properties":{"city":"Annandale","closings":0.0,"zip":"22003","last name":"Welch","geo_score":0.857,"office name":"Fairfax Realty, Inc.","id":"a67x56kzfvow","geo_precision":"zip","first name":"Wayne"},"type":"Feature","geometry":{"type":"Point","coordinates":[-77.1963703,38.8303905]}},{"properties":{"city":"Annandale","closings":0.0,"zip":"22003","last name":"Saran","geo_score":0.857,"office name":"Fairfax Realty, Inc.","id":"a67x56pavw6r","geo_precision":"zip","first name":"Rohit"},"type":"Feature","geometry":{"type":"Point","coordinates":[-77.1963703,38.8303905]}},{"properties":{"city":"Annandale","closings":0.0,"zip":"22003","last name":"Cseri","geo_score":0.857,"office name":"Fairfax Realty, Inc.","id":"a67x56rp0yg6","geo_precision":"zip","first name":"Geza"},"type":"Feature","geometry":{"type":"Point","coordinates":[-77.1963703,38.8303905]}},{"properties":{"city":"Annandale","closings":0.0,"zip":"22003","last name":"Sim","geo_score":0.857,"office name":"Fairfax Realty, Inc.","id":"a67x56l7sdmt","geo_precision":"zip","first name":"Stacey"},"type":"Feature","geometry":{"type":"Point","coordinates":[-77.1963703,38.8303905]}},{"properties":{"city":"Annandale","closings":0.0,"zip":"22003","last name":"Ford","geo_score":0.857,"office name":"Fairfax Realty, Inc.","id":"a67x56kcag6e","geo_precision":"zip","first name":"Lawrence"},"type":"Feature","geometry":{"type":"Point","coordinates":[-77.1963703,38.8303905]}},{"properties":{"city":"Annandale","closings":0.0,"zip":"22003","last name":"Ibrahim","geo_score":0.857,"office name":"Fairfax Realty, Inc.","id":"a67x56pxajop","geo_precision":"zip","first name":"Kimberly"},"type":"Feature","geometry":{"type":"Point","coordinates":[-77.1963703,38.8303905]}},{"properties":{"city":"Annandale","closings":0.0,"zip":"22003","last name":"Kuraishi","geo_score":0.857,"office name":"Fairfax Realty, Inc.","id":"a67x56e978wt","geo_precision":"zip","first name":"Samer"},"type":"Feature","geometry":{"type":"Point","coordinates":[-77.1963703,38.8303905]}},{"properties":{"city":"Annandale","closings":0.0,"zip":"22003","last name":"Moske","geo_score":0.857,"office name":"Fairfax Realty, Inc.","id":"a67x56r6lg8e","geo_precision":"zip","first name":"Theodore"},"type":"Feature","geometry":{"type":"Point","coordinates":[-77.1963703,38.8303905]}},{"properties":{"city":"Annandale","closings":0.0,"zip":"22003","last name":"Mosteller","geo_score":0.857,"office name":"Fairfax Realty, Inc.","id":"a67x56ke3eo9","geo_precision":"zip","first name":"Juliette"},"type":"Feature","geometry":{"type":"Point","coordinates":[-77.1963703,38.8303905]}}],"is_temporal":false,"author":{"url":"","metadata":null,"contact_name":null,"contact_address":null,"source":null,"contact_phone":null},"source":"","pagination":{"sort":null,"start":0,"total":496,"limit":1000000},"state":"complete","tags":"","published":"2014-08-13T04:19:49-04:00","id":155334}