{"type":"FeatureCollection","data_type":"Dataset","url_type":null,"permissions":[{"permissions":{"download":true,"view":true},"group_id":32101},{"permissions":{"download":true,"view":true},"group_id":"everyone"}],"classification":null,"title":"CTN suburb data","count":937,"stream_id":155631,"contributor":{"url":"http://geocommons.com/users/31887","name":"chadmortimer"},"data_attributes":null,"calculation_params":null,"icon_link":null,"link":"http://geocommons.com/overlays/155631.json","extent":[18.3401,-34.4286,19.2379,-33.5507],"geometry_types":["point"],"unique_name":null,"name":"CTN suburb data","feature_count":937,"description":"","next_feature":null,"is_raster":false,"short_classification":"Y","stats":{"latitude":{"max":-33.5507,"mean":-33.9616419871795,"variance":0.0175122885560469,"stdev":0.132334003778496,"min":-34.4286,"median":-33.9458},"total":{"max":4239219,"mean":9048.49306296692,"variance":19241013389.8848,"stdev":138711.979979686,"min":1,"median":1512},"percentage":{"max":2.752,"mean":0.106837606837607,"variance":0.057210181086887,"stdev":0.2391864985464,"min":0.0,"median":0.036},"longitude":{"max":19.2379,"mean":18.6525245726496,"variance":0.0305657507324375,"stdev":0.17483063442211,"min":18.3401,"median":18.6441}},"features":[{"properties":{"latitude":-33.737,"total":116646,"suburb":"Denneburg","percentage":2.752,"longitude":18.9833,"id":"a6sxy9t1uzfp"},"type":"Feature","geometry":{"type":"Point","coordinates":[18.9833,-33.737]}},{"properties":{"latitude":-33.7348,"total":110126,"suburb":"Paarl","percentage":2.598,"longitude":18.9594,"id":"a6sxya32yf5h"},"type":"Feature","geometry":{"type":"Point","coordinates":[18.9594,-33.7348]}},{"properties":{"latitude":-33.9687,"total":90939,"suburb":"Boquinar Industrial Area","percentage":2.145,"longitude":18.5835,"id":"a6sxy9v9v5qj"},"type":"Feature","geometry":{"type":"Point","coordinates":[18.5835,-33.9687]}},{"properties":{"latitude":-33.8652,"total":78660,"suburb":"Montague Gardens","percentage":1.856,"longitude":18.5225,"id":"a6sxy9qzk0vo"},"type":"Feature","geometry":{"type":"Point","coordinates":[18.5225,-33.8652]}},{"properties":{"latitude":-33.6997,"total":74209,"suburb":"Klipheuwel","percentage":1.751,"longitude":18.7006,"id":"a6sxya28ojbw"},"type":"Feature","geometry":{"type":"Point","coordinates":[18.7006,-33.6997]}},{"properties":{"latitude":-33.9218,"total":69984,"suburb":"Cape Town","percentage":1.651,"longitude":18.4233,"id":"a6sxy9vyc8u8"},"type":"Feature","geometry":{"type":"Point","coordinates":[18.4233,-33.9218]}},{"properties":{"latitude":-33.7228,"total":67160,"suburb":"Charlston Hill","percentage":1.584,"longitude":18.987,"id":"a6sxy9yfx7ny"},"type":"Feature","geometry":{"type":"Point","coordinates":[18.987,-33.7228]}},{"properties":{"latitude":-33.973,"total":59764,"suburb":"Cape Town International Airport","percentage":1.41,"longitude":18.6109,"id":"a6sxy9vhu39u"},"type":"Feature","geometry":{"type":"Point","coordinates":[18.6109,-33.973]}},{"properties":{"latitude":-33.8268,"total":55832,"suburb":"Killarney Gardens","percentage":1.317,"longitude":18.533,"id":"a6sxya4mrk3z"},"type":"Feature","geometry":{"type":"Point","coordinates":[18.533,-33.8268]}},{"properties":{"latitude":-33.7378,"total":53766,"suburb":"Amstelhof","percentage":1.268,"longitude":19.0119,"id":"a6sxy9v5sr5f"},"type":"Feature","geometry":{"type":"Point","coordinates":[19.0119,-33.7378]}},{"properties":{"latitude":-33.644,"total":53176,"suburb":"Wellington","percentage":1.254,"longitude":18.9968,"id":"a6sxy9zaaska"},"type":"Feature","geometry":{"type":"Point","coordinates":[18.9968,-33.644]}},{"properties":{"latitude":-33.8832,"total":50308,"suburb":"Summer Greens","percentage":1.187,"longitude":18.5262,"id":"a6sxy9qgfdhn"},"type":"Feature","geometry":{"type":"Point","coordinates":[18.5262,-33.8832]}},{"properties":{"latitude":-33.934,"total":45501,"suburb":"Epping Industrial","percentage":1.073,"longitude":18.5551,"id":"a6sxya08dbku"},"type":"Feature","geometry":{"type":"Point","coordinates":[18.5551,-33.934]}},{"properties":{"latitude":-33.8472,"total":44195,"suburb":"Belmont Park","percentage":1.043,"longitude":18.7298,"id":"a6sxy9u6ri9r"},"type":"Feature","geometry":{"type":"Point","coordinates":[18.7298,-33.8472]}},{"properties":{"latitude":-33.8695,"total":43256,"suburb":"Marconi Beam","percentage":1.02,"longitude":18.5128,"id":"a6sxy9po8a57"},"type":"Feature","geometry":{"type":"Point","coordinates":[18.5128,-33.8695]}},{"properties":{"latitude":-33.7293,"total":39944,"suburb":"Huguenot","percentage":0.942,"longitude":18.9858,"id":"a6sxy9u1i6b7"},"type":"Feature","geometry":{"type":"Point","coordinates":[18.9858,-33.7293]}},{"properties":{"latitude":-33.6436,"total":38760,"suburb":"Wellington North","percentage":0.914,"longitude":19.0088,"id":"a6sxya26pxxm"},"type":"Feature","geometry":{"type":"Point","coordinates":[19.0088,-33.6436]}},{"properties":{"latitude":-33.6595,"total":38478,"suburb":"Wellington Outlying","percentage":0.908,"longitude":18.979,"id":"a6sxya21c466"},"type":"Feature","geometry":{"type":"Point","coordinates":[18.979,-33.6595]}},{"properties":{"latitude":-33.9939,"total":37553,"suburb":"Sand Industria","percentage":0.886,"longitude":18.544,"id":"a6sxy9vi9tzr"},"type":"Feature","geometry":{"type":"Point","coordinates":[18.544,-33.9939]}},{"properties":{"latitude":-33.9414,"total":33758,"suburb":"Kuils River Industrial","percentage":0.796,"longitude":18.6859,"id":"a6sxy9wjf4aj"},"type":"Feature","geometry":{"type":"Point","coordinates":[18.6859,-33.9414]}},{"properties":{"latitude":-33.7054,"total":33733,"suburb":"Dal Josafat Industrial","percentage":0.796,"longitude":18.9828,"id":"a6sxy9xsduif"},"type":"Feature","geometry":{"type":"Point","coordinates":[18.9828,-33.7054]}},{"properties":{"latitude":-33.7531,"total":33011,"suburb":"Vrykyk","percentage":0.779,"longitude":18.9657,"id":"a6sxy9pnog1v"},"type":"Feature","geometry":{"type":"Point","coordinates":[18.9657,-33.7531]}},{"properties":{"latitude":-33.7112,"total":30877,"suburb":"New Orleans","percentage":0.728,"longitude":18.987,"id":"a6sxy9viy66m"},"type":"Feature","geometry":{"type":"Point","coordinates":[18.987,-33.7112]}},{"properties":{"latitude":-33.6683,"total":28441,"suburb":"Van Wyks Vlei","percentage":0.671,"longitude":18.9981,"id":"a6sxy9szlvmb"},"type":"Feature","geometry":{"type":"Point","coordinates":[18.9981,-33.6683]}},{"properties":{"latitude":-33.7661,"total":27255,"suburb":"Suider Paarl","percentage":0.643,"longitude":18.9656,"id":"a6sxya5bzsa6"},"type":"Feature","geometry":{"type":"Point","coordinates":[18.9656,-33.7661]}},{"properties":{"latitude":-33.9245,"total":26584,"suburb":"Techno Park","percentage":0.627,"longitude":18.5472,"id":"a6sxy9ucgi71"},"type":"Feature","geometry":{"type":"Point","coordinates":[18.5472,-33.9245]}},{"properties":{"latitude":-33.6553,"total":25328,"suburb":"Hillcrest","percentage":0.597,"longitude":18.996,"id":"a6sxya2fe1a4"},"type":"Feature","geometry":{"type":"Point","coordinates":[18.996,-33.6553]}},{"properties":{"latitude":-33.6797,"total":25050,"suburb":"Mbekweni","percentage":0.591,"longitude":18.9924,"id":"a6sxy9uytdeb"},"type":"Feature","geometry":{"type":"Point","coordinates":[18.9924,-33.6797]}},{"properties":{"latitude":-33.8909,"total":24461,"suburb":"Century City","percentage":0.577,"longitude":18.5134,"id":"a6sxy9xhukbt"},"type":"Feature","geometry":{"type":"Point","coordinates":[18.5134,-33.8909]}},{"properties":{"latitude":-33.8369,"total":24458,"suburb":"Killarney Gardens Outlying","percentage":0.577,"longitude":18.5271,"id":"a6sxya4pzoiq"},"type":"Feature","geometry":{"type":"Point","coordinates":[18.5271,-33.8369]}},{"properties":{"latitude":-33.9301,"total":24289,"suburb":"Epping Industrial 1","percentage":0.573,"longitude":18.532,"id":"a6sxy9x492rq"},"type":"Feature","geometry":{"type":"Point","coordinates":[18.532,-33.9301]}},{"properties":{"latitude":-33.9049,"total":23887,"suburb":"Loumar","percentage":0.563,"longitude":18.658,"id":"a6sxy9x73cwp"},"type":"Feature","geometry":{"type":"Point","coordinates":[18.658,-33.9049]}},{"properties":{"latitude":-33.9286,"total":23683,"suburb":"Woodstock","percentage":0.559,"longitude":18.45,"id":"a6sxy9pvgaff"},"type":"Feature","geometry":{"type":"Point","coordinates":[18.45,-33.9286]}},{"properties":{"latitude":-33.9104,"total":22144,"suburb":"Paarden Eiland","percentage":0.522,"longitude":18.471,"id":"a6sxy9v4uatm"},"type":"Feature","geometry":{"type":"Point","coordinates":[18.471,-33.9104]}},{"properties":{"latitude":-33.8195,"total":22060,"suburb":"Du Noon","percentage":0.52,"longitude":18.5398,"id":"a6sxy9x9yfdg"},"type":"Feature","geometry":{"type":"Point","coordinates":[18.5398,-33.8195]}},{"properties":{"latitude":-34.2214,"total":21883,"suburb":"Botrivier","percentage":0.516,"longitude":19.1992,"id":"a6sxy9s7ubhp"},"type":"Feature","geometry":{"type":"Point","coordinates":[19.1992,-34.2214]}},{"properties":{"latitude":-33.7037,"total":21796,"suburb":"Northern Paarl","percentage":0.514,"longitude":18.9684,"id":"a6sxy9q04ekt"},"type":"Feature","geometry":{"type":"Point","coordinates":[18.9684,-33.7037]}},{"properties":{"latitude":-33.8022,"total":20552,"suburb":"Kuilsrivier NU","percentage":0.485,"longitude":18.7529,"id":"a6sxy9yykxwf"},"type":"Feature","geometry":{"type":"Point","coordinates":[18.7529,-33.8022]}},{"properties":{"latitude":-33.7773,"total":20530,"suburb":"De Zoete Inval","percentage":0.484,"longitude":18.9572,"id":"a6sxya5txowk"},"type":"Feature","geometry":{"type":"Point","coordinates":[18.9572,-33.7773]}},{"properties":{"latitude":-34.0359,"total":19923,"suburb":"Parkwood","percentage":0.47,"longitude":18.4945,"id":"a6sxy9u0wx2n"},"type":"Feature","geometry":{"type":"Point","coordinates":[18.4945,-34.0359]}},{"properties":{"latitude":-33.9064,"total":19589,"suburb":"Meyerhof","percentage":0.462,"longitude":18.6599,"id":"a6sxya2auadm"},"type":"Feature","geometry":{"type":"Point","coordinates":[18.6599,-33.9064]}},{"properties":{"latitude":-33.593,"total":19441,"suburb":"Camphill Village","percentage":0.459,"longitude":18.5672,"id":"a6sxya2vna34"},"type":"Feature","geometry":{"type":"Point","coordinates":[18.5672,-33.593]}},{"properties":{"latitude":-33.788,"total":19265,"suburb":"Fisantkraal","percentage":0.454,"longitude":18.7041,"id":"a6sxy9xgtg7s"},"type":"Feature","geometry":{"type":"Point","coordinates":[18.7041,-33.788]}},{"properties":{"latitude":-33.9839,"total":19035,"suburb":"Claremont","percentage":0.449,"longitude":18.4715,"id":"a6sxy9y742xx"},"type":"Feature","geometry":{"type":"Point","coordinates":[18.4715,-33.9839]}},{"properties":{"latitude":-33.9333,"total":18750,"suburb":"Maitland Garden Village","percentage":0.442,"longitude":18.4844,"id":"a6sxy9um515k"},"type":"Feature","geometry":{"type":"Point","coordinates":[18.4844,-33.9333]}},{"properties":{"latitude":-33.9096,"total":18624,"suburb":"Brooklyn","percentage":0.439,"longitude":18.4826,"id":"a6sxya1ltba9"},"type":"Feature","geometry":{"type":"Point","coordinates":[18.4826,-33.9096]}},{"properties":{"latitude":-33.5947,"total":17977,"suburb":"Atlantis Industrial","percentage":0.424,"longitude":18.4761,"id":"a6sxy9xdskgb"},"type":"Feature","geometry":{"type":"Point","coordinates":[18.4761,-33.5947]}},{"properties":{"latitude":-33.9557,"total":17497,"suburb":"Nooitgedacht","percentage":0.413,"longitude":18.5829,"id":"a6sxy9zrxwp0"},"type":"Feature","geometry":{"type":"Point","coordinates":[18.5829,-33.9557]}},{"properties":{"latitude":-33.9303,"total":16870,"suburb":"Ndabeni","percentage":0.398,"longitude":18.4923,"id":"a6sxya18ml5i"},"type":"Feature","geometry":{"type":"Point","coordinates":[18.4923,-33.9303]}},{"properties":{"latitude":-33.8924,"total":16824,"suburb":"N1 City","percentage":0.397,"longitude":18.5599,"id":"a6sxy9r67lvh"},"type":"Feature","geometry":{"type":"Point","coordinates":[18.5599,-33.8924]}},{"properties":{"latitude":-33.9347,"total":16799,"suburb":"Salt River","percentage":0.396,"longitude":18.4594,"id":"a6sxy9wq4fkv"},"type":"Feature","geometry":{"type":"Point","coordinates":[18.4594,-33.9347]}},{"properties":{"latitude":-33.6667,"total":16292,"suburb":"Philadelphia","percentage":0.384,"longitude":18.5822,"id":"a6sxy9t89w3c"},"type":"Feature","geometry":{"type":"Point","coordinates":[18.5822,-33.6667]}},{"properties":{"latitude":-33.8499,"total":16181,"suburb":"Milnerton Ridge","percentage":0.382,"longitude":18.5136,"id":"a6sxy9uaezc2"},"type":"Feature","geometry":{"type":"Point","coordinates":[18.5136,-33.8499]}},{"properties":{"latitude":-33.7693,"total":15475,"suburb":"Vissershok","percentage":0.365,"longitude":18.5431,"id":"a6sxy9sa1cdi"},"type":"Feature","geometry":{"type":"Point","coordinates":[18.5431,-33.7693]}},{"properties":{"latitude":-33.8389,"total":15428,"suburb":"Peerless Park North","percentage":0.364,"longitude":18.72,"id":"a6sxya5huqcu"},"type":"Feature","geometry":{"type":"Point","coordinates":[18.72,-33.8389]}},{"properties":{"latitude":-33.801,"total":15225,"suburb":"Paarl Outlying","percentage":0.359,"longitude":18.8686,"id":"a6sxy9pv7hi0"},"type":"Feature","geometry":{"type":"Point","coordinates":[18.8686,-33.801]}},{"properties":{"latitude":-34.0736,"total":15219,"suburb":"The Links SH","percentage":0.359,"longitude":18.8275,"id":"a6sxy9ybnegt"},"type":"Feature","geometry":{"type":"Point","coordinates":[18.8275,-34.0736]}},{"properties":{"latitude":-34.0477,"total":14677,"suburb":"Grassy Park","percentage":0.346,"longitude":18.4994,"id":"a6sxya1qmwfu"},"type":"Feature","geometry":{"type":"Point","coordinates":[18.4994,-34.0477]}},{"properties":{"latitude":-33.7359,"total":14642,"suburb":"Langvlei","percentage":0.345,"longitude":18.9959,"id":"a6sxy9rrlvug"},"type":"Feature","geometry":{"type":"Point","coordinates":[18.9959,-33.7359]}},{"properties":{"latitude":-33.9129,"total":14612,"suburb":"Foreshore","percentage":0.345,"longitude":18.4425,"id":"a6sxy9s2yc7o"},"type":"Feature","geometry":{"type":"Point","coordinates":[18.4425,-33.9129]}},{"properties":{"latitude":-33.9899,"total":14454,"suburb":"Crossroads","percentage":0.341,"longitude":18.6,"id":"a6sxya111wa1"},"type":"Feature","geometry":{"type":"Point","coordinates":[18.6,-33.9899]}},{"properties":{"latitude":-33.6323,"total":14203,"suburb":"Berg-en-Dal","percentage":0.335,"longitude":19.0199,"id":"a6sxya2b4mbp"},"type":"Feature","geometry":{"type":"Point","coordinates":[19.0199,-33.6323]}},{"properties":{"latitude":-33.6668,"total":14046,"suburb":"Wellington SP","percentage":0.331,"longitude":18.9878,"id":"a6sxy9rmlhp9"},"type":"Feature","geometry":{"type":"Point","coordinates":[18.9878,-33.6668]}},{"properties":{"latitude":-33.8103,"total":13634,"suburb":"Welgelegen","percentage":0.322,"longitude":18.5377,"id":"a6sxya4v14jp"},"type":"Feature","geometry":{"type":"Point","coordinates":[18.5377,-33.8103]}},{"properties":{"latitude":-33.907,"total":13559,"suburb":"Townsend Estate","percentage":0.32,"longitude":18.5426,"id":"a6sxya4ys1pb"},"type":"Feature","geometry":{"type":"Point","coordinates":[18.5426,-33.907]}},{"properties":{"latitude":-33.8799,"total":13325,"suburb":"Springbokpark","percentage":0.314,"longitude":18.6828,"id":"a6sxy9xlv70f"},"type":"Feature","geometry":{"type":"Point","coordinates":[18.6828,-33.8799]}},{"properties":{"latitude":-33.5862,"total":13295,"suburb":"Witsand","percentage":0.314,"longitude":18.5053,"id":"a6sxy9t2oyla"},"type":"Feature","geometry":{"type":"Point","coordinates":[18.5053,-33.5862]}},{"properties":{"latitude":-34.0791,"total":13234,"suburb":"Frogmore Estate","percentage":0.312,"longitude":18.4594,"id":"a6sxya5juaor"},"type":"Feature","geometry":{"type":"Point","coordinates":[18.4594,-34.0791]}},{"properties":{"latitude":-33.7124,"total":13124,"suburb":"Groenvlei","percentage":0.31,"longitude":18.9569,"id":"a6sxy9vzlvto"},"type":"Feature","geometry":{"type":"Point","coordinates":[18.9569,-33.7124]}},{"properties":{"latitude":-33.9924,"total":13018,"suburb":"Nyanga","percentage":0.307,"longitude":18.5829,"id":"a6sxy9wn091l"},"type":"Feature","geometry":{"type":"Point","coordinates":[18.5829,-33.9924]}},{"properties":{"latitude":-33.9955,"total":13010,"suburb":"Kenilworth","percentage":0.307,"longitude":18.4747,"id":"a6sxy9ytzsx7"},"type":"Feature","geometry":{"type":"Point","coordinates":[18.4747,-33.9955]}},{"properties":{"latitude":-33.9607,"total":12866,"suburb":"Welcome","percentage":0.303,"longitude":18.5438,"id":"a6sxya5rdvu2"},"type":"Feature","geometry":{"type":"Point","coordinates":[18.5438,-33.9607]}},{"properties":{"latitude":-33.7006,"total":12797,"suburb":"Groenheuwel","percentage":0.302,"longitude":18.9948,"id":"a6sxya2dgopf"},"type":"Feature","geometry":{"type":"Point","coordinates":[18.9948,-33.7006]}},{"properties":{"latitude":-33.7195,"total":12478,"suburb":"Paarl CBD West","percentage":0.294,"longitude":18.9955,"id":"a6sxya23wjph"},"type":"Feature","geometry":{"type":"Point","coordinates":[18.9955,-33.7195]}},{"properties":{"latitude":-34.0497,"total":12411,"suburb":"Mitchell's Plain Town Centre","percentage":0.293,"longitude":18.6215,"id":"a6sxya1gxy0b"},"type":"Feature","geometry":{"type":"Point","coordinates":[18.6215,-34.0497]}},{"properties":{"latitude":-34.0078,"total":12389,"suburb":"Ikwezipark","percentage":0.292,"longitude":18.6344,"id":"a6sxya1sr9po"},"type":"Feature","geometry":{"type":"Point","coordinates":[18.6344,-34.0078]}},{"properties":{"latitude":-34.0069,"total":12308,"suburb":"Brown's Farm","percentage":0.29,"longitude":18.5763,"id":"a6sxy9sn71bj"},"type":"Feature","geometry":{"type":"Point","coordinates":[18.5763,-34.0069]}},{"properties":{"latitude":-33.9508,"total":12113,"suburb":"Mowbray","percentage":0.286,"longitude":18.4846,"id":"a6sxy9yz4b06"},"type":"Feature","geometry":{"type":"Point","coordinates":[18.4846,-33.9508]}},{"properties":{"latitude":-33.9367,"total":12105,"suburb":"Danarand","percentage":0.286,"longitude":18.6787,"id":"a6sxy9zwraie"},"type":"Feature","geometry":{"type":"Point","coordinates":[18.6787,-33.9367]}},{"properties":{"latitude":-33.686,"total":11998,"suburb":"Mbekweni","percentage":0.283,"longitude":18.9868,"id":"a6sxy9rxuzyn"},"type":"Feature","geometry":{"type":"Point","coordinates":[18.9868,-33.686]}},{"properties":{"latitude":-34.0422,"total":11970,"suburb":"Somerset West NU","percentage":0.282,"longitude":18.7965,"id":"a6sxy9zxzl18"},"type":"Feature","geometry":{"type":"Point","coordinates":[18.7965,-34.0422]}},{"properties":{"latitude":-33.8854,"total":11950,"suburb":"Wemmershoek Forest Reserve","percentage":0.282,"longitude":19.1329,"id":"a6sxy9utm5pf"},"type":"Feature","geometry":{"type":"Point","coordinates":[19.1329,-33.8854]}},{"properties":{"latitude":-33.7257,"total":11838,"suburb":"Klein Nederburg","percentage":0.279,"longitude":19.0008,"id":"a6sxya1yi6zi"},"type":"Feature","geometry":{"type":"Point","coordinates":[19.0008,-33.7257]}},{"properties":{"latitude":-33.8127,"total":11796,"suburb":"Bennetsville","percentage":0.278,"longitude":18.8637,"id":"a6sxy9thmzbr"},"type":"Feature","geometry":{"type":"Point","coordinates":[18.8637,-33.8127]}},{"properties":{"latitude":-33.956,"total":11778,"suburb":"Sybrand Park","percentage":0.278,"longitude":18.4985,"id":"a6sxya41hz7y"},"type":"Feature","geometry":{"type":"Point","coordinates":[18.4985,-33.956]}},{"properties":{"latitude":-34.0049,"total":11518,"suburb":"Wynberg","percentage":0.272,"longitude":18.4653,"id":"a6sxya41wcoy"},"type":"Feature","geometry":{"type":"Point","coordinates":[18.4653,-34.0049]}},{"properties":{"latitude":-34.1351,"total":11505,"suburb":"Somerset West NU","percentage":0.271,"longitude":18.9288,"id":"a6sxy9qvpx8k"},"type":"Feature","geometry":{"type":"Point","coordinates":[18.9288,-34.1351]}},{"properties":{"latitude":-33.9458,"total":11406,"suburb":"Langa","percentage":0.269,"longitude":18.53,"id":"a6sxya3qf3oy"},"type":"Feature","geometry":{"type":"Point","coordinates":[18.53,-33.9458]}},{"properties":{"latitude":-33.9376,"total":11209,"suburb":"Observatory","percentage":0.264,"longitude":18.4745,"id":"a6sxya32z59l"},"type":"Feature","geometry":{"type":"Point","coordinates":[18.4745,-33.9376]}},{"properties":{"latitude":-33.9917,"total":11193,"suburb":"Nerissa Estate","percentage":0.264,"longitude":18.5088,"id":"a6sxy9r3xp5y"},"type":"Feature","geometry":{"type":"Point","coordinates":[18.5088,-33.9917]}},{"properties":{"latitude":-33.8533,"total":11167,"suburb":"Cape Gate","percentage":0.263,"longitude":18.6935,"id":"a6sxy9ua07f5"},"type":"Feature","geometry":{"type":"Point","coordinates":[18.6935,-33.8533]}},{"properties":{"latitude":-33.7321,"total":11024,"suburb":"Paarl East","percentage":0.26,"longitude":19.0028,"id":"a6sxy9tju7gx"},"type":"Feature","geometry":{"type":"Point","coordinates":[19.0028,-33.7321]}},{"properties":{"latitude":-33.9333,"total":10997,"suburb":"Stellenbosch","percentage":0.259,"longitude":18.8636,"id":"a6sxy9xnnnhi"},"type":"Feature","geometry":{"type":"Point","coordinates":[18.8636,-33.9333]}},{"properties":{"latitude":-33.9747,"total":10861,"suburb":"Rondebosch East","percentage":0.256,"longitude":18.4961,"id":"a6sxy9thu403"},"type":"Feature","geometry":{"type":"Point","coordinates":[18.4961,-33.9747]}},{"properties":{"latitude":-33.9675,"total":10678,"suburb":"Blackheath Industria","percentage":0.252,"longitude":18.6973,"id":"a6sxy9vpna4y"},"type":"Feature","geometry":{"type":"Point","coordinates":[18.6973,-33.9675]}},{"properties":{"latitude":-34.1542,"total":10521,"suburb":"Grabouw","percentage":0.248,"longitude":19.015,"id":"a6sxya3gaf20"},"type":"Feature","geometry":{"type":"Point","coordinates":[19.015,-34.1542]}},{"properties":{"latitude":-33.9158,"total":10223,"suburb":"Beaconvale","percentage":0.241,"longitude":18.5839,"id":"a6sxy9ulqp59"},"type":"Feature","geometry":{"type":"Point","coordinates":[18.5839,-33.9158]}},{"properties":{"latitude":-33.8997,"total":10218,"suburb":"Stanlou","percentage":0.241,"longitude":18.6268,"id":"a6sxy9thtd7c"},"type":"Feature","geometry":{"type":"Point","coordinates":[18.6268,-33.8997]}},{"properties":{"latitude":-34.0582,"total":10178,"suburb":"Dreyersdal","percentage":0.24,"longitude":18.4533,"id":"a6sxy9we7eq1"},"type":"Feature","geometry":{"type":"Point","coordinates":[18.4533,-34.0582]}},{"properties":{"latitude":-33.7425,"total":9981,"suburb":"Morningstar AH","percentage":0.235,"longitude":18.5314,"id":"a6sxy9sdv3mh"},"type":"Feature","geometry":{"type":"Point","coordinates":[18.5314,-33.7425]}},{"properties":{"latitude":-33.8246,"total":9941,"suburb":"Table View","percentage":0.235,"longitude":18.4943,"id":"a6sxy9te6lhz"},"type":"Feature","geometry":{"type":"Point","coordinates":[18.4943,-33.8246]}},{"properties":{"latitude":-33.9189,"total":9885,"suburb":"Maitland","percentage":0.233,"longitude":18.5087,"id":"a6sxy9ypnne9"},"type":"Feature","geometry":{"type":"Point","coordinates":[18.5087,-33.9189]}},{"properties":{"latitude":-33.909,"total":9679,"suburb":"Green Point","percentage":0.228,"longitude":18.4085,"id":"a6sxya24rp4f"},"type":"Feature","geometry":{"type":"Point","coordinates":[18.4085,-33.909]}},{"properties":{"latitude":-33.8964,"total":9647,"suburb":"Glenwood","percentage":0.228,"longitude":18.5361,"id":"a6sxya0f5wwv"},"type":"Feature","geometry":{"type":"Point","coordinates":[18.5361,-33.8964]}},{"properties":{"latitude":-33.6937,"total":9322,"suburb":"Paarl Outlying","percentage":0.22,"longitude":18.996,"id":"a6sxya4o2210"},"type":"Feature","geometry":{"type":"Point","coordinates":[18.996,-33.6937]}},{"properties":{"latitude":-33.8422,"total":9307,"suburb":"Bloekombos","percentage":0.22,"longitude":18.748,"id":"a6sxy9pw2gyo"},"type":"Feature","geometry":{"type":"Point","coordinates":[18.748,-33.8422]}},{"properties":{"latitude":-33.8996,"total":9273,"suburb":"Kaymor","percentage":0.219,"longitude":18.6679,"id":"a6sxy9y4nrgn"},"type":"Feature","geometry":{"type":"Point","coordinates":[18.6679,-33.8996]}},{"properties":{"latitude":-33.6697,"total":9130,"suburb":"Drommedaris","percentage":0.215,"longitude":18.9861,"id":"a6sxy9upuwe7"},"type":"Feature","geometry":{"type":"Point","coordinates":[18.9861,-33.6697]}},{"properties":{"latitude":-33.9841,"total":9118,"suburb":"Primrose Park","percentage":0.215,"longitude":18.5436,"id":"a6sxya5w9fos"},"type":"Feature","geometry":{"type":"Point","coordinates":[18.5436,-33.9841]}},{"properties":{"latitude":-34.071,"total":9012,"suburb":"Firgrove","percentage":0.213,"longitude":18.7835,"id":"a6sxya6296l3"},"type":"Feature","geometry":{"type":"Point","coordinates":[18.7835,-34.071]}},{"properties":{"latitude":-33.8767,"total":8985,"suburb":"Bellville Park","percentage":0.212,"longitude":18.634,"id":"a6sxy9z1z865"},"type":"Feature","geometry":{"type":"Point","coordinates":[18.634,-33.8767]}},{"properties":{"latitude":-33.7221,"total":8972,"suburb":"Excelsior","percentage":0.212,"longitude":18.7085,"id":"a6sxy9pur562"},"type":"Feature","geometry":{"type":"Point","coordinates":[18.7085,-33.7221]}},{"properties":{"latitude":-34.0082,"total":8890,"suburb":"Philippi East","percentage":0.21,"longitude":18.6111,"id":"a6sxy9urzq7x"},"type":"Feature","geometry":{"type":"Point","coordinates":[18.6111,-34.0082]}},{"properties":{"latitude":-33.9604,"total":8863,"suburb":"Charlesville","percentage":0.209,"longitude":18.5667,"id":"a6sxya0ey9t7"},"type":"Feature","geometry":{"type":"Point","coordinates":[18.5667,-33.9604]}},{"properties":{"latitude":-34.0232,"total":8860,"suburb":"Khayelitsha T1 V3 Site B","percentage":0.209,"longitude":18.6671,"id":"a6sxy9r24o88"},"type":"Feature","geometry":{"type":"Point","coordinates":[18.6671,-34.0232]}},{"properties":{"latitude":-33.8734,"total":8804,"suburb":"Joe Slovo Park","percentage":0.208,"longitude":18.511,"id":"a6sxy9v273hq"},"type":"Feature","geometry":{"type":"Point","coordinates":[18.511,-33.8734]}},{"properties":{"latitude":-33.8744,"total":8788,"suburb":"Phoenix","percentage":0.207,"longitude":18.5052,"id":"a6sxy9qnh9gq"},"type":"Feature","geometry":{"type":"Point","coordinates":[18.5052,-33.8744]}},{"properties":{"latitude":-33.8879,"total":8700,"suburb":"Oakdale","percentage":0.205,"longitude":18.6362,"id":"a6sxya0q8j2a"},"type":"Feature","geometry":{"type":"Point","coordinates":[18.6362,-33.8879]}},{"properties":{"latitude":-33.8283,"total":8563,"suburb":"Durbanville","percentage":0.202,"longitude":18.6511,"id":"a6sxya4ezprk"},"type":"Feature","geometry":{"type":"Point","coordinates":[18.6511,-33.8283]}},{"properties":{"latitude":-33.8343,"total":8498,"suburb":"Kraaifontein Industy","percentage":0.2,"longitude":18.7318,"id":"a6sxy9u6d83h"},"type":"Feature","geometry":{"type":"Point","coordinates":[18.7318,-33.8343]}},{"properties":{"latitude":-33.9325,"total":8469,"suburb":"Zonnebloem","percentage":0.2,"longitude":18.4327,"id":"a6sxya0vu41j"},"type":"Feature","geometry":{"type":"Point","coordinates":[18.4327,-33.9325]}},{"properties":{"latitude":-33.7171,"total":8434,"suburb":"Chicago","percentage":0.199,"longitude":18.9966,"id":"a6sxya48m63x"},"type":"Feature","geometry":{"type":"Point","coordinates":[18.9966,-33.7171]}},{"properties":{"latitude":-33.9862,"total":8353,"suburb":"Manenberg","percentage":0.197,"longitude":18.5546,"id":"a6sxya3nkv01"},"type":"Feature","geometry":{"type":"Point","coordinates":[18.5546,-33.9862]}},{"properties":{"latitude":-34.0372,"total":8323,"suburb":"Flintdale Estate","percentage":0.196,"longitude":18.4769,"id":"a6sxy9q8ckup"},"type":"Feature","geometry":{"type":"Point","coordinates":[18.4769,-34.0372]}},{"properties":{"latitude":-33.8928,"total":8242,"suburb":"Groenvallei","percentage":0.194,"longitude":18.6711,"id":"a6sxya2f4rqw"},"type":"Feature","geometry":{"type":"Point","coordinates":[18.6711,-33.8928]}},{"properties":{"latitude":-33.9055,"total":8139,"suburb":"Parow East","percentage":0.192,"longitude":18.6009,"id":"a6sxy9zhmhg9"},"type":"Feature","geometry":{"type":"Point","coordinates":[18.6009,-33.9055]}},{"properties":{"latitude":-33.9547,"total":8084,"suburb":"Blackheath","percentage":0.191,"longitude":18.6953,"id":"a6sxya30iymc"},"type":"Feature","geometry":{"type":"Point","coordinates":[18.6953,-33.9547]}},{"properties":{"latitude":-33.977,"total":7964,"suburb":"Newlands","percentage":0.188,"longitude":18.4543,"id":"a6sxy9wigrtf"},"type":"Feature","geometry":{"type":"Point","coordinates":[18.4543,-33.977]}},{"properties":{"latitude":-34.0299,"total":7742,"suburb":"Lentegeur","percentage":0.183,"longitude":18.6164,"id":"a6sxy9xezx34"},"type":"Feature","geometry":{"type":"Point","coordinates":[18.6164,-34.0299]}},{"properties":{"latitude":-33.9255,"total":7722,"suburb":"Sack's Circle Industrial","percentage":0.182,"longitude":18.6483,"id":"a6sxya03nwtk"},"type":"Feature","geometry":{"type":"Point","coordinates":[18.6483,-33.9255]}},{"properties":{"latitude":-34.0407,"total":7721,"suburb":"Beacon Valley","percentage":0.182,"longitude":18.6244,"id":"a6sxy9zeonzy"},"type":"Feature","geometry":{"type":"Point","coordinates":[18.6244,-34.0407]}},{"properties":{"latitude":-33.9555,"total":7685,"suburb":"Rosebank","percentage":0.181,"longitude":18.4742,"id":"a6sxya0zwkni"},"type":"Feature","geometry":{"type":"Point","coordinates":[18.4742,-33.9555]}},{"properties":{"latitude":-33.9343,"total":7655,"suburb":"The Range","percentage":0.181,"longitude":18.5699,"id":"a6sxy9q2u4nc"},"type":"Feature","geometry":{"type":"Point","coordinates":[18.5699,-33.9343]}},{"properties":{"latitude":-33.9892,"total":7524,"suburb":"Delft South","percentage":0.177,"longitude":18.6359,"id":"a6sxy9x0k4r7"},"type":"Feature","geometry":{"type":"Point","coordinates":[18.6359,-33.9892]}},{"properties":{"latitude":-34.0184,"total":7524,"suburb":"Weltevreden Valley North","percentage":0.177,"longitude":18.5846,"id":"a6sxy9xlu90a"},"type":"Feature","geometry":{"type":"Point","coordinates":[18.5846,-34.0184]}},{"properties":{"latitude":-33.982,"total":7263,"suburb":"Guguletu","percentage":0.171,"longitude":18.5721,"id":"a6sxya4ylvhz"},"type":"Feature","geometry":{"type":"Point","coordinates":[18.5721,-33.982]}},{"properties":{"latitude":-34.0626,"total":7081,"suburb":"Rocklands","percentage":0.167,"longitude":18.6067,"id":"a6sxy9wphf0h"},"type":"Feature","geometry":{"type":"Point","coordinates":[18.6067,-34.0626]}},{"properties":{"latitude":-33.9546,"total":7026,"suburb":"Hazendal","percentage":0.166,"longitude":18.5051,"id":"a6sxya25per3"},"type":"Feature","geometry":{"type":"Point","coordinates":[18.5051,-33.9546]}},{"properties":{"latitude":-34.1085,"total":7022,"suburb":"Silver Mine Village","percentage":0.166,"longitude":18.3958,"id":"a6sxy9qoinnr"},"type":"Feature","geometry":{"type":"Point","coordinates":[18.3958,-34.1085]}},{"properties":{"latitude":-34.0072,"total":6986,"suburb":"Youngsfield","percentage":0.165,"longitude":18.4904,"id":"a6sxya10z7hc"},"type":"Feature","geometry":{"type":"Point","coordinates":[18.4904,-34.0072]}},{"properties":{"latitude":-33.8545,"total":6901,"suburb":"Klein Begin","percentage":0.163,"longitude":18.7292,"id":"a6sxya333x9z"},"type":"Feature","geometry":{"type":"Point","coordinates":[18.7292,-33.8545]}},{"properties":{"latitude":-34.0264,"total":6884,"suburb":"Plumstead","percentage":0.162,"longitude":18.4723,"id":"a6sxy9zqukkj"},"type":"Feature","geometry":{"type":"Point","coordinates":[18.4723,-34.0264]}},{"properties":{"latitude":-33.7262,"total":6823,"suburb":"Kingston Town","percentage":0.161,"longitude":19.003,"id":"a6sxya0mpfu1"},"type":"Feature","geometry":{"type":"Point","coordinates":[19.003,-33.7262]}},{"properties":{"latitude":-33.7009,"total":6770,"suburb":"Smartie Town","percentage":0.16,"longitude":19.0062,"id":"a6sxya5xe8g1"},"type":"Feature","geometry":{"type":"Point","coordinates":[19.0062,-33.7009]}},{"properties":{"latitude":-34.0259,"total":6746,"suburb":"Knole Park","percentage":0.159,"longitude":18.5272,"id":"a6sxy9qsqs8c"},"type":"Feature","geometry":{"type":"Point","coordinates":[18.5272,-34.0259]}},{"properties":{"latitude":-33.8624,"total":6743,"suburb":"Okavango Park","percentage":0.159,"longitude":18.7035,"id":"a6sxy9u1c9pt"},"type":"Feature","geometry":{"type":"Point","coordinates":[18.7035,-33.8624]}},{"properties":{"latitude":-33.919,"total":6714,"suburb":"Grandwest","percentage":0.158,"longitude":18.5462,"id":"a6sxya2a1u3l"},"type":"Feature","geometry":{"type":"Point","coordinates":[18.5462,-33.919]}},{"properties":{"latitude":-33.9654,"total":6709,"suburb":"Heideveld","percentage":0.158,"longitude":18.554,"id":"a6sxy9z031pf"},"type":"Feature","geometry":{"type":"Point","coordinates":[18.554,-33.9654]}},{"properties":{"latitude":-34.0396,"total":6702,"suburb":"Lotus River","percentage":0.158,"longitude":18.5144,"id":"a6sxy9zjjis4"},"type":"Feature","geometry":{"type":"Point","coordinates":[18.5144,-34.0396]}},{"properties":{"latitude":-34.0126,"total":6652,"suburb":"Ottery","percentage":0.157,"longitude":18.5086,"id":"a6sxy9yucryk"},"type":"Feature","geometry":{"type":"Point","coordinates":[18.5086,-34.0126]}},{"properties":{"latitude":-33.8597,"total":6630,"suburb":"Bothasig","percentage":0.156,"longitude":18.5421,"id":"a6sxya11l0pj"},"type":"Feature","geometry":{"type":"Point","coordinates":[18.5421,-33.8597]}},{"properties":{"latitude":-33.9446,"total":6565,"suburb":"Belhar Ext 1","percentage":0.155,"longitude":18.6067,"id":"a6sxy9vc5mqz"},"type":"Feature","geometry":{"type":"Point","coordinates":[18.6067,-33.9446]}},{"properties":{"latitude":-33.743,"total":6540,"suburb":"Klein Parys","percentage":0.154,"longitude":18.9975,"id":"a6sxy9x67wsm"},"type":"Feature","geometry":{"type":"Point","coordinates":[18.9975,-33.743]}},{"properties":{"latitude":-33.9804,"total":6537,"suburb":"Hatton","percentage":0.154,"longitude":18.5346,"id":"a6sxya1xklmg"},"type":"Feature","geometry":{"type":"Point","coordinates":[18.5346,-33.9804]}},{"properties":{"latitude":-34.1222,"total":6536,"suburb":"Lwandle","percentage":0.154,"longitude":18.8663,"id":"a6sxy9pnh2n3"},"type":"Feature","geometry":{"type":"Point","coordinates":[18.8663,-34.1222]}},{"properties":{"latitude":-34.0016,"total":6523,"suburb":"Springfield","percentage":0.154,"longitude":18.5316,"id":"a6sxya2r49mi"},"type":"Feature","geometry":{"type":"Point","coordinates":[18.5316,-34.0016]}},{"properties":{"latitude":-33.9745,"total":6478,"suburb":"Delft","percentage":0.153,"longitude":18.6369,"id":"a6sxya15rwns"},"type":"Feature","geometry":{"type":"Point","coordinates":[18.6369,-33.9745]}},{"properties":{"latitude":-34.0829,"total":6451,"suburb":"Lionviham","percentage":0.152,"longitude":18.8542,"id":"a6sxya210rip"},"type":"Feature","geometry":{"type":"Point","coordinates":[18.8542,-34.0829]}},{"properties":{"latitude":-33.9078,"total":6402,"suburb":"Belrail","percentage":0.151,"longitude":18.6324,"id":"a6sxy9ufqcyi"},"type":"Feature","geometry":{"type":"Point","coordinates":[18.6324,-33.9078]}},{"properties":{"latitude":-33.9911,"total":6358,"suburb":"Lansdowne","percentage":0.15,"longitude":18.5035,"id":"a6sxy9u48lnf"},"type":"Feature","geometry":{"type":"Point","coordinates":[18.5035,-33.9911]}},{"properties":{"latitude":-33.9671,"total":6320,"suburb":"Athlone","percentage":0.149,"longitude":18.5042,"id":"a6sxy9r1m5ks"},"type":"Feature","geometry":{"type":"Point","coordinates":[18.5042,-33.9671]}},{"properties":{"latitude":-33.5636,"total":6290,"suburb":"Atlantis","percentage":0.148,"longitude":18.494,"id":"a6sxya3j0etl"},"type":"Feature","geometry":{"type":"Point","coordinates":[18.494,-33.5636]}},{"properties":{"latitude":-33.9349,"total":6197,"suburb":"Gardens","percentage":0.146,"longitude":18.4107,"id":"a6sxy9vgcn9r"},"type":"Feature","geometry":{"type":"Point","coordinates":[18.4107,-33.9349]}},{"properties":{"latitude":-33.9316,"total":6177,"suburb":"Parow Industrial","percentage":0.146,"longitude":18.6126,"id":"a6sxya0wx9lp"},"type":"Feature","geometry":{"type":"Point","coordinates":[18.6126,-33.9316]}},{"properties":{"latitude":-33.9344,"total":6176,"suburb":"Pinelands","percentage":0.146,"longitude":18.5094,"id":"a6sxya5ilpl4"},"type":"Feature","geometry":{"type":"Point","coordinates":[18.5094,-33.9344]}},{"properties":{"latitude":-33.9265,"total":6151,"suburb":"Steel Park","percentage":0.145,"longitude":18.6333,"id":"a6sxy9td0mmm"},"type":"Feature","geometry":{"type":"Point","coordinates":[18.6333,-33.9265]}},{"properties":{"latitude":-34.0109,"total":6113,"suburb":"Khayelitsha Site C","percentage":0.144,"longitude":18.651,"id":"a6sxy9twdfkl"},"type":"Feature","geometry":{"type":"Point","coordinates":[18.651,-34.0109]}},{"properties":{"latitude":-34.1197,"total":6103,"suburb":"Guldenland","percentage":0.144,"longitude":18.8505,"id":"a6sxya01ss0u"},"type":"Feature","geometry":{"type":"Point","coordinates":[18.8505,-34.1197]}},{"properties":{"latitude":-33.9119,"total":6097,"suburb":"Access City","percentage":0.144,"longitude":18.6679,"id":"a6sxy9vax2do"},"type":"Feature","geometry":{"type":"Point","coordinates":[18.6679,-33.9119]}},{"properties":{"latitude":-33.8535,"total":6081,"suburb":"Kraaifontein","percentage":0.143,"longitude":18.7194,"id":"a6sxy9pu6wjz"},"type":"Feature","geometry":{"type":"Point","coordinates":[18.7194,-33.8535]}},{"properties":{"latitude":-33.6788,"total":6069,"suburb":"Drommedaris","percentage":0.143,"longitude":18.9855,"id":"a6sxya0an6iq"},"type":"Feature","geometry":{"type":"Point","coordinates":[18.9855,-33.6788]}},{"properties":{"latitude":-33.914,"total":6068,"suburb":"Elsies River","percentage":0.143,"longitude":18.5638,"id":"a6sxya65zylf"},"type":"Feature","geometry":{"type":"Point","coordinates":[18.5638,-33.914]}},{"properties":{"latitude":-34.0233,"total":5945,"suburb":"Edward","percentage":0.14,"longitude":18.5208,"id":"a6sxy9wah9fw"},"type":"Feature","geometry":{"type":"Point","coordinates":[18.5208,-34.0233]}},{"properties":{"latitude":-33.9263,"total":5929,"suburb":"Plankenbrug","percentage":0.14,"longitude":18.8559,"id":"a6sxy9u2id9c"},"type":"Feature","geometry":{"type":"Point","coordinates":[18.8559,-33.9263]}},{"properties":{"latitude":-34.3628,"total":5841,"suburb":"Fisherhaven","percentage":0.138,"longitude":19.1303,"id":"a6sxy9wha16l"},"type":"Feature","geometry":{"type":"Point","coordinates":[19.1303,-34.3628]}},{"properties":{"latitude":-34.146,"total":5743,"suburb":"Swannie River","percentage":0.135,"longitude":19.0168,"id":"a6sxy9tlzrtr"},"type":"Feature","geometry":{"type":"Point","coordinates":[19.0168,-34.146]}},{"properties":{"latitude":-34.0252,"total":5738,"suburb":"London Village","percentage":0.135,"longitude":18.5789,"id":"a6sxya40o6gr"},"type":"Feature","geometry":{"type":"Point","coordinates":[18.5789,-34.0252]}},{"properties":{"latitude":-33.8693,"total":5735,"suburb":"Scottsdene","percentage":0.135,"longitude":18.7257,"id":"a6sxy9zs95l8"},"type":"Feature","geometry":{"type":"Point","coordinates":[18.7257,-33.8693]}},{"properties":{"latitude":-34.2459,"total":5729,"suburb":"Cape of Good Hope Nature Reserve","percentage":0.135,"longitude":18.408,"id":"a6sxy9uou5pp"},"type":"Feature","geometry":{"type":"Point","coordinates":[18.408,-34.2459]}},{"properties":{"latitude":-34.0437,"total":5719,"suburb":"Firgrove Rural","percentage":0.135,"longitude":18.7506,"id":"a6sxya45iy34"},"type":"Feature","geometry":{"type":"Point","coordinates":[18.7506,-34.0437]}},{"properties":{"latitude":-33.9064,"total":5713,"suburb":"Richmond","percentage":0.135,"longitude":18.5741,"id":"a6sxy9ylubnj"},"type":"Feature","geometry":{"type":"Point","coordinates":[18.5741,-33.9064]}},{"properties":{"latitude":-33.8857,"total":5689,"suburb":"Sanddrift","percentage":0.134,"longitude":18.5064,"id":"a6sxya1i34jt"},"type":"Feature","geometry":{"type":"Point","coordinates":[18.5064,-33.8857]}},{"properties":{"latitude":-33.9734,"total":5648,"suburb":"Happy Valley","percentage":0.133,"longitude":18.6847,"id":"a6sxy9ru1mae"},"type":"Feature","geometry":{"type":"Point","coordinates":[18.6847,-33.9734]}},{"properties":{"latitude":-33.9515,"total":5593,"suburb":"Bonteheuwel","percentage":0.132,"longitude":18.5549,"id":"a6sxya5xcral"},"type":"Feature","geometry":{"type":"Point","coordinates":[18.5549,-33.9515]}},{"properties":{"latitude":-34.0876,"total":5585,"suburb":"Garden Village","percentage":0.132,"longitude":18.8395,"id":"a6sxy9t9rit7"},"type":"Feature","geometry":{"type":"Point","coordinates":[18.8395,-34.0876]}},{"properties":{"latitude":-33.9284,"total":5496,"suburb":"De Kuilen","percentage":0.13,"longitude":18.6779,"id":"a6sxya60fam0"},"type":"Feature","geometry":{"type":"Point","coordinates":[18.6779,-33.9284]}},{"properties":{"latitude":-34.0926,"total":5476,"suburb":"Helderzicht","percentage":0.129,"longitude":18.8316,"id":"a6sxya3llepm"},"type":"Feature","geometry":{"type":"Point","coordinates":[18.8316,-34.0926]}},{"properties":{"latitude":-33.8941,"total":5439,"suburb":"Pniel","percentage":0.128,"longitude":18.9583,"id":"a6sxy9vmeycr"},"type":"Feature","geometry":{"type":"Point","coordinates":[18.9583,-33.8941]}},{"properties":{"latitude":-33.8668,"total":5435,"suburb":"Brackenfell Industria","percentage":0.128,"longitude":18.7063,"id":"a6sxy9zqv2q4"},"type":"Feature","geometry":{"type":"Point","coordinates":[18.7063,-33.8668]}},{"properties":{"latitude":-33.7357,"total":5428,"suburb":"Melkbosstrand","percentage":0.128,"longitude":18.449,"id":"a6sxy9uiv0eq"},"type":"Feature","geometry":{"type":"Point","coordinates":[18.449,-33.7357]}},{"properties":{"latitude":-33.8864,"total":5401,"suburb":"Tijgerhof","percentage":0.127,"longitude":18.4987,"id":"a6sxya2t9w94"},"type":"Feature","geometry":{"type":"Point","coordinates":[18.4987,-33.8864]}},{"properties":{"latitude":-33.833,"total":5365,"suburb":"Richwood","percentage":0.127,"longitude":18.5434,"id":"a6sxy9tw35nt"},"type":"Feature","geometry":{"type":"Point","coordinates":[18.5434,-33.833]}},{"properties":{"latitude":-34.1216,"total":5358,"suburb":"Sir Lowry's Pass","percentage":0.126,"longitude":18.9065,"id":"a6sxy9tdj0l5"},"type":"Feature","geometry":{"type":"Point","coordinates":[18.9065,-34.1216]}},{"properties":{"latitude":-33.9226,"total":5339,"suburb":"Brantwood","percentage":0.126,"longitude":18.6734,"id":"a6sxy9xpj5vu"},"type":"Feature","geometry":{"type":"Point","coordinates":[18.6734,-33.9226]}},{"properties":{"latitude":-34.1158,"total":5337,"suburb":"Nomzamo","percentage":0.126,"longitude":18.8608,"id":"a6sxya3f3uej"},"type":"Feature","geometry":{"type":"Point","coordinates":[18.8608,-34.1158]}},{"properties":{"latitude":-33.8834,"total":5335,"suburb":"Plattekloof 1","percentage":0.126,"longitude":18.589,"id":"a6sxy9ugb8r5"},"type":"Feature","geometry":{"type":"Point","coordinates":[18.589,-33.8834]}},{"properties":{"latitude":-34.0977,"total":5310,"suburb":"Strand Halt","percentage":0.125,"longitude":18.848,"id":"a6sxy9rbzvr7"},"type":"Feature","geometry":{"type":"Point","coordinates":[18.848,-34.0977]}},{"properties":{"latitude":-34.0418,"total":5243,"suburb":"Griffiths Mxenge","percentage":0.124,"longitude":18.6803,"id":"a6sxy9q9m2r5"},"type":"Feature","geometry":{"type":"Point","coordinates":[18.6803,-34.0418]}},{"properties":{"latitude":-33.9078,"total":5209,"suburb":"Parow","percentage":0.123,"longitude":18.5843,"id":"a6sxy9q36pug"},"type":"Feature","geometry":{"type":"Point","coordinates":[18.5843,-33.9078]}},{"properties":{"latitude":-33.9593,"total":5153,"suburb":"Maycape","percentage":0.122,"longitude":18.6815,"id":"a6sxy9umtekv"},"type":"Feature","geometry":{"type":"Point","coordinates":[18.6815,-33.9593]}},{"properties":{"latitude":-34.0592,"total":5126,"suburb":"Tafelsig","percentage":0.121,"longitude":18.6398,"id":"a6sxy9znqat7"},"type":"Feature","geometry":{"type":"Point","coordinates":[18.6398,-34.0592]}},{"properties":{"latitude":-34.113,"total":5113,"suburb":"Somerset West Outlying","percentage":0.121,"longitude":18.8731,"id":"a6sxy9qfeb0x"},"type":"Feature","geometry":{"type":"Point","coordinates":[18.8731,-34.113]}},{"properties":{"latitude":-34.0708,"total":5099,"suburb":"Lavender Hill","percentage":0.12,"longitude":18.4896,"id":"a6sxya1qy8a0"},"type":"Feature","geometry":{"type":"Point","coordinates":[18.4896,-34.0708]}},{"properties":{"latitude":-33.9998,"total":5017,"suburb":"Mfuleni","percentage":0.118,"longitude":18.6778,"id":"a6sxy9u448wo"},"type":"Feature","geometry":{"type":"Point","coordinates":[18.6778,-33.9998]}},{"properties":{"latitude":-34.0455,"total":4999,"suburb":"Ekuphumleni","percentage":0.118,"longitude":18.672,"id":"a6sxya0k1c3v"},"type":"Feature","geometry":{"type":"Point","coordinates":[18.672,-34.0455]}},{"properties":{"latitude":-33.9652,"total":4982,"suburb":"Rondebosch","percentage":0.118,"longitude":18.4756,"id":"a6sxya3obry5"},"type":"Feature","geometry":{"type":"Point","coordinates":[18.4756,-33.9652]}},{"properties":{"latitude":-33.8881,"total":4955,"suburb":"North Camp Wingfield","percentage":0.117,"longitude":18.5423,"id":"a6sxy9qcfpnt"},"type":"Feature","geometry":{"type":"Point","coordinates":[18.5423,-33.8881]}},{"properties":{"latitude":-34.0519,"total":4944,"suburb":"Khayelitsha Town 2 Village","percentage":0.117,"longitude":18.6596,"id":"a6sxya0tt2ls"},"type":"Feature","geometry":{"type":"Point","coordinates":[18.6596,-34.0519]}},{"properties":{"latitude":-33.8891,"total":4932,"suburb":"Belvedere","percentage":0.116,"longitude":18.5993,"id":"a6sxya2yqz8r"},"type":"Feature","geometry":{"type":"Point","coordinates":[18.5993,-33.8891]}},{"properties":{"latitude":-33.9625,"total":4924,"suburb":"Silvertown","percentage":0.116,"longitude":18.523,"id":"a6sxy9vmiasl"},"type":"Feature","geometry":{"type":"Point","coordinates":[18.523,-33.9625]}},{"properties":{"latitude":-33.984,"total":4915,"suburb":"Steynsrust","percentage":0.116,"longitude":18.8221,"id":"a6sxy9tz5oo1"},"type":"Feature","geometry":{"type":"Point","coordinates":[18.8221,-33.984]}},{"properties":{"latitude":-33.9132,"total":4914,"suburb":"Parow Valley","percentage":0.116,"longitude":18.5928,"id":"a6sxy9ywemdf"},"type":"Feature","geometry":{"type":"Point","coordinates":[18.5928,-33.9132]}},{"properties":{"latitude":-33.7332,"total":4855,"suburb":"Paarlberg Nature Reserve","percentage":0.115,"longitude":18.9311,"id":"a6sxy9wig3r5"},"type":"Feature","geometry":{"type":"Point","coordinates":[18.9311,-33.7332]}},{"properties":{"latitude":-34.0794,"total":4835,"suburb":"Westlake","percentage":0.114,"longitude":18.4394,"id":"a6sxy9sr1y5w"},"type":"Feature","geometry":{"type":"Point","coordinates":[18.4394,-34.0794]}},{"properties":{"latitude":-34.0003,"total":4834,"suburb":"Yorkshire Estate","percentage":0.114,"longitude":18.5143,"id":"a6sxy9vropdn"},"type":"Feature","geometry":{"type":"Point","coordinates":[18.5143,-34.0003]}},{"properties":{"latitude":-34.0191,"total":4825,"suburb":"Royal Cape","percentage":0.114,"longitude":18.4884,"id":"a6sxy9rl813q"},"type":"Feature","geometry":{"type":"Point","coordinates":[18.4884,-34.0191]}},{"properties":{"latitude":-33.9517,"total":4821,"suburb":"Kewtown","percentage":0.114,"longitude":18.5152,"id":"a6sxy9rdcn88"},"type":"Feature","geometry":{"type":"Point","coordinates":[18.5152,-33.9517]}},{"properties":{"latitude":-34.0816,"total":4818,"suburb":"Andas Estate","percentage":0.114,"longitude":18.8457,"id":"a6sxy9ttpx5v"},"type":"Feature","geometry":{"type":"Point","coordinates":[18.8457,-34.0816]}},{"properties":{"latitude":-33.9385,"total":4787,"suburb":"Uitsig","percentage":0.113,"longitude":18.5989,"id":"a6sxy9vu007f"},"type":"Feature","geometry":{"type":"Point","coordinates":[18.5989,-33.9385]}},{"properties":{"latitude":-34.03,"total":4727,"suburb":"Montagu's Gift","percentage":0.112,"longitude":18.5103,"id":"a6sxy9wqoytx"},"type":"Feature","geometry":{"type":"Point","coordinates":[18.5103,-34.03]}},{"properties":{"latitude":-34.4171,"total":4723,"suburb":"Hermanus","percentage":0.111,"longitude":19.2379,"id":"a6sxy9yuuxjg"},"type":"Feature","geometry":{"type":"Point","coordinates":[19.2379,-34.4171]}},{"properties":{"latitude":-34.0232,"total":4660,"suburb":"Philippi AH","percentage":0.11,"longitude":18.5538,"id":"a6sxy9ymxnwn"},"type":"Feature","geometry":{"type":"Point","coordinates":[18.5538,-34.0232]}},{"properties":{"latitude":-34.063,"total":4655,"suburb":"Macassar","percentage":0.11,"longitude":18.7503,"id":"a6sxy9w452tz"},"type":"Feature","geometry":{"type":"Point","coordinates":[18.7503,-34.063]}},{"properties":{"latitude":-34.1198,"total":4638,"suburb":"Hazelwood Park","percentage":0.109,"longitude":18.3938,"id":"a6sxya1j8045"},"type":"Feature","geometry":{"type":"Point","coordinates":[18.3938,-34.1198]}},{"properties":{"latitude":-33.9273,"total":4619,"suburb":"Bosonia","percentage":0.109,"longitude":18.6823,"id":"a6sxy9q6dvvn"},"type":"Feature","geometry":{"type":"Point","coordinates":[18.6823,-33.9273]}},{"properties":{"latitude":-33.985,"total":4589,"suburb":"Brentwood Park","percentage":0.108,"longitude":18.6511,"id":"a6sxy9r9mpev"},"type":"Feature","geometry":{"type":"Point","coordinates":[18.6511,-33.985]}},{"properties":{"latitude":-33.8682,"total":4584,"suburb":"Kenridge Ext 3","percentage":0.108,"longitude":18.6362,"id":"a6sxy9zn1lny"},"type":"Feature","geometry":{"type":"Point","coordinates":[18.6362,-33.8682]}},{"properties":{"latitude":-34.0931,"total":4584,"suburb":"Costa Da Gama","percentage":0.108,"longitude":18.4838,"id":"a6sxya5jnhzp"},"type":"Feature","geometry":{"type":"Point","coordinates":[18.4838,-34.0931]}},{"properties":{"latitude":-33.9755,"total":4578,"suburb":"Gatesville","percentage":0.108,"longitude":18.5318,"id":"a6sxy9rmsiny"},"type":"Feature","geometry":{"type":"Point","coordinates":[18.5318,-33.9755]}},{"properties":{"latitude":-33.9509,"total":4568,"suburb":"Belhar Ext 18","percentage":0.108,"longitude":18.6563,"id":"a6sxy9w5av7d"},"type":"Feature","geometry":{"type":"Point","coordinates":[18.6563,-33.9509]}},{"properties":{"latitude":-33.9213,"total":4561,"suburb":"Green Lands","percentage":0.108,"longitude":18.6331,"id":"a6sxy9w6rbvw"},"type":"Feature","geometry":{"type":"Point","coordinates":[18.6331,-33.9213]}},{"properties":{"latitude":-33.9824,"total":4486,"suburb":"Lynedoch","percentage":0.106,"longitude":18.7699,"id":"a6sxya4s7nzj"},"type":"Feature","geometry":{"type":"Point","coordinates":[18.7699,-33.9824]}},{"properties":{"latitude":-34.0615,"total":4453,"suburb":"Schoongelegen","percentage":0.105,"longitude":18.8136,"id":"a6sxy9v3ifo8"},"type":"Feature","geometry":{"type":"Point","coordinates":[18.8136,-34.0615]}},{"properties":{"latitude":-33.8712,"total":4449,"suburb":"Edgemead","percentage":0.105,"longitude":18.5435,"id":"a6sxya0ou2y4"},"type":"Feature","geometry":{"type":"Point","coordinates":[18.5435,-33.8712]}},{"properties":{"latitude":-33.982,"total":4445,"suburb":"Eindehoven","percentage":0.105,"longitude":18.6472,"id":"a6sxy9wuz96l"},"type":"Feature","geometry":{"type":"Point","coordinates":[18.6472,-33.982]}},{"properties":{"latitude":-33.902,"total":4441,"suburb":"Franschhoek Outlying","percentage":0.105,"longitude":19.1639,"id":"a6sxy9wmkh79"},"type":"Feature","geometry":{"type":"Point","coordinates":[19.1639,-33.902]}},{"properties":{"latitude":-34.0603,"total":4432,"suburb":"Retreat","percentage":0.105,"longitude":18.4731,"id":"a6sxy9qc9h9p"},"type":"Feature","geometry":{"type":"Point","coordinates":[18.4731,-34.0603]}},{"properties":{"latitude":-33.9047,"total":4432,"suburb":"Goodwood","percentage":0.105,"longitude":18.5509,"id":"a6sxy9vd4tss"},"type":"Feature","geometry":{"type":"Point","coordinates":[18.5509,-33.9047]}},{"properties":{"latitude":-34.0994,"total":4428,"suburb":"Muizenberg","percentage":0.104,"longitude":18.4773,"id":"a6sxy9t8fwxt"},"type":"Feature","geometry":{"type":"Point","coordinates":[18.4773,-34.0994]}},{"properties":{"latitude":-33.9755,"total":4419,"suburb":"Surrey","percentage":0.104,"longitude":18.5443,"id":"a6sxy9xncdrg"},"type":"Feature","geometry":{"type":"Point","coordinates":[18.5443,-33.9755]}},{"properties":{"latitude":-34.0312,"total":4405,"suburb":"Woodlands","percentage":0.104,"longitude":18.5982,"id":"a6sxy9y01926"},"type":"Feature","geometry":{"type":"Point","coordinates":[18.5982,-34.0312]}},{"properties":{"latitude":-33.9235,"total":4405,"suburb":"Ravensmead","percentage":0.104,"longitude":18.6063,"id":"a6sxya4slgbc"},"type":"Feature","geometry":{"type":"Point","coordinates":[18.6063,-33.9235]}},{"properties":{"latitude":-33.8269,"total":4367,"suburb":"Sunridge","percentage":0.103,"longitude":18.5124,"id":"a6sxya2xfs0l"},"type":"Feature","geometry":{"type":"Point","coordinates":[18.5124,-33.8269]}},{"properties":{"latitude":-33.965,"total":4365,"suburb":"Vanguard","percentage":0.103,"longitude":18.5427,"id":"a6sxya5a45uj"},"type":"Feature","geometry":{"type":"Point","coordinates":[18.5427,-33.965]}},{"properties":{"latitude":-33.9926,"total":4351,"suburb":"Pinati","percentage":0.103,"longitude":18.5187,"id":"a6sxy9xki3qb"},"type":"Feature","geometry":{"type":"Point","coordinates":[18.5187,-33.9926]}},{"properties":{"latitude":-34.0947,"total":4331,"suburb":"Silvermine Nature Reserve","percentage":0.102,"longitude":18.4227,"id":"a6sxya4jne1s"},"type":"Feature","geometry":{"type":"Point","coordinates":[18.4227,-34.0947]}},{"properties":{"latitude":-34.0196,"total":4328,"suburb":"Ottery East","percentage":0.102,"longitude":18.5139,"id":"a6sxy9qteasv"},"type":"Feature","geometry":{"type":"Point","coordinates":[18.5139,-34.0196]}},{"properties":{"latitude":-34.1394,"total":4292,"suburb":"Fish Hoek","percentage":0.101,"longitude":18.421,"id":"a6sxy9woshss"},"type":"Feature","geometry":{"type":"Point","coordinates":[18.421,-34.1394]}},{"properties":{"latitude":-33.9204,"total":4290,"suburb":"Schotschekloof","percentage":0.101,"longitude":18.411,"id":"a6sxya5jhtmm"},"type":"Feature","geometry":{"type":"Point","coordinates":[18.411,-33.9204]}},{"properties":{"latitude":-33.8063,"total":4278,"suburb":"Klapmuts","percentage":0.101,"longitude":18.8676,"id":"a6sxya42zt52"},"type":"Feature","geometry":{"type":"Point","coordinates":[18.8676,-33.8063]}},{"properties":{"latitude":-33.9171,"total":4244,"suburb":"Sonnekuil","percentage":0.1,"longitude":18.6745,"id":"a6sxy9yrx6ap"},"type":"Feature","geometry":{"type":"Point","coordinates":[18.6745,-33.9171]}},{"properties":{"latitude":-34.036,"total":4234,"suburb":"Southfield","percentage":0.1,"longitude":18.4855,"id":"a6sxy9xahio8"},"type":"Feature","geometry":{"type":"Point","coordinates":[18.4855,-34.036]}},{"properties":{"latitude":-34.1195,"total":4198,"suburb":"Van Ryneveld","percentage":0.099,"longitude":18.8313,"id":"a6sxy9pumt6n"},"type":"Feature","geometry":{"type":"Point","coordinates":[18.8313,-34.1195]}},{"properties":{"latitude":-33.8605,"total":4180,"suburb":"Wallacedene","percentage":0.099,"longitude":18.7318,"id":"a6sxya4nmhf2"},"type":"Feature","geometry":{"type":"Point","coordinates":[18.7318,-33.8605]}},{"properties":{"latitude":-34.037,"total":4144,"suburb":"Weltevreden","percentage":0.098,"longitude":18.5879,"id":"a6sxy9zr9l2t"},"type":"Feature","geometry":{"type":"Point","coordinates":[18.5879,-34.037]}},{"properties":{"latitude":-33.9115,"total":4122,"suburb":"Klipkop","percentage":0.097,"longitude":18.6042,"id":"a6sxy9ts9uzl"},"type":"Feature","geometry":{"type":"Point","coordinates":[18.6042,-33.9115]}},{"properties":{"latitude":-33.9715,"total":4104,"suburb":"Blue Downs","percentage":0.097,"longitude":18.6483,"id":"a6sxy9v86mey"},"type":"Feature","geometry":{"type":"Point","coordinates":[18.6483,-33.9715]}},{"properties":{"latitude":-33.9209,"total":4104,"suburb":"Valhalla","percentage":0.097,"longitude":18.5639,"id":"a6sxy9r3qy5p"},"type":"Feature","geometry":{"type":"Point","coordinates":[18.5639,-33.9209]}},{"properties":{"latitude":-34.0745,"total":4084,"suburb":"Strandfontein","percentage":0.096,"longitude":18.5836,"id":"a6sxya3osbbf"},"type":"Feature","geometry":{"type":"Point","coordinates":[18.5836,-34.0745]}},{"properties":{"latitude":-34.0361,"total":4054,"suburb":"Khayelitsha SP","percentage":0.096,"longitude":18.6972,"id":"a6sxy9q7x0nz"},"type":"Feature","geometry":{"type":"Point","coordinates":[18.6972,-34.0361]}},{"properties":{"latitude":-33.8947,"total":4051,"suburb":"Tygerdal","percentage":0.096,"longitude":18.546,"id":"a6sxy9sbp91y"},"type":"Feature","geometry":{"type":"Point","coordinates":[18.546,-33.8947]}},{"properties":{"latitude":-34.0504,"total":4030,"suburb":"Eastridge","percentage":0.095,"longitude":18.6307,"id":"a6sxya1lfih8"},"type":"Feature","geometry":{"type":"Point","coordinates":[18.6307,-34.0504]}},{"properties":{"latitude":-34.0883,"total":3972,"suburb":"Capricorn","percentage":0.094,"longitude":18.5002,"id":"a6sxya0jhuh7"},"type":"Feature","geometry":{"type":"Point","coordinates":[18.5002,-34.0883]}},{"properties":{"latitude":-33.9373,"total":3957,"suburb":"Papegaaiberg Industrial Park","percentage":0.093,"longitude":18.8484,"id":"a6sxy9vco76g"},"type":"Feature","geometry":{"type":"Point","coordinates":[18.8484,-33.9373]}},{"properties":{"latitude":-34.0423,"total":3850,"suburb":"Khayelitsha T3 V5","percentage":0.091,"longitude":18.7036,"id":"a6sxy9yw3ufp"},"type":"Feature","geometry":{"type":"Point","coordinates":[18.7036,-34.0423]}},{"properties":{"latitude":-33.9032,"total":3799,"suburb":"Weltevrede","percentage":0.09,"longitude":18.846,"id":"a6sxy9rn9ljf"},"type":"Feature","geometry":{"type":"Point","coordinates":[18.846,-33.9032]}},{"properties":{"latitude":-33.9346,"total":3790,"suburb":"Peninsula Technicon","percentage":0.089,"longitude":18.6492,"id":"a6sxya2l5kkm"},"type":"Feature","geometry":{"type":"Point","coordinates":[18.6492,-33.9346]}},{"properties":{"latitude":-33.8917,"total":3699,"suburb":"Acacia Park","percentage":0.087,"longitude":18.5234,"id":"a6sxy9vjbye4"},"type":"Feature","geometry":{"type":"Point","coordinates":[18.5234,-33.8917]}},{"properties":{"latitude":-33.911,"total":3695,"suburb":"Kensington","percentage":0.087,"longitude":18.5057,"id":"a6sxy9viogbe"},"type":"Feature","geometry":{"type":"Point","coordinates":[18.5057,-33.911]}},{"properties":{"latitude":-34.0158,"total":3659,"suburb":"Heinz Park","percentage":0.086,"longitude":18.6107,"id":"a6sxya3hiszt"},"type":"Feature","geometry":{"type":"Point","coordinates":[18.6107,-34.0158]}},{"properties":{"latitude":-33.7709,"total":3590,"suburb":"Courtrai","percentage":0.085,"longitude":18.9558,"id":"a6sxya1xht6u"},"type":"Feature","geometry":{"type":"Point","coordinates":[18.9558,-33.7709]}},{"properties":{"latitude":-33.9258,"total":3585,"suburb":"Cravenby","percentage":0.085,"longitude":18.5888,"id":"a6sxy9utaj3s"},"type":"Feature","geometry":{"type":"Point","coordinates":[18.5888,-33.9258]}},{"properties":{"latitude":-34.1088,"total":3567,"suburb":"Rome","percentage":0.084,"longitude":18.8387,"id":"a6sxy9qqdi49"},"type":"Feature","geometry":{"type":"Point","coordinates":[18.8387,-34.1088]}},{"properties":{"latitude":-33.8757,"total":3528,"suburb":"Everite","percentage":0.083,"longitude":18.7059,"id":"a6sxy9ruzuis"},"type":"Feature","geometry":{"type":"Point","coordinates":[18.7059,-33.8757]}},{"properties":{"latitude":-33.9299,"total":3523,"suburb":"Sarepta","percentage":0.083,"longitude":18.6671,"id":"a6sxy9t6axni"},"type":"Feature","geometry":{"type":"Point","coordinates":[18.6671,-33.9299]}},{"properties":{"latitude":-34.0207,"total":3479,"suburb":"Stratford Green","percentage":0.082,"longitude":18.7365,"id":"a6sxy9rcqibi"},"type":"Feature","geometry":{"type":"Point","coordinates":[18.7365,-34.0207]}},{"properties":{"latitude":-33.9794,"total":3443,"suburb":"Webersvallei","percentage":0.081,"longitude":18.8482,"id":"a6sxy9scy9do"},"type":"Feature","geometry":{"type":"Point","coordinates":[18.8482,-33.9794]}},{"properties":{"latitude":-33.9532,"total":3383,"suburb":"Saxenburg Industrial Park","percentage":0.08,"longitude":18.7012,"id":"a6sxy9rfit01"},"type":"Feature","geometry":{"type":"Point","coordinates":[18.7012,-33.9532]}},{"properties":{"latitude":-33.9328,"total":3348,"suburb":"University of the Western Cape","percentage":0.079,"longitude":18.6248,"id":"a6sxya0grmrp"},"type":"Feature","geometry":{"type":"Point","coordinates":[18.6248,-33.9328]}},{"properties":{"latitude":-33.8742,"total":3344,"suburb":"Wemmershoek","percentage":0.079,"longitude":19.0399,"id":"a6sxy9qk7oro"},"type":"Feature","geometry":{"type":"Point","coordinates":[19.0399,-33.8742]}},{"properties":{"latitude":-33.9492,"total":3313,"suburb":"Belhar Ext 16","percentage":0.078,"longitude":18.6434,"id":"a6sxy9vjg2la"},"type":"Feature","geometry":{"type":"Point","coordinates":[18.6434,-33.9492]}},{"properties":{"latitude":-33.8818,"total":3299,"suburb":"Ferndale","percentage":0.078,"longitude":18.6775,"id":"a6sxy9xjimib"},"type":"Feature","geometry":{"type":"Point","coordinates":[18.6775,-33.8818]}},{"properties":{"latitude":-34.0244,"total":3227,"suburb":"Khayelitsha T1 V4 Site B","percentage":0.076,"longitude":18.6576,"id":"a6sxy9ufab3e"},"type":"Feature","geometry":{"type":"Point","coordinates":[18.6576,-34.0244]}},{"properties":{"latitude":-33.9128,"total":3225,"suburb":"Elsies River Industrial","percentage":0.076,"longitude":18.5726,"id":"a6sxya2trfdl"},"type":"Feature","geometry":{"type":"Point","coordinates":[18.5726,-33.9128]}},{"properties":{"latitude":-34.0272,"total":3224,"suburb":"Mfuleni SP","percentage":0.076,"longitude":18.7116,"id":"a6sxya40tygr"},"type":"Feature","geometry":{"type":"Point","coordinates":[18.7116,-34.0272]}},{"properties":{"latitude":-33.9501,"total":3210,"suburb":"Kalksteenfontein","percentage":0.076,"longitude":18.5652,"id":"a6sxy9wiq5eq"},"type":"Feature","geometry":{"type":"Point","coordinates":[18.5652,-33.9501]}},{"properties":{"latitude":-34.074,"total":3187,"suburb":"Steenberg Outlying","percentage":0.075,"longitude":18.4224,"id":"a6sxya4l1lz1"},"type":"Feature","geometry":{"type":"Point","coordinates":[18.4224,-34.074]}},{"properties":{"latitude":-33.6973,"total":3175,"suburb":"Dalvale","percentage":0.075,"longitude":19.0011,"id":"a6sxya4yoc2y"},"type":"Feature","geometry":{"type":"Point","coordinates":[19.0011,-33.6973]}},{"properties":{"latitude":-33.5827,"total":3163,"suburb":"Atlantis Outlying","percentage":0.075,"longitude":18.5439,"id":"a6sxy9xqevpz"},"type":"Feature","geometry":{"type":"Point","coordinates":[18.5439,-33.5827]}},{"properties":{"latitude":-33.9306,"total":3159,"suburb":"Klipdam","percentage":0.075,"longitude":18.686,"id":"a6sxya4qg2qj"},"type":"Feature","geometry":{"type":"Point","coordinates":[18.686,-33.9306]}},{"properties":{"latitude":-34.1128,"total":3091,"suburb":"Strand","percentage":0.073,"longitude":18.8318,"id":"a6sxya03nv0v"},"type":"Feature","geometry":{"type":"Point","coordinates":[18.8318,-34.1128]}},{"properties":{"latitude":-34.0682,"total":3090,"suburb":"Pelikan Park","percentage":0.073,"longitude":18.5265,"id":"a6sxy9wv1a39"},"type":"Feature","geometry":{"type":"Point","coordinates":[18.5265,-34.0682]}},{"properties":{"latitude":-33.9873,"total":3075,"suburb":"Sunset Glen","percentage":0.073,"longitude":18.6886,"id":"a6sxy9w38g2w"},"type":"Feature","geometry":{"type":"Point","coordinates":[18.6886,-33.9873]}},{"properties":{"latitude":-33.9444,"total":3052,"suburb":"Devonvallei","percentage":0.072,"longitude":18.8293,"id":"a6sxya1lj6u6"},"type":"Feature","geometry":{"type":"Point","coordinates":[18.8293,-33.9444]}},{"properties":{"latitude":-33.8057,"total":3042,"suburb":"Sunningdale","percentage":0.072,"longitude":18.487,"id":"a6sxy9pwdorp"},"type":"Feature","geometry":{"type":"Point","coordinates":[18.487,-33.8057]}},{"properties":{"latitude":-33.9173,"total":3029,"suburb":"Sea Point","percentage":0.071,"longitude":18.3881,"id":"a6sxya1skslw"},"type":"Feature","geometry":{"type":"Point","coordinates":[18.3881,-33.9173]}},{"properties":{"latitude":-33.9603,"total":3025,"suburb":"Bridgetown","percentage":0.071,"longitude":18.5316,"id":"a6sxy9vjhm4f"},"type":"Feature","geometry":{"type":"Point","coordinates":[18.5316,-33.9603]}},{"properties":{"latitude":-33.9083,"total":3007,"suburb":"Windermere","percentage":0.071,"longitude":18.5175,"id":"a6sxya3b1fch"},"type":"Feature","geometry":{"type":"Point","coordinates":[18.5175,-33.9083]}},{"properties":{"latitude":-33.7942,"total":2990,"suburb":"Bloubergstrand","percentage":0.071,"longitude":18.4611,"id":"a6sxy9xf0xdk"},"type":"Feature","geometry":{"type":"Point","coordinates":[18.4611,-33.7942]}},{"properties":{"latitude":-34.1239,"total":2988,"suburb":"Parks Estate","percentage":0.07,"longitude":18.8343,"id":"a6sxy9sfp0en"},"type":"Feature","geometry":{"type":"Point","coordinates":[18.8343,-34.1239]}},{"properties":{"latitude":-33.9404,"total":2983,"suburb":"Saint Dumas","percentage":0.07,"longitude":18.693,"id":"a6sxya1t4fl8"},"type":"Feature","geometry":{"type":"Point","coordinates":[18.693,-33.9404]}},{"properties":{"latitude":-33.9562,"total":2940,"suburb":"Wembley Park","percentage":0.069,"longitude":18.6704,"id":"a6sxya349fm6"},"type":"Feature","geometry":{"type":"Point","coordinates":[18.6704,-33.9562]}},{"properties":{"latitude":-33.9025,"total":2931,"suburb":"Green Oaks","percentage":0.069,"longitude":18.8502,"id":"a6sxy9sklgx9"},"type":"Feature","geometry":{"type":"Point","coordinates":[18.8502,-33.9025]}},{"properties":{"latitude":-33.8988,"total":2922,"suburb":"Oosterzee","percentage":0.069,"longitude":18.6059,"id":"a6sxy9ula407"},"type":"Feature","geometry":{"type":"Point","coordinates":[18.6059,-33.8988]}},{"properties":{"latitude":-34.015,"total":2918,"suburb":"Blue Downs","percentage":0.069,"longitude":18.6988,"id":"a6sxy9qefw15"},"type":"Feature","geometry":{"type":"Point","coordinates":[18.6988,-34.015]}},{"properties":{"latitude":-33.9486,"total":2917,"suburb":"Bishop Lavis","percentage":0.069,"longitude":18.5824,"id":"a6sxy9yu0hy0"},"type":"Feature","geometry":{"type":"Point","coordinates":[18.5824,-33.9486]}},{"properties":{"latitude":-33.9557,"total":2905,"suburb":"Camps Bay","percentage":0.069,"longitude":18.3845,"id":"a6sxy9xuus4h"},"type":"Feature","geometry":{"type":"Point","coordinates":[18.3845,-33.9557]}},{"properties":{"latitude":-33.9753,"total":2903,"suburb":"Gaylee","percentage":0.068,"longitude":18.7019,"id":"a6sxy9yuqe7e"},"type":"Feature","geometry":{"type":"Point","coordinates":[18.7019,-33.9753]}},{"properties":{"latitude":-34.0779,"total":2874,"suburb":"Coniston Park","percentage":0.068,"longitude":18.4741,"id":"a6sxy9wi76zq"},"type":"Feature","geometry":{"type":"Point","coordinates":[18.4741,-34.0779]}},{"properties":{"latitude":-33.7219,"total":2872,"suburb":"Lemoenkloof","percentage":0.068,"longitude":18.9535,"id":"a6sxy9vo7j7m"},"type":"Feature","geometry":{"type":"Point","coordinates":[18.9535,-33.7219]}},{"properties":{"latitude":-33.8711,"total":2869,"suburb":"Danena","percentage":0.068,"longitude":18.6399,"id":"a6sxy9qjaoqv"},"type":"Feature","geometry":{"type":"Point","coordinates":[18.6399,-33.8711]}},{"properties":{"latitude":-33.8732,"total":2860,"suburb":"Saint Micheals","percentage":0.067,"longitude":18.6909,"id":"a6sxya36rnt7"},"type":"Feature","geometry":{"type":"Point","coordinates":[18.6909,-33.8732]}},{"properties":{"latitude":-33.9139,"total":2855,"suburb":"Drosty Park","percentage":0.067,"longitude":18.6719,"id":"a6sxy9xy85oh"},"type":"Feature","geometry":{"type":"Point","coordinates":[18.6719,-33.9139]}},{"properties":{"latitude":-34.1632,"total":2855,"suburb":"Snake Park","percentage":0.067,"longitude":18.9918,"id":"a6sxy9pqyowf"},"type":"Feature","geometry":{"type":"Point","coordinates":[18.9918,-34.1632]}},{"properties":{"latitude":-33.8613,"total":2833,"suburb":"Milnerton","percentage":0.067,"longitude":18.5022,"id":"a6sxy9seg5kz"},"type":"Feature","geometry":{"type":"Point","coordinates":[18.5022,-33.8613]}},{"properties":{"latitude":-33.8681,"total":2831,"suburb":"Vredekloof Rand","percentage":0.067,"longitude":18.6725,"id":"a6sxya606pzv"},"type":"Feature","geometry":{"type":"Point","coordinates":[18.6725,-33.8681]}},{"properties":{"latitude":-33.9092,"total":2809,"suburb":"Triangle Farm","percentage":0.066,"longitude":18.6455,"id":"a6sxy9rq88x6"},"type":"Feature","geometry":{"type":"Point","coordinates":[18.6455,-33.9092]}},{"properties":{"latitude":-34.0518,"total":2801,"suburb":"Schaap Kraal","percentage":0.066,"longitude":18.556,"id":"a6sxya4kvv8v"},"type":"Feature","geometry":{"type":"Point","coordinates":[18.556,-34.0518]}},{"properties":{"latitude":-33.9625,"total":2794,"suburb":"Montana","percentage":0.066,"longitude":18.5772,"id":"a6sxy9woqf58"},"type":"Feature","geometry":{"type":"Point","coordinates":[18.5772,-33.9625]}},{"properties":{"latitude":-34.0151,"total":2787,"suburb":"Mandalay","percentage":0.066,"longitude":18.62,"id":"a6sxy9xxflug"},"type":"Feature","geometry":{"type":"Point","coordinates":[18.62,-34.0151]}},{"properties":{"latitude":-34.1066,"total":2779,"suburb":"Noordhoek Manor","percentage":0.066,"longitude":18.3998,"id":"a6sxy9z2lp0g"},"type":"Feature","geometry":{"type":"Point","coordinates":[18.3998,-34.1066]}},{"properties":{"latitude":-33.9289,"total":2776,"suburb":"Tamboerskloof","percentage":0.065,"longitude":18.4043,"id":"a6sxya387v6q"},"type":"Feature","geometry":{"type":"Point","coordinates":[18.4043,-33.9289]}},{"properties":{"latitude":-33.7019,"total":2764,"suburb":"Fairyland","percentage":0.065,"longitude":19.002,"id":"a6sxy9uwtene"},"type":"Feature","geometry":{"type":"Point","coordinates":[19.002,-33.7019]}},{"properties":{"latitude":-33.9086,"total":2760,"suburb":"Three Anchor Bay","percentage":0.065,"longitude":18.3979,"id":"a6sxy9sw67qa"},"type":"Feature","geometry":{"type":"Point","coordinates":[18.3979,-33.9086]}},{"properties":{"latitude":-33.9017,"total":2758,"suburb":"Richmond Estate","percentage":0.065,"longitude":18.5665,"id":"a6sxy9rxq6aj"},"type":"Feature","geometry":{"type":"Point","coordinates":[18.5665,-33.9017]}},{"properties":{"latitude":-33.8822,"total":2707,"suburb":"Kleinhoewes","percentage":0.064,"longitude":18.6721,"id":"a6sxy9torcp9"},"type":"Feature","geometry":{"type":"Point","coordinates":[18.6721,-33.8822]}},{"properties":{"latitude":-34.1516,"total":2699,"suburb":"Winslow","percentage":0.064,"longitude":18.869,"id":"a6sxy9xik8bt"},"type":"Feature","geometry":{"type":"Point","coordinates":[18.869,-34.1516]}},{"properties":{"latitude":-33.8694,"total":2693,"suburb":"Edenpark","percentage":0.064,"longitude":18.6783,"id":"a6sxya2la6ai"},"type":"Feature","geometry":{"type":"Point","coordinates":[18.6783,-33.8694]}},{"properties":{"latitude":-33.8533,"total":2675,"suburb":"Scottsville","percentage":0.063,"longitude":18.7055,"id":"a6sxy9vnsi7e"},"type":"Feature","geometry":{"type":"Point","coordinates":[18.7055,-33.8533]}},{"properties":{"latitude":-33.8822,"total":2675,"suburb":"Sonnendal","percentage":0.063,"longitude":18.5812,"id":"a6sxy9w4px0b"},"type":"Feature","geometry":{"type":"Point","coordinates":[18.5812,-33.8822]}},{"properties":{"latitude":-34.1063,"total":2658,"suburb":"Lochnerhof","percentage":0.063,"longitude":18.8247,"id":"a6sxya2r3dkq"},"type":"Feature","geometry":{"type":"Point","coordinates":[18.8247,-34.1063]}},{"properties":{"latitude":-34.0506,"total":2648,"suburb":"Westridge","percentage":0.062,"longitude":18.5989,"id":"a6sxya029roq"},"type":"Feature","geometry":{"type":"Point","coordinates":[18.5989,-34.0506]}},{"properties":{"latitude":-34.022,"total":2645,"suburb":"Fairways","percentage":0.062,"longitude":18.4927,"id":"a6sxy9rurybt"},"type":"Feature","geometry":{"type":"Point","coordinates":[18.4927,-34.022]}},{"properties":{"latitude":-34.0781,"total":2641,"suburb":"Sheraton Park","percentage":0.062,"longitude":18.4677,"id":"a6sxy9vvdhqo"},"type":"Feature","geometry":{"type":"Point","coordinates":[18.4677,-34.0781]}},{"properties":{"latitude":-33.9609,"total":2621,"suburb":"Roosendaal","percentage":0.062,"longitude":18.6511,"id":"a6sxy9w11abl"},"type":"Feature","geometry":{"type":"Point","coordinates":[18.6511,-33.9609]}},{"properties":{"latitude":-34.1266,"total":2621,"suburb":"Broadlands","percentage":0.062,"longitude":18.8743,"id":"a6sxya2mzn2n"},"type":"Feature","geometry":{"type":"Point","coordinates":[18.8743,-34.1266]}},{"properties":{"latitude":-34.0501,"total":2586,"suburb":"Mitchell's Plain","percentage":0.061,"longitude":18.6138,"id":"a6sxy9t7965j"},"type":"Feature","geometry":{"type":"Point","coordinates":[18.6138,-34.0501]}},{"properties":{"latitude":-33.9122,"total":2579,"suburb":"Saxon Industrial","percentage":0.061,"longitude":18.6468,"id":"a6sxy9zuo7q2"},"type":"Feature","geometry":{"type":"Point","coordinates":[18.6468,-33.9122]}},{"properties":{"latitude":-33.9652,"total":2577,"suburb":"Wimbledon Estate","percentage":0.061,"longitude":18.687,"id":"a6sxy9solrj4"},"type":"Feature","geometry":{"type":"Point","coordinates":[18.687,-33.9652]}},{"properties":{"latitude":-34.0046,"total":2575,"suburb":"Cedardale","percentage":0.061,"longitude":18.7279,"id":"a6sxy9wybdcx"},"type":"Feature","geometry":{"type":"Point","coordinates":[18.7279,-34.0046]}},{"properties":{"latitude":-34.048,"total":2571,"suburb":"Westgate","percentage":0.061,"longitude":18.5889,"id":"a6sxya1ucjtr"},"type":"Feature","geometry":{"type":"Point","coordinates":[18.5889,-34.048]}},{"properties":{"latitude":-34.0358,"total":2566,"suburb":"Diep River","percentage":0.061,"longitude":18.4645,"id":"a6sxy9qes4ei"},"type":"Feature","geometry":{"type":"Point","coordinates":[18.4645,-34.0358]}},{"properties":{"latitude":-34.0987,"total":2560,"suburb":"Goede Hoop","percentage":0.06,"longitude":18.8302,"id":"a6sxy9vvnkgb"},"type":"Feature","geometry":{"type":"Point","coordinates":[18.8302,-34.0987]}},{"properties":{"latitude":-33.959,"total":2519,"suburb":"The Hague","percentage":0.059,"longitude":18.6403,"id":"a6sxya40z4pc"},"type":"Feature","geometry":{"type":"Point","coordinates":[18.6403,-33.959]}},{"properties":{"latitude":-33.857,"total":2488,"suburb":"De Tuin","percentage":0.059,"longitude":18.6907,"id":"a6sxya0y6dsi"},"type":"Feature","geometry":{"type":"Point","coordinates":[18.6907,-33.857]}},{"properties":{"latitude":-33.9421,"total":2485,"suburb":"Erica Township","percentage":0.059,"longitude":18.616,"id":"a6sxya0um1d8"},"type":"Feature","geometry":{"type":"Point","coordinates":[18.616,-33.9421]}},{"properties":{"latitude":-34.0048,"total":2463,"suburb":"Philippi","percentage":0.058,"longitude":18.5309,"id":"a6sxya5yaej9"},"type":"Feature","geometry":{"type":"Point","coordinates":[18.5309,-34.0048]}},{"properties":{"latitude":-33.9947,"total":2441,"suburb":"Hanover Park","percentage":0.058,"longitude":18.5289,"id":"a6sxy9su2u9w"},"type":"Feature","geometry":{"type":"Point","coordinates":[18.5289,-33.9947]}},{"properties":{"latitude":-34.1086,"total":2440,"suburb":"Die Bos","percentage":0.058,"longitude":18.8502,"id":"a6sxya5tnowr"},"type":"Feature","geometry":{"type":"Point","coordinates":[18.8502,-34.1086]}},{"properties":{"latitude":-34.1272,"total":2422,"suburb":"Kalk Bay","percentage":0.057,"longitude":18.4456,"id":"a6sxya49pf8u"},"type":"Feature","geometry":{"type":"Point","coordinates":[18.4456,-34.1272]}},{"properties":{"latitude":-34.4172,"total":2422,"suburb":"Mount Pleasant","percentage":0.057,"longitude":19.2142,"id":"a6sxy9uzl6tn"},"type":"Feature","geometry":{"type":"Point","coordinates":[19.2142,-34.4172]}},{"properties":{"latitude":-34.046,"total":2418,"suburb":"Heathfield","percentage":0.057,"longitude":18.4687,"id":"a6sxya5wq1ko"},"type":"Feature","geometry":{"type":"Point","coordinates":[18.4687,-34.046]}},{"properties":{"latitude":-33.8892,"total":2388,"suburb":"Protea Hoogte","percentage":0.056,"longitude":18.7009,"id":"a6sxy9rs1psw"},"type":"Feature","geometry":{"type":"Point","coordinates":[18.7009,-33.8892]}},{"properties":{"latitude":-34.0505,"total":2376,"suburb":"Khayelitsha T3 V3","percentage":0.056,"longitude":18.7084,"id":"a6sxya2ng60j"},"type":"Feature","geometry":{"type":"Point","coordinates":[18.7084,-34.0505]}},{"properties":{"latitude":-34.1096,"total":2371,"suburb":"Crofters Valley","percentage":0.056,"longitude":18.392,"id":"a6sxya38lrnm"},"type":"Feature","geometry":{"type":"Point","coordinates":[18.392,-34.1096]}},{"properties":{"latitude":-34.0276,"total":2346,"suburb":"Raithby","percentage":0.055,"longitude":18.8101,"id":"a6sxy9tp99mz"},"type":"Feature","geometry":{"type":"Point","coordinates":[18.8101,-34.0276]}},{"properties":{"latitude":-33.6718,"total":2329,"suburb":"Koeberg","percentage":0.055,"longitude":18.4441,"id":"a6sxy9y5kp0y"},"type":"Feature","geometry":{"type":"Point","coordinates":[18.4441,-33.6718]}},{"properties":{"latitude":-33.9909,"total":2325,"suburb":"Kleinvlei","percentage":0.055,"longitude":18.7133,"id":"a6sxy9tkmy3d"},"type":"Feature","geometry":{"type":"Point","coordinates":[18.7133,-33.9909]}},{"properties":{"latitude":-33.9983,"total":2318,"suburb":"Rosedale","percentage":0.055,"longitude":18.7238,"id":"a6sxya391cvj"},"type":"Feature","geometry":{"type":"Point","coordinates":[18.7238,-33.9983]}},{"properties":{"latitude":-33.9151,"total":2281,"suburb":"Brandwag","percentage":0.054,"longitude":18.685,"id":"a6sxy9xcia9p"},"type":"Feature","geometry":{"type":"Point","coordinates":[18.685,-33.9151]}},{"properties":{"latitude":-33.9017,"total":2275,"suburb":"Bellville","percentage":0.054,"longitude":18.6206,"id":"a6sxya5dzlgk"},"type":"Feature","geometry":{"type":"Point","coordinates":[18.6206,-33.9017]}},{"properties":{"latitude":-33.8774,"total":2271,"suburb":"Bellville Ext 19","percentage":0.054,"longitude":18.6576,"id":"a6sxy9q39keg"},"type":"Feature","geometry":{"type":"Point","coordinates":[18.6576,-33.8774]}},{"properties":{"latitude":-33.9124,"total":2268,"suburb":"Tygerberg Hospital","percentage":0.054,"longitude":18.6136,"id":"a6sxy9xmcy48"},"type":"Feature","geometry":{"type":"Point","coordinates":[18.6136,-33.9124]}},{"properties":{"latitude":-33.5507,"total":2256,"suburb":"Saxonsea","percentage":0.053,"longitude":18.4885,"id":"a6sxy9tsoahl"},"type":"Feature","geometry":{"type":"Point","coordinates":[18.4885,-33.5507]}},{"properties":{"latitude":-33.8369,"total":2252,"suburb":"Bonny Brook","percentage":0.053,"longitude":18.7026,"id":"a6sxy9r35fiz"},"type":"Feature","geometry":{"type":"Point","coordinates":[18.7026,-33.8369]}},{"properties":{"latitude":-33.9004,"total":2251,"suburb":"Franschhoek","percentage":0.053,"longitude":19.1299,"id":"a6sxy9ycxwk5"},"type":"Feature","geometry":{"type":"Point","coordinates":[19.1299,-33.9004]}},{"properties":{"latitude":-33.904,"total":2241,"suburb":"Ysterplaat Airbase","percentage":0.053,"longitude":18.4969,"id":"a6sxy9zd6ue5"},"type":"Feature","geometry":{"type":"Point","coordinates":[18.4969,-33.904]}},{"properties":{"latitude":-34.0885,"total":2228,"suburb":"Humanshof Ext 1","percentage":0.053,"longitude":18.8431,"id":"a6sxy9qcx2pq"},"type":"Feature","geometry":{"type":"Point","coordinates":[18.8431,-34.0885]}},{"properties":{"latitude":-33.9797,"total":2223,"suburb":"Crawford","percentage":0.052,"longitude":18.5065,"id":"a6sxya2my1sq"},"type":"Feature","geometry":{"type":"Point","coordinates":[18.5065,-33.9797]}},{"properties":{"latitude":-33.8969,"total":2223,"suburb":"Rugby","percentage":0.052,"longitude":18.4886,"id":"a6sxy9qe8qei"},"type":"Feature","geometry":{"type":"Point","coordinates":[18.4886,-33.8969]}},{"properties":{"latitude":-33.9424,"total":2204,"suburb":"Kalkfontein","percentage":0.052,"longitude":18.6628,"id":"a6sxy9qql3c3"},"type":"Feature","geometry":{"type":"Point","coordinates":[18.6628,-33.9424]}},{"properties":{"latitude":-33.9449,"total":2179,"suburb":"Krigeville","percentage":0.051,"longitude":18.8585,"id":"a6sxy9wkpbmi"},"type":"Feature","geometry":{"type":"Point","coordinates":[18.8585,-33.9449]}},{"properties":{"latitude":-34.0259,"total":2162,"suburb":"Colorado","percentage":0.051,"longitude":18.5922,"id":"a6sxy9sp0rb4"},"type":"Feature","geometry":{"type":"Point","coordinates":[18.5922,-34.0259]}},{"properties":{"latitude":-33.8762,"total":2156,"suburb":"Vredenberg","percentage":0.051,"longitude":18.6679,"id":"a6sxya3u7rdc"},"type":"Feature","geometry":{"type":"Point","coordinates":[18.6679,-33.8762]}},{"properties":{"latitude":-33.8047,"total":2153,"suburb":"Parklands","percentage":0.051,"longitude":18.5037,"id":"a6sxya5rxh8t"},"type":"Feature","geometry":{"type":"Point","coordinates":[18.5037,-33.8047]}},{"properties":{"latitude":-34.0349,"total":2151,"suburb":"Khayelitsha T1 V2","percentage":0.051,"longitude":18.6719,"id":"a6sxya16vbbw"},"type":"Feature","geometry":{"type":"Point","coordinates":[18.6719,-34.0349]}},{"properties":{"latitude":-34.044,"total":2145,"suburb":"Graceland","percentage":0.051,"longitude":18.676,"id":"a6sxy9wvumya"},"type":"Feature","geometry":{"type":"Point","coordinates":[18.676,-34.044]}},{"properties":{"latitude":-34.0218,"total":2125,"suburb":"Constantia Village","percentage":0.05,"longitude":18.4413,"id":"a6sxy9rz9mrt"},"type":"Feature","geometry":{"type":"Point","coordinates":[18.4413,-34.0218]}},{"properties":{"latitude":-33.8442,"total":2118,"suburb":"Peerless Park East","percentage":0.05,"longitude":18.7213,"id":"a6sxya4efqyo"},"type":"Feature","geometry":{"type":"Point","coordinates":[18.7213,-33.8442]}},{"properties":{"latitude":-33.8692,"total":2100,"suburb":"Morgenster","percentage":0.05,"longitude":18.6969,"id":"a6sxy9r1l0pd"},"type":"Feature","geometry":{"type":"Point","coordinates":[18.6969,-33.8692]}},{"properties":{"latitude":-33.8622,"total":2094,"suburb":"Welgelee","percentage":0.049,"longitude":18.6885,"id":"a6sxy9wak4ib"},"type":"Feature","geometry":{"type":"Point","coordinates":[18.6885,-33.8622]}},{"properties":{"latitude":-33.681,"total":2087,"suburb":"Dalvale","percentage":0.049,"longitude":19.0049,"id":"a6sxy9wuwwv7"},"type":"Feature","geometry":{"type":"Point","coordinates":[19.0049,-33.681]}},{"properties":{"latitude":-33.8891,"total":2084,"suburb":"Brackenfell","percentage":0.049,"longitude":18.7202,"id":"a6sxy9sl1s8p"},"type":"Feature","geometry":{"type":"Point","coordinates":[18.7202,-33.8891]}},{"properties":{"latitude":-34.3878,"total":2064,"suburb":"Hawston","percentage":0.049,"longitude":19.1322,"id":"a6sxy9u03w09"},"type":"Feature","geometry":{"type":"Point","coordinates":[19.1322,-34.3878]}},{"properties":{"latitude":-33.9636,"total":2060,"suburb":"Vogelvlei","percentage":0.049,"longitude":18.6592,"id":"a6sxy9xhsejo"},"type":"Feature","geometry":{"type":"Point","coordinates":[18.6592,-33.9636]}},{"properties":{"latitude":-33.9464,"total":2050,"suburb":"Die Boord","percentage":0.048,"longitude":18.8485,"id":"a6sxy9ps1fye"},"type":"Feature","geometry":{"type":"Point","coordinates":[18.8485,-33.9464]}},{"properties":{"latitude":-34.1259,"total":2044,"suburb":"Sunnydale","percentage":0.048,"longitude":18.3839,"id":"a6sxya1e4v9n"},"type":"Feature","geometry":{"type":"Point","coordinates":[18.3839,-34.1259]}},{"properties":{"latitude":-33.9836,"total":2036,"suburb":"Belthorn Estate","percentage":0.048,"longitude":18.5137,"id":"a6sxy9ryxu05"},"type":"Feature","geometry":{"type":"Point","coordinates":[18.5137,-33.9836]}},{"properties":{"latitude":-34.1253,"total":2034,"suburb":"Weltevreden","percentage":0.048,"longitude":18.8422,"id":"a6sxy9vpmnot"},"type":"Feature","geometry":{"type":"Point","coordinates":[18.8422,-34.1253]}},{"properties":{"latitude":-34.0459,"total":2033,"suburb":"Scott Estate","percentage":0.048,"longitude":18.3686,"id":"a6sxya1h9uw7"},"type":"Feature","geometry":{"type":"Point","coordinates":[18.3686,-34.0459]}},{"properties":{"latitude":-34.0184,"total":2005,"suburb":"Barbarossa","percentage":0.047,"longitude":18.4527,"id":"a6sxya20gul9"},"type":"Feature","geometry":{"type":"Point","coordinates":[18.4527,-34.0184]}},{"properties":{"latitude":-34.3329,"total":1976,"suburb":"Kleinmond","percentage":0.047,"longitude":19.0175,"id":"a6sxy9vnq1ey"},"type":"Feature","geometry":{"type":"Point","coordinates":[19.0175,-34.3329]}},{"properties":{"latitude":-34.0139,"total":1972,"suburb":"Glen Alpine","percentage":0.047,"longitude":18.4088,"id":"a6sxy9val80z"},"type":"Feature","geometry":{"type":"Point","coordinates":[18.4088,-34.0139]}},{"properties":{"latitude":-33.8408,"total":1968,"suburb":"Windsor Estate","percentage":0.046,"longitude":18.7105,"id":"a6sxya4u5n0s"},"type":"Feature","geometry":{"type":"Point","coordinates":[18.7105,-33.8408]}},{"properties":{"latitude":-33.9207,"total":1966,"suburb":"Bellville South","percentage":0.046,"longitude":18.6383,"id":"a6sxya20ikxp"},"type":"Feature","geometry":{"type":"Point","coordinates":[18.6383,-33.9207]}},{"properties":{"latitude":-33.8681,"total":1954,"suburb":"Northpine","percentage":0.046,"longitude":18.7119,"id":"a6sxya2iewwa"},"type":"Feature","geometry":{"type":"Point","coordinates":[18.7119,-33.8681]}},{"properties":{"latitude":-33.8414,"total":1947,"suburb":"Zoo Park","percentage":0.046,"longitude":18.7012,"id":"a6sxya58amvq"},"type":"Feature","geometry":{"type":"Point","coordinates":[18.7012,-33.8414]}},{"properties":{"latitude":-33.9184,"total":1945,"suburb":"Leonsdale","percentage":0.046,"longitude":18.5782,"id":"a6sxy9v74yq7"},"type":"Feature","geometry":{"type":"Point","coordinates":[18.5782,-33.9184]}},{"properties":{"latitude":-33.8998,"total":1912,"suburb":"Kempenville","percentage":0.045,"longitude":18.6354,"id":"a6sxy9ppw70b"},"type":"Feature","geometry":{"type":"Point","coordinates":[18.6354,-33.8998]}},{"properties":{"latitude":-33.9253,"total":1907,"suburb":"Avonwood","percentage":0.045,"longitude":18.5805,"id":"a6sxya4fes5w"},"type":"Feature","geometry":{"type":"Point","coordinates":[18.5805,-33.9253]}},{"properties":{"latitude":-34.0377,"total":1895,"suburb":"Croydon","percentage":0.045,"longitude":18.7586,"id":"a6sxy9sxs732"},"type":"Feature","geometry":{"type":"Point","coordinates":[18.7586,-34.0377]}},{"properties":{"latitude":-33.9903,"total":1894,"suburb":"Fairdale","percentage":0.045,"longitude":18.677,"id":"a6sxy9wdzzn7"},"type":"Feature","geometry":{"type":"Point","coordinates":[18.677,-33.9903]}},{"properties":{"latitude":-33.9497,"total":1894,"suburb":"Belhar Ext 19","percentage":0.045,"longitude":18.6514,"id":"a6sxy9u1yiaz"},"type":"Feature","geometry":{"type":"Point","coordinates":[18.6514,-33.9497]}},{"properties":{"latitude":-33.8835,"total":1884,"suburb":"Blomtuin","percentage":0.044,"longitude":18.6474,"id":"a6sxy9pniybu"},"type":"Feature","geometry":{"type":"Point","coordinates":[18.6474,-33.8835]}},{"properties":{"latitude":-34.0779,"total":1875,"suburb":"Seawinds","percentage":0.044,"longitude":18.4845,"id":"a6sxy9zsjxfz"},"type":"Feature","geometry":{"type":"Point","coordinates":[18.4845,-34.0779]}},{"properties":{"latitude":-33.9533,"total":1871,"suburb":"Valhalla Park","percentage":0.044,"longitude":18.5728,"id":"a6sxy9ykm9ir"},"type":"Feature","geometry":{"type":"Point","coordinates":[18.5728,-33.9533]}},{"properties":{"latitude":-34.0618,"total":1862,"suburb":"Heldervue","percentage":0.044,"longitude":18.8213,"id":"a6sxy9rjunmj"},"type":"Feature","geometry":{"type":"Point","coordinates":[18.8213,-34.0618]}},{"properties":{"latitude":-33.96,"total":1831,"suburb":"Rustdal","percentage":0.043,"longitude":18.7011,"id":"a6sxy9wdbxve"},"type":"Feature","geometry":{"type":"Point","coordinates":[18.7011,-33.96]}},{"properties":{"latitude":-33.8874,"total":1825,"suburb":"Bellville Ext 20","percentage":0.043,"longitude":18.6192,"id":"a6sxya0fdndy"},"type":"Feature","geometry":{"type":"Point","coordinates":[18.6192,-33.8874]}},{"properties":{"latitude":-33.9054,"total":1824,"suburb":"Stikland","percentage":0.043,"longitude":18.652,"id":"a6sxy9xftk8a"},"type":"Feature","geometry":{"type":"Point","coordinates":[18.652,-33.9054]}},{"properties":{"latitude":-33.8998,"total":1811,"suburb":"Fairfield Estate","percentage":0.043,"longitude":18.5932,"id":"a6sxy9yn0mxy"},"type":"Feature","geometry":{"type":"Point","coordinates":[18.5932,-33.8998]}},{"properties":{"latitude":-33.5747,"total":1810,"suburb":"Protea Park","percentage":0.043,"longitude":18.4968,"id":"a6sxy9zu6c4u"},"type":"Feature","geometry":{"type":"Point","coordinates":[18.4968,-33.5747]}},{"properties":{"latitude":-34.0666,"total":1800,"suburb":"Khayelitsha T2 V2B","percentage":0.042,"longitude":18.6785,"id":"a6sxy9zaugmf"},"type":"Feature","geometry":{"type":"Point","coordinates":[18.6785,-34.0666]}},{"properties":{"latitude":-33.9901,"total":1798,"suburb":"Bishopscourt","percentage":0.042,"longitude":18.444,"id":"a6sxy9ypdmz9"},"type":"Feature","geometry":{"type":"Point","coordinates":[18.444,-33.9901]}},{"properties":{"latitude":-34.0026,"total":1790,"suburb":"Russels Rest","percentage":0.042,"longitude":18.7254,"id":"a6sxy9so3ard"},"type":"Feature","geometry":{"type":"Point","coordinates":[18.7254,-34.0026]}},{"properties":{"latitude":-34.0047,"total":1788,"suburb":"Drift Sands","percentage":0.042,"longitude":18.6595,"id":"a6sxy9vhpy62"},"type":"Feature","geometry":{"type":"Point","coordinates":[18.6595,-34.0047]}},{"properties":{"latitude":-33.8852,"total":1788,"suburb":"Woodbridge Island","percentage":0.042,"longitude":18.4866,"id":"a6sxy9syq771"},"type":"Feature","geometry":{"type":"Point","coordinates":[18.4866,-33.8852]}},{"properties":{"latitude":-33.9866,"total":1783,"suburb":"Mountview","percentage":0.042,"longitude":18.5267,"id":"a6sxya5dj26i"},"type":"Feature","geometry":{"type":"Point","coordinates":[18.5267,-33.9866]}},{"properties":{"latitude":-33.9201,"total":1778,"suburb":"Glenhaven","percentage":0.042,"longitude":18.6586,"id":"a6sxya1x0rix"},"type":"Feature","geometry":{"type":"Point","coordinates":[18.6586,-33.9201]}},{"properties":{"latitude":-34.0597,"total":1774,"suburb":"Khayelitsha T3 V2","percentage":0.042,"longitude":18.7038,"id":"a6sxy9rjywwo"},"type":"Feature","geometry":{"type":"Point","coordinates":[18.7038,-34.0597]}},{"properties":{"latitude":-33.9402,"total":1766,"suburb":"Adriaanse","percentage":0.042,"longitude":18.5886,"id":"a6sxy9yvweth"},"type":"Feature","geometry":{"type":"Point","coordinates":[18.5886,-33.9402]}},{"properties":{"latitude":-33.9148,"total":1748,"suburb":"Cloetesville","percentage":0.041,"longitude":18.8528,"id":"a6sxy9tscenb"},"type":"Feature","geometry":{"type":"Point","coordinates":[18.8528,-33.9148]}},{"properties":{"latitude":-33.9716,"total":1747,"suburb":"Belgravia","percentage":0.041,"longitude":18.5185,"id":"a6sxy9unpnzb"},"type":"Feature","geometry":{"type":"Point","coordinates":[18.5185,-33.9716]}},{"properties":{"latitude":-33.9139,"total":1746,"suburb":"Blanc Kelly","percentage":0.041,"longitude":18.636,"id":"a6sxya2hcfpz"},"type":"Feature","geometry":{"type":"Point","coordinates":[18.636,-33.9139]}},{"properties":{"latitude":-33.9408,"total":1731,"suburb":"Oranjezicht","percentage":0.041,"longitude":18.4132,"id":"a6sxy9sxi7u3"},"type":"Feature","geometry":{"type":"Point","coordinates":[18.4132,-33.9408]}},{"properties":{"latitude":-34.045,"total":1730,"suburb":"Klein Helderberg","percentage":0.041,"longitude":18.826,"id":"a6sxy9zdov5x"},"type":"Feature","geometry":{"type":"Point","coordinates":[18.826,-34.045]}},{"properties":{"latitude":-34.0905,"total":1729,"suburb":"Longdown Estate","percentage":0.041,"longitude":18.8532,"id":"a6sxya34tl0s"},"type":"Feature","geometry":{"type":"Point","coordinates":[18.8532,-34.0905]}},{"properties":{"latitude":-33.9189,"total":1727,"suburb":"Transnet Marshalling Yard","percentage":0.041,"longitude":18.6221,"id":"a6sxy9u2tb4p"},"type":"Feature","geometry":{"type":"Point","coordinates":[18.6221,-33.9189]}},{"properties":{"latitude":-33.8056,"total":1720,"suburb":"Vierlanden Heights","percentage":0.041,"longitude":18.6567,"id":"a6sxy9yncu8n"},"type":"Feature","geometry":{"type":"Point","coordinates":[18.6567,-33.8056]}},{"properties":{"latitude":-34.0976,"total":1716,"suburb":"Somerset Park","percentage":0.04,"longitude":18.8539,"id":"a6sxy9qlp15r"},"type":"Feature","geometry":{"type":"Point","coordinates":[18.8539,-34.0976]}},{"properties":{"latitude":-33.5668,"total":1701,"suburb":"Avondale","percentage":0.04,"longitude":18.4865,"id":"a6sxy9yn7uum"},"type":"Feature","geometry":{"type":"Point","coordinates":[18.4865,-33.5668]}},{"properties":{"latitude":-33.9641,"total":1698,"suburb":"Paradyskloof","percentage":0.04,"longitude":18.8546,"id":"a6sxya5j4we6"},"type":"Feature","geometry":{"type":"Point","coordinates":[18.8546,-33.9641]}},{"properties":{"latitude":-33.8336,"total":1691,"suburb":"Flamingo Vlei","percentage":0.04,"longitude":18.4998,"id":"a6sxy9tpicj8"},"type":"Feature","geometry":{"type":"Point","coordinates":[18.4998,-33.8336]}},{"properties":{"latitude":-34.0844,"total":1690,"suburb":"Lakeside","percentage":0.04,"longitude":18.4564,"id":"a6sxy9q1zw4a"},"type":"Feature","geometry":{"type":"Point","coordinates":[18.4564,-34.0844]}},{"properties":{"latitude":-33.9151,"total":1690,"suburb":"Beroma","percentage":0.04,"longitude":18.6533,"id":"a6sxya0zpbms"},"type":"Feature","geometry":{"type":"Point","coordinates":[18.6533,-33.9151]}},{"properties":{"latitude":-34.0304,"total":1685,"suburb":"Faure","percentage":0.04,"longitude":18.7474,"id":"a6sxy9uxi8pi"},"type":"Feature","geometry":{"type":"Point","coordinates":[18.7474,-34.0304]}},{"properties":{"latitude":-34.0605,"total":1674,"suburb":"Khayelitsha T3 V1","percentage":0.039,"longitude":18.6899,"id":"a6sxy9t5myfw"},"type":"Feature","geometry":{"type":"Point","coordinates":[18.6899,-34.0605]}},{"properties":{"latitude":-34.0225,"total":1669,"suburb":"Houghton Place","percentage":0.039,"longitude":18.7319,"id":"a6sxya0ccjvh"},"type":"Feature","geometry":{"type":"Point","coordinates":[18.7319,-34.0225]}},{"properties":{"latitude":-33.7018,"total":1654,"suburb":"Milky town","percentage":0.039,"longitude":19.0041,"id":"a6sxya62v2fq"},"type":"Feature","geometry":{"type":"Point","coordinates":[19.0041,-33.7018]}},{"properties":{"latitude":-34.0223,"total":1649,"suburb":"Eersterivier-Suid","percentage":0.039,"longitude":18.7243,"id":"a6sxya5ruxga"},"type":"Feature","geometry":{"type":"Point","coordinates":[18.7243,-34.0223]}},{"properties":{"latitude":-33.9339,"total":1639,"suburb":"Elnor","percentage":0.039,"longitude":18.5798,"id":"a6sxya3rf5e9"},"type":"Feature","geometry":{"type":"Point","coordinates":[18.5798,-33.9339]}},{"properties":{"latitude":-34.121,"total":1633,"suburb":"Saint James","percentage":0.039,"longitude":18.4547,"id":"a6sxy9ugd848"},"type":"Feature","geometry":{"type":"Point","coordinates":[18.4547,-34.121]}},{"properties":{"latitude":-33.9395,"total":1624,"suburb":"Belhar Ext 17","percentage":0.038,"longitude":18.6299,"id":"a6sxy9vl6dxc"},"type":"Feature","geometry":{"type":"Point","coordinates":[18.6299,-33.9395]}},{"properties":{"latitude":-34.0969,"total":1623,"suburb":"Strandvale","percentage":0.038,"longitude":18.8375,"id":"a6sxy9sje2vu"},"type":"Feature","geometry":{"type":"Point","coordinates":[18.8375,-34.0969]}},{"properties":{"latitude":-33.9975,"total":1619,"suburb":"Malibu Village","percentage":0.038,"longitude":18.693,"id":"a6sxy9vngh4n"},"type":"Feature","geometry":{"type":"Point","coordinates":[18.693,-33.9975]}},{"properties":{"latitude":-34.0977,"total":1618,"suburb":"Uitkyk","percentage":0.038,"longitude":18.8522,"id":"a6sxy9vgkeo1"},"type":"Feature","geometry":{"type":"Point","coordinates":[18.8522,-34.0977]}},{"properties":{"latitude":-33.8956,"total":1601,"suburb":"Bellville West Ext 1","percentage":0.038,"longitude":18.6097,"id":"a6sxya31xy87"},"type":"Feature","geometry":{"type":"Point","coordinates":[18.6097,-33.8956]}},{"properties":{"latitude":-33.928,"total":1600,"suburb":"Bantry Bay","percentage":0.038,"longitude":18.3786,"id":"a6sxy9qqrtz0"},"type":"Feature","geometry":{"type":"Point","coordinates":[18.3786,-33.928]}},{"properties":{"latitude":-34.1518,"total":1598,"suburb":"Temperance Town","percentage":0.038,"longitude":18.8834,"id":"a6sxya1n7d51"},"type":"Feature","geometry":{"type":"Point","coordinates":[18.8834,-34.1518]}},{"properties":{"latitude":-33.9279,"total":1598,"suburb":"Simonswyk","percentage":0.038,"longitude":18.8774,"id":"a6sxya3q2z51"},"type":"Feature","geometry":{"type":"Point","coordinates":[18.8774,-33.9279]}},{"properties":{"latitude":-33.9623,"total":1589,"suburb":"Bakoven","percentage":0.037,"longitude":18.3803,"id":"a6sxy9vb62ss"},"type":"Feature","geometry":{"type":"Point","coordinates":[18.3803,-33.9623]}},{"properties":{"latitude":-34.1334,"total":1588,"suburb":"Fish Eagle Park","percentage":0.037,"longitude":18.3703,"id":"a6sxy9sl5on5"},"type":"Feature","geometry":{"type":"Point","coordinates":[18.3703,-34.1334]}},{"properties":{"latitude":-34.107,"total":1585,"suburb":"Kleinbos","percentage":0.037,"longitude":18.8422,"id":"a6sxy9t7of35"},"type":"Feature","geometry":{"type":"Point","coordinates":[18.8422,-34.107]}},{"properties":{"latitude":-33.8524,"total":1576,"suburb":"Peerless Park West","percentage":0.037,"longitude":18.7123,"id":"a6sxy9sobflk"},"type":"Feature","geometry":{"type":"Point","coordinates":[18.7123,-33.8524]}},{"properties":{"latitude":-33.8768,"total":1569,"suburb":"Plattekloof 2","percentage":0.037,"longitude":18.5841,"id":"a6sxy9zl3pr2"},"type":"Feature","geometry":{"type":"Point","coordinates":[18.5841,-33.8768]}},{"properties":{"latitude":-33.6911,"total":1567,"suburb":"Duynefontein","percentage":0.037,"longitude":18.4506,"id":"a6sxya01jeir"},"type":"Feature","geometry":{"type":"Point","coordinates":[18.4506,-33.6911]}},{"properties":{"latitude":-33.9072,"total":1565,"suburb":"Shirley Park","percentage":0.037,"longitude":18.6624,"id":"a6sxy9u8c4o2"},"type":"Feature","geometry":{"type":"Point","coordinates":[18.6624,-33.9072]}},{"properties":{"latitude":-33.8038,"total":1554,"suburb":"Blouberg Sands","percentage":0.037,"longitude":18.4797,"id":"a6sxya4f8t8v"},"type":"Feature","geometry":{"type":"Point","coordinates":[18.4797,-33.8038]}},{"properties":{"latitude":-33.8529,"total":1548,"suburb":"Sunset Beach","percentage":0.037,"longitude":18.492,"id":"a6sxy9vxaus0"},"type":"Feature","geometry":{"type":"Point","coordinates":[18.492,-33.8529]}},{"properties":{"latitude":-33.8966,"total":1537,"suburb":"Clamhall","percentage":0.036,"longitude":18.5892,"id":"a6sxya2xzkq0"},"type":"Feature","geometry":{"type":"Point","coordinates":[18.5892,-33.8966]}},{"properties":{"latitude":-33.9482,"total":1536,"suburb":"Belhar Ext 2","percentage":0.036,"longitude":18.6077,"id":"a6sxya2gfy7w"},"type":"Feature","geometry":{"type":"Point","coordinates":[18.6077,-33.9482]}},{"properties":{"latitude":-33.8958,"total":1532,"suburb":"Metro Industrial Township","percentage":0.036,"longitude":18.4822,"id":"a6sxya2yzcvm"},"type":"Feature","geometry":{"type":"Point","coordinates":[18.4822,-33.8958]}},{"properties":{"latitude":-33.9276,"total":1532,"suburb":"Salberau","percentage":0.036,"longitude":18.5708,"id":"a6sxy9t83bai"},"type":"Feature","geometry":{"type":"Point","coordinates":[18.5708,-33.9276]}},{"properties":{"latitude":-33.8841,"total":1529,"suburb":"Kaapzicht","percentage":0.036,"longitude":18.5652,"id":"a6sxy9wtdnen"},"type":"Feature","geometry":{"type":"Point","coordinates":[18.5652,-33.8841]}},{"properties":{"latitude":-34.0489,"total":1518,"suburb":"Hout Bay Harbour","percentage":0.036,"longitude":18.3418,"id":"a6sxya3re3n2"},"type":"Feature","geometry":{"type":"Point","coordinates":[18.3418,-34.0489]}},{"properties":{"latitude":-33.9463,"total":1516,"suburb":"Gersham","percentage":0.036,"longitude":18.6738,"id":"a6sxy9ztdybm"},"type":"Feature","geometry":{"type":"Point","coordinates":[18.6738,-33.9463]}},{"properties":{"latitude":-33.8954,"total":1516,"suburb":"Lagoon Beach","percentage":0.036,"longitude":18.4809,"id":"a6sxya14r8hu"},"type":"Feature","geometry":{"type":"Point","coordinates":[18.4809,-33.8954]}},{"properties":{"latitude":-33.8141,"total":1512,"suburb":"Blouberg Rise","percentage":0.036,"longitude":18.4835,"id":"a6sxya5ktvqv"},"type":"Feature","geometry":{"type":"Point","coordinates":[18.4835,-33.8141]}},{"properties":{"latitude":-33.9202,"total":1500,"suburb":"Avon","percentage":0.035,"longitude":18.5707,"id":"a6sxy9po5oi4"},"type":"Feature","geometry":{"type":"Point","coordinates":[18.5707,-33.9202]}},{"properties":{"latitude":-33.8157,"total":1498,"suburb":"Bloubergrant","percentage":0.035,"longitude":18.4763,"id":"a6sxy9r92xt6"},"type":"Feature","geometry":{"type":"Point","coordinates":[18.4763,-33.8157]}},{"properties":{"latitude":-33.9232,"total":1497,"suburb":"Thornton","percentage":0.035,"longitude":18.5306,"id":"a6sxy9xrc45q"},"type":"Feature","geometry":{"type":"Point","coordinates":[18.5306,-33.9232]}},{"properties":{"latitude":-34.0507,"total":1486,"suburb":"Khayelitsha T3 V4","percentage":0.035,"longitude":18.6955,"id":"a6sxy9x8e5tq"},"type":"Feature","geometry":{"type":"Point","coordinates":[18.6955,-34.0507]}},{"properties":{"latitude":-33.9579,"total":1485,"suburb":"Kuils River NU","percentage":0.035,"longitude":18.7236,"id":"a6sxya1fzonp"},"type":"Feature","geometry":{"type":"Point","coordinates":[18.7236,-33.9579]}},{"properties":{"latitude":-33.8897,"total":1483,"suburb":"De Tijger","percentage":0.035,"longitude":18.5945,"id":"a6sxy9qvcsgv"},"type":"Feature","geometry":{"type":"Point","coordinates":[18.5945,-33.8897]}},{"properties":{"latitude":-33.9,"total":1480,"suburb":"Avondstil","percentage":0.035,"longitude":18.6409,"id":"a6sxy9wqug6s"},"type":"Feature","geometry":{"type":"Point","coordinates":[18.6409,-33.9]}},{"properties":{"latitude":-33.9388,"total":1479,"suburb":"Eureka","percentage":0.035,"longitude":18.5906,"id":"a6sxy9vlvao7"},"type":"Feature","geometry":{"type":"Point","coordinates":[18.5906,-33.9388]}},{"properties":{"latitude":-34.0352,"total":1474,"suburb":"Meadowridge","percentage":0.035,"longitude":18.4534,"id":"a6sxya5cuz8e"},"type":"Feature","geometry":{"type":"Point","coordinates":[18.4534,-34.0352]}},{"properties":{"latitude":-33.9155,"total":1473,"suburb":"Marinda Heights","percentage":0.035,"longitude":18.6651,"id":"a6sxy9rogtib"},"type":"Feature","geometry":{"type":"Point","coordinates":[18.6651,-33.9155]}},{"properties":{"latitude":-33.8849,"total":1473,"suburb":"De Duin","percentage":0.035,"longitude":18.5707,"id":"a6sxya3t7ypg"},"type":"Feature","geometry":{"type":"Point","coordinates":[18.5707,-33.8849]}},{"properties":{"latitude":-33.8664,"total":1471,"suburb":"Plattekloof 3","percentage":0.035,"longitude":18.5798,"id":"a6sxy9snnflc"},"type":"Feature","geometry":{"type":"Point","coordinates":[18.5798,-33.8664]}},{"properties":{"latitude":-33.8611,"total":1465,"suburb":"Eversdal Ext 21","percentage":0.035,"longitude":18.6671,"id":"a6sxy9z3xow8"},"type":"Feature","geometry":{"type":"Point","coordinates":[18.6671,-33.8611]}},{"properties":{"latitude":-33.8821,"total":1459,"suburb":"Old Oak","percentage":0.034,"longitude":18.6629,"id":"a6sxy9s5btb3"},"type":"Feature","geometry":{"type":"Point","coordinates":[18.6629,-33.8821]}},{"properties":{"latitude":-33.8613,"total":1457,"suburb":"Kleinbosch","percentage":0.034,"longitude":18.5614,"id":"a6sxy9rabh7p"},"type":"Feature","geometry":{"type":"Point","coordinates":[18.5614,-33.8613]}},{"properties":{"latitude":-34.414,"total":1451,"suburb":"Vermont","percentage":0.034,"longitude":19.1548,"id":"a6sxya0k6wpg"},"type":"Feature","geometry":{"type":"Point","coordinates":[19.1548,-34.414]}},{"properties":{"latitude":-33.9183,"total":1414,"suburb":"Mabille Park","percentage":0.033,"longitude":18.6696,"id":"a6sxya55fxul"},"type":"Feature","geometry":{"type":"Point","coordinates":[18.6696,-33.9183]}},{"properties":{"latitude":-34.0375,"total":1411,"suburb":"Khayelitsha","percentage":0.033,"longitude":18.6602,"id":"a6sxy9tj460h"},"type":"Feature","geometry":{"type":"Point","coordinates":[18.6602,-34.0375]}},{"properties":{"latitude":-34.1633,"total":1407,"suburb":"Caledon Outlying","percentage":0.033,"longitude":19.0026,"id":"a6sxya13ylmj"},"type":"Feature","geometry":{"type":"Point","coordinates":[19.0026,-34.1633]}},{"properties":{"latitude":-33.9205,"total":1405,"suburb":"Bellville South Industrial","percentage":0.033,"longitude":18.6452,"id":"a6sxya21u2of"},"type":"Feature","geometry":{"type":"Point","coordinates":[18.6452,-33.9205]}},{"properties":{"latitude":-34.1444,"total":1379,"suburb":"Admirals Park","percentage":0.033,"longitude":18.8975,"id":"a6sxy9qbra02"},"type":"Feature","geometry":{"type":"Point","coordinates":[18.8975,-34.1444]}},{"properties":{"latitude":-34.0445,"total":1357,"suburb":"Elfindale","percentage":0.032,"longitude":18.4752,"id":"a6sxya1k3zzd"},"type":"Feature","geometry":{"type":"Point","coordinates":[18.4752,-34.0445]}},{"properties":{"latitude":-33.947,"total":1355,"suburb":"Belhar Ext 6","percentage":0.032,"longitude":18.6292,"id":"a6sxy9u4zb6b"},"type":"Feature","geometry":{"type":"Point","coordinates":[18.6292,-33.947]}},{"properties":{"latitude":-34.1251,"total":1330,"suburb":"Sun Valley","percentage":0.031,"longitude":18.3969,"id":"a6sxya5x0skk"},"type":"Feature","geometry":{"type":"Point","coordinates":[18.3969,-34.1251]}},{"properties":{"latitude":-33.9791,"total":1328,"suburb":"Silversands","percentage":0.031,"longitude":18.6769,"id":"a6sxya50tzni"},"type":"Feature","geometry":{"type":"Point","coordinates":[18.6769,-33.9791]}},{"properties":{"latitude":-33.8187,"total":1327,"suburb":"Uitzicht","percentage":0.031,"longitude":18.6866,"id":"a6sxya2ucfql"},"type":"Feature","geometry":{"type":"Point","coordinates":[18.6866,-33.8187]}},{"properties":{"latitude":-33.936,"total":1325,"suburb":"Clifton","percentage":0.031,"longitude":18.3792,"id":"a6sxy9uiyk02"},"type":"Feature","geometry":{"type":"Point","coordinates":[18.3792,-33.936]}},{"properties":{"latitude":-33.8476,"total":1324,"suburb":"Amanda Glen","percentage":0.031,"longitude":18.6738,"id":"a6sxy9zfjo8l"},"type":"Feature","geometry":{"type":"Point","coordinates":[18.6738,-33.8476]}},{"properties":{"latitude":-33.942,"total":1313,"suburb":"Devon Park","percentage":0.031,"longitude":18.8359,"id":"a6sxy9vugbqv"},"type":"Feature","geometry":{"type":"Point","coordinates":[18.8359,-33.942]}},{"properties":{"latitude":-33.8824,"total":1307,"suburb":"Eskom","percentage":0.031,"longitude":18.6429,"id":"a6sxya0s157a"},"type":"Feature","geometry":{"type":"Point","coordinates":[18.6429,-33.8824]}},{"properties":{"latitude":-34.1531,"total":1305,"suburb":"Ocean View","percentage":0.031,"longitude":18.3425,"id":"a6sxya4ovzyr"},"type":"Feature","geometry":{"type":"Point","coordinates":[18.3425,-34.1531]}},{"properties":{"latitude":-33.9318,"total":1304,"suburb":"Connaught","percentage":0.031,"longitude":18.5901,"id":"a6sxy9wesz0k"},"type":"Feature","geometry":{"type":"Point","coordinates":[18.5901,-33.9318]}},{"properties":{"latitude":-34.0166,"total":1303,"suburb":"Bongweni","percentage":0.031,"longitude":18.6352,"id":"a6sxy9xfkq9r"},"type":"Feature","geometry":{"type":"Point","coordinates":[18.6352,-34.0166]}},{"properties":{"latitude":-34.0026,"total":1294,"suburb":"Station Township","percentage":0.031,"longitude":18.7307,"id":"a6sxy9pqc6wa"},"type":"Feature","geometry":{"type":"Point","coordinates":[18.7307,-34.0026]}},{"properties":{"latitude":-33.8852,"total":1294,"suburb":"Hoheizen","percentage":0.031,"longitude":18.6211,"id":"a6sxy9z30nnf"},"type":"Feature","geometry":{"type":"Point","coordinates":[18.6211,-33.8852]}},{"properties":{"latitude":-33.8716,"total":1289,"suburb":"O'Kennedyville","percentage":0.03,"longitude":18.642,"id":"a6sxy9rtbzmo"},"type":"Feature","geometry":{"type":"Point","coordinates":[18.642,-33.8716]}},{"properties":{"latitude":-33.8453,"total":1282,"suburb":"Springfield","percentage":0.03,"longitude":18.6082,"id":"a6sxy9sk5unt"},"type":"Feature","geometry":{"type":"Point","coordinates":[18.6082,-33.8453]}},{"properties":{"latitude":-33.876,"total":1277,"suburb":"Vosfontein","percentage":0.03,"longitude":18.6609,"id":"a6sxy9x2znpd"},"type":"Feature","geometry":{"type":"Point","coordinates":[18.6609,-33.876]}},{"properties":{"latitude":-33.9493,"total":1276,"suburb":"Belhar Ext 3","percentage":0.03,"longitude":18.6209,"id":"a6sxya51e4hm"},"type":"Feature","geometry":{"type":"Point","coordinates":[18.6209,-33.9493]}},{"properties":{"latitude":-33.9839,"total":1265,"suburb":"Delro","percentage":0.03,"longitude":18.6818,"id":"a6sxy9y2qqzi"},"type":"Feature","geometry":{"type":"Point","coordinates":[18.6818,-33.9839]}},{"properties":{"latitude":-33.8833,"total":1263,"suburb":"Loeverstein","percentage":0.03,"longitude":18.6071,"id":"a6sxya5uxsnd"},"type":"Feature","geometry":{"type":"Point","coordinates":[18.6071,-33.8833]}},{"properties":{"latitude":-33.9581,"total":1253,"suburb":"Rondevallei","percentage":0.03,"longitude":18.675,"id":"a6sxy9rssvvh"},"type":"Feature","geometry":{"type":"Point","coordinates":[18.675,-33.9581]}},{"properties":{"latitude":-33.8692,"total":1249,"suburb":"Milnerton Golf Course","percentage":0.029,"longitude":18.492,"id":"a6sxy9t0b6sn"},"type":"Feature","geometry":{"type":"Point","coordinates":[18.492,-33.8692]}},{"properties":{"latitude":-33.8764,"total":1243,"suburb":"Stellenridge","percentage":0.029,"longitude":18.653,"id":"a6sxya00pejq"},"type":"Feature","geometry":{"type":"Point","coordinates":[18.653,-33.8764]}},{"properties":{"latitude":-33.8482,"total":1243,"suburb":"Windsor Park","percentage":0.029,"longitude":18.7067,"id":"a6sxy9y0yhw5"},"type":"Feature","geometry":{"type":"Point","coordinates":[18.7067,-33.8482]}},{"properties":{"latitude":-33.9737,"total":1243,"suburb":"Rylands","percentage":0.029,"longitude":18.5273,"id":"a6sxy9xlcgml"},"type":"Feature","geometry":{"type":"Point","coordinates":[18.5273,-33.9737]}},{"properties":{"latitude":-33.904,"total":1243,"suburb":"Stellenbosch Part 1","percentage":0.029,"longitude":18.8526,"id":"a6sxy9sguz1w"},"type":"Feature","geometry":{"type":"Point","coordinates":[18.8526,-33.904]}},{"properties":{"latitude":-33.9265,"total":1232,"suburb":"Papegaaiberg","percentage":0.029,"longitude":18.8496,"id":"a6sxy9x8vkul"},"type":"Feature","geometry":{"type":"Point","coordinates":[18.8496,-33.9265]}},{"properties":{"latitude":-33.9552,"total":1218,"suburb":"Kleingeluk","percentage":0.029,"longitude":18.8533,"id":"a6sxya09erub"},"type":"Feature","geometry":{"type":"Point","coordinates":[18.8533,-33.9552]}},{"properties":{"latitude":-33.893,"total":1216,"suburb":"Franschhoek North","percentage":0.029,"longitude":19.1021,"id":"a6sxy9w70t4j"},"type":"Feature","geometry":{"type":"Point","coordinates":[19.1021,-33.893]}},{"properties":{"latitude":-33.9048,"total":1201,"suburb":"Sanlamhof","percentage":0.028,"longitude":18.6458,"id":"a6sxya29xl3g"},"type":"Feature","geometry":{"type":"Point","coordinates":[18.6458,-33.9048]}},{"properties":{"latitude":-33.8838,"total":1199,"suburb":"Loevenstein Blv Ext 17","percentage":0.028,"longitude":18.6143,"id":"a6sxy9stpr0p"},"type":"Feature","geometry":{"type":"Point","coordinates":[18.6143,-33.8838]}},{"properties":{"latitude":-33.8963,"total":1199,"suburb":"Bosbell","percentage":0.028,"longitude":18.6263,"id":"a6sxya2j3dle"},"type":"Feature","geometry":{"type":"Point","coordinates":[18.6263,-33.8963]}},{"properties":{"latitude":-33.9852,"total":1198,"suburb":"Newfields","percentage":0.028,"longitude":18.5324,"id":"a6sxy9rswxlb"},"type":"Feature","geometry":{"type":"Point","coordinates":[18.5324,-33.9852]}},{"properties":{"latitude":-33.941,"total":1184,"suburb":"Vredehoek","percentage":0.028,"longitude":18.427,"id":"a6sxy9uzbp2u"},"type":"Feature","geometry":{"type":"Point","coordinates":[18.427,-33.941]}},{"properties":{"latitude":-34.1492,"total":1179,"suburb":"Gordon Strand","percentage":0.028,"longitude":18.8604,"id":"a6sxy9pzag5s"},"type":"Feature","geometry":{"type":"Point","coordinates":[18.8604,-34.1492]}},{"properties":{"latitude":-34.1582,"total":1179,"suburb":"Beverley Hills","percentage":0.028,"longitude":19.006,"id":"a6sxya2e8t1n"},"type":"Feature","geometry":{"type":"Point","coordinates":[19.006,-34.1582]}},{"properties":{"latitude":-34.0074,"total":1167,"suburb":"Wetton","percentage":0.028,"longitude":18.5142,"id":"a6sxya3nbilk"},"type":"Feature","geometry":{"type":"Point","coordinates":[18.5142,-34.0074]}},{"properties":{"latitude":-33.9239,"total":1162,"suburb":"Arbeidslus","percentage":0.027,"longitude":18.898,"id":"a6sxy9ql7n4n"},"type":"Feature","geometry":{"type":"Point","coordinates":[18.898,-33.9239]}},{"properties":{"latitude":-34.014,"total":1158,"suburb":"Tembani","percentage":0.027,"longitude":18.6349,"id":"a6sxya1700l7"},"type":"Feature","geometry":{"type":"Point","coordinates":[18.6349,-34.014]}},{"properties":{"latitude":-33.9807,"total":1155,"suburb":"Dennemere","percentage":0.027,"longitude":18.7093,"id":"a6sxy9pv1nh2"},"type":"Feature","geometry":{"type":"Point","coordinates":[18.7093,-33.9807]}},{"properties":{"latitude":-34.1474,"total":1152,"suburb":"Harbour Island","percentage":0.027,"longitude":18.8557,"id":"a6sxya540z9o"},"type":"Feature","geometry":{"type":"Point","coordinates":[18.8557,-34.1474]}},{"properties":{"latitude":-34.0495,"total":1152,"suburb":"Helderberg Estate","percentage":0.027,"longitude":18.8331,"id":"a6sxy9xx8tqd"},"type":"Feature","geometry":{"type":"Point","coordinates":[18.8331,-34.0495]}},{"properties":{"latitude":-34.0297,"total":1150,"suburb":"Imizamo Yethu","percentage":0.027,"longitude":18.3591,"id":"a6sxy9u5fgzw"},"type":"Feature","geometry":{"type":"Point","coordinates":[18.3591,-34.0297]}},{"properties":{"latitude":-34.0723,"total":1149,"suburb":"Steenberg","percentage":0.027,"longitude":18.4725,"id":"a6sxy9rhjwxg"},"type":"Feature","geometry":{"type":"Point","coordinates":[18.4725,-34.0723]}},{"properties":{"latitude":-33.8901,"total":1140,"suburb":"Parow North","percentage":0.027,"longitude":18.5786,"id":"a6sxy9r2epxu"},"type":"Feature","geometry":{"type":"Point","coordinates":[18.5786,-33.8901]}},{"properties":{"latitude":-34.0761,"total":1133,"suburb":"Somerset West","percentage":0.027,"longitude":18.8051,"id":"a6sxya2v1uut"},"type":"Feature","geometry":{"type":"Point","coordinates":[18.8051,-34.0761]}},{"properties":{"latitude":-34.045,"total":1126,"suburb":"Bergvliet","percentage":0.027,"longitude":18.4538,"id":"a6sxya2pzhuk"},"type":"Feature","geometry":{"type":"Point","coordinates":[18.4538,-34.045]}},{"properties":{"latitude":-33.94,"total":1124,"suburb":"Clarkes","percentage":0.027,"longitude":18.5815,"id":"a6sxy9ygi8g3"},"type":"Feature","geometry":{"type":"Point","coordinates":[18.5815,-33.94]}},{"properties":{"latitude":-33.9866,"total":1123,"suburb":"Oudekraal","percentage":0.026,"longitude":18.3666,"id":"a6sxya59vgt5"},"type":"Feature","geometry":{"type":"Point","coordinates":[18.3666,-33.9866]}},{"properties":{"latitude":-34.0579,"total":1120,"suburb":"Harare","percentage":0.026,"longitude":18.6725,"id":"a6sxya5ew0i8"},"type":"Feature","geometry":{"type":"Point","coordinates":[18.6725,-34.0579]}},{"properties":{"latitude":-33.9402,"total":1118,"suburb":"Martoosfontein","percentage":0.026,"longitude":18.5724,"id":"a6sxy9ttsw54"},"type":"Feature","geometry":{"type":"Point","coordinates":[18.5724,-33.9402]}},{"properties":{"latitude":-33.9386,"total":1118,"suburb":"Belhar Ext 23","percentage":0.026,"longitude":18.6416,"id":"a6sxya3h9n6d"},"type":"Feature","geometry":{"type":"Point","coordinates":[18.6416,-33.9386]}},{"properties":{"latitude":-34.0177,"total":1113,"suburb":"Electric City","percentage":0.026,"longitude":18.7147,"id":"a6sxy9qo7a8m"},"type":"Feature","geometry":{"type":"Point","coordinates":[18.7147,-34.0177]}},{"properties":{"latitude":-33.8178,"total":1108,"suburb":"The Crest","percentage":0.026,"longitude":18.6745,"id":"a6sxy9yh03l9"},"type":"Feature","geometry":{"type":"Point","coordinates":[18.6745,-33.8178]}},{"properties":{"latitude":-34.0072,"total":1106,"suburb":"Clairwood","percentage":0.026,"longitude":18.7276,"id":"a6sxya1i3qix"},"type":"Feature","geometry":{"type":"Point","coordinates":[18.7276,-34.0072]}},{"properties":{"latitude":-34.0695,"total":1105,"suburb":"Wolfgat Nature Reserve","percentage":0.026,"longitude":18.6486,"id":"a6sxya4xavu2"},"type":"Feature","geometry":{"type":"Point","coordinates":[18.6486,-34.0695]}},{"properties":{"latitude":-33.9446,"total":1103,"suburb":"Belhar Ext 14","percentage":0.026,"longitude":18.6375,"id":"a6sxy9w9svin"},"type":"Feature","geometry":{"type":"Point","coordinates":[18.6375,-33.9446]}},{"properties":{"latitude":-33.8618,"total":1102,"suburb":"Saint Kilda","percentage":0.026,"longitude":18.6901,"id":"a6sxy9ttxfld"},"type":"Feature","geometry":{"type":"Point","coordinates":[18.6901,-33.8618]}},{"properties":{"latitude":-34.0384,"total":1090,"suburb":"Berg-en-Dal","percentage":0.026,"longitude":18.3674,"id":"a6sxya1idujq"},"type":"Feature","geometry":{"type":"Point","coordinates":[18.3674,-34.0384]}},{"properties":{"latitude":-34.1285,"total":1089,"suburb":"Rusthof","percentage":0.026,"longitude":18.8516,"id":"a6sxya3320c4"},"type":"Feature","geometry":{"type":"Point","coordinates":[18.8516,-34.1285]}},{"properties":{"latitude":-33.9103,"total":1086,"suburb":"Idas Valley Outlying","percentage":0.026,"longitude":18.8574,"id":"a6sxya47mzy9"},"type":"Feature","geometry":{"type":"Point","coordinates":[18.8574,-33.9103]}},{"properties":{"latitude":-33.944,"total":1086,"suburb":"Belhar","percentage":0.026,"longitude":18.6576,"id":"a6sxy9u6vl95"},"type":"Feature","geometry":{"type":"Point","coordinates":[18.6576,-33.944]}},{"properties":{"latitude":-33.769,"total":1081,"suburb":"Milnerton Outlying","percentage":0.025,"longitude":18.456,"id":"a6sxy9x8pw0c"},"type":"Feature","geometry":{"type":"Point","coordinates":[18.456,-33.769]}},{"properties":{"latitude":-33.9514,"total":1079,"suburb":"Belhar Ext 13","percentage":0.025,"longitude":18.6391,"id":"a6sxy9qfipjw"},"type":"Feature","geometry":{"type":"Point","coordinates":[18.6391,-33.9514]}},{"properties":{"latitude":-34.1539,"total":1064,"suburb":"Gordon Heights","percentage":0.025,"longitude":18.8843,"id":"a6sxya5xgbai"},"type":"Feature","geometry":{"type":"Point","coordinates":[18.8843,-34.1539]}},{"properties":{"latitude":-34.0269,"total":1060,"suburb":"Weltevreden Valley","percentage":0.025,"longitude":18.5874,"id":"a6sxya5q0qyb"},"type":"Feature","geometry":{"type":"Point","coordinates":[18.5874,-34.0269]}},{"properties":{"latitude":-33.8397,"total":1046,"suburb":"Vergesicht","percentage":0.025,"longitude":18.6308,"id":"a6sxy9uo1h66"},"type":"Feature","geometry":{"type":"Point","coordinates":[18.6308,-33.8397]}},{"properties":{"latitude":-34.0602,"total":1027,"suburb":"Die Wingerd","percentage":0.024,"longitude":18.8316,"id":"a6sxy9rjwmmh"},"type":"Feature","geometry":{"type":"Point","coordinates":[18.8316,-34.0602]}},{"properties":{"latitude":-34.0101,"total":1023,"suburb":"Llandudno","percentage":0.024,"longitude":18.3414,"id":"a6sxya4d8vp1"},"type":"Feature","geometry":{"type":"Point","coordinates":[18.3414,-34.0101]}},{"properties":{"latitude":-33.9188,"total":1023,"suburb":"Ruyterwacht","percentage":0.024,"longitude":18.5572,"id":"a6sxy9zw44d4"},"type":"Feature","geometry":{"type":"Point","coordinates":[18.5572,-33.9188]}},{"properties":{"latitude":-34.0084,"total":1017,"suburb":"Alphen","percentage":0.024,"longitude":18.4477,"id":"a6sxy9wlit4e"},"type":"Feature","geometry":{"type":"Point","coordinates":[18.4477,-34.0084]}},{"properties":{"latitude":-33.9031,"total":1003,"suburb":"Vasco Estate","percentage":0.024,"longitude":18.5603,"id":"a6sxya4ts7at"},"type":"Feature","geometry":{"type":"Point","coordinates":[18.5603,-33.9031]}},{"properties":{"latitude":-34.1389,"total":1002,"suburb":"Imhoff's Gift","percentage":0.024,"longitude":18.3568,"id":"a6sxy9uqhnbl"},"type":"Feature","geometry":{"type":"Point","coordinates":[18.3568,-34.1389]}},{"properties":{"latitude":-34.0755,"total":999,"suburb":"Golden Acre","percentage":0.024,"longitude":18.8624,"id":"a6sxy9su5y5m"},"type":"Feature","geometry":{"type":"Point","coordinates":[18.8624,-34.0755]}},{"properties":{"latitude":-33.7024,"total":997,"suburb":"Van Riebeeckstrand","percentage":0.024,"longitude":18.4502,"id":"a6sxy9zqqkki"},"type":"Feature","geometry":{"type":"Point","coordinates":[18.4502,-33.7024]}},{"properties":{"latitude":-33.9364,"total":995,"suburb":"Robertsvlei","percentage":0.023,"longitude":19.0807,"id":"a6sxya10c4hi"},"type":"Feature","geometry":{"type":"Point","coordinates":[19.0807,-33.9364]}},{"properties":{"latitude":-33.8646,"total":994,"suburb":"Bellville Ext 43","percentage":0.023,"longitude":18.6284,"id":"a6sxy9u3kbdz"},"type":"Feature","geometry":{"type":"Point","coordinates":[18.6284,-33.8646]}},{"properties":{"latitude":-34.053,"total":985,"suburb":"Steenbras View","percentage":0.023,"longitude":18.8263,"id":"a6sxy9vefspe"},"type":"Feature","geometry":{"type":"Point","coordinates":[18.8263,-34.053]}},{"properties":{"latitude":-33.8705,"total":967,"suburb":"Welgelegen 2","percentage":0.023,"longitude":18.5674,"id":"a6sxya1v3z6y"},"type":"Feature","geometry":{"type":"Point","coordinates":[18.5674,-33.8705]}},{"properties":{"latitude":-34.0297,"total":958,"suburb":"Tierboskloof","percentage":0.023,"longitude":18.3726,"id":"a6sxya4hkg9l"},"type":"Feature","geometry":{"type":"Point","coordinates":[18.3726,-34.0297]}},{"properties":{"latitude":-33.8715,"total":952,"suburb":"East Rock","percentage":0.022,"longitude":18.6647,"id":"a6sxy9xwki74"},"type":"Feature","geometry":{"type":"Point","coordinates":[18.6647,-33.8715]}},{"properties":{"latitude":-33.8272,"total":946,"suburb":"Mornigstar","percentage":0.022,"longitude":18.6568,"id":"a6sxy9zcm95l"},"type":"Feature","geometry":{"type":"Point","coordinates":[18.6568,-33.8272]}},{"properties":{"latitude":-33.8532,"total":944,"suburb":"Oude Westhof","percentage":0.022,"longitude":18.5973,"id":"a6sxy9pzl36h"},"type":"Feature","geometry":{"type":"Point","coordinates":[18.5973,-33.8532]}},{"properties":{"latitude":-33.8797,"total":943,"suburb":"Blomvlei","percentage":0.022,"longitude":18.6194,"id":"a6sxya3ehymr"},"type":"Feature","geometry":{"type":"Point","coordinates":[18.6194,-33.8797]}},{"properties":{"latitude":-33.873,"total":939,"suburb":"Arauna","percentage":0.022,"longitude":18.6851,"id":"a6sxy9tvq5ki"},"type":"Feature","geometry":{"type":"Point","coordinates":[18.6851,-33.873]}},{"properties":{"latitude":-34.0672,"total":927,"suburb":"Golden Hill","percentage":0.022,"longitude":18.8644,"id":"a6sxy9unwosq"},"type":"Feature","geometry":{"type":"Point","coordinates":[18.8644,-34.0672]}},{"properties":{"latitude":-33.8274,"total":918,"suburb":"Aurora Ext D33","percentage":0.022,"longitude":18.6307,"id":"a6sxy9wp82mf"},"type":"Feature","geometry":{"type":"Point","coordinates":[18.6307,-33.8274]}},{"properties":{"latitude":-34.0929,"total":912,"suburb":"Van Der Stel","percentage":0.022,"longitude":18.8578,"id":"a6sxy9srzan2"},"type":"Feature","geometry":{"type":"Point","coordinates":[18.8578,-34.0929]}},{"properties":{"latitude":-33.5626,"total":912,"suburb":"Wesfleur","percentage":0.022,"longitude":18.4649,"id":"a6sxy9ylnc2n"},"type":"Feature","geometry":{"type":"Point","coordinates":[18.4649,-33.5626]}},{"properties":{"latitude":-34.1017,"total":908,"suburb":"The Palms","percentage":0.021,"longitude":18.8361,"id":"a6sxya644ze2"},"type":"Feature","geometry":{"type":"Point","coordinates":[18.8361,-34.1017]}},{"properties":{"latitude":-34.1274,"total":903,"suburb":"Helderberg Park","percentage":0.021,"longitude":18.8554,"id":"a6sxya067y65"},"type":"Feature","geometry":{"type":"Point","coordinates":[18.8554,-34.1274]}},{"properties":{"latitude":-33.974,"total":884,"suburb":"Wesbank","percentage":0.021,"longitude":18.6591,"id":"a6sxy9us1sk6"},"type":"Feature","geometry":{"type":"Point","coordinates":[18.6591,-33.974]}},{"properties":{"latitude":-34.0358,"total":879,"suburb":"Belle Constantia","percentage":0.021,"longitude":18.4407,"id":"a6sxy9u3rjzx"},"type":"Feature","geometry":{"type":"Point","coordinates":[18.4407,-34.0358]}},{"properties":{"latitude":-33.9812,"total":878,"suburb":"Drift Sands","percentage":0.021,"longitude":18.6607,"id":"a6sxya32uypi"},"type":"Feature","geometry":{"type":"Point","coordinates":[18.6607,-33.9812]}},{"properties":{"latitude":-33.9007,"total":872,"suburb":"Belgravia","percentage":0.021,"longitude":18.6438,"id":"a6sxya22n6ws"},"type":"Feature","geometry":{"type":"Point","coordinates":[18.6438,-33.9007]}},{"properties":{"latitude":-33.925,"total":853,"suburb":"La Colline","percentage":0.02,"longitude":18.8612,"id":"a6sxy9s4k48b"},"type":"Feature","geometry":{"type":"Point","coordinates":[18.8612,-33.925]}},{"properties":{"latitude":-33.8957,"total":850,"suburb":"Vredelust","percentage":0.02,"longitude":18.6117,"id":"a6sxy9r0ty1m"},"type":"Feature","geometry":{"type":"Point","coordinates":[18.6117,-33.8957]}},{"properties":{"latitude":-34.4286,"total":848,"suburb":"Zwelihle","percentage":0.02,"longitude":19.2117,"id":"a6sxy9tf34yo"},"type":"Feature","geometry":{"type":"Point","coordinates":[19.2117,-34.4286]}},{"properties":{"latitude":-33.9031,"total":845,"suburb":"Runkel","percentage":0.02,"longitude":18.6506,"id":"a6sxya25xukf"},"type":"Feature","geometry":{"type":"Point","coordinates":[18.6506,-33.9031]}},{"properties":{"latitude":-33.8636,"total":833,"suburb":"Kenever","percentage":0.02,"longitude":18.6373,"id":"a6sxya5cw1cu"},"type":"Feature","geometry":{"type":"Point","coordinates":[18.6373,-33.8636]}},{"properties":{"latitude":-34.4179,"total":832,"suburb":"Sandbaai","percentage":0.02,"longitude":19.1952,"id":"a6sxy9ykccow"},"type":"Feature","geometry":{"type":"Point","coordinates":[19.1952,-34.4179]}},{"properties":{"latitude":-34.1652,"total":832,"suburb":"Gordon's Bay","percentage":0.02,"longitude":18.8643,"id":"a6sxy9wkrnva"},"type":"Feature","geometry":{"type":"Point","coordinates":[18.8643,-34.1652]}},{"properties":{"latitude":-34.0115,"total":829,"suburb":"Washington Square","percentage":0.02,"longitude":18.6328,"id":"a6sxy9xizrbe"},"type":"Feature","geometry":{"type":"Point","coordinates":[18.6328,-34.0115]}},{"properties":{"latitude":-33.9414,"total":813,"suburb":"Belhar Ext 8","percentage":0.019,"longitude":18.6306,"id":"a6sxya5slgzr"},"type":"Feature","geometry":{"type":"Point","coordinates":[18.6306,-33.9414]}},{"properties":{"latitude":-33.9989,"total":799,"suburb":"Tuscany Glen","percentage":0.019,"longitude":18.7007,"id":"a6sxy9ylcawe"},"type":"Feature","geometry":{"type":"Point","coordinates":[18.7007,-33.9989]}},{"properties":{"latitude":-34.0726,"total":793,"suburb":"Kirstenhof","percentage":0.019,"longitude":18.4483,"id":"a6sxya5x3vzi"},"type":"Feature","geometry":{"type":"Point","coordinates":[18.4483,-34.0726]}},{"properties":{"latitude":-33.8337,"total":790,"suburb":"Country Places","percentage":0.019,"longitude":18.6758,"id":"a6sxya54cmr5"},"type":"Feature","geometry":{"type":"Point","coordinates":[18.6758,-33.8337]}},{"properties":{"latitude":-33.8427,"total":786,"suburb":"Langeberg Ridge","percentage":0.019,"longitude":18.6924,"id":"a6sxy9y5z27u"},"type":"Feature","geometry":{"type":"Point","coordinates":[18.6924,-33.8427]}},{"properties":{"latitude":-33.8354,"total":778,"suburb":"Langeberg Glen","percentage":0.018,"longitude":18.6931,"id":"a6sxya3bokh2"},"type":"Feature","geometry":{"type":"Point","coordinates":[18.6931,-33.8354]}},{"properties":{"latitude":-33.8957,"total":776,"suburb":"Joostenville","percentage":0.018,"longitude":18.6133,"id":"a6sxya32gui7"},"type":"Feature","geometry":{"type":"Point","coordinates":[18.6133,-33.8957]}},{"properties":{"latitude":-34.0671,"total":764,"suburb":"Griselda","percentage":0.018,"longitude":18.8305,"id":"a6sxy9t6ja46"},"type":"Feature","geometry":{"type":"Point","coordinates":[18.8305,-34.0671]}},{"properties":{"latitude":-33.8436,"total":761,"suburb":"Valmary Park","percentage":0.018,"longitude":18.6519,"id":"a6sxy9yv9zqp"},"type":"Feature","geometry":{"type":"Point","coordinates":[18.6519,-33.8436]}},{"properties":{"latitude":-33.8684,"total":750,"suburb":"Vredekloof Glen","percentage":0.018,"longitude":18.6757,"id":"a6sxya0ufxdc"},"type":"Feature","geometry":{"type":"Point","coordinates":[18.6757,-33.8684]}},{"properties":{"latitude":-33.9505,"total":749,"suburb":"Dalsig","percentage":0.018,"longitude":18.8585,"id":"a6sxy9u1fjqg"},"type":"Feature","geometry":{"type":"Point","coordinates":[18.8585,-33.9505]}},{"properties":{"latitude":-34.0573,"total":748,"suburb":"Montagu's Gift","percentage":0.018,"longitude":18.5883,"id":"a6sxya0y7e9g"},"type":"Feature","geometry":{"type":"Point","coordinates":[18.5883,-34.0573]}},{"properties":{"latitude":-33.9251,"total":742,"suburb":"Fresnaye","percentage":0.018,"longitude":18.387,"id":"a6sxy9tzu9u5"},"type":"Feature","geometry":{"type":"Point","coordinates":[18.387,-33.9251]}},{"properties":{"latitude":-34.0582,"total":739,"suburb":"Helena Heights","percentage":0.017,"longitude":18.8354,"id":"a6sxya5b5vuq"},"type":"Feature","geometry":{"type":"Point","coordinates":[18.8354,-34.0582]}},{"properties":{"latitude":-34.0721,"total":735,"suburb":"The Links","percentage":0.017,"longitude":18.8372,"id":"a6sxy9q56j8i"},"type":"Feature","geometry":{"type":"Point","coordinates":[18.8372,-34.0721]}},{"properties":{"latitude":-34.4088,"total":733,"suburb":"Onrus","percentage":0.017,"longitude":19.1836,"id":"a6sxy9u1a8s4"},"type":"Feature","geometry":{"type":"Point","coordinates":[19.1836,-34.4088]}},{"properties":{"latitude":-33.8999,"total":732,"suburb":"Harry de Villiers","percentage":0.017,"longitude":18.6378,"id":"a6sxya0zizl4"},"type":"Feature","geometry":{"type":"Point","coordinates":[18.6378,-33.8999]}},{"properties":{"latitude":-33.8944,"total":730,"suburb":"Boston","percentage":0.017,"longitude":18.6238,"id":"a6sxya01pr7e"},"type":"Feature","geometry":{"type":"Point","coordinates":[18.6238,-33.8944]}},{"properties":{"latitude":-33.8789,"total":724,"suburb":"Monte Vista","percentage":0.017,"longitude":18.5559,"id":"a6sxy9uu8o20"},"type":"Feature","geometry":{"type":"Point","coordinates":[18.5559,-33.8789]}},{"properties":{"latitude":-33.811,"total":724,"suburb":"Durmonte","percentage":0.017,"longitude":18.6669,"id":"a6sxy9xppfts"},"type":"Feature","geometry":{"type":"Point","coordinates":[18.6669,-33.811]}},{"properties":{"latitude":-34.1309,"total":723,"suburb":"Greenways","percentage":0.017,"longitude":18.8405,"id":"a6sxya23wi4r"},"type":"Feature","geometry":{"type":"Point","coordinates":[18.8405,-34.1309]}},{"properties":{"latitude":-34.0604,"total":718,"suburb":"Forest Glade","percentage":0.017,"longitude":18.4307,"id":"a6sxy9uzjn80"},"type":"Feature","geometry":{"type":"Point","coordinates":[18.4307,-34.0604]}},{"properties":{"latitude":-33.8849,"total":707,"suburb":"Plattekloof Glen","percentage":0.017,"longitude":18.5589,"id":"a6sxy9xiu8fe"},"type":"Feature","geometry":{"type":"Point","coordinates":[18.5589,-33.8849]}},{"properties":{"latitude":-33.9053,"total":705,"suburb":"Dunrobin","percentage":0.017,"longitude":18.6491,"id":"a6sxya5dx8nm"},"type":"Feature","geometry":{"type":"Point","coordinates":[18.6491,-33.9053]}},{"properties":{"latitude":-34.0493,"total":705,"suburb":"Mandela Park","percentage":0.017,"longitude":18.6835,"id":"a6sxya5vocbe"},"type":"Feature","geometry":{"type":"Point","coordinates":[18.6835,-34.0493]}},{"properties":{"latitude":-33.9149,"total":704,"suburb":"Soneike","percentage":0.017,"longitude":18.6802,"id":"a6sxy9qt8gmi"},"type":"Feature","geometry":{"type":"Point","coordinates":[18.6802,-33.9149]}},{"properties":{"latitude":-34.1296,"total":702,"suburb":"Fairie Knowe","percentage":0.017,"longitude":18.3847,"id":"a6sxy9z48u58"},"type":"Feature","geometry":{"type":"Point","coordinates":[18.3847,-34.1296]}},{"properties":{"latitude":-33.9257,"total":702,"suburb":"Kromrivier","percentage":0.017,"longitude":18.8641,"id":"a6sxy9zwxc52"},"type":"Feature","geometry":{"type":"Point","coordinates":[18.8641,-33.9257]}},{"properties":{"latitude":-34.1493,"total":695,"suburb":"Steenbras","percentage":0.016,"longitude":18.9935,"id":"a6sxy9pssb8h"},"type":"Feature","geometry":{"type":"Point","coordinates":[18.9935,-34.1493]}},{"properties":{"latitude":-34.1335,"total":693,"suburb":"Casablanca","percentage":0.016,"longitude":18.8594,"id":"a6sxya1ykzjb"},"type":"Feature","geometry":{"type":"Point","coordinates":[18.8594,-34.1335]}},{"properties":{"latitude":-33.849,"total":693,"suburb":"Durbanville Hills","percentage":0.016,"longitude":18.6405,"id":"a6sxya5xdigo"},"type":"Feature","geometry":{"type":"Point","coordinates":[18.6405,-33.849]}},{"properties":{"latitude":-34.0775,"total":688,"suburb":"Bene Township","percentage":0.016,"longitude":18.8543,"id":"a6sxy9xys4d9"},"type":"Feature","geometry":{"type":"Point","coordinates":[18.8543,-34.0775]}},{"properties":{"latitude":-34.0154,"total":681,"suburb":"Witteboomen","percentage":0.016,"longitude":18.4184,"id":"a6sxy9xbd8wc"},"type":"Feature","geometry":{"type":"Point","coordinates":[18.4184,-34.0154]}},{"properties":{"latitude":-33.9884,"total":677,"suburb":"Fountain Village","percentage":0.016,"longitude":18.6814,"id":"a6sxy9zp35vv"},"type":"Feature","geometry":{"type":"Point","coordinates":[18.6814,-33.9884]}},{"properties":{"latitude":-33.824,"total":674,"suburb":"Wellway Park","percentage":0.016,"longitude":18.6633,"id":"a6sxya2vjkn3"},"type":"Feature","geometry":{"type":"Point","coordinates":[18.6633,-33.824]}},{"properties":{"latitude":-34.1,"total":667,"suburb":"Chris Nissen Park","percentage":0.016,"longitude":18.8669,"id":"a6sxy9ql3egt"},"type":"Feature","geometry":{"type":"Point","coordinates":[18.8669,-34.1]}},{"properties":{"latitude":-33.9469,"total":666,"suburb":"Belhar Ext 20","percentage":0.016,"longitude":18.6518,"id":"a6sxy9rr7603"},"type":"Feature","geometry":{"type":"Point","coordinates":[18.6518,-33.9469]}},{"properties":{"latitude":-33.8223,"total":657,"suburb":"West Riding","percentage":0.015,"longitude":18.5142,"id":"a6sxy9spwwxj"},"type":"Feature","geometry":{"type":"Point","coordinates":[18.5142,-33.8223]}},{"properties":{"latitude":-33.9277,"total":655,"suburb":"Signal Hill","percentage":0.015,"longitude":18.3953,"id":"a6sxy9xdmry3"},"type":"Feature","geometry":{"type":"Point","coordinates":[18.3953,-33.9277]}},{"properties":{"latitude":-33.8678,"total":641,"suburb":"Rosenpark","percentage":0.015,"longitude":18.6413,"id":"a6sxy9tap4es"},"type":"Feature","geometry":{"type":"Point","coordinates":[18.6413,-33.8678]}},{"properties":{"latitude":-33.9244,"total":640,"suburb":"Florida","percentage":0.015,"longitude":18.5941,"id":"a6sxy9pynawg"},"type":"Feature","geometry":{"type":"Point","coordinates":[18.5941,-33.9244]}},{"properties":{"latitude":-33.9358,"total":633,"suburb":"Silveroaks","percentage":0.015,"longitude":18.6884,"id":"a6sxy9x1ryrh"},"type":"Feature","geometry":{"type":"Point","coordinates":[18.6884,-33.9358]}},{"properties":{"latitude":-34.0283,"total":633,"suburb":"Helgarda Estate","percentage":0.015,"longitude":18.3469,"id":"a6sxya3eh2g3"},"type":"Feature","geometry":{"type":"Point","coordinates":[18.3469,-34.0283]}},{"properties":{"latitude":-34.0127,"total":633,"suburb":"Forest Village","percentage":0.015,"longitude":18.7071,"id":"a6sxya4bynox"},"type":"Feature","geometry":{"type":"Point","coordinates":[18.7071,-34.0127]}},{"properties":{"latitude":-33.9203,"total":633,"suburb":"Amandelrug","percentage":0.015,"longitude":18.6911,"id":"a6sxya26829y"},"type":"Feature","geometry":{"type":"Point","coordinates":[18.6911,-33.9203]}},{"properties":{"latitude":-34.0894,"total":632,"suburb":"Marina Da Gama","percentage":0.015,"longitude":18.4713,"id":"a6sxya03mmpe"},"type":"Feature","geometry":{"type":"Point","coordinates":[18.4713,-34.0894]}},{"properties":{"latitude":-34.0224,"total":630,"suburb":"Otyhouse Estate","percentage":0.015,"longitude":18.5073,"id":"a6sxy9v3rct3"},"type":"Feature","geometry":{"type":"Point","coordinates":[18.5073,-34.0224]}},{"properties":{"latitude":-33.5695,"total":629,"suburb":"Robinvale","percentage":0.015,"longitude":18.5035,"id":"a6sxy9tazr8c"},"type":"Feature","geometry":{"type":"Point","coordinates":[18.5035,-33.5695]}},{"properties":{"latitude":-33.8661,"total":629,"suburb":"Welgelegen 3","percentage":0.015,"longitude":18.5647,"id":"a6sxy9u8vj8q"},"type":"Feature","geometry":{"type":"Point","coordinates":[18.5647,-33.8661]}},{"properties":{"latitude":-34.1965,"total":629,"suburb":"Dorion Place","percentage":0.015,"longitude":18.4422,"id":"a6sxy9uhmpa1"},"type":"Feature","geometry":{"type":"Point","coordinates":[18.4422,-34.1965]}},{"properties":{"latitude":-33.8456,"total":628,"suburb":"Sonstraal Ext E16","percentage":0.015,"longitude":18.6628,"id":"a6sxya5pulzu"},"type":"Feature","geometry":{"type":"Point","coordinates":[18.6628,-33.8456]}},{"properties":{"latitude":-34.1301,"total":624,"suburb":"Lekkerwater","percentage":0.015,"longitude":18.3817,"id":"a6sxy9sbfpsl"},"type":"Feature","geometry":{"type":"Point","coordinates":[18.3817,-34.1301]}},{"properties":{"latitude":-33.9609,"total":623,"suburb":"Hagley","percentage":0.015,"longitude":18.6641,"id":"a6sxy9qu8bla"},"type":"Feature","geometry":{"type":"Point","coordinates":[18.6641,-33.9609]}},{"properties":{"latitude":-33.8795,"total":620,"suburb":"Panorama","percentage":0.015,"longitude":18.5731,"id":"a6sxy9w0cmc8"},"type":"Feature","geometry":{"type":"Point","coordinates":[18.5731,-33.8795]}},{"properties":{"latitude":-34.1558,"total":619,"suburb":"Glen Ridge","percentage":0.015,"longitude":18.4334,"id":"a6sxya661zh4"},"type":"Feature","geometry":{"type":"Point","coordinates":[18.4334,-34.1558]}},{"properties":{"latitude":-34.0273,"total":614,"suburb":"Sillary","percentage":0.014,"longitude":18.4391,"id":"a6sxya02c7ee"},"type":"Feature","geometry":{"type":"Point","coordinates":[18.4391,-34.0273]}},{"properties":{"latitude":-34.1554,"total":613,"suburb":"Waterwerke","percentage":0.014,"longitude":19.0083,"id":"a6sxy9y6mhjq"},"type":"Feature","geometry":{"type":"Point","coordinates":[19.0083,-34.1554]}},{"properties":{"latitude":-33.5525,"total":612,"suburb":"Sherwood","percentage":0.014,"longitude":18.5004,"id":"a6sxya1zuoft"},"type":"Feature","geometry":{"type":"Point","coordinates":[18.5004,-33.5525]}},{"properties":{"latitude":-33.919,"total":605,"suburb":"Kylemore","percentage":0.014,"longitude":18.951,"id":"a6sxy9sqd10r"},"type":"Feature","geometry":{"type":"Point","coordinates":[18.951,-33.919]}},{"properties":{"latitude":-33.9125,"total":603,"suburb":"Bellville South Ext 5","percentage":0.014,"longitude":18.6375,"id":"a6sxy9rjwy6o"},"type":"Feature","geometry":{"type":"Point","coordinates":[18.6375,-33.9125]}},{"properties":{"latitude":-34.0689,"total":596,"suburb":"Pollsmoor","percentage":0.014,"longitude":18.4405,"id":"a6sxy9sz3cke"},"type":"Feature","geometry":{"type":"Point","coordinates":[18.4405,-34.0689]}},{"properties":{"latitude":-34.0776,"total":594,"suburb":"Westridge","percentage":0.014,"longitude":18.8366,"id":"a6sxy9v89b63"},"type":"Feature","geometry":{"type":"Point","coordinates":[18.8366,-34.0776]}},{"properties":{"latitude":-34.0024,"total":593,"suburb":"Hohenort","percentage":0.014,"longitude":18.4339,"id":"a6sxya41a1ha"},"type":"Feature","geometry":{"type":"Point","coordinates":[18.4339,-34.0024]}},{"properties":{"latitude":-33.9235,"total":593,"suburb":"Stellenbosch NU","percentage":0.014,"longitude":18.8334,"id":"a6sxya0h2u5h"},"type":"Feature","geometry":{"type":"Point","coordinates":[18.8334,-33.9235]}},{"properties":{"latitude":-33.8559,"total":586,"suburb":"Durbell","percentage":0.014,"longitude":18.6432,"id":"a6sxya1i0pfn"},"type":"Feature","geometry":{"type":"Point","coordinates":[18.6432,-33.8559]}},{"properties":{"latitude":-34.082,"total":583,"suburb":"Klein Wassenaar","percentage":0.014,"longitude":18.4527,"id":"a6sxy9tfpgq4"},"type":"Feature","geometry":{"type":"Point","coordinates":[18.4527,-34.082]}},{"properties":{"latitude":-33.9175,"total":582,"suburb":"Khayamandi","percentage":0.014,"longitude":18.8476,"id":"a6sxy9w4uc43"},"type":"Feature","geometry":{"type":"Point","coordinates":[18.8476,-33.9175]}},{"properties":{"latitude":-33.8981,"total":577,"suburb":"Languedoc","percentage":0.014,"longitude":18.9646,"id":"a6sxy9ve909m"},"type":"Feature","geometry":{"type":"Point","coordinates":[18.9646,-33.8981]}},{"properties":{"latitude":-33.8816,"total":569,"suburb":"Ruwari","percentage":0.013,"longitude":18.7077,"id":"a6sxya23vzys"},"type":"Feature","geometry":{"type":"Point","coordinates":[18.7077,-33.8816]}},{"properties":{"latitude":-34.0809,"total":557,"suburb":"Roundhay","percentage":0.013,"longitude":18.8652,"id":"a6sxy9t2k8h8"},"type":"Feature","geometry":{"type":"Point","coordinates":[18.8652,-34.0809]}},{"properties":{"latitude":-34.1297,"total":551,"suburb":"Masiphumelele","percentage":0.013,"longitude":18.3765,"id":"a6sxya38y94r"},"type":"Feature","geometry":{"type":"Point","coordinates":[18.3765,-34.1297]}},{"properties":{"latitude":-34.0017,"total":540,"suburb":"Forest Glade","percentage":0.013,"longitude":18.7175,"id":"a6sxy9wgvvcy"},"type":"Feature","geometry":{"type":"Point","coordinates":[18.7175,-34.0017]}},{"properties":{"latitude":-34.0176,"total":539,"suburb":"Rust-en-Vrede","percentage":0.013,"longitude":18.4431,"id":"a6sxya041paj"},"type":"Feature","geometry":{"type":"Point","coordinates":[18.4431,-34.0176]}},{"properties":{"latitude":-33.8883,"total":530,"suburb":"Oakglen","percentage":0.013,"longitude":18.6642,"id":"a6sxy9t6pzps"},"type":"Feature","geometry":{"type":"Point","coordinates":[18.6642,-33.8883]}},{"properties":{"latitude":-34.3354,"total":529,"suburb":"Protea","percentage":0.012,"longitude":19.005,"id":"a6sxy9ro7ev4"},"type":"Feature","geometry":{"type":"Point","coordinates":[19.005,-34.3354]}},{"properties":{"latitude":-33.9452,"total":527,"suburb":"Belhar Ext 11","percentage":0.012,"longitude":18.6445,"id":"a6sxya0pkoxo"},"type":"Feature","geometry":{"type":"Point","coordinates":[18.6445,-33.9452]}},{"properties":{"latitude":-33.8042,"total":519,"suburb":"West Beach","percentage":0.012,"longitude":18.4738,"id":"a6sxya2j6u1z"},"type":"Feature","geometry":{"type":"Point","coordinates":[18.4738,-33.8042]}},{"properties":{"latitude":-33.8766,"total":516,"suburb":"Stellenbosch University","percentage":0.012,"longitude":18.6282,"id":"a6sxy9ppygaq"},"type":"Feature","geometry":{"type":"Point","coordinates":[18.6282,-33.8766]}},{"properties":{"latitude":-33.8443,"total":515,"suburb":"Bloekombos Outlying","percentage":0.012,"longitude":18.7407,"id":"a6sxy9twa3qv"},"type":"Feature","geometry":{"type":"Point","coordinates":[18.7407,-33.8443]}},{"properties":{"latitude":-33.9321,"total":512,"suburb":"Balvenie","percentage":0.012,"longitude":18.5822,"id":"a6sxy9z3f09l"},"type":"Feature","geometry":{"type":"Point","coordinates":[18.5822,-33.9321]}},{"properties":{"latitude":-33.9343,"total":510,"suburb":"Epping Forest","percentage":0.012,"longitude":18.5745,"id":"a6sxy9rj99hi"},"type":"Feature","geometry":{"type":"Point","coordinates":[18.5745,-33.9343]}},{"properties":{"latitude":-34.1396,"total":502,"suburb":"Harmony Park","percentage":0.012,"longitude":18.8475,"id":"a6sxya08s9gy"},"type":"Feature","geometry":{"type":"Point","coordinates":[18.8475,-34.1396]}},{"properties":{"latitude":-33.9431,"total":502,"suburb":"Belhar Ext 10","percentage":0.012,"longitude":18.6432,"id":"a6sxy9r0rj96"},"type":"Feature","geometry":{"type":"Point","coordinates":[18.6432,-33.9431]}},{"properties":{"latitude":-34.1324,"total":501,"suburb":"Risi View","percentage":0.012,"longitude":18.4081,"id":"a6sxya05p4vx"},"type":"Feature","geometry":{"type":"Point","coordinates":[18.4081,-34.1324]}},{"properties":{"latitude":-33.8633,"total":500,"suburb":"Protea Valley","percentage":0.012,"longitude":18.6165,"id":"a6sxya5ejtgs"},"type":"Feature","geometry":{"type":"Point","coordinates":[18.6165,-33.8633]}},{"properties":{"latitude":-34.1317,"total":500,"suburb":"Tarentaal Plaas","percentage":0.012,"longitude":18.8627,"id":"a6sxy9vkrwv3"},"type":"Feature","geometry":{"type":"Point","coordinates":[18.8627,-34.1317]}},{"properties":{"latitude":-34.1035,"total":500,"suburb":"Meadowsteads","percentage":0.012,"longitude":18.3783,"id":"a6sxy9ppuesn"},"type":"Feature","geometry":{"type":"Point","coordinates":[18.3783,-34.1035]}},{"properties":{"latitude":-34.1916,"total":500,"suburb":"Simon's Town","percentage":0.012,"longitude":18.428,"id":"a6sxya4h4ajv"},"type":"Feature","geometry":{"type":"Point","coordinates":[18.428,-34.1916]}},{"properties":{"latitude":-34.0833,"total":499,"suburb":"Martinville","percentage":0.012,"longitude":18.8571,"id":"a6sxy9zjw06q"},"type":"Feature","geometry":{"type":"Point","coordinates":[18.8571,-34.0833]}},{"properties":{"latitude":-34.075,"total":498,"suburb":"Jacques Hill Estate","percentage":0.012,"longitude":18.8502,"id":"a6sxy9z1ia66"},"type":"Feature","geometry":{"type":"Point","coordinates":[18.8502,-34.075]}},{"properties":{"latitude":-34.1522,"total":495,"suburb":"Glencairn Heights","percentage":0.012,"longitude":18.4311,"id":"a6sxya5uq2k2"},"type":"Feature","geometry":{"type":"Point","coordinates":[18.4311,-34.1522]}},{"properties":{"latitude":-34.0238,"total":492,"suburb":"Lanstead","percentage":0.012,"longitude":18.4529,"id":"a6sxya06qf8h"},"type":"Feature","geometry":{"type":"Point","coordinates":[18.4529,-34.0238]}},{"properties":{"latitude":-33.9477,"total":491,"suburb":"Blue Downs","percentage":0.012,"longitude":18.665,"id":"a6sxya4h5f3l"},"type":"Feature","geometry":{"type":"Point","coordinates":[18.665,-33.9477]}},{"properties":{"latitude":-34.0094,"total":488,"suburb":"Eersterivier","percentage":0.012,"longitude":18.7378,"id":"a6sxya0wi11m"},"type":"Feature","geometry":{"type":"Point","coordinates":[18.7378,-34.0094]}},{"properties":{"latitude":-34.1476,"total":487,"suburb":"Onverwacht","percentage":0.011,"longitude":18.8632,"id":"a6sxya43d2yx"},"type":"Feature","geometry":{"type":"Point","coordinates":[18.8632,-34.1476]}},{"properties":{"latitude":-33.9024,"total":475,"suburb":"Mouille Point","percentage":0.011,"longitude":18.3992,"id":"a6sxya17yov6"},"type":"Feature","geometry":{"type":"Point","coordinates":[18.3992,-33.9024]}},{"properties":{"latitude":-34.074,"total":473,"suburb":"Morningside","percentage":0.011,"longitude":18.8798,"id":"a6sxy9srtlgi"},"type":"Feature","geometry":{"type":"Point","coordinates":[18.8798,-34.074]}},{"properties":{"latitude":-33.8306,"total":470,"suburb":"Langeberg Ridge","percentage":0.011,"longitude":18.6869,"id":"a6sxy9ynbtfk"},"type":"Feature","geometry":{"type":"Point","coordinates":[18.6869,-33.8306]}},{"properties":{"latitude":-33.8196,"total":467,"suburb":"Skoongesig","percentage":0.011,"longitude":18.6466,"id":"a6sxy9tiu5oh"},"type":"Feature","geometry":{"type":"Point","coordinates":[18.6466,-33.8196]}},{"properties":{"latitude":-34.1961,"total":457,"suburb":"Simonskloof","percentage":0.011,"longitude":18.4325,"id":"a6sxy9t1h762"},"type":"Feature","geometry":{"type":"Point","coordinates":[18.4325,-34.1961]}},{"properties":{"latitude":-34.1486,"total":455,"suburb":"Bay Park","percentage":0.011,"longitude":18.8617,"id":"a6sxya4rcnnp"},"type":"Feature","geometry":{"type":"Point","coordinates":[18.8617,-34.1486]}},{"properties":{"latitude":-34.1366,"total":455,"suburb":"Gustrow","percentage":0.011,"longitude":18.8519,"id":"a6sxy9z24ynm"},"type":"Feature","geometry":{"type":"Point","coordinates":[18.8519,-34.1366]}},{"properties":{"latitude":-33.8343,"total":451,"suburb":"Aurora Ext D22","percentage":0.011,"longitude":18.6295,"id":"a6sxy9x2x2tm"},"type":"Feature","geometry":{"type":"Point","coordinates":[18.6295,-33.8343]}},{"properties":{"latitude":-34.0301,"total":441,"suburb":"The Vines","percentage":0.01,"longitude":18.455,"id":"a6sxya1gx8u6"},"type":"Feature","geometry":{"type":"Point","coordinates":[18.455,-34.0301]}},{"properties":{"latitude":-34.007,"total":439,"suburb":"Hillcrest Heights","percentage":0.01,"longitude":18.7001,"id":"a6sxy9pvv6v4"},"type":"Feature","geometry":{"type":"Point","coordinates":[18.7001,-34.007]}},{"properties":{"latitude":-33.8707,"total":430,"suburb":"Eversdal Ext 4","percentage":0.01,"longitude":18.6517,"id":"a6sxy9wut13c"},"type":"Feature","geometry":{"type":"Point","coordinates":[18.6517,-33.8707]}},{"properties":{"latitude":-34.0747,"total":427,"suburb":"Land en Zeezicht","percentage":0.01,"longitude":18.8727,"id":"a6sxya2f595k"},"type":"Feature","geometry":{"type":"Point","coordinates":[18.8727,-34.0747]}},{"properties":{"latitude":-33.9713,"total":414,"suburb":"Rotterdam","percentage":0.01,"longitude":18.6787,"id":"a6sxya0xtabl"},"type":"Feature","geometry":{"type":"Point","coordinates":[18.6787,-33.9713]}},{"properties":{"latitude":-33.8634,"total":411,"suburb":"Vredekloof","percentage":0.01,"longitude":18.6769,"id":"a6sxya1o0r81"},"type":"Feature","geometry":{"type":"Point","coordinates":[18.6769,-33.8634]}},{"properties":{"latitude":-33.8278,"total":408,"suburb":"Die Wingerd","percentage":0.01,"longitude":18.6684,"id":"a6sxy9zyvn7n"},"type":"Feature","geometry":{"type":"Point","coordinates":[18.6684,-33.8278]}},{"properties":{"latitude":-34.1001,"total":403,"suburb":"Langgewacht","percentage":0.01,"longitude":18.8339,"id":"a6sxy9r7wine"},"type":"Feature","geometry":{"type":"Point","coordinates":[18.8339,-34.1001]}},{"properties":{"latitude":-33.9267,"total":396,"suburb":"Norwood","percentage":0.009,"longitude":18.5732,"id":"a6sxya5dmyno"},"type":"Feature","geometry":{"type":"Point","coordinates":[18.5732,-33.9267]}},{"properties":{"latitude":-33.868,"total":395,"suburb":"Bellville Ext 36","percentage":0.009,"longitude":18.6481,"id":"a6sxy9y1qh67"},"type":"Feature","geometry":{"type":"Point","coordinates":[18.6481,-33.868]}},{"properties":{"latitude":-33.983,"total":393,"suburb":"Hindle Park","percentage":0.009,"longitude":18.679,"id":"a6sxya60e4cn"},"type":"Feature","geometry":{"type":"Point","coordinates":[18.679,-33.983]}},{"properties":{"latitude":-33.8808,"total":392,"suburb":"La Rochelle","percentage":0.009,"longitude":18.6565,"id":"a6sxy9zop9re"},"type":"Feature","geometry":{"type":"Point","coordinates":[18.6565,-33.8808]}},{"properties":{"latitude":-33.8773,"total":390,"suburb":"Hoogstede","percentage":0.009,"longitude":18.6778,"id":"a6sxya4wfpnd"},"type":"Feature","geometry":{"type":"Point","coordinates":[18.6778,-33.8773]}},{"properties":{"latitude":-34.3475,"total":381,"suburb":"Pringle Bay","percentage":0.009,"longitude":18.8316,"id":"a6sxy9yo3b5j"},"type":"Feature","geometry":{"type":"Point","coordinates":[18.8316,-34.3475]}},{"properties":{"latitude":-33.8564,"total":378,"suburb":"De Bron","percentage":0.009,"longitude":18.6304,"id":"a6sxya5ql38o"},"type":"Feature","geometry":{"type":"Point","coordinates":[18.6304,-33.8564]}},{"properties":{"latitude":-33.8958,"total":376,"suburb":"Kingston","percentage":0.009,"longitude":18.6362,"id":"a6sxya3pl1x5"},"type":"Feature","geometry":{"type":"Point","coordinates":[18.6362,-33.8958]}},{"properties":{"latitude":-33.9034,"total":376,"suburb":"Glenlily","percentage":0.009,"longitude":18.5806,"id":"a6sxy9s3p7kv"},"type":"Feature","geometry":{"type":"Point","coordinates":[18.5806,-33.9034]}},{"properties":{"latitude":-33.916,"total":372,"suburb":"Bellville South Ext 7","percentage":0.009,"longitude":18.6409,"id":"a6sxya0n023u"},"type":"Feature","geometry":{"type":"Point","coordinates":[18.6409,-33.916]}},{"properties":{"latitude":-34.3041,"total":371,"suburb":"Rooiels Bay","percentage":0.009,"longitude":18.8177,"id":"a6sxy9qdurpn"},"type":"Feature","geometry":{"type":"Point","coordinates":[18.8177,-34.3041]}},{"properties":{"latitude":-33.8324,"total":368,"suburb":"Langeberg Village","percentage":0.009,"longitude":18.6692,"id":"a6sxy9wbpbia"},"type":"Feature","geometry":{"type":"Point","coordinates":[18.6692,-33.8324]}},{"properties":{"latitude":-33.9476,"total":362,"suburb":"Belhar Ext 7","percentage":0.009,"longitude":18.6343,"id":"a6sxy9rxunth"},"type":"Feature","geometry":{"type":"Point","coordinates":[18.6343,-33.9476]}},{"properties":{"latitude":-33.8829,"total":361,"suburb":"Bellville Ext 39","percentage":0.009,"longitude":18.6677,"id":"a6sxy9pp6w8y"},"type":"Feature","geometry":{"type":"Point","coordinates":[18.6677,-33.8829]}},{"properties":{"latitude":-34.0086,"total":356,"suburb":"Devon Park","percentage":0.008,"longitude":18.7296,"id":"a6sxy9uyb1m1"},"type":"Feature","geometry":{"type":"Point","coordinates":[18.7296,-34.0086]}},{"properties":{"latitude":-34.1321,"total":352,"suburb":"Serina Kaoline Mine","percentage":0.008,"longitude":18.3988,"id":"a6sxy9urs4yg"},"type":"Feature","geometry":{"type":"Point","coordinates":[18.3988,-34.1321]}},{"properties":{"latitude":-33.9335,"total":341,"suburb":"Rozendal","percentage":0.008,"longitude":18.8891,"id":"a6sxy9sxhcup"},"type":"Feature","geometry":{"type":"Point","coordinates":[18.8891,-33.9335]}},{"properties":{"latitude":-34.0632,"total":340,"suburb":"Tokai","percentage":0.008,"longitude":18.441,"id":"a6sxy9yd23ae"},"type":"Feature","geometry":{"type":"Point","coordinates":[18.441,-34.0632]}},{"properties":{"latitude":-33.9441,"total":338,"suburb":"Highbury","percentage":0.008,"longitude":18.6822,"id":"a6sxya5yxikl"},"type":"Feature","geometry":{"type":"Point","coordinates":[18.6822,-33.9441]}},{"properties":{"latitude":-33.8961,"total":333,"suburb":"Stikland Hospital","percentage":0.008,"longitude":18.6562,"id":"a6sxy9rxlrbx"},"type":"Feature","geometry":{"type":"Point","coordinates":[18.6562,-33.8961]}},{"properties":{"latitude":-33.9643,"total":332,"suburb":"Sunbird Park","percentage":0.008,"longitude":18.6797,"id":"a6sxy9u5vlix"},"type":"Feature","geometry":{"type":"Point","coordinates":[18.6797,-33.9643]}},{"properties":{"latitude":-33.8966,"total":331,"suburb":"Avondale","percentage":0.008,"longitude":18.6014,"id":"a6sxy9yu5ldk"},"type":"Feature","geometry":{"type":"Point","coordinates":[18.6014,-33.8966]}},{"properties":{"latitude":-33.8693,"total":327,"suburb":"Kenridge Ext 4","percentage":0.008,"longitude":18.6266,"id":"a6sxya2repnp"},"type":"Feature","geometry":{"type":"Point","coordinates":[18.6266,-33.8693]}},{"properties":{"latitude":-33.8834,"total":327,"suburb":"Protea Village","percentage":0.008,"longitude":18.7166,"id":"a6sxy9z9hjpf"},"type":"Feature","geometry":{"type":"Point","coordinates":[18.7166,-33.8834]}},{"properties":{"latitude":-34.0258,"total":327,"suburb":"Pagasvlei","percentage":0.008,"longitude":18.4315,"id":"a6sxy9v6ykhg"},"type":"Feature","geometry":{"type":"Point","coordinates":[18.4315,-34.0258]}},{"properties":{"latitude":-34.1587,"total":325,"suburb":"Mountainside Estate","percentage":0.008,"longitude":18.8759,"id":"a6sxya0utw1r"},"type":"Feature","geometry":{"type":"Point","coordinates":[18.8759,-34.1587]}},{"properties":{"latitude":-34.0927,"total":318,"suburb":"Clanwick","percentage":0.008,"longitude":18.8548,"id":"a6sxya0xct4k"},"type":"Feature","geometry":{"type":"Point","coordinates":[18.8548,-34.0927]}},{"properties":{"latitude":-34.1629,"total":317,"suburb":"Simon's Town SP","percentage":0.007,"longitude":18.4321,"id":"a6sxya3fnari"},"type":"Feature","geometry":{"type":"Point","coordinates":[18.4321,-34.1629]}},{"properties":{"latitude":-34.064,"total":317,"suburb":"Erinvale Estate","percentage":0.007,"longitude":18.8829,"id":"a6sxy9qxenga"},"type":"Feature","geometry":{"type":"Point","coordinates":[18.8829,-34.064]}},{"properties":{"latitude":-33.9371,"total":315,"suburb":"Oakdene","percentage":0.007,"longitude":18.6745,"id":"a6sxya1wj13c"},"type":"Feature","geometry":{"type":"Point","coordinates":[18.6745,-33.9371]}},{"properties":{"latitude":-33.9881,"total":312,"suburb":"The Connifers","percentage":0.007,"longitude":18.6959,"id":"a6sxya5d4y92"},"type":"Feature","geometry":{"type":"Point","coordinates":[18.6959,-33.9881]}},{"properties":{"latitude":-33.9459,"total":310,"suburb":"Belhar Ext 4","percentage":0.007,"longitude":18.6167,"id":"a6sxya3zwx2r"},"type":"Feature","geometry":{"type":"Point","coordinates":[18.6167,-33.9459]}},{"properties":{"latitude":-33.8484,"total":309,"suburb":"Kenridge Heights","percentage":0.007,"longitude":18.631,"id":"a6sxy9ynbf3r"},"type":"Feature","geometry":{"type":"Point","coordinates":[18.631,-33.8484]}},{"properties":{"latitude":-34.363,"total":308,"suburb":"Silversands","percentage":0.007,"longitude":18.8758,"id":"a6sxy9zxp6t8"},"type":"Feature","geometry":{"type":"Point","coordinates":[18.8758,-34.363]}},{"properties":{"latitude":-34.1463,"total":307,"suburb":"Dobson","percentage":0.007,"longitude":18.8656,"id":"a6sxya3s22wo"},"type":"Feature","geometry":{"type":"Point","coordinates":[18.8656,-34.1463]}},{"properties":{"latitude":-33.8729,"total":303,"suburb":"Welgemoed","percentage":0.007,"longitude":18.6115,"id":"a6sxya0z8w6c"},"type":"Feature","geometry":{"type":"Point","coordinates":[18.6115,-33.8729]}},{"properties":{"latitude":-33.8894,"total":300,"suburb":"Chrismar Ext 1","percentage":0.007,"longitude":18.6453,"id":"a6sxya1ov7dr"},"type":"Feature","geometry":{"type":"Point","coordinates":[18.6453,-33.8894]}},{"properties":{"latitude":-34.0112,"total":300,"suburb":"The Wines","percentage":0.007,"longitude":18.7332,"id":"a6sxy9rdaqdp"},"type":"Feature","geometry":{"type":"Point","coordinates":[18.7332,-34.0112]}},{"properties":{"latitude":-34.0511,"total":298,"suburb":"Sweet Valley","percentage":0.007,"longitude":18.4395,"id":"a6sxy9tivtkh"},"type":"Feature","geometry":{"type":"Point","coordinates":[18.4395,-34.0511]}},{"properties":{"latitude":-33.8795,"total":298,"suburb":"Bellville Ext 28","percentage":0.007,"longitude":18.6667,"id":"a6sxy9q2wy2n"},"type":"Feature","geometry":{"type":"Point","coordinates":[18.6667,-33.8795]}},{"properties":{"latitude":-34.0131,"total":295,"suburb":"Stratford","percentage":0.007,"longitude":18.7242,"id":"a6sxya1h3pir"},"type":"Feature","geometry":{"type":"Point","coordinates":[18.7242,-34.0131]}},{"properties":{"latitude":-34.0573,"total":288,"suburb":"World View","percentage":0.007,"longitude":18.8615,"id":"a6sxya47b4j6"},"type":"Feature","geometry":{"type":"Point","coordinates":[18.8615,-34.0573]}},{"properties":{"latitude":-34.3568,"total":286,"suburb":"Betty's Bay","percentage":0.007,"longitude":18.9243,"id":"a6sxy9zjht49"},"type":"Feature","geometry":{"type":"Point","coordinates":[18.9243,-34.3568]}},{"properties":{"latitude":-34.0241,"total":286,"suburb":"Penzance Estate","percentage":0.007,"longitude":18.3601,"id":"a6sxy9ztoy8r"},"type":"Feature","geometry":{"type":"Point","coordinates":[18.3601,-34.0241]}},{"properties":{"latitude":-33.8624,"total":285,"suburb":"Bellville Ext 41","percentage":0.007,"longitude":18.6438,"id":"a6sxy9sbq9dg"},"type":"Feature","geometry":{"type":"Point","coordinates":[18.6438,-33.8624]}},{"properties":{"latitude":-34.0647,"total":284,"suburb":"Khayelitsha SP Outlying","percentage":0.007,"longitude":18.7166,"id":"a6sxy9v6hjgi"},"type":"Feature","geometry":{"type":"Point","coordinates":[18.7166,-34.0647]}},{"properties":{"latitude":-34.121,"total":284,"suburb":"The Lakes","percentage":0.007,"longitude":18.3802,"id":"a6sxy9y983i7"},"type":"Feature","geometry":{"type":"Point","coordinates":[18.3802,-34.121]}},{"properties":{"latitude":-34.3593,"total":281,"suburb":"Sunny Seas Estate","percentage":0.007,"longitude":18.961,"id":"a6sxy9vwn86x"},"type":"Feature","geometry":{"type":"Point","coordinates":[18.961,-34.3593]}},{"properties":{"latitude":-33.9376,"total":274,"suburb":"Karindal","percentage":0.006,"longitude":18.8855,"id":"a6sxy9ql0lag"},"type":"Feature","geometry":{"type":"Point","coordinates":[18.8855,-33.9376]}},{"properties":{"latitude":-33.8757,"total":274,"suburb":"Ridgeworth","percentage":0.006,"longitude":18.6434,"id":"a6sxy9z0dq30"},"type":"Feature","geometry":{"type":"Point","coordinates":[18.6434,-33.8757]}},{"properties":{"latitude":-34.1413,"total":272,"suburb":"Whispering Pines","percentage":0.006,"longitude":18.8634,"id":"a6sxy9xp1jns"},"type":"Feature","geometry":{"type":"Point","coordinates":[18.8634,-34.1413]}},{"properties":{"latitude":-34.0798,"total":271,"suburb":"Cape Farms","percentage":0.006,"longitude":18.3653,"id":"a6sxy9twd33d"},"type":"Feature","geometry":{"type":"Point","coordinates":[18.3653,-34.0798]}},{"properties":{"latitude":-33.8325,"total":269,"suburb":"Bonnie Brae","percentage":0.006,"longitude":18.7038,"id":"a6sxy9qdtltc"},"type":"Feature","geometry":{"type":"Point","coordinates":[18.7038,-33.8325]}},{"properties":{"latitude":-34.1903,"total":269,"suburb":"Simon's Town Harbour","percentage":0.006,"longitude":18.4403,"id":"a6sxya01y04a"},"type":"Feature","geometry":{"type":"Point","coordinates":[18.4403,-34.1903]}},{"properties":{"latitude":-34.0023,"total":268,"suburb":"Forest Heights","percentage":0.006,"longitude":18.7095,"id":"a6sxy9w7flxc"},"type":"Feature","geometry":{"type":"Point","coordinates":[18.7095,-34.0023]}},{"properties":{"latitude":-34.1539,"total":265,"suburb":"Welcome Glen","percentage":0.006,"longitude":18.4056,"id":"a6sxy9puruqh"},"type":"Feature","geometry":{"type":"Point","coordinates":[18.4056,-34.1539]}},{"properties":{"latitude":-33.8684,"total":264,"suburb":"Eversdal Ext 3","percentage":0.006,"longitude":18.6575,"id":"a6sxya519qqb"},"type":"Feature","geometry":{"type":"Point","coordinates":[18.6575,-33.8684]}},{"properties":{"latitude":-34.1834,"total":260,"suburb":"Bay View Village","percentage":0.006,"longitude":18.4204,"id":"a6sxy9yiwf8e"},"type":"Feature","geometry":{"type":"Point","coordinates":[18.4204,-34.1834]}},{"properties":{"latitude":-33.8632,"total":260,"suburb":"Brackenfell North","percentage":0.006,"longitude":18.6704,"id":"a6sxy9vcqp1s"},"type":"Feature","geometry":{"type":"Point","coordinates":[18.6704,-33.8632]}},{"properties":{"latitude":-34.0262,"total":258,"suburb":"Houtbaai","percentage":0.006,"longitude":18.3634,"id":"a6sxy9snin39"},"type":"Feature","geometry":{"type":"Point","coordinates":[18.3634,-34.0262]}},{"properties":{"latitude":-34.0218,"total":256,"suburb":"Constantia Vale","percentage":0.006,"longitude":18.4342,"id":"a6sxy9q3wicx"},"type":"Feature","geometry":{"type":"Point","coordinates":[18.4342,-34.0218]}},{"properties":{"latitude":-34.1042,"total":256,"suburb":"Helderberg SH","percentage":0.006,"longitude":18.8825,"id":"a6sxya5oo0b0"},"type":"Feature","geometry":{"type":"Point","coordinates":[18.8825,-34.1042]}},{"properties":{"latitude":-34.1334,"total":254,"suburb":"Fairy Knowe","percentage":0.006,"longitude":18.375,"id":"a6sxya1fauh6"},"type":"Feature","geometry":{"type":"Point","coordinates":[18.375,-34.1334]}},{"properties":{"latitude":-33.8308,"total":252,"suburb":"Klein Nederberg","percentage":0.006,"longitude":18.669,"id":"a6sxy9x5kn1u"},"type":"Feature","geometry":{"type":"Point","coordinates":[18.669,-33.8308]}},{"properties":{"latitude":-33.8936,"total":251,"suburb":"Parow Golf Course","percentage":0.006,"longitude":18.5737,"id":"a6sxya5nnjyg"},"type":"Feature","geometry":{"type":"Point","coordinates":[18.5737,-33.8936]}},{"properties":{"latitude":-33.8956,"total":251,"suburb":"Hillrise","percentage":0.006,"longitude":18.641,"id":"a6sxya2wn15s"},"type":"Feature","geometry":{"type":"Point","coordinates":[18.641,-33.8956]}},{"properties":{"latitude":-33.9374,"total":251,"suburb":"Coetzenburg Stadium","percentage":0.006,"longitude":18.8731,"id":"a6sxy9z0zcup"},"type":"Feature","geometry":{"type":"Point","coordinates":[18.8731,-33.9374]}},{"properties":{"latitude":-34.0164,"total":250,"suburb":"Sillwood Heights","percentage":0.006,"longitude":18.7214,"id":"a6sxya1r49pz"},"type":"Feature","geometry":{"type":"Point","coordinates":[18.7214,-34.0164]}},{"properties":{"latitude":-33.8797,"total":248,"suburb":"Bellville Ext 22","percentage":0.006,"longitude":18.6626,"id":"a6sxya4uiaj5"},"type":"Feature","geometry":{"type":"Point","coordinates":[18.6626,-33.8797]}},{"properties":{"latitude":-33.9022,"total":244,"suburb":"Goodwood Park Ext 1","percentage":0.006,"longitude":18.5456,"id":"a6sxya2vvvaq"},"type":"Feature","geometry":{"type":"Point","coordinates":[18.5456,-33.9022]}},{"properties":{"latitude":-34.1385,"total":243,"suburb":"Southfork","percentage":0.006,"longitude":18.8562,"id":"a6sxya4ryyvp"},"type":"Feature","geometry":{"type":"Point","coordinates":[18.8562,-34.1385]}},{"properties":{"latitude":-34.1702,"total":239,"suburb":"Marine Oil Refinery","percentage":0.006,"longitude":18.4278,"id":"a6sxya4yt95k"},"type":"Feature","geometry":{"type":"Point","coordinates":[18.4278,-34.1702]}},{"properties":{"latitude":-34.005,"total":239,"suburb":"Heather Park","percentage":0.006,"longitude":18.72,"id":"a6sxy9zphz1q"},"type":"Feature","geometry":{"type":"Point","coordinates":[18.72,-34.005]}},{"properties":{"latitude":-34.0655,"total":235,"suburb":"Nutwood","percentage":0.006,"longitude":18.8483,"id":"a6sxy9ykrw96"},"type":"Feature","geometry":{"type":"Point","coordinates":[18.8483,-34.0655]}},{"properties":{"latitude":-34.0924,"total":232,"suburb":"Brigebank","percentage":0.005,"longitude":18.8501,"id":"a6sxya31tmb5"},"type":"Feature","geometry":{"type":"Point","coordinates":[18.8501,-34.0924]}},{"properties":{"latitude":-33.8669,"total":229,"suburb":"Morgenster Hoogtes","percentage":0.005,"longitude":18.694,"id":"a6sxy9tluzgx"},"type":"Feature","geometry":{"type":"Point","coordinates":[18.694,-33.8669]}},{"properties":{"latitude":-33.9409,"total":228,"suburb":"Zevendal","percentage":0.005,"longitude":18.7113,"id":"a6sxya17yo2r"},"type":"Feature","geometry":{"type":"Point","coordinates":[18.7113,-33.9409]}},{"properties":{"latitude":-34.0546,"total":228,"suburb":"Porter Estate","percentage":0.005,"longitude":18.4165,"id":"a6sxy9zbcaqz"},"type":"Feature","geometry":{"type":"Point","coordinates":[18.4165,-34.0546]}},{"properties":{"latitude":-34.0517,"total":226,"suburb":"Eldawn","percentage":0.005,"longitude":18.8195,"id":"a6sxy9qxl5xu"},"type":"Feature","geometry":{"type":"Point","coordinates":[18.8195,-34.0517]}},{"properties":{"latitude":-34.0159,"total":225,"suburb":"Beverley Park","percentage":0.005,"longitude":18.7341,"id":"a6sxy9vl52vq"},"type":"Feature","geometry":{"type":"Point","coordinates":[18.7341,-34.0159]}},{"properties":{"latitude":-34.1553,"total":224,"suburb":"Pineview","percentage":0.005,"longitude":18.9965,"id":"a6sxy9xygr4m"},"type":"Feature","geometry":{"type":"Point","coordinates":[18.9965,-34.1553]}},{"properties":{"latitude":-34.2418,"total":219,"suburb":"Castle Rock","percentage":0.005,"longitude":18.4745,"id":"a6sxya3kbqn4"},"type":"Feature","geometry":{"type":"Point","coordinates":[18.4745,-34.2418]}},{"properties":{"latitude":-34.0905,"total":216,"suburb":"Rome Glen","percentage":0.005,"longitude":18.8702,"id":"a6sxy9r9h4lx"},"type":"Feature","geometry":{"type":"Point","coordinates":[18.8702,-34.0905]}},{"properties":{"latitude":-33.9052,"total":213,"suburb":"Wingfield","percentage":0.005,"longitude":18.5236,"id":"a6sxya0l8h70"},"type":"Feature","geometry":{"type":"Point","coordinates":[18.5236,-33.9052]}},{"properties":{"latitude":-33.855,"total":212,"suburb":"Bellville NU","percentage":0.005,"longitude":18.6231,"id":"a6sxy9wz5z9n"},"type":"Feature","geometry":{"type":"Point","coordinates":[18.6231,-33.855]}},{"properties":{"latitude":-33.8314,"total":209,"suburb":"Durbanville Ext 37","percentage":0.005,"longitude":18.6733,"id":"a6sxya3pqg0b"},"type":"Feature","geometry":{"type":"Point","coordinates":[18.6733,-33.8314]}},{"properties":{"latitude":-33.875,"total":203,"suburb":"Welgelegen 1","percentage":0.005,"longitude":18.5698,"id":"a6sxy9ppqevm"},"type":"Feature","geometry":{"type":"Point","coordinates":[18.5698,-33.875]}},{"properties":{"latitude":-33.9466,"total":202,"suburb":"Coetzenburg","percentage":0.005,"longitude":18.8735,"id":"a6sxy9wwxbkx"},"type":"Feature","geometry":{"type":"Point","coordinates":[18.8735,-33.9466]}},{"properties":{"latitude":-33.8357,"total":201,"suburb":"Joostenberg","percentage":0.005,"longitude":18.7143,"id":"a6sxy9sf5xmh"},"type":"Feature","geometry":{"type":"Point","coordinates":[18.7143,-33.8357]}},{"properties":{"latitude":-34.1208,"total":201,"suburb":"Clovelly","percentage":0.005,"longitude":18.4301,"id":"a6sxya2pxtio"},"type":"Feature","geometry":{"type":"Point","coordinates":[18.4301,-34.1208]}},{"properties":{"latitude":-34.0212,"total":201,"suburb":"Silverhurst","percentage":0.005,"longitude":18.4279,"id":"a6sxya2dv97b"},"type":"Feature","geometry":{"type":"Point","coordinates":[18.4279,-34.0212]}},{"properties":{"latitude":-34.1054,"total":201,"suburb":"Lusthof","percentage":0.005,"longitude":18.8312,"id":"a6sxy9syml36"},"type":"Feature","geometry":{"type":"Point","coordinates":[18.8312,-34.1054]}},{"properties":{"latitude":-34.0888,"total":199,"suburb":"Brigewater Ext 1","percentage":0.005,"longitude":18.86,"id":"a6sxya3celc1"},"type":"Feature","geometry":{"type":"Point","coordinates":[18.86,-34.0888]}},{"properties":{"latitude":-33.8672,"total":198,"suburb":"Sunsetlinks","percentage":0.005,"longitude":18.4908,"id":"a6sxya3tipjj"},"type":"Feature","geometry":{"type":"Point","coordinates":[18.4908,-33.8672]}},{"properties":{"latitude":-33.9228,"total":197,"suburb":"Kuils River","percentage":0.005,"longitude":18.6864,"id":"a6sxya64re8l"},"type":"Feature","geometry":{"type":"Point","coordinates":[18.6864,-33.9228]}},{"properties":{"latitude":-34.1006,"total":197,"suburb":"Chapmans Peak","percentage":0.005,"longitude":18.3678,"id":"a6sxya1qys4g"},"type":"Feature","geometry":{"type":"Point","coordinates":[18.3678,-34.1006]}},{"properties":{"latitude":-33.8641,"total":194,"suburb":"Door de Kraal","percentage":0.005,"longitude":18.6238,"id":"a6sxy9teuqg1"},"type":"Feature","geometry":{"type":"Point","coordinates":[18.6238,-33.8641]}},{"properties":{"latitude":-33.8509,"total":192,"suburb":"Vredekloof Heights","percentage":0.005,"longitude":18.6874,"id":"a6sxya26a8j2"},"type":"Feature","geometry":{"type":"Point","coordinates":[18.6874,-33.8509]}},{"properties":{"latitude":-33.9743,"total":192,"suburb":"Highgate","percentage":0.005,"longitude":18.6724,"id":"a6sxy9yih1xy"},"type":"Feature","geometry":{"type":"Point","coordinates":[18.6724,-33.9743]}},{"properties":{"latitude":-34.0287,"total":188,"suburb":"Imajamojeal","percentage":0.004,"longitude":18.3625,"id":"a6sxy9ubpxih"},"type":"Feature","geometry":{"type":"Point","coordinates":[18.3625,-34.0287]}},{"properties":{"latitude":-34.0244,"total":187,"suburb":"Constantia","percentage":0.004,"longitude":18.4189,"id":"a6sxya33t8pd"},"type":"Feature","geometry":{"type":"Point","coordinates":[18.4189,-34.0244]}},{"properties":{"latitude":-33.9813,"total":185,"suburb":"Penlyn Estate","percentage":0.004,"longitude":18.5224,"id":"a6sxya5r45aq"},"type":"Feature","geometry":{"type":"Point","coordinates":[18.5224,-33.9813]}},{"properties":{"latitude":-33.8989,"total":185,"suburb":"Churchhill Estate","percentage":0.004,"longitude":18.5775,"id":"a6sxy9we3m5x"},"type":"Feature","geometry":{"type":"Point","coordinates":[18.5775,-33.8989]}},{"properties":{"latitude":-33.9321,"total":182,"suburb":"Loucharmante","percentage":0.004,"longitude":18.6979,"id":"a6sxy9zq1dic"},"type":"Feature","geometry":{"type":"Point","coordinates":[18.6979,-33.9321]}},{"properties":{"latitude":-33.8741,"total":178,"suburb":"Bracken Heights","percentage":0.004,"longitude":18.6779,"id":"a6sxya1uvxh8"},"type":"Feature","geometry":{"type":"Point","coordinates":[18.6779,-33.8741]}},{"properties":{"latitude":-33.9821,"total":176,"suburb":"Greenfield","percentage":0.004,"longitude":18.7001,"id":"a6sxy9qli7g1"},"type":"Feature","geometry":{"type":"Point","coordinates":[18.7001,-33.9821]}},{"properties":{"latitude":-34.061,"total":175,"suburb":"Parel Valley","percentage":0.004,"longitude":18.8511,"id":"a6sxya4lf38n"},"type":"Feature","geometry":{"type":"Point","coordinates":[18.8511,-34.061]}},{"properties":{"latitude":-33.9665,"total":174,"suburb":"Brandwacht","percentage":0.004,"longitude":18.8747,"id":"a6sxy9rtbeeo"},"type":"Feature","geometry":{"type":"Point","coordinates":[18.8747,-33.9665]}},{"properties":{"latitude":-33.9344,"total":174,"suburb":"Onder Papegaaiberg","percentage":0.004,"longitude":18.8327,"id":"a6sxya2dmrc3"},"type":"Feature","geometry":{"type":"Point","coordinates":[18.8327,-33.9344]}},{"properties":{"latitude":-33.9303,"total":164,"suburb":"Des Hampden","percentage":0.004,"longitude":18.6737,"id":"a6sxy9td4qdy"},"type":"Feature","geometry":{"type":"Point","coordinates":[18.6737,-33.9303]}},{"properties":{"latitude":-33.814,"total":163,"suburb":"Vierlanden","percentage":0.004,"longitude":18.6599,"id":"a6sxy9vrmhoc"},"type":"Feature","geometry":{"type":"Point","coordinates":[18.6599,-33.814]}},{"properties":{"latitude":-34.0455,"total":158,"suburb":"Helderberg Village","percentage":0.004,"longitude":18.8183,"id":"a6sxy9wlmzi4"},"type":"Feature","geometry":{"type":"Point","coordinates":[18.8183,-34.0455]}},{"properties":{"latitude":-33.9188,"total":157,"suburb":"Mimosa","percentage":0.004,"longitude":18.6431,"id":"a6sxya1t0eb9"},"type":"Feature","geometry":{"type":"Point","coordinates":[18.6431,-33.9188]}},{"properties":{"latitude":-33.9313,"total":154,"suburb":"Mikro Park","percentage":0.004,"longitude":18.6955,"id":"a6sxya1h5500"},"type":"Feature","geometry":{"type":"Point","coordinates":[18.6955,-33.9313]}},{"properties":{"latitude":-33.8984,"total":152,"suburb":"Westclif Middelbar","percentage":0.004,"longitude":18.643,"id":"a6sxya3nckh3"},"type":"Feature","geometry":{"type":"Point","coordinates":[18.643,-33.8984]}},{"properties":{"latitude":-34.1478,"total":150,"suburb":"Sea Breeze","percentage":0.004,"longitude":18.8696,"id":"a6sxya5wue6r"},"type":"Feature","geometry":{"type":"Point","coordinates":[18.8696,-34.1478]}},{"properties":{"latitude":-33.5577,"total":149,"suburb":"Beaconhill","percentage":0.004,"longitude":18.5065,"id":"a6sxya2cg0h8"},"type":"Feature","geometry":{"type":"Point","coordinates":[18.5065,-33.5577]}},{"properties":{"latitude":-33.9939,"total":148,"suburb":"Penhill","percentage":0.003,"longitude":18.7332,"id":"a6sxy9uimad4"},"type":"Feature","geometry":{"type":"Point","coordinates":[18.7332,-33.9939]}},{"properties":{"latitude":-33.9116,"total":148,"suburb":"Labiance","percentage":0.003,"longitude":18.6596,"id":"a6sxya13e66z"},"type":"Feature","geometry":{"type":"Point","coordinates":[18.6596,-33.9116]}},{"properties":{"latitude":-33.9972,"total":143,"suburb":"Blue Downs Outlying","percentage":0.003,"longitude":18.6977,"id":"a6sxy9t7de95"},"type":"Feature","geometry":{"type":"Point","coordinates":[18.6977,-33.9972]}},{"properties":{"latitude":-34.1572,"total":141,"suburb":"Glencairn","percentage":0.003,"longitude":18.4212,"id":"a6sxy9trbfxd"},"type":"Feature","geometry":{"type":"Point","coordinates":[18.4212,-34.1572]}},{"properties":{"latitude":-33.9611,"total":138,"suburb":"Camelot","percentage":0.003,"longitude":18.6708,"id":"a6sxy9xhoz0k"},"type":"Feature","geometry":{"type":"Point","coordinates":[18.6708,-33.9611]}},{"properties":{"latitude":-33.897,"total":138,"suburb":"Laurindale","percentage":0.003,"longitude":18.6455,"id":"a6sxya1y6ykf"},"type":"Feature","geometry":{"type":"Point","coordinates":[18.6455,-33.897]}},{"properties":{"latitude":-33.8619,"total":136,"suburb":"Chantecler","percentage":0.003,"longitude":18.6586,"id":"a6sxy9sm1cad"},"type":"Feature","geometry":{"type":"Point","coordinates":[18.6586,-33.8619]}},{"properties":{"latitude":-33.8801,"total":133,"suburb":"Bloemhof","percentage":0.003,"longitude":18.6455,"id":"a6sxy9r9vqmh"},"type":"Feature","geometry":{"type":"Point","coordinates":[18.6455,-33.8801]}},{"properties":{"latitude":-33.8732,"total":131,"suburb":"Glen Ive","percentage":0.003,"longitude":18.6595,"id":"a6sxya3b1nb7"},"type":"Feature","geometry":{"type":"Point","coordinates":[18.6595,-33.8732]}},{"properties":{"latitude":-34.1962,"total":130,"suburb":"Habour Heights","percentage":0.003,"longitude":18.4397,"id":"a6sxy9t1g7xs"},"type":"Feature","geometry":{"type":"Point","coordinates":[18.4397,-34.1962]}},{"properties":{"latitude":-34.0393,"total":127,"suburb":"Nova Constantia","percentage":0.003,"longitude":18.4275,"id":"a6sxya2nv15b"},"type":"Feature","geometry":{"type":"Point","coordinates":[18.4275,-34.0393]}},{"properties":{"latitude":-33.9288,"total":126,"suburb":"Amandelsig","percentage":0.003,"longitude":18.6948,"id":"a6sxya14ohmt"},"type":"Feature","geometry":{"type":"Point","coordinates":[18.6948,-33.9288]}},{"properties":{"latitude":-33.9414,"total":123,"suburb":"Jagtershof","percentage":0.003,"longitude":18.7006,"id":"a6sxy9rja1hk"},"type":"Feature","geometry":{"type":"Point","coordinates":[18.7006,-33.9414]}},{"properties":{"latitude":-34.0992,"total":122,"suburb":"Noordhaven","percentage":0.003,"longitude":18.387,"id":"a6sxya16lzq9"},"type":"Feature","geometry":{"type":"Point","coordinates":[18.387,-34.0992]}},{"properties":{"latitude":-34.043,"total":121,"suburb":"Clunie","percentage":0.003,"longitude":18.4161,"id":"a6sxya2ox1mt"},"type":"Feature","geometry":{"type":"Point","coordinates":[18.4161,-34.043]}},{"properties":{"latitude":-33.8582,"total":119,"suburb":"Bethanie","percentage":0.003,"longitude":18.6583,"id":"a6sxya5rjniq"},"type":"Feature","geometry":{"type":"Point","coordinates":[18.6583,-33.8582]}},{"properties":{"latitude":-33.9116,"total":118,"suburb":"Horstmandale","percentage":0.003,"longitude":18.6372,"id":"a6sxy9z85yae"},"type":"Feature","geometry":{"type":"Point","coordinates":[18.6372,-33.9116]}},{"properties":{"latitude":-34.0907,"total":116,"suburb":"Muizenberg Mountains","percentage":0.003,"longitude":18.4457,"id":"a6sxy9vbciti"},"type":"Feature","geometry":{"type":"Point","coordinates":[18.4457,-34.0907]}},{"properties":{"latitude":-33.8689,"total":116,"suburb":"Silverstream","percentage":0.003,"longitude":18.6658,"id":"a6sxy9ye3xz3"},"type":"Feature","geometry":{"type":"Point","coordinates":[18.6658,-33.8689]}},{"properties":{"latitude":-34.1947,"total":116,"suburb":"Mount Pleasant","percentage":0.003,"longitude":18.4246,"id":"a6sxy9ret6y1"},"type":"Feature","geometry":{"type":"Point","coordinates":[18.4246,-34.1947]}},{"properties":{"latitude":-34.0098,"total":115,"suburb":"Bel Ombre","percentage":0.003,"longitude":18.4304,"id":"a6sxy9ug93qo"},"type":"Feature","geometry":{"type":"Point","coordinates":[18.4304,-34.0098]}},{"properties":{"latitude":-34.0706,"total":114,"suburb":"Natures Valley","percentage":0.003,"longitude":18.8763,"id":"a6sxy9v32toe"},"type":"Feature","geometry":{"type":"Point","coordinates":[18.8763,-34.0706]}},{"properties":{"latitude":-33.9203,"total":113,"suburb":"Idas Valley","percentage":0.003,"longitude":18.8909,"id":"a6sxy9r6p75v"},"type":"Feature","geometry":{"type":"Point","coordinates":[18.8909,-33.9203]}},{"properties":{"latitude":-33.9297,"total":113,"suburb":"Uniepark","percentage":0.003,"longitude":18.8891,"id":"a6sxya5kmjbh"},"type":"Feature","geometry":{"type":"Point","coordinates":[18.8891,-33.9297]}},{"properties":{"latitude":-34.1263,"total":112,"suburb":"Silverglade","percentage":0.003,"longitude":18.4089,"id":"a6sxy9sdm38t"},"type":"Feature","geometry":{"type":"Point","coordinates":[18.4089,-34.1263]}},{"properties":{"latitude":-34.1537,"total":111,"suburb":"Mountainview","percentage":0.003,"longitude":18.8801,"id":"a6sxya4mw45w"},"type":"Feature","geometry":{"type":"Point","coordinates":[18.8801,-34.1537]}},{"properties":{"latitude":-33.8926,"total":110,"suburb":"Heemstede","percentage":0.003,"longitude":18.6691,"id":"a6sxy9tlphey"},"type":"Feature","geometry":{"type":"Point","coordinates":[18.6691,-33.8926]}},{"properties":{"latitude":-34.2027,"total":110,"suburb":"Scarborough","percentage":0.003,"longitude":18.3861,"id":"a6sxy9sn2ej1"},"type":"Feature","geometry":{"type":"Point","coordinates":[18.3861,-34.2027]}},{"properties":{"latitude":-34.1305,"total":109,"suburb":"Kommetjie","percentage":0.003,"longitude":18.3401,"id":"a6sxya582zej"},"type":"Feature","geometry":{"type":"Point","coordinates":[18.3401,-34.1305]}},{"properties":{"latitude":-33.8656,"total":99,"suburb":"Stellenryk","percentage":0.002,"longitude":18.6637,"id":"a6sxya5dn7uo"},"type":"Feature","geometry":{"type":"Point","coordinates":[18.6637,-33.8656]}},{"properties":{"latitude":-34.0557,"total":99,"suburb":"Dennendal","percentage":0.002,"longitude":18.4404,"id":"a6sxy9qym5si"},"type":"Feature","geometry":{"type":"Point","coordinates":[18.4404,-34.0557]}},{"properties":{"latitude":-34.0456,"total":98,"suburb":"Fir Grove","percentage":0.002,"longitude":18.4357,"id":"a6sxy9qasg19"},"type":"Feature","geometry":{"type":"Point","coordinates":[18.4357,-34.0456]}},{"properties":{"latitude":-34.0621,"total":96,"suburb":"Zeekoei Vlei","percentage":0.002,"longitude":18.5041,"id":"a6sxya5uwsy5"},"type":"Feature","geometry":{"type":"Point","coordinates":[18.5041,-34.0621]}},{"properties":{"latitude":-34.1236,"total":91,"suburb":"Peers Hill","percentage":0.002,"longitude":18.4196,"id":"a6sxy9uojf3o"},"type":"Feature","geometry":{"type":"Point","coordinates":[18.4196,-34.1236]}},{"properties":{"latitude":-34.0914,"total":91,"suburb":"Farmsteads","percentage":0.002,"longitude":18.3762,"id":"a6sxy9qt939e"},"type":"Feature","geometry":{"type":"Point","coordinates":[18.3762,-34.0914]}},{"properties":{"latitude":-33.9187,"total":90,"suburb":"Kasselvlei","percentage":0.002,"longitude":18.6468,"id":"a6sxy9ybt4n5"},"type":"Feature","geometry":{"type":"Point","coordinates":[18.6468,-33.9187]}},{"properties":{"latitude":-34.1045,"total":88,"suburb":"San Michel","percentage":0.002,"longitude":18.3928,"id":"a6sxya0gwdle"},"type":"Feature","geometry":{"type":"Point","coordinates":[18.3928,-34.1045]}},{"properties":{"latitude":-33.9,"total":88,"suburb":"De La Haye","percentage":0.002,"longitude":18.6523,"id":"a6sxy9qvcwsj"},"type":"Feature","geometry":{"type":"Point","coordinates":[18.6523,-33.9]}},{"properties":{"latitude":-33.9293,"total":81,"suburb":"Mikro Park Outlying","percentage":0.002,"longitude":18.7015,"id":"a6sxy9t13nhe"},"type":"Feature","geometry":{"type":"Point","coordinates":[18.7015,-33.9293]}},{"properties":{"latitude":-33.8525,"total":79,"suburb":"Everdal Heights","percentage":0.002,"longitude":18.6508,"id":"a6sxy9w36tv6"},"type":"Feature","geometry":{"type":"Point","coordinates":[18.6508,-33.8525]}},{"properties":{"latitude":-33.8139,"total":77,"suburb":"Ruitershoogte","percentage":0.002,"longitude":18.6522,"id":"a6sxy9tkr10g"},"type":"Feature","geometry":{"type":"Point","coordinates":[18.6522,-33.8139]}},{"properties":{"latitude":-33.8949,"total":77,"suburb":"Sunkist","percentage":0.002,"longitude":18.6393,"id":"a6sxy9sjvusi"},"type":"Feature","geometry":{"type":"Point","coordinates":[18.6393,-33.8949]}},{"properties":{"latitude":-33.9658,"total":76,"suburb":"Stellenbosch Part 1 Outlying","percentage":0.002,"longitude":18.8599,"id":"a6sxy9y7vq18"},"type":"Feature","geometry":{"type":"Point","coordinates":[18.8599,-33.9658]}},{"properties":{"latitude":-34.1882,"total":75,"suburb":"Misty Cliffs","percentage":0.002,"longitude":18.3675,"id":"a6sxy9t3s8x3"},"type":"Feature","geometry":{"type":"Point","coordinates":[18.3675,-34.1882]}},{"properties":{"latitude":-33.8927,"total":73,"suburb":"Chrismar","percentage":0.002,"longitude":18.6451,"id":"a6sxya37bzei"},"type":"Feature","geometry":{"type":"Point","coordinates":[18.6451,-33.8927]}},{"properties":{"latitude":-33.9434,"total":71,"suburb":"Belhar Ext 21","percentage":0.002,"longitude":18.6525,"id":"a6sxya084qzk"},"type":"Feature","geometry":{"type":"Point","coordinates":[18.6525,-33.9434]}},{"properties":{"latitude":-33.9603,"total":71,"suburb":"Cormac Park","percentage":0.002,"longitude":18.6672,"id":"a6sxy9w7f20i"},"type":"Feature","geometry":{"type":"Point","coordinates":[18.6672,-33.9603]}},{"properties":{"latitude":-33.8592,"total":71,"suburb":"Everdal","percentage":0.002,"longitude":18.652,"id":"a6sxy9vdez8i"},"type":"Feature","geometry":{"type":"Point","coordinates":[18.652,-33.8592]}},{"properties":{"latitude":-33.9822,"total":70,"suburb":"Kirstenbosch National Botanical Gardens","percentage":0.002,"longitude":18.4244,"id":"a6sxya25dog0"},"type":"Feature","geometry":{"type":"Point","coordinates":[18.4244,-33.9822]}},{"properties":{"latitude":-34.0091,"total":68,"suburb":"Gill Cape","percentage":0.002,"longitude":18.7184,"id":"a6sxy9yx2tfu"},"type":"Feature","geometry":{"type":"Point","coordinates":[18.7184,-34.0091]}},{"properties":{"latitude":-33.9337,"total":67,"suburb":"Mostertsdrift","percentage":0.002,"longitude":18.8792,"id":"a6sxya4b4bxy"},"type":"Feature","geometry":{"type":"Point","coordinates":[18.8792,-33.9337]}},{"properties":{"latitude":-34.0384,"total":65,"suburb":"Airlie","percentage":0.002,"longitude":18.4346,"id":"a6sxya2izzgb"},"type":"Feature","geometry":{"type":"Point","coordinates":[18.4346,-34.0384]}},{"properties":{"latitude":-34.0324,"total":61,"suburb":"Jonkershoek State Forest","percentage":0.001,"longitude":18.8757,"id":"a6sxy9yzpfmi"},"type":"Feature","geometry":{"type":"Point","coordinates":[18.8757,-34.0324]}},{"properties":{"latitude":-33.8886,"total":61,"suburb":"Blommendal","percentage":0.001,"longitude":18.6528,"id":"a6sxya58xjsr"},"type":"Feature","geometry":{"type":"Point","coordinates":[18.6528,-33.8886]}},{"properties":{"latitude":-34.101,"total":61,"suburb":"Belvedere Noordhoek","percentage":0.001,"longitude":18.3912,"id":"a6sxya1qxr38"},"type":"Feature","geometry":{"type":"Point","coordinates":[18.3912,-34.101]}},{"properties":{"latitude":-34.0124,"total":60,"suburb":"Stratford Park","percentage":0.001,"longitude":18.7305,"id":"a6sxy9shan61"},"type":"Feature","geometry":{"type":"Point","coordinates":[18.7305,-34.0124]}},{"properties":{"latitude":-34.055,"total":60,"suburb":"Erinvale","percentage":0.001,"longitude":18.8939,"id":"a6sxy9t85rg8"},"type":"Feature","geometry":{"type":"Point","coordinates":[18.8939,-34.055]}},{"properties":{"latitude":-33.826,"total":60,"suburb":"Goedemoed","percentage":0.001,"longitude":18.6736,"id":"a6sxy9zn0sfk"},"type":"Feature","geometry":{"type":"Point","coordinates":[18.6736,-33.826]}},{"properties":{"latitude":-33.9522,"total":59,"suburb":"Welgelegen","percentage":0.001,"longitude":18.8639,"id":"a6sxy9xgpony"},"type":"Feature","geometry":{"type":"Point","coordinates":[18.8639,-33.9522]}},{"properties":{"latitude":-34.0395,"total":58,"suburb":"Klein Constantia","percentage":0.001,"longitude":18.4091,"id":"a6sxy9xk39b4"},"type":"Feature","geometry":{"type":"Point","coordinates":[18.4091,-34.0395]}},{"properties":{"latitude":-34.1651,"total":57,"suburb":"Cairnside","percentage":0.001,"longitude":18.4281,"id":"a6sxy9v8ex5n"},"type":"Feature","geometry":{"type":"Point","coordinates":[18.4281,-34.1651]}},{"properties":{"latitude":-33.8676,"total":56,"suburb":"Chamonix","percentage":0.001,"longitude":18.6742,"id":"a6sxya23e8d2"},"type":"Feature","geometry":{"type":"Point","coordinates":[18.6742,-33.8676]}},{"properties":{"latitude":-34.031,"total":53,"suburb":"Groot Constantia","percentage":0.001,"longitude":18.4198,"id":"a6sxya2pgjt5"},"type":"Feature","geometry":{"type":"Point","coordinates":[18.4198,-34.031]}},{"properties":{"latitude":-33.8777,"total":52,"suburb":"Welgemoed Golf Course","percentage":0.001,"longitude":18.624,"id":"a6sxy9pq5e0d"},"type":"Feature","geometry":{"type":"Point","coordinates":[18.624,-33.8777]}},{"properties":{"latitude":-33.8388,"total":52,"suburb":"Monument Park","percentage":0.001,"longitude":18.7138,"id":"a6sxy9r2y8yu"},"type":"Feature","geometry":{"type":"Point","coordinates":[18.7138,-33.8388]}},{"properties":{"latitude":-34.1131,"total":50,"suburb":"Noordhoek Outlying","percentage":0.001,"longitude":18.372,"id":"a6sxya06ndb7"},"type":"Feature","geometry":{"type":"Point","coordinates":[18.372,-34.1131]}},{"properties":{"latitude":-34.1432,"total":50,"suburb":"Pine Acres","percentage":0.001,"longitude":18.8706,"id":"a6sxy9ps9jwt"},"type":"Feature","geometry":{"type":"Point","coordinates":[18.8706,-34.1432]}},{"properties":{"latitude":-34.0295,"total":49,"suburb":"Kronenzicht","percentage":0.001,"longitude":18.3442,"id":"a6sxy9stscsf"},"type":"Feature","geometry":{"type":"Point","coordinates":[18.3442,-34.0295]}},{"properties":{"latitude":-33.8669,"total":48,"suburb":"Rosendal","percentage":0.001,"longitude":18.6441,"id":"a6sxy9vo1top"},"type":"Feature","geometry":{"type":"Point","coordinates":[18.6441,-33.8669]}},{"properties":{"latitude":-34.031,"total":45,"suburb":"Groot Bosch","percentage":0.001,"longitude":18.4059,"id":"a6sxy9zsl8pk"},"type":"Feature","geometry":{"type":"Point","coordinates":[18.4059,-34.031]}},{"properties":{"latitude":-34.1998,"total":45,"suburb":"Seaforth Sound","percentage":0.001,"longitude":18.4475,"id":"a6sxya5hdey2"},"type":"Feature","geometry":{"type":"Point","coordinates":[18.4475,-34.1998]}},{"properties":{"latitude":-33.863,"total":44,"suburb":"Welgedacht","percentage":0.001,"longitude":18.6052,"id":"a6sxya5lxtb6"},"type":"Feature","geometry":{"type":"Point","coordinates":[18.6052,-33.863]}},{"properties":{"latitude":-34.1491,"total":42,"suburb":"Anchorage Park","percentage":0.001,"longitude":18.8762,"id":"a6sxy9pyx749"},"type":"Feature","geometry":{"type":"Point","coordinates":[18.8762,-34.1491]}},{"properties":{"latitude":-33.8989,"total":41,"suburb":"Sunray","percentage":0.001,"longitude":18.638,"id":"a6sxy9puey7y"},"type":"Feature","geometry":{"type":"Point","coordinates":[18.638,-33.8989]}},{"properties":{"latitude":-33.8566,"total":41,"suburb":"Everglen","percentage":0.001,"longitude":18.6478,"id":"a6sxya3hibmu"},"type":"Feature","geometry":{"type":"Point","coordinates":[18.6478,-33.8566]}},{"properties":{"latitude":-33.8975,"total":41,"suburb":"Grahamdale","percentage":0.001,"longitude":18.6243,"id":"a6sxya2iubed"},"type":"Feature","geometry":{"type":"Point","coordinates":[18.6243,-33.8975]}},{"properties":{"latitude":-34.1678,"total":38,"suburb":"Glen Marine","percentage":0.001,"longitude":18.4264,"id":"a6sxya42n9e9"},"type":"Feature","geometry":{"type":"Point","coordinates":[18.4264,-34.1678]}},{"properties":{"latitude":-33.8263,"total":38,"suburb":"Roosendal","percentage":0.001,"longitude":18.6779,"id":"a6sxy9u20im5"},"type":"Feature","geometry":{"type":"Point","coordinates":[18.6779,-33.8263]}},{"properties":{"latitude":-34.2172,"total":37,"suburb":"Rocklands Fynbos Ridge","percentage":0.001,"longitude":18.4612,"id":"a6sxya5wl4jm"},"type":"Feature","geometry":{"type":"Point","coordinates":[18.4612,-34.2172]}},{"properties":{"latitude":-34.0329,"total":35,"suburb":"Huis-en-Bos","percentage":0.001,"longitude":18.4299,"id":"a6sxy9tesntq"},"type":"Feature","geometry":{"type":"Point","coordinates":[18.4299,-34.0329]}},{"properties":{"latitude":-34.0677,"total":33,"suburb":"Briza","percentage":0.001,"longitude":18.8409,"id":"a6sxy9sd3rwz"},"type":"Feature","geometry":{"type":"Point","coordinates":[18.8409,-34.0677]}},{"properties":{"latitude":-33.8339,"total":32,"suburb":"Kraaifontein Ext 17","percentage":0.001,"longitude":18.708,"id":"a6sxya592k1v"},"type":"Feature","geometry":{"type":"Point","coordinates":[18.708,-33.8339]}},{"properties":{"latitude":-33.8842,"total":31,"suburb":"Bellair","percentage":0.001,"longitude":18.6576,"id":"a6sxy9tk95lm"},"type":"Feature","geometry":{"type":"Point","coordinates":[18.6576,-33.8842]}},{"properties":{"latitude":-34.1411,"total":30,"suburb":"Capri","percentage":0.001,"longitude":18.3848,"id":"a6sxya2ylev0"},"type":"Feature","geometry":{"type":"Point","coordinates":[18.3848,-34.1411]}},{"properties":{"latitude":-33.8868,"total":30,"suburb":"Groendal","percentage":0.001,"longitude":19.1047,"id":"a6sxy9z67059"},"type":"Feature","geometry":{"type":"Point","coordinates":[19.1047,-33.8868]}},{"properties":{"latitude":-33.8814,"total":29,"suburb":"Selborne","percentage":0.001,"longitude":18.6198,"id":"a6sxy9zleww4"},"type":"Feature","geometry":{"type":"Point","coordinates":[18.6198,-33.8814]}},{"properties":{"latitude":-34.0869,"total":27,"suburb":"Kalamuda","percentage":0.001,"longitude":18.8612,"id":"a6sxy9vbzxha"},"type":"Feature","geometry":{"type":"Point","coordinates":[18.8612,-34.0869]}},{"properties":{"latitude":-34.0565,"total":25,"suburb":"Helderberg Nature Reserve","percentage":0.001,"longitude":18.8724,"id":"a6sxya39lbel"},"type":"Feature","geometry":{"type":"Point","coordinates":[18.8724,-34.0565]}},{"properties":{"latitude":-33.8051,"total":23,"suburb":"Robben Island","percentage":0.001,"longitude":18.3697,"id":"a6sxy9ruc2n9"},"type":"Feature","geometry":{"type":"Point","coordinates":[18.3697,-33.8051]}},{"properties":{"latitude":-33.9206,"total":23,"suburb":"Rouxville","percentage":0.001,"longitude":18.6973,"id":"a6sxya04mjqi"},"type":"Feature","geometry":{"type":"Point","coordinates":[18.6973,-33.9206]}},{"properties":{"latitude":-33.8474,"total":20,"suburb":"Vygeboom","percentage":0.0,"longitude":18.6513,"id":"a6sxy9r9al6g"},"type":"Feature","geometry":{"type":"Point","coordinates":[18.6513,-33.8474]}},{"properties":{"latitude":-34.1995,"total":20,"suburb":"Bellvue","percentage":0.0,"longitude":18.4547,"id":"a6sxya44n47y"},"type":"Feature","geometry":{"type":"Point","coordinates":[18.4547,-34.1995]}},{"properties":{"latitude":-34.0348,"total":19,"suburb":"Hope of Constantia","percentage":0.0,"longitude":18.4215,"id":"a6sxy9v4uorq"},"type":"Feature","geometry":{"type":"Point","coordinates":[18.4215,-34.0348]}},{"properties":{"latitude":-34.1623,"total":17,"suburb":"Da Gama Park","percentage":0.0,"longitude":18.4042,"id":"a6sxy9zbfzzy"},"type":"Feature","geometry":{"type":"Point","coordinates":[18.4042,-34.1623]}},{"properties":{"latitude":-34.1938,"total":17,"suburb":"Admirals Kloof","percentage":0.0,"longitude":18.4237,"id":"a6sxy9xzqs12"},"type":"Feature","geometry":{"type":"Point","coordinates":[18.4237,-34.1938]}},{"properties":{"latitude":-34.0184,"total":16,"suburb":"High Places","percentage":0.0,"longitude":18.7287,"id":"a6sxya59apxr"},"type":"Feature","geometry":{"type":"Point","coordinates":[18.7287,-34.0184]}},{"properties":{"latitude":-34.1985,"total":16,"suburb":"Boulders","percentage":0.0,"longitude":18.4521,"id":"a6sxy9rgoq9s"},"type":"Feature","geometry":{"type":"Point","coordinates":[18.4521,-34.1985]}},{"properties":{"latitude":-34.1825,"total":16,"suburb":"Pine Haven","percentage":0.0,"longitude":18.415,"id":"a6sxya1i5bbb"},"type":"Feature","geometry":{"type":"Point","coordinates":[18.415,-34.1825]}},{"properties":{"latitude":-33.9454,"total":16,"suburb":"Belhar Ext 9","percentage":0.0,"longitude":18.6392,"id":"a6sxya333nni"},"type":"Feature","geometry":{"type":"Point","coordinates":[18.6392,-33.9454]}},{"properties":{"latitude":-33.8656,"total":15,"suburb":"Bellville Ext 40","percentage":0.0,"longitude":18.6459,"id":"a6sxya5zcvlg"},"type":"Feature","geometry":{"type":"Point","coordinates":[18.6459,-33.8656]}},{"properties":{"latitude":-34.0868,"total":13,"suburb":"Roma Glen","percentage":0.0,"longitude":18.8698,"id":"a6sxya2zgp1k"},"type":"Feature","geometry":{"type":"Point","coordinates":[18.8698,-34.0868]}},{"properties":{"latitude":-33.8572,"total":13,"suburb":"Kenridge","percentage":0.0,"longitude":18.637,"id":"a6sxy9qrmaxr"},"type":"Feature","geometry":{"type":"Point","coordinates":[18.637,-33.8572]}},{"properties":{"latitude":-33.7812,"total":13,"suburb":"Milnerton SP","percentage":0.0,"longitude":18.5066,"id":"a6sxy9vjzt7j"},"type":"Feature","geometry":{"type":"Point","coordinates":[18.5066,-33.7812]}},{"properties":{"latitude":-34.3696,"total":12,"suburb":"Hangklip","percentage":0.0,"longitude":18.8413,"id":"a6sxy9ra8n4p"},"type":"Feature","geometry":{"type":"Point","coordinates":[18.8413,-34.3696]}},{"properties":{"latitude":-34.2068,"total":9,"suburb":"Froggy Farm","percentage":0.0,"longitude":18.4547,"id":"a6sxy9y30v4x"},"type":"Feature","geometry":{"type":"Point","coordinates":[18.4547,-34.2068]}},{"properties":{"latitude":-34.1634,"total":9,"suburb":"Cape Farms","percentage":0.0,"longitude":18.4144,"id":"a6sxya0pe4fb"},"type":"Feature","geometry":{"type":"Point","coordinates":[18.4144,-34.1634]}},{"properties":{"latitude":-33.8657,"total":9,"suburb":"Bellville Ext 53","percentage":0.0,"longitude":18.6098,"id":"a6sxya4i0geo"},"type":"Feature","geometry":{"type":"Point","coordinates":[18.6098,-33.8657]}},{"properties":{"latitude":-34.1466,"total":8,"suburb":"Rooidakkies","percentage":0.0,"longitude":18.9964,"id":"a6sxy9v0jvf5"},"type":"Feature","geometry":{"type":"Point","coordinates":[18.9964,-34.1466]}},{"properties":{"latitude":-34.2113,"total":8,"suburb":"Murdock Valley","percentage":0.0,"longitude":18.4578,"id":"a6sxya23wz7c"},"type":"Feature","geometry":{"type":"Point","coordinates":[18.4578,-34.2113]}},{"properties":{"latitude":-33.9482,"total":6,"suburb":"Belhar Ext 12","percentage":0.0,"longitude":18.6393,"id":"a6sxya3mudx1"},"type":"Feature","geometry":{"type":"Point","coordinates":[18.6393,-33.9482]}},{"properties":{"latitude":-33.884,"total":6,"suburb":"Boston Farm","percentage":0.0,"longitude":18.6191,"id":"a6sxya5qulke"},"type":"Feature","geometry":{"type":"Point","coordinates":[18.6191,-33.884]}},{"properties":{"latitude":-34.1601,"total":3,"suburb":"Dennekruin","percentage":0.0,"longitude":18.9995,"id":"a6sxy9vf4gy4"},"type":"Feature","geometry":{"type":"Point","coordinates":[18.9995,-34.1601]}},{"properties":{"latitude":-33.8758,"total":3,"suburb":"Plattekloof Proper","percentage":0.0,"longitude":18.5953,"id":"a6sxy9rlk06q"},"type":"Feature","geometry":{"type":"Point","coordinates":[18.5953,-33.8758]}},{"properties":{"latitude":-34.1636,"total":2,"suburb":"Gordon's Bay Outlying","percentage":0.0,"longitude":18.8821,"id":"a6sxy9wrtj61"},"type":"Feature","geometry":{"type":"Point","coordinates":[18.8821,-34.1636]}},{"properties":{"latitude":-33.9458,"total":1,"suburb":"Belhar Ext 15","percentage":0.0,"longitude":18.6421,"id":"a6sxya3d21vc"},"type":"Feature","geometry":{"type":"Point","coordinates":[18.6421,-33.9458]}},{"properties":{"latitude":-33.9731,"total":1,"suburb":"Table Mountain","percentage":0.0,"longitude":18.4037,"id":"a6sxya35h8pp"},"type":"Feature","geometry":{"type":"Point","coordinates":[18.4037,-33.9731]}},{"properties":{"latitude":null,"total":4239219,"suburb":null,"percentage":null,"longitude":null,"id":"a6sxy9puyk3s"},"type":"Feature","geometry":null}],"is_temporal":false,"author":{"url":"","metadata":"","contact_name":"","contact_address":"","source":"","contact_phone":""},"source":"","pagination":{"sort":null,"start":0,"total":937,"limit":1000000},"state":"complete","tags":"","published":"2014-08-13T04:44:15-04:00","id":155631}