{"type":"FeatureCollection","data_type":"Dataset","url_type":null,"permissions":[{"permissions":{"download":true,"view":true},"group_id":"everyone"}],"classification":null,"title":"Put in Place","count":19,"stream_id":15684,"contributor":{"url":"http://geocommons.com/users/3995","name":"amazon"},"data_attributes":null,"calculation_params":null,"icon_link":null,"link":"http://geocommons.com/overlays/15684.json","extent":[144.658,13.2768,144.899,13.538],"geometry_types":["point"],"unique_name":null,"name":"Put in Place","feature_count":19,"description":"","next_feature":null,"is_raster":false,"short_classification":"Y","stats":{"put in place":{"max":230220662.8,"mean":38509168.9589474,"variance":4.6670293340904e+15,"stdev":68315659.5085666,"min":350.0,"median":5336319.32},"lat":{"max":13.538,"mean":13.4341752631579,"variance":0.00466452543742692,"stdev":0.0682973311149632,"min":13.27681,"median":13.4596},"long":{"max":144.899002,"mean":144.754869105263,"variance":0.00357176885632124,"stdev":0.0597642774265802,"min":144.658005,"median":144.753006}},"features":[{"properties":{"city":"AGANA HEIGHTS","put in place":10796402.3,"id":"a68prkl2h0vd","lat":13.4627,"long":144.744003},"type":"Feature","geometry":{"type":"Point","coordinates":[144.744003,13.4627]}},{"properties":{"city":"AGAT","put in place":137480.49,"id":"a68prkjm2wf5","lat":13.3823,"long":144.658005},"type":"Feature","geometry":{"type":"Point","coordinates":[144.658005,13.3823]}},{"properties":{"city":"ASAN","put in place":5562395.71,"id":"a68prkvezf1f","lat":13.4671,"long":144.714996},"type":"Feature","geometry":{"type":"Point","coordinates":[144.714996,13.4671]}},{"properties":{"city":"BARRIGADA","put in place":4362984.2,"id":"a68prko863n6","lat":13.4615,"long":144.794998},"type":"Feature","geometry":{"type":"Point","coordinates":[144.794998,13.4615]}},{"properties":{"city":"CHALAN PAGO","put in place":63407389.48,"id":"a68prkp4qr6p","lat":13.4362,"long":144.770004},"type":"Feature","geometry":{"type":"Point","coordinates":[144.770004,13.4362]}},{"properties":{"city":"DEDEDO","put in place":1178155.61,"id":"a68prksagnj2","lat":13.517,"long":144.835999},"type":"Feature","geometry":{"type":"Point","coordinates":[144.835999,13.517]}},{"properties":{"city":"HAGATNA","put in place":92697513.97,"id":"a68prkpinklr","lat":13.47777,"long":144.751877},"type":"Feature","geometry":{"type":"Point","coordinates":[144.751877,13.47777]}},{"properties":{"city":"INARAJAN","put in place":25139.75,"id":"a68prkxpjbrr","lat":13.27681,"long":144.738968},"type":"Feature","geometry":{"type":"Point","coordinates":[144.738968,13.27681]}},{"properties":{"city":"MANGILAO","put in place":22800051.1,"id":"a68prksttfia","lat":13.4415,"long":144.802002},"type":"Feature","geometry":{"type":"Point","coordinates":[144.802002,13.4415]}},{"properties":{"city":"MONGMONG","put in place":16370383.79,"id":"a68prkl9s20o","lat":13.4705,"long":144.764999},"type":"Feature","geometry":{"type":"Point","coordinates":[144.764999,13.4705]}},{"properties":{"city":"ORDOT","put in place":350.0,"id":"a68prkq6xhhj","lat":13.44645,"long":144.786636},"type":"Feature","geometry":{"type":"Point","coordinates":[144.786636,13.44645]}},{"properties":{"city":"PITI","put in place":5336319.32,"id":"a68prkl59w45","lat":13.4646,"long":144.695007},"type":"Feature","geometry":{"type":"Point","coordinates":[144.695007,13.4646]}},{"properties":{"city":"SANTA RITA","put in place":198703652.7,"id":"a68prkkl5jh5","lat":13.3872,"long":144.669006},"type":"Feature","geometry":{"type":"Point","coordinates":[144.669006,13.3872]}},{"properties":{"city":"SINAJANA","put in place":26055.0,"id":"a68prkvvm7e5","lat":13.4596,"long":144.751999},"type":"Feature","geometry":{"type":"Point","coordinates":[144.751999,13.4596]}},{"properties":{"city":"TALOFOFO","put in place":690537.02,"id":"a68prkwo7o8e","lat":13.3555,"long":144.753006},"type":"Feature","geometry":{"type":"Point","coordinates":[144.753006,13.3555]}},{"properties":{"city":"TAMUNING","put in place":230220662.8,"id":"a68prkm69dnj","lat":13.4936,"long":144.777008},"type":"Feature","geometry":{"type":"Point","coordinates":[144.777008,13.4936]}},{"properties":{"city":"UMATAC","put in place":5775.0,"id":"a68prkx2v2pl","lat":13.2967,"long":144.662003},"type":"Feature","geometry":{"type":"Point","coordinates":[144.662003,13.2967]}},{"properties":{"city":"YIGO","put in place":78091938.69,"id":"a68prknopxs5","lat":13.538,"long":144.899002},"type":"Feature","geometry":{"type":"Point","coordinates":[144.899002,13.538]}},{"properties":{"city":"YONA","put in place":1261023.29,"id":"a68prkn0ykfu","lat":13.4143,"long":144.772995},"type":"Feature","geometry":{"type":"Point","coordinates":[144.772995,13.4143]}}],"is_temporal":false,"author":{"url":"","metadata":"","contact_name":"","contact_address":"","source":"","contact_phone":""},"source":"","pagination":{"sort":null,"start":0,"total":19,"limit":1000000},"state":"complete","tags":"guam","published":"2009-09-01T12:00:00Z","id":15684}