{"type":"FeatureCollection","data_type":"Dataset","url_type":null,"permissions":[{"permissions":{"download":true,"view":true},"group_id":"everyone"}],"classification":null,"title":"Culture Deals2","count":86,"stream_id":156930,"contributor":{"url":"http://geocommons.com/users/27147","name":"AschneiderGroupon"},"data_attributes":null,"calculation_params":null,"icon_link":null,"link":"http://geocommons.com/overlays/156930.json","extent":[-157.858,21.3069,-71.0598,47.6062],"geometry_types":["point"],"unique_name":null,"name":"Culture Deals2","feature_count":86,"description":"","next_feature":null,"is_raster":false,"short_classification":"Y","stats":{"count":{"max":16,"mean":2.7093023255814,"variance":7.66744186046512,"stdev":2.76901460098446,"min":1,"median":2}},"features":[{"properties":{"city":"Albuquerque","geo_score":0.857,"count":3,"id":"a63hp07oxymt","geo_precision":"city","state":"NM"},"type":"Feature","geometry":{"type":"Point","coordinates":[-106.651137,35.084491]}},{"properties":{"city":"Allentown","geo_score":0.857,"count":3,"id":"a63hp0do7ytf","geo_precision":"city","state":"PA"},"type":"Feature","geometry":{"type":"Point","coordinates":[-75.490183,40.608431]}},{"properties":{"city":"Athens","geo_score":0.857,"count":1,"id":"a63hp09mmb1z","geo_precision":"city","state":"GA"},"type":"Feature","geometry":{"type":"Point","coordinates":[-83.353697,33.992902]}},{"properties":{"city":"Atlanta","geo_score":0.857,"count":6,"id":"a63hp0ek9q5h","geo_precision":"city","state":"GA"},"type":"Feature","geometry":{"type":"Point","coordinates":[-84.387982,33.748995]}},{"properties":{"city":"Augusta","geo_score":0.857,"count":1,"id":"a63hp0ezkdl6","geo_precision":"city","state":"GA"},"type":"Feature","geometry":{"type":"Point","coordinates":[-81.974838,33.47097]}},{"properties":{"city":"Austin","geo_score":0.857,"count":4,"id":"a63hp0c5dc4i","geo_precision":"city","state":"TX"},"type":"Feature","geometry":{"type":"Point","coordinates":[-97.743061,30.267153]}},{"properties":{"city":"Baltimore","geo_score":0.857,"count":3,"id":"a63hp08967ri","geo_precision":"city","state":"MD"},"type":"Feature","geometry":{"type":"Point","coordinates":[-76.612189,39.290385]}},{"properties":{"city":"Baton Rouge","geo_score":0.857,"count":1,"id":"a63hp0fdnrei","geo_precision":"city","state":"LA"},"type":"Feature","geometry":{"type":"Point","coordinates":[-91.154551,30.450746]}},{"properties":{"city":"Birmingham","geo_score":0.857,"count":1,"id":"a63hp0bhpycd","geo_precision":"city","state":"AL"},"type":"Feature","geometry":{"type":"Point","coordinates":[-86.80249,33.520661]}},{"properties":{"city":"Boston","geo_score":0.857,"count":6,"id":"a63hp02jkc8m","geo_precision":"city","state":"MA"},"type":"Feature","geometry":{"type":"Point","coordinates":[-71.059773,42.358431]}},{"properties":{"city":"Buffalo","geo_score":0.857,"count":1,"id":"a63hp049goar","geo_precision":"city","state":"NY"},"type":"Feature","geometry":{"type":"Point","coordinates":[-78.878369,42.886447]}},{"properties":{"city":"Charleston","geo_score":0.798,"count":4,"id":"a63hp04mt7n0","geo_precision":"city","state":"SC"},"type":"Feature","geometry":{"type":"Point","coordinates":[-79.970643,32.85712]}},{"properties":{"city":"Charlotte","geo_score":0.857,"count":1,"id":"a63hp0943yge","geo_precision":"city","state":"NC"},"type":"Feature","geometry":{"type":"Point","coordinates":[-80.843127,35.227087]}},{"properties":{"city":"Chicago","geo_score":0.857,"count":16,"id":"a63hp038os3b","geo_precision":"city","state":"IL"},"type":"Feature","geometry":{"type":"Point","coordinates":[-87.650052,41.850033]}},{"properties":{"city":"Cincinnati","geo_score":0.857,"count":1,"id":"a63hp09btrxl","geo_precision":"city","state":"OH"},"type":"Feature","geometry":{"type":"Point","coordinates":[-84.456886,39.162004]}},{"properties":{"city":"Cleveland","geo_score":0.857,"count":2,"id":"a63hp0eftkej","geo_precision":"city","state":"OH"},"type":"Feature","geometry":{"type":"Point","coordinates":[-81.695409,41.499495]}},{"properties":{"city":"Columbus","geo_score":0.776,"count":4,"id":"a63hp0b9i2nu","geo_precision":"city","state":"OH"},"type":"Feature","geometry":{"type":"Point","coordinates":[-82.695724,39.998397]}},{"properties":{"city":"Corpus Christi","geo_score":0.857,"count":1,"id":"a63hp07q15kc","geo_precision":"city","state":"TX"},"type":"Feature","geometry":{"type":"Point","coordinates":[-97.396381,27.800583]}},{"properties":{"city":"Dallas","geo_score":0.857,"count":4,"id":"a63hp0600h0b","geo_precision":"city","state":"TX"},"type":"Feature","geometry":{"type":"Point","coordinates":[-96.806667,32.783056]}},{"properties":{"city":"Detroit","geo_score":0.857,"count":4,"id":"a63hp07hvip9","geo_precision":"city","state":"MI"},"type":"Feature","geometry":{"type":"Point","coordinates":[-83.045754,42.331427]}},{"properties":{"city":"El Paso","geo_score":0.857,"count":2,"id":"a63hp0gxy3nx","geo_precision":"city","state":"TX"},"type":"Feature","geometry":{"type":"Point","coordinates":[-106.486931,31.75872]}},{"properties":{"city":"Eugene","geo_score":0.857,"count":1,"id":"a63hp0f3jhy7","geo_precision":"city","state":"OR"},"type":"Feature","geometry":{"type":"Point","coordinates":[-123.086754,44.052069]}},{"properties":{"city":"Fairfield","geo_score":0.857,"count":4,"id":"a63hp08qirk4","geo_precision":"city","state":"CT"},"type":"Feature","geometry":{"type":"Point","coordinates":[-73.282408,41.175173]}},{"properties":{"city":"Fort Myers","geo_score":0.746,"count":2,"id":"a63hp0feeel4","geo_precision":"city","state":"FL"},"type":"Feature","geometry":{"type":"Point","coordinates":[-81.92122,30.435237]}},{"properties":{"city":"Fresno","geo_score":0.857,"count":1,"id":"a63hp03kutrk","geo_precision":"city","state":"CA"},"type":"Feature","geometry":{"type":"Point","coordinates":[-119.772366,36.747727]}},{"properties":{"city":"Gainesville","geo_score":0.818,"count":1,"id":"a63hp0aq13zt","geo_precision":"city","state":"FL"},"type":"Feature","geometry":{"type":"Point","coordinates":[-85.354651,30.731305]}},{"properties":{"city":"Green Bay","geo_score":0.857,"count":1,"id":"a63hp0bdf44f","geo_precision":"city","state":"WI"},"type":"Feature","geometry":{"type":"Point","coordinates":[-88.019826,44.519159]}},{"properties":{"city":"Greenville","geo_score":0.857,"count":1,"id":"a63hp0hdgtrj","geo_precision":"city","state":"SC"},"type":"Feature","geometry":{"type":"Point","coordinates":[-82.402871,34.848567]}},{"properties":{"city":"Hartford","geo_score":0.857,"count":3,"id":"a63hp05k2ig1","geo_precision":"city","state":"CT"},"type":"Feature","geometry":{"type":"Point","coordinates":[-72.685093,41.763711]}},{"properties":{"city":"Hoboken","geo_score":0.857,"count":1,"id":"a63hp0ff3gls","geo_precision":"city","state":"NJ"},"type":"Feature","geometry":{"type":"Point","coordinates":[-74.027972,40.745197]}},{"properties":{"city":"Honolulu","geo_score":0.857,"count":1,"id":"a63hp0f3m3we","geo_precision":"city","state":"HI"},"type":"Feature","geometry":{"type":"Point","coordinates":[-157.858333,21.306944]}},{"properties":{"city":"Houston","geo_score":0.816,"count":4,"id":"a63hp02hjnh2","geo_precision":"city","state":"TX"},"type":"Feature","geometry":{"type":"Point","coordinates":[-96.919704,29.845783]}},{"properties":{"city":"Indianapolis","geo_score":0.857,"count":1,"id":"a63hp0awsn3v","geo_precision":"city","state":"IN"},"type":"Feature","geometry":{"type":"Point","coordinates":[-86.158042,39.768377]}},{"properties":{"city":"Inland Empire","geo_score":0.786,"count":1,"id":"a63hp08rvhyt","geo_precision":"city","state":"CA"},"type":"Feature","geometry":{"type":"Point","coordinates":[-120.906593,37.637531]}},{"properties":{"city":"Jackson","geo_score":0.857,"count":2,"id":"a63hp0gdq33o","geo_precision":"city","state":"MS"},"type":"Feature","geometry":{"type":"Point","coordinates":[-90.18481,32.298757]}},{"properties":{"city":"Jacksonville","geo_score":0.857,"count":1,"id":"a63hp0hbte9k","geo_precision":"city","state":"FL"},"type":"Feature","geometry":{"type":"Point","coordinates":[-81.655651,30.332184]}},{"properties":{"city":"Kansas City","geo_score":0.857,"count":1,"id":"a63hp0fs6y8u","geo_precision":"city","state":"MO"},"type":"Feature","geometry":{"type":"Point","coordinates":[-94.598583,39.102404]}},{"properties":{"city":"Knoxville","geo_score":0.794,"count":1,"id":"a63hp080agex","geo_precision":"city","state":"TN"},"type":"Feature","geometry":{"type":"Point","coordinates":[-86.784443,36.16589]}},{"properties":{"city":"Lansing","geo_score":0.857,"count":1,"id":"a63hp0846wdu","geo_precision":"city","state":"MI"},"type":"Feature","geometry":{"type":"Point","coordinates":[-84.555535,42.732535]}},{"properties":{"city":"Las Vegas","geo_score":0.857,"count":3,"id":"a63hp04jmyj1","geo_precision":"city","state":"NV"},"type":"Feature","geometry":{"type":"Point","coordinates":[-115.137223,36.174971]}},{"properties":{"city":"Lexington","geo_score":0.857,"count":2,"id":"a63hp0ca7sd6","geo_precision":"city","state":"KY"},"type":"Feature","geometry":{"type":"Point","coordinates":[-84.477715,37.988689]}},{"properties":{"city":"Lincoln","geo_score":0.857,"count":1,"id":"a63hp0c1kd5v","geo_precision":"city","state":"NE"},"type":"Feature","geometry":{"type":"Point","coordinates":[-96.66696,40.800001]}},{"properties":{"city":"Little Rock","geo_score":0.857,"count":2,"id":"a63hp0com9n1","geo_precision":"city","state":"AR"},"type":"Feature","geometry":{"type":"Point","coordinates":[-92.289595,34.746481]}},{"properties":{"city":"Los Angeles","geo_score":0.857,"count":9,"id":"a63hp07ecwj2","geo_precision":"city","state":"CA"},"type":"Feature","geometry":{"type":"Point","coordinates":[-118.243685,34.052234]}},{"properties":{"city":"Memphis","geo_score":0.857,"count":1,"id":"a63hp0a2jleg","geo_precision":"city","state":"TN"},"type":"Feature","geometry":{"type":"Point","coordinates":[-90.04898,35.149534]}},{"properties":{"city":"Miami","geo_score":0.857,"count":4,"id":"a63hp03q7f7o","geo_precision":"city","state":"FL"},"type":"Feature","geometry":{"type":"Point","coordinates":[-80.193659,25.774266]}},{"properties":{"city":"Milwaukee","geo_score":0.857,"count":2,"id":"a63hp04bbf7g","geo_precision":"city","state":"WI"},"type":"Feature","geometry":{"type":"Point","coordinates":[-87.906474,43.038903]}},{"properties":{"city":"Minneapolis","geo_score":0.857,"count":2,"id":"a63hp07f81f7","geo_precision":"city","state":"MN"},"type":"Feature","geometry":{"type":"Point","coordinates":[-93.263836,44.979965]}},{"properties":{"city":"Naples","geo_score":0.857,"count":1,"id":"a63hp0bbry2k","geo_precision":"city","state":"FL"},"type":"Feature","geometry":{"type":"Point","coordinates":[-81.79481,26.142036]}},{"properties":{"city":"New Orleans","geo_score":0.857,"count":1,"id":"a63hp02qustl","geo_precision":"city","state":"LA"},"type":"Feature","geometry":{"type":"Point","coordinates":[-89.930956,30.068812]}},{"properties":{"city":"New York","geo_score":0.857,"count":8,"id":"a63hp0dw8ke3","geo_precision":"city","state":"NY"},"type":"Feature","geometry":{"type":"Point","coordinates":[-74.005973,40.714269]}},{"properties":{"city":"Ocala","geo_score":0.857,"count":2,"id":"a63hp061bhhb","geo_precision":"city","state":"FL"},"type":"Feature","geometry":{"type":"Point","coordinates":[-82.169401,29.238672]}},{"properties":{"city":"Ogden","geo_score":0.857,"count":1,"id":"a63hp0gb021j","geo_precision":"city","state":"UT"},"type":"Feature","geometry":{"type":"Point","coordinates":[-111.97383,41.223]}},{"properties":{"city":"Oklahoma City","geo_score":0.857,"count":3,"id":"a63hp07sxs9f","geo_precision":"city","state":"OK"},"type":"Feature","geometry":{"type":"Point","coordinates":[-97.516428,35.46756]}},{"properties":{"city":"Omaha","geo_score":0.714,"count":1,"id":"a63hp070qz1n","geo_precision":"city","state":"Omaha"},"type":"Feature","geometry":{"type":"Point","coordinates":[-95.937792,41.25861]}},{"properties":{"city":"Orange","geo_score":0.857,"count":1,"id":"a63hp0aymht9","geo_precision":"city","state":"CA"},"type":"Feature","geometry":{"type":"Point","coordinates":[-117.853112,33.787795]}},{"properties":{"city":"Orlando","geo_score":0.857,"count":2,"id":"a63hp0co7ipq","geo_precision":"city","state":"FL"},"type":"Feature","geometry":{"type":"Point","coordinates":[-81.379237,28.538336]}},{"properties":{"city":"Palm Beach","geo_score":0.8,"count":3,"id":"a63hp04f0zjy","geo_precision":"city","state":"FL"},"type":"Feature","geometry":{"type":"Point","coordinates":[-80.035596,26.778118]}},{"properties":{"city":"Pensacola","geo_score":0.857,"count":1,"id":"a63hp0bjkq8s","geo_precision":"city","state":"FL"},"type":"Feature","geometry":{"type":"Point","coordinates":[-87.216915,30.421309]}},{"properties":{"city":"Philadelphia","geo_score":0.857,"count":3,"id":"a63hp07xf8wt","geo_precision":"city","state":"PA"},"type":"Feature","geometry":{"type":"Point","coordinates":[-75.163789,39.952335]}},{"properties":{"city":"Phoenix","geo_score":0.857,"count":5,"id":"a63hp02vh40o","geo_precision":"city","state":"AZ"},"type":"Feature","geometry":{"type":"Point","coordinates":[-112.074037,33.448377]}},{"properties":{"city":"Piedmont Triad","geo_score":0.802,"count":1,"id":"a63hp0ffr4vv","geo_precision":"city","state":"CA"},"type":"Feature","geometry":{"type":"Point","coordinates":[-122.231635,37.824372]}},{"properties":{"city":"Pittsburgh","geo_score":0.857,"count":3,"id":"a63hp06d1bz7","geo_precision":"city","state":"PA"},"type":"Feature","geometry":{"type":"Point","coordinates":[-79.995886,40.440625]}},{"properties":{"city":"Portland","geo_score":0.857,"count":2,"id":"a63hp0gqi6uu","geo_precision":"city","state":"OR"},"type":"Feature","geometry":{"type":"Point","coordinates":[-122.676207,45.523452]}},{"properties":{"city":"Providence","geo_score":0.857,"count":3,"id":"a63hp0elhea4","geo_precision":"city","state":"RI"},"type":"Feature","geometry":{"type":"Point","coordinates":[-71.412834,41.823989]}},{"properties":{"city":"Richmond","geo_score":0.857,"count":2,"id":"a63hp0a1hci3","geo_precision":"city","state":"VA"},"type":"Feature","geometry":{"type":"Point","coordinates":[-77.460262,37.553758]}},{"properties":{"city":"Salem","geo_score":0.857,"count":2,"id":"a63hp0c2vzcd","geo_precision":"city","state":"OR"},"type":"Feature","geometry":{"type":"Point","coordinates":[-122.921721,44.90472]}},{"properties":{"city":"Salt Lake City","geo_score":0.857,"count":1,"id":"a63hp03kgejr","geo_precision":"city","state":"UT"},"type":"Feature","geometry":{"type":"Point","coordinates":[-111.891047,40.760779]}},{"properties":{"city":"San Antonio","geo_score":0.857,"count":3,"id":"a63hp09g7nwn","geo_precision":"city","state":"TX"},"type":"Feature","geometry":{"type":"Point","coordinates":[-98.493628,29.424122]}},{"properties":{"city":"San Diego","geo_score":0.857,"count":8,"id":"a63hp070g9j4","geo_precision":"city","state":"CA"},"type":"Feature","geometry":{"type":"Point","coordinates":[-117.157255,32.715329]}},{"properties":{"city":"San Francisco","geo_score":0.857,"count":9,"id":"a63hp03c8y4s","geo_precision":"city","state":"CA"},"type":"Feature","geometry":{"type":"Point","coordinates":[-122.419416,37.77493]}},{"properties":{"city":"San Jose","geo_score":0.857,"count":4,"id":"a63hp0a1lqkr","geo_precision":"city","state":"CA"},"type":"Feature","geometry":{"type":"Point","coordinates":[-121.894956,37.339386]}},{"properties":{"city":"Santa Cruz","geo_score":0.762,"count":3,"id":"a63hp07egfps","geo_precision":"city","state":"CA"},"type":"Feature","geometry":{"type":"Point","coordinates":[-119.045658,36.114674]}},{"properties":{"city":"Savannah","geo_score":0.857,"count":2,"id":"a63hp03a0cog","geo_precision":"city","state":"GA"},"type":"Feature","geometry":{"type":"Point","coordinates":[-81.099834,32.083541]}},{"properties":{"city":"Seattle","geo_score":0.857,"count":2,"id":"a63hp058lptw","geo_precision":"city","state":"WA"},"type":"Feature","geometry":{"type":"Point","coordinates":[-122.332071,47.60621]}},{"properties":{"city":"Sonoma","geo_score":0.857,"count":1,"id":"a63hp0ezj8t4","geo_precision":"city","state":"CA"},"type":"Feature","geometry":{"type":"Point","coordinates":[-122.476819,38.255943]}},{"properties":{"city":"Springfield","geo_score":0.792,"count":1,"id":"a63hp03duicg","geo_precision":"city","state":"MO"},"type":"Feature","geometry":{"type":"Point","coordinates":[-91.237925,38.295605]}},{"properties":{"city":"St. Louis","geo_score":0.0,"count":3,"id":"a63hp05x3p0e","geo_precision":"unmatched","state":"MO"},"type":"Feature","geometry":null},{"properties":{"city":"Tallahassee","geo_score":0.857,"count":1,"id":"a63hp0ffarhb","geo_precision":"city","state":"FL"},"type":"Feature","geometry":{"type":"Point","coordinates":[-84.280733,30.438256]}},{"properties":{"city":"Tampa","geo_score":0.857,"count":4,"id":"a63hp0b447hu","geo_precision":"city","state":"FL"},"type":"Feature","geometry":{"type":"Point","coordinates":[-82.458428,27.947522]}},{"properties":{"city":"Trenton","geo_score":0.857,"count":1,"id":"a63hp04zbz5e","geo_precision":"city","state":"NJ"},"type":"Feature","geometry":{"type":"Point","coordinates":[-74.742939,40.217053]}},{"properties":{"city":"Tulsa","geo_score":0.857,"count":1,"id":"a63hp0b3whaq","geo_precision":"city","state":"OK"},"type":"Feature","geometry":{"type":"Point","coordinates":[-95.992775,36.153982]}},{"properties":{"city":"Washington","geo_score":0.857,"count":16,"id":"a63hp0399b4n","geo_precision":"city","state":"DC"},"type":"Feature","geometry":{"type":"Point","coordinates":[-77.036366,38.895112]}},{"properties":{"city":"Wilmington","geo_score":0.857,"count":1,"id":"a63hp03dkivx","geo_precision":"city","state":"DE"},"type":"Feature","geometry":{"type":"Point","coordinates":[-75.546589,39.745947]}},{"properties":{"city":"Worcester","geo_score":0.857,"count":1,"id":"a63hp04qzz4o","geo_precision":"city","state":"MA"},"type":"Feature","geometry":{"type":"Point","coordinates":[-71.802293,42.262593]}},{"properties":{"city":"Yonkers","geo_score":0.857,"count":3,"id":"a63hp021anxw","geo_precision":"city","state":"NY"},"type":"Feature","geometry":{"type":"Point","coordinates":[-73.898747,40.93121]}}],"is_temporal":false,"author":{"url":"","metadata":"","contact_name":"","contact_address":"","source":"","contact_phone":""},"source":"","pagination":{"sort":null,"start":0,"total":86,"limit":1000000},"state":"complete","tags":"","published":"2014-08-13T06:54:00-04:00","id":156930}