{"type":"FeatureCollection","data_type":"Dataset","url_type":null,"permissions":[{"permissions":{"download":true,"view":true},"group_id":"everyone"}],"classification":null,"title":"11 0920 PAM SalesData","count":187,"stream_id":157634,"contributor":{"url":"http://geocommons.com/users/28248","name":"tommynauw"},"data_attributes":null,"calculation_params":null,"icon_link":null,"link":"http://geocommons.com/overlays/157634.json","extent":[-159.363,19.5935,-68.1914,62.2573],"geometry_types":["point"],"unique_name":null,"name":"11 0920 PAM SalesData","feature_count":187,"description":"","next_feature":null,"is_raster":false,"short_classification":"Y","stats":{},"features":[{"properties":{"city":"Phoenix","zip":"85032","geo_score":0.857,"id":"a6asap9hwawe","geo_precision":"city","state":"AZ"},"type":"Feature","geometry":{"type":"Point","coordinates":[-112.074037,33.448377]}},{"properties":{"city":"Tazewell","zip":"24651","geo_score":0.786,"id":"a6asap52z9b1","geo_precision":"city","state":"VA"},"type":"Feature","geometry":{"type":"Point","coordinates":[-77.513156,37.846874]}},{"properties":{"city":"Honolulu","zip":"96816","geo_score":0.857,"id":"a6asapa01qzx","geo_precision":"city","state":"HI"},"type":"Feature","geometry":{"type":"Point","coordinates":[-157.858333,21.306944]}},{"properties":{"city":"Kailua","zip":"96734","geo_score":0.796,"id":"a6asap6zatup","geo_precision":"city","state":"HI"},"type":"Feature","geometry":{"type":"Point","coordinates":[-157.948056,21.384722]}},{"properties":{"city":"Kapolei","zip":"96707","geo_score":0.796,"id":"a6asap4239gx","geo_precision":"city","state":"HI"},"type":"Feature","geometry":{"type":"Point","coordinates":[-159.363333,21.9675]}},{"properties":{"city":"Davison","zip":"48423","geo_score":0.857,"id":"a6asapk246n5","geo_precision":"city","state":"MI"},"type":"Feature","geometry":{"type":"Point","coordinates":[-83.622843,43.041994]}},{"properties":{"city":"Honolulu","zip":"96822","geo_score":0.857,"id":"a6asapgn64h7","geo_precision":"city","state":"HI"},"type":"Feature","geometry":{"type":"Point","coordinates":[-157.858333,21.306944]}},{"properties":{"city":"Newport Coast","zip":"92657","geo_score":0.738,"id":"a6asapjuk1fp","geo_precision":"city","state":"CA"},"type":"Feature","geometry":{"type":"Point","coordinates":[-115.967051,34.839964]}},{"properties":{"city":"Poland","zip":"04274","geo_score":0.857,"id":"a6asapiuso0x","geo_precision":"city","state":"ME"},"type":"Feature","geometry":{"type":"Point","coordinates":[-70.393668,44.060628]}},{"properties":{"city":"Hauula","zip":"96717","geo_score":0.786,"id":"a6asap6cgiw5","geo_precision":"city","state":"HI"},"type":"Feature","geometry":{"type":"Point","coordinates":[-156.2275,20.908333]}},{"properties":{"city":"Aberdeen","zip":"07747","geo_score":0.0,"id":"a6asap7sbfg9","geo_precision":"unmatched","state":"NJ"},"type":"Feature","geometry":null},{"properties":{"city":"Adams","zip":"97810","geo_score":0.857,"id":"a6asap803qh7","geo_precision":"city","state":"OR"},"type":"Feature","geometry":{"type":"Point","coordinates":[-118.490788,45.724767]}},{"properties":{"city":"Eatonville","zip":"98328","geo_score":0.857,"id":"a6asap8i9m07","geo_precision":"city","state":"WA"},"type":"Feature","geometry":{"type":"Point","coordinates":[-122.30141,46.904844]}},{"properties":{"city":"Bakersfield","zip":"93311","geo_score":0.857,"id":"a6asapk61v2t","geo_precision":"city","state":"CA"},"type":"Feature","geometry":{"type":"Point","coordinates":[-119.018713,35.373292]}},{"properties":{"city":"Savage","zip":"55378","geo_score":0.857,"id":"a6asapg75v2r","geo_precision":"city","state":"MN"},"type":"Feature","geometry":{"type":"Point","coordinates":[-93.367975,44.751113]}},{"properties":{"city":"Flower Mound","zip":"75028","geo_score":0.727,"id":"a6asap8x4i7v","geo_precision":"city","state":"TX"},"type":"Feature","geometry":{"type":"Point","coordinates":[-95.986901,29.150808]}},{"properties":{"city":"Arlington","zip":"98223","geo_score":0.795,"id":"a6asap7gqxme","geo_precision":"city","state":"WA"},"type":"Feature","geometry":{"type":"Point","coordinates":[-122.062083,48.202046]}},{"properties":{"city":"Kailua","zip":"96734","geo_score":0.796,"id":"a6asapj7fqkj","geo_precision":"city","state":"HI"},"type":"Feature","geometry":{"type":"Point","coordinates":[-157.948056,21.384722]}},{"properties":{"city":"Homeland","zip":"92548","geo_score":0.841,"id":"a6asapeimgya","geo_precision":"city","state":"CA"},"type":"Feature","geometry":{"type":"Point","coordinates":[-116.972526,32.741719]}},{"properties":{"city":"Honolulu","zip":"96825","geo_score":0.857,"id":"a6asapfv17ow","geo_precision":"city","state":"HI"},"type":"Feature","geometry":{"type":"Point","coordinates":[-157.858333,21.306944]}},{"properties":{"city":"Fremont","zip":"94539","geo_score":0.857,"id":"a6asap7sk1wc","geo_precision":"city","state":"CA"},"type":"Feature","geometry":{"type":"Point","coordinates":[-121.988572,37.54827]}},{"properties":{"city":"San  Francisco","zip":"94122","geo_score":0.857,"id":"a6asapa99ppb","geo_precision":"city","state":"CA"},"type":"Feature","geometry":{"type":"Point","coordinates":[-122.419416,37.77493]}},{"properties":{"city":"Fort Worth","zip":"76244","geo_score":0.746,"id":"a6asap9pf8fg","geo_precision":"city","state":"TX"},"type":"Feature","geometry":{"type":"Point","coordinates":[-95.262161,31.108239]}},{"properties":{"city":"Sacramento","zip":"95822","geo_score":0.857,"id":"a6asap4bnttk","geo_precision":"city","state":"CA"},"type":"Feature","geometry":{"type":"Point","coordinates":[-121.4944,38.581572]}},{"properties":{"city":"Honolulu","zip":"96818","geo_score":0.857,"id":"a6asap9fwczt","geo_precision":"city","state":"HI"},"type":"Feature","geometry":{"type":"Point","coordinates":[-157.858333,21.306944]}},{"properties":{"city":"Elmendorf","zip":"78112","geo_score":0.778,"id":"a6asapbw4pej","geo_precision":"city","state":"TX"},"type":"Feature","geometry":{"type":"Point","coordinates":[-96.637769,33.422889]}},{"properties":{"city":"SAN JOSE","zip":"95136","geo_score":0.857,"id":"a6asap4rn7lm","geo_precision":"city","state":"CA"},"type":"Feature","geometry":{"type":"Point","coordinates":[-121.894956,37.339386]}},{"properties":{"city":"Rancho Santa Margarita","zip":"92688","geo_score":0.829,"id":"a6asapiisy3o","geo_precision":"city","state":"CA"},"type":"Feature","geometry":{"type":"Point","coordinates":[-118.53203,34.439995]}},{"properties":{"city":"Honolulu","zip":"96818","geo_score":0.857,"id":"a6asap47rz2y","geo_precision":"city","state":"HI"},"type":"Feature","geometry":{"type":"Point","coordinates":[-157.858333,21.306944]}},{"properties":{"city":"Ewa Beach","zip":"96706","geo_score":0.768,"id":"a6asap9eq5oa","geo_precision":"city","state":"HI"},"type":"Feature","geometry":{"type":"Point","coordinates":[-158.040278,21.3425]}},{"properties":{"city":"Kaneohe","zip":"96744","geo_score":0.857,"id":"a6asapav60jg","geo_precision":"city","state":"HI"},"type":"Feature","geometry":{"type":"Point","coordinates":[-157.93955,21.66875]}},{"properties":{"city":"Wahiawa","zip":"96786","geo_score":0.857,"id":"a6asap9slwrt","geo_precision":"city","state":"HI"},"type":"Feature","geometry":{"type":"Point","coordinates":[-158.047735,21.5324]}},{"properties":{"city":"Worthington","zip":"43085","geo_score":0.857,"id":"a6asapad21k4","geo_precision":"city","state":"OH"},"type":"Feature","geometry":{"type":"Point","coordinates":[-83.017962,40.093119]}},{"properties":{"city":"Goleta","zip":"93117","geo_score":0.738,"id":"a6asapj4wknk","geo_precision":"city","state":"CA"},"type":"Feature","geometry":{"type":"Point","coordinates":[-122.029407,38.025476]}},{"properties":{"city":"Kailua","zip":"96734","geo_score":0.796,"id":"a6asapc8xn4z","geo_precision":"city","state":"HI"},"type":"Feature","geometry":{"type":"Point","coordinates":[-157.948056,21.384722]}},{"properties":{"city":"Honolulu","zip":"96821","geo_score":0.857,"id":"a6asapbrdf03","geo_precision":"city","state":"HI"},"type":"Feature","geometry":{"type":"Point","coordinates":[-157.858333,21.306944]}},{"properties":{"city":"Santa Ana","zip":"82701","geo_score":0.857,"id":"a6asapafi8mf","geo_precision":"city","state":"CA"},"type":"Feature","geometry":{"type":"Point","coordinates":[-117.867834,33.745573]}},{"properties":{"city":"Huntington Beach","zip":"92647","geo_score":0.857,"id":"a6asapdvxuae","geo_precision":"city","state":"CA"},"type":"Feature","geometry":{"type":"Point","coordinates":[-117.999227,33.660297]}},{"properties":{"city":"Oakland","zip":"07436","geo_score":0.857,"id":"a6asapb3ihm6","geo_precision":"city","state":"NJ"},"type":"Feature","geometry":{"type":"Point","coordinates":[-74.238623,41.023402]}},{"properties":{"city":"Chatham","zip":"07928","geo_score":0.857,"id":"a6asapkbao87","geo_precision":"city","state":"NJ"},"type":"Feature","geometry":{"type":"Point","coordinates":[-74.496806,40.759477]}},{"properties":{"city":"Danville","zip":"94506","geo_score":0.81,"id":"a6asapewomgv","geo_precision":"city","state":"CA"},"type":"Feature","geometry":{"type":"Point","coordinates":[-119.09066,36.248561]}},{"properties":{"city":"Honolulu","zip":"96818","geo_score":0.857,"id":"a6asap4h2jpp","geo_precision":"city","state":"HI"},"type":"Feature","geometry":{"type":"Point","coordinates":[-157.858333,21.306944]}},{"properties":{"city":"Honolulu","zip":"96825","geo_score":0.857,"id":"a6asapf132lq","geo_precision":"city","state":"HI"},"type":"Feature","geometry":{"type":"Point","coordinates":[-157.858333,21.306944]}},{"properties":{"city":"Kaneohe","zip":"96744","geo_score":0.857,"id":"a6asapgd2el6","geo_precision":"city","state":"HI"},"type":"Feature","geometry":{"type":"Point","coordinates":[-157.93955,21.66875]}},{"properties":{"city":"San Diego","zip":"92131","geo_score":0.857,"id":"a6asap9grdru","geo_precision":"city","state":"CA"},"type":"Feature","geometry":{"type":"Point","coordinates":[-117.157255,32.715329]}},{"properties":{"city":"Wawona","zip":"95389","geo_score":0.857,"id":"a6asap8hzk85","geo_precision":"city","state":"CA"},"type":"Feature","geometry":{"type":"Point","coordinates":[-119.656268,37.53688]}},{"properties":{"city":"Honolulu","zip":"96825","geo_score":0.857,"id":"a6asap8uu95b","geo_precision":"city","state":"HI"},"type":"Feature","geometry":{"type":"Point","coordinates":[-157.858333,21.306944]}},{"properties":{"city":"New Hyde Park","zip":"11040","geo_score":0.818,"id":"a6asapjsvjbb","geo_precision":"city","state":"NY"},"type":"Feature","geometry":{"type":"Point","coordinates":[-74.957934,42.660909]}},{"properties":{"city":"Honolulu","zip":"96814","geo_score":0.857,"id":"a6asapi27fy2","geo_precision":"city","state":"HI"},"type":"Feature","geometry":{"type":"Point","coordinates":[-157.858333,21.306944]}},{"properties":{"city":"Honolulu","zip":"96816","geo_score":0.857,"id":"a6asap8ns248","geo_precision":"city","state":"HI"},"type":"Feature","geometry":{"type":"Point","coordinates":[-157.858333,21.306944]}},{"properties":{"city":"Kailua","zip":"96734","geo_score":0.796,"id":"a6asapfasfzf","geo_precision":"city","state":"HI"},"type":"Feature","geometry":{"type":"Point","coordinates":[-157.948056,21.384722]}},{"properties":{"city":"New York","zip":"10065","geo_score":0.857,"id":"a6asapgcqzx8","geo_precision":"city","state":"NY"},"type":"Feature","geometry":{"type":"Point","coordinates":[-74.005973,40.714269]}},{"properties":{"city":"Lebanon","zip":"17042","geo_score":0.857,"id":"a6asapi293x1","geo_precision":"city","state":"PA"},"type":"Feature","geometry":{"type":"Point","coordinates":[-76.397634,40.331594]}},{"properties":{"city":"Loretto","zip":"55357","geo_score":0.857,"id":"a6asapi3wsk0","geo_precision":"city","state":"MN"},"type":"Feature","geometry":{"type":"Point","coordinates":[-93.657256,45.100098]}},{"properties":{"city":"Kaneohe","zip":"96744","geo_score":0.857,"id":"a6asap5mi5ls","geo_precision":"city","state":"HI"},"type":"Feature","geometry":{"type":"Point","coordinates":[-157.93955,21.66875]}},{"properties":{"city":"Houston","zip":"77055","geo_score":0.816,"id":"a6asapk1lwrh","geo_precision":"city","state":"TX"},"type":"Feature","geometry":{"type":"Point","coordinates":[-96.919704,29.845783]}},{"properties":{"city":"Toluca Lake","zip":"91602","geo_score":0.857,"id":"a6asape61mys","geo_precision":"city","state":"CA"},"type":"Feature","geometry":{"type":"Point","coordinates":[-118.298662,33.786594]}},{"properties":{"city":"Juneau","zip":"99801","geo_score":0.857,"id":"a6asap8xo6be","geo_precision":"city","state":"AK"},"type":"Feature","geometry":{"type":"Point","coordinates":[-134.523946,58.373561]}},{"properties":{"city":"Chicago","zip":"60601","geo_score":0.857,"id":"a6asaphdfkab","geo_precision":"city","state":"IL"},"type":"Feature","geometry":{"type":"Point","coordinates":[-87.650052,41.850033]}},{"properties":{"city":"Aspen","zip":"81612","geo_score":0.857,"id":"a6asapanxmkf","geo_precision":"city","state":"CO"},"type":"Feature","geometry":{"type":"Point","coordinates":[-106.776744,39.169324]}},{"properties":{"city":"Kihei","zip":"96753","geo_score":0.755,"id":"a6asap3ubhho","geo_precision":"city","state":"HI"},"type":"Feature","geometry":{"type":"Point","coordinates":[-155.438015,19.593456]}},{"properties":{"city":"Aiea","zip":"96701","geo_score":0.857,"id":"a6asapgb3n2y","geo_precision":"city","state":"HI"},"type":"Feature","geometry":{"type":"Point","coordinates":[-157.927829,21.39065]}},{"properties":{"city":"Methuen","zip":"01844","geo_score":0.857,"id":"a6asap7c8vxj","geo_precision":"city","state":"MA"},"type":"Feature","geometry":{"type":"Point","coordinates":[-71.186915,42.73184]}},{"properties":{"city":"Alpharetta","zip":"30004","geo_score":0.757,"id":"a6asapb2b35s","geo_precision":"city","state":"GA"},"type":"Feature","geometry":{"type":"Point","coordinates":[-83.92379,31.462401]}},{"properties":{"city":"Indianapolis","zip":"46217","geo_score":0.857,"id":"a6asaph2r7r1","geo_precision":"city","state":"IN"},"type":"Feature","geometry":{"type":"Point","coordinates":[-86.158042,39.768377]}},{"properties":{"city":"Honolulu","zip":"96821","geo_score":0.857,"id":"a6asapkccg8d","geo_precision":"city","state":"HI"},"type":"Feature","geometry":{"type":"Point","coordinates":[-157.858333,21.306944]}},{"properties":{"city":"hONOLULU","zip":"96814","geo_score":0.857,"id":"a6asapa586q9","geo_precision":"city","state":"HI"},"type":"Feature","geometry":{"type":"Point","coordinates":[-157.858333,21.306944]}},{"properties":{"city":"Kailua","zip":"96734","geo_score":0.796,"id":"a6asapeuh4th","geo_precision":"city","state":"HI"},"type":"Feature","geometry":{"type":"Point","coordinates":[-157.948056,21.384722]}},{"properties":{"city":"Wilhoite","zip":"83632","geo_score":0.839,"id":"a6asapk2w88s","geo_precision":"city","state":"AZ"},"type":"Feature","geometry":{"type":"Point","coordinates":[-112.58684,34.425859]}},{"properties":{"city":"Waipahu","zip":"96797","geo_score":0.857,"id":"a6asapiduxie","geo_precision":"city","state":"HI"},"type":"Feature","geometry":{"type":"Point","coordinates":[-158.015151,21.399548]}},{"properties":{"city":"Palmer","zip":"99645","geo_score":0.857,"id":"a6asap6ga5zd","geo_precision":"city","state":"AK"},"type":"Feature","geometry":{"type":"Point","coordinates":[-149.633916,62.257284]}},{"properties":{"city":"Honolulu","zip":"96821","geo_score":0.857,"id":"a6asap69gb2i","geo_precision":"city","state":"HI"},"type":"Feature","geometry":{"type":"Point","coordinates":[-157.858333,21.306944]}},{"properties":{"city":"Kaneohe","zip":"96744","geo_score":0.857,"id":"a6asapg5f38t","geo_precision":"city","state":"HI"},"type":"Feature","geometry":{"type":"Point","coordinates":[-157.93955,21.66875]}},{"properties":{"city":"Honolulu","zip":"96815","geo_score":0.857,"id":"a6asap8m9zq2","geo_precision":"city","state":"HI"},"type":"Feature","geometry":{"type":"Point","coordinates":[-157.858333,21.306944]}},{"properties":{"city":"Honolulu","zip":"96818","geo_score":0.857,"id":"a6asape9550o","geo_precision":"city","state":"HI"},"type":"Feature","geometry":{"type":"Point","coordinates":[-157.858333,21.306944]}},{"properties":{"city":"San Francisco","zip":"94121","geo_score":0.857,"id":"a6asaphd88i1","geo_precision":"city","state":"CA"},"type":"Feature","geometry":{"type":"Point","coordinates":[-122.419416,37.77493]}},{"properties":{"city":"Los Angeles","zip":"90039","geo_score":0.857,"id":"a6asapd5g7b7","geo_precision":"city","state":"CA"},"type":"Feature","geometry":{"type":"Point","coordinates":[-118.243685,34.052234]}},{"properties":{"city":"Rochester","zip":"55901","geo_score":0.857,"id":"a6asapf7fmo9","geo_precision":"city","state":"MN"},"type":"Feature","geometry":{"type":"Point","coordinates":[-92.516916,44.075285]}},{"properties":{"city":"San Francisco","zip":"94122","geo_score":0.857,"id":"a6asapg6yu4p","geo_precision":"city","state":"CA"},"type":"Feature","geometry":{"type":"Point","coordinates":[-122.419416,37.77493]}},{"properties":{"city":"Wheaton","zip":"60187","geo_score":0.857,"id":"a6asapf7gjer","geo_precision":"city","state":"IL"},"type":"Feature","geometry":{"type":"Point","coordinates":[-88.088716,41.839679]}},{"properties":{"city":"Antioch","zip":"94509","geo_score":0.857,"id":"a6asape5zpc5","geo_precision":"city","state":"CA"},"type":"Feature","geometry":{"type":"Point","coordinates":[-121.906748,37.931997]}},{"properties":{"city":"Arlington","zip":"22201","geo_score":0.857,"id":"a6asapat7nk5","geo_precision":"city","state":"VA"},"type":"Feature","geometry":{"type":"Point","coordinates":[-77.084145,38.89039]}},{"properties":{"city":"Honolulu","zip":"96816","geo_score":0.857,"id":"a6asap896t6j","geo_precision":"city","state":"HI"},"type":"Feature","geometry":{"type":"Point","coordinates":[-157.858333,21.306944]}},{"properties":{"city":"Houston","zip":"77095","geo_score":0.816,"id":"a6asaphe71qt","geo_precision":"city","state":"TX"},"type":"Feature","geometry":{"type":"Point","coordinates":[-96.919704,29.845783]}},{"properties":{"city":"Mililani","zip":"96789","geo_score":0.0,"id":"a6asap4ndh5i","geo_precision":"unmatched","state":"HI"},"type":"Feature","geometry":null},{"properties":{"city":"Centreville","zip":"20120","geo_score":0.812,"id":"a6asap52m94a","geo_precision":"city","state":"VA"},"type":"Feature","geometry":{"type":"Point","coordinates":[-77.414988,38.843724]}},{"properties":{"city":"Chesapeake","zip":"23322","geo_score":0.857,"id":"a6asap4qr2iu","geo_precision":"city","state":"VA"},"type":"Feature","geometry":{"type":"Point","coordinates":[-76.218759,36.749991]}},{"properties":{"city":"Honolulu","zip":"96822","geo_score":0.857,"id":"a6asap4cf4c8","geo_precision":"city","state":"HI"},"type":"Feature","geometry":{"type":"Point","coordinates":[-157.858333,21.306944]}},{"properties":{"city":"Waipahu","zip":"96797","geo_score":0.857,"id":"a6asapgefnbb","geo_precision":"city","state":"HI"},"type":"Feature","geometry":{"type":"Point","coordinates":[-158.015151,21.399548]}},{"properties":{"city":"Sorrento","zip":"04677","geo_score":0.857,"id":"a6asap8frp8w","geo_precision":"city","state":"ME"},"type":"Feature","geometry":{"type":"Point","coordinates":[-68.19137,44.491175]}},{"properties":{"city":"Omaha","zip":"68105","geo_score":0.857,"id":"a6asapkc8yq4","geo_precision":"city","state":"NE"},"type":"Feature","geometry":{"type":"Point","coordinates":[-95.937792,41.25861]}},{"properties":{"city":"Yelm","zip":"98597","geo_score":0.857,"id":"a6asapio3i0b","geo_precision":"city","state":"WA"},"type":"Feature","geometry":{"type":"Point","coordinates":[-122.562689,46.882364]}},{"properties":{"city":"Kekaha","zip":"96752","geo_score":0.821,"id":"a6asapjlha1l","geo_precision":"city","state":"HI"},"type":"Feature","geometry":{"type":"Point","coordinates":[-155.046389,19.730278]}},{"properties":{"city":"Shawnee","zip":"66218","geo_score":0.857,"id":"a6asapjmii0b","geo_precision":"city","state":"KS"},"type":"Feature","geometry":{"type":"Point","coordinates":[-94.720238,39.041672]}},{"properties":{"city":"Essex","zip":"05451","geo_score":0.857,"id":"a6asapbcxzm5","geo_precision":"city","state":"VT"},"type":"Feature","geometry":{"type":"Point","coordinates":[-73.050271,44.50835]}},{"properties":{"city":"Plainfield","zip":"60544","geo_score":0.857,"id":"a6asapjr2ua8","geo_precision":"city","state":"IL"},"type":"Feature","geometry":{"type":"Point","coordinates":[-88.169698,41.632457]}},{"properties":{"city":"Honolulu","zip":"96825","geo_score":0.857,"id":"a6asapk9uats","geo_precision":"city","state":"HI"},"type":"Feature","geometry":{"type":"Point","coordinates":[-157.858333,21.306944]}},{"properties":{"city":"falmouth","zip":"04105","geo_score":0.857,"id":"a6asapc0gxjj","geo_precision":"city","state":"ME"},"type":"Feature","geometry":{"type":"Point","coordinates":[-70.270696,43.73928]}},{"properties":{"city":"Honolulu","zip":"96814","geo_score":0.857,"id":"a6asap8r8d3t","geo_precision":"city","state":"HI"},"type":"Feature","geometry":{"type":"Point","coordinates":[-157.858333,21.306944]}},{"properties":{"city":"Houston","zip":"77084","geo_score":0.816,"id":"a6asaphrv9gu","geo_precision":"city","state":"TX"},"type":"Feature","geometry":{"type":"Point","coordinates":[-96.919704,29.845783]}},{"properties":{"city":"ramona","zip":"92065","geo_score":0.857,"id":"a6asap5bnnfs","geo_precision":"city","state":"CA"},"type":"Feature","geometry":{"type":"Point","coordinates":[-116.976549,33.031572]}},{"properties":{"city":"Honolulu","zip":"96816","geo_score":0.857,"id":"a6asap98fn0x","geo_precision":"city","state":"HI"},"type":"Feature","geometry":{"type":"Point","coordinates":[-157.858333,21.306944]}},{"properties":{"city":"Honolulu","zip":"96818","geo_score":0.857,"id":"a6asapejsk54","geo_precision":"city","state":"HI"},"type":"Feature","geometry":{"type":"Point","coordinates":[-157.858333,21.306944]}},{"properties":{"city":"Apple Valley","zip":"92307","geo_score":0.74,"id":"a6asapig6ekt","geo_precision":"city","state":"CA"},"type":"Feature","geometry":{"type":"Point","coordinates":[-121.677764,40.517936]}},{"properties":{"city":"Cary","zip":"27511","geo_score":0.821,"id":"a6asap96mnxq","geo_precision":"city","state":"NC"},"type":"Feature","geometry":{"type":"Point","coordinates":[-79.220017,36.211527]}},{"properties":{"city":"Walnut Creek","zip":"94598","geo_score":0.727,"id":"a6asapc71u8t","geo_precision":"city","state":"CA"},"type":"Feature","geometry":{"type":"Point","coordinates":[-122.481647,38.517964]}},{"properties":{"city":"Haleiwa","zip":"96712","geo_score":0.816,"id":"a6asapiqsefx","geo_precision":"city","state":"HI"},"type":"Feature","geometry":{"type":"Point","coordinates":[-157.921667,21.379444]}},{"properties":{"city":"Tulsa","zip":"74137","geo_score":0.857,"id":"a6asapejmif1","geo_precision":"city","state":"OK"},"type":"Feature","geometry":{"type":"Point","coordinates":[-95.992775,36.153982]}},{"properties":{"city":"Kaaawa","zip":"96730","geo_score":0.857,"id":"a6asap4bqcsa","geo_precision":"city","state":"HI"},"type":"Feature","geometry":{"type":"Point","coordinates":[-157.883316,21.585127]}},{"properties":{"city":"Brea","zip":"92821","geo_score":0.786,"id":"a6asapb94sb4","geo_precision":"city","state":"CA"},"type":"Feature","geometry":{"type":"Point","coordinates":[-121.970838,41.644041]}},{"properties":{"city":"Los Angeles","zip":"90064","geo_score":0.857,"id":"a6asap4slisb","geo_precision":"city","state":"CA"},"type":"Feature","geometry":{"type":"Point","coordinates":[-118.243685,34.052234]}},{"properties":{"city":"Kailua","zip":"96734","geo_score":0.796,"id":"a6asapag3btk","geo_precision":"city","state":"HI"},"type":"Feature","geometry":{"type":"Point","coordinates":[-157.948056,21.384722]}},{"properties":{"city":"Valley Stream","zip":"11581","geo_score":0.75,"id":"a6asapiebn16","geo_precision":"city","state":"NY"},"type":"Feature","geometry":{"type":"Point","coordinates":[-74.082365,41.136484]}},{"properties":{"city":"Palatine","zip":"60067","geo_score":0.786,"id":"a6asapjm03qh","geo_precision":"city","state":"IL"},"type":"Feature","geometry":{"type":"Point","coordinates":[-88.803953,37.763938]}},{"properties":{"city":"Las Vegas","zip":"89173","geo_score":0.857,"id":"a6asap5f5vzc","geo_precision":"city","state":"NV"},"type":"Feature","geometry":{"type":"Point","coordinates":[-115.137223,36.174971]}},{"properties":{"city":"Mesa","zip":"85203","geo_score":0.857,"id":"a6asap7sudtq","geo_precision":"city","state":"AZ"},"type":"Feature","geometry":{"type":"Point","coordinates":[-111.82264,33.422269]}},{"properties":{"city":"Kaneohe","zip":"96744","geo_score":0.857,"id":"a6asapaphvut","geo_precision":"city","state":"HI"},"type":"Feature","geometry":{"type":"Point","coordinates":[-157.93955,21.66875]}},{"properties":{"city":"The Woodlands","zip":"77382","geo_score":0.857,"id":"a6asapfargg1","geo_precision":"city","state":"TX"},"type":"Feature","geometry":{"type":"Point","coordinates":[-95.489385,30.157994]}},{"properties":{"city":"Makawao","zip":"96768","geo_score":0.857,"id":"a6asapayai7b","geo_precision":"city","state":"HI"},"type":"Feature","geometry":{"type":"Point","coordinates":[-156.320242,20.832664]}},{"properties":{"city":"Mount Vernon","zip":"98273","geo_score":0.753,"id":"a6asap5h8a4y","geo_precision":"city","state":"WA"},"type":"Feature","geometry":{"type":"Point","coordinates":[-117.132417,47.507676]}},{"properties":{"city":"Kaneohe","zip":"96744","geo_score":0.857,"id":"a6asap6o6na4","geo_precision":"city","state":"HI"},"type":"Feature","geometry":{"type":"Point","coordinates":[-157.93955,21.66875]}},{"properties":{"city":"Honolulu","zip":"96825","geo_score":0.857,"id":"a6asapepbu2t","geo_precision":"city","state":"HI"},"type":"Feature","geometry":{"type":"Point","coordinates":[-157.858333,21.306944]}},{"properties":{"city":"Honolulu","zip":"96822","geo_score":0.857,"id":"a6asapi770ma","geo_precision":"city","state":"HI"},"type":"Feature","geometry":{"type":"Point","coordinates":[-157.858333,21.306944]}},{"properties":{"city":"Palm Bay","zip":"32909","geo_score":0.857,"id":"a6asapgg8ziv","geo_precision":"city","state":"FL"},"type":"Feature","geometry":{"type":"Point","coordinates":[-80.611642,27.96861]}},{"properties":{"city":"Dallas","zip":"76270","geo_score":0.857,"id":"a6asapfz6697","geo_precision":"city","state":"TX"},"type":"Feature","geometry":{"type":"Point","coordinates":[-96.806667,32.783056]}},{"properties":{"city":"Irvine","zip":"92602","geo_score":0.857,"id":"a6asape8btu2","geo_precision":"city","state":"CA"},"type":"Feature","geometry":{"type":"Point","coordinates":[-117.823111,33.669465]}},{"properties":{"city":"Brentwood","zip":"94513","geo_score":0.857,"id":"a6asap8nygu4","geo_precision":"city","state":"CA"},"type":"Feature","geometry":{"type":"Point","coordinates":[-118.473969,34.051954]}},{"properties":{"city":"Dublin","zip":"43017","geo_score":0.857,"id":"a6asapgij398","geo_precision":"city","state":"OH"},"type":"Feature","geometry":{"type":"Point","coordinates":[-83.011389,39.969036]}},{"properties":{"city":"Two Rivers","zip":"54241","geo_score":0.73,"id":"a6asapelmf6n","geo_precision":"city","state":"WI"},"type":"Feature","geometry":{"type":"Point","coordinates":[-92.244916,46.569386]}},{"properties":{"city":"San Ramon","zip":"94583","geo_score":0.786,"id":"a6asap9bc0ol","geo_precision":"city","state":"CA"},"type":"Feature","geometry":{"type":"Point","coordinates":[-116.976549,33.031572]}},{"properties":{"city":"Mililani","zip":"96789","geo_score":0.0,"id":"a6asapfeob21","geo_precision":"unmatched","state":"HI"},"type":"Feature","geometry":null},{"properties":{"city":"Honolulu","zip":"96819","geo_score":0.857,"id":"a6asap8nk545","geo_precision":"city","state":"HI"},"type":"Feature","geometry":{"type":"Point","coordinates":[-157.858333,21.306944]}},{"properties":{"city":"Aiea","zip":"96701","geo_score":0.857,"id":"a6asap7n8p3r","geo_precision":"city","state":"HI"},"type":"Feature","geometry":{"type":"Point","coordinates":[-157.927829,21.39065]}},{"properties":{"city":"Hillsborough","zip":"08844","geo_score":0.0,"id":"a6asapfo3kp4","geo_precision":"unmatched","state":"NJ"},"type":"Feature","geometry":null},{"properties":{"city":"Klamath Falls","zip":"97603","geo_score":0.857,"id":"a6asapdeo9rk","geo_precision":"city","state":"OR"},"type":"Feature","geometry":{"type":"Point","coordinates":[-121.78167,42.224867]}},{"properties":{"city":"Enumclaw","zip":"98022","geo_score":0.857,"id":"a6asapj6pk1m","geo_precision":"city","state":"WA"},"type":"Feature","geometry":{"type":"Point","coordinates":[-121.903936,47.234107]}},{"properties":{"city":"Honolulu","zip":"96813","geo_score":0.857,"id":"a6asapcpkqmp","geo_precision":"city","state":"HI"},"type":"Feature","geometry":{"type":"Point","coordinates":[-157.858333,21.306944]}},{"properties":{"city":"Reno","zip":"89506","geo_score":0.857,"id":"a6asapi6m5m9","geo_precision":"city","state":"NV"},"type":"Feature","geometry":{"type":"Point","coordinates":[-119.813803,39.529633]}},{"properties":{"city":"Hermansville","zip":"49847","geo_score":0.857,"id":"a6asapbl9950","geo_precision":"city","state":"MI"},"type":"Feature","geometry":{"type":"Point","coordinates":[-87.642374,45.700102]}},{"properties":{"city":"Kailua","zip":"96734","geo_score":0.796,"id":"a6asapi29mc5","geo_precision":"city","state":"HI"},"type":"Feature","geometry":{"type":"Point","coordinates":[-157.948056,21.384722]}},{"properties":{"city":"Haleiwa","zip":"96712","geo_score":0.816,"id":"a6asapdk1uk4","geo_precision":"city","state":"HI"},"type":"Feature","geometry":{"type":"Point","coordinates":[-157.921667,21.379444]}},{"properties":{"city":"Sammamish","zip":"98074","geo_score":0.857,"id":"a6asapcyj706","geo_precision":"city","state":"WA"},"type":"Feature","geometry":{"type":"Point","coordinates":[-122.0804,47.641766]}},{"properties":{"city":"Pearcy","zip":"71964","geo_score":0.762,"id":"a6asap6hk2me","geo_precision":"city","state":"AR"},"type":"Feature","geometry":{"type":"Point","coordinates":[-92.933507,34.46259]}},{"properties":{"city":"Honolulu","zip":"96815","geo_score":0.857,"id":"a6asapjloloh","geo_precision":"city","state":"HI"},"type":"Feature","geometry":{"type":"Point","coordinates":[-157.858333,21.306944]}},{"properties":{"city":"Honolulu","zip":"96815","geo_score":0.857,"id":"a6asap5i03bc","geo_precision":"city","state":"HI"},"type":"Feature","geometry":{"type":"Point","coordinates":[-157.858333,21.306944]}},{"properties":{"city":"Bakersfield","zip":"93309","geo_score":0.857,"id":"a6asap5r6rbs","geo_precision":"city","state":"CA"},"type":"Feature","geometry":{"type":"Point","coordinates":[-119.018713,35.373292]}},{"properties":{"city":"Woodstock","zip":"30188","geo_score":0.857,"id":"a6asap52w9ok","geo_precision":"city","state":"GA"},"type":"Feature","geometry":{"type":"Point","coordinates":[-84.481787,34.127398]}},{"properties":{"city":"Honolulu","zip":"96813","geo_score":0.857,"id":"a6asapjdn1qm","geo_precision":"city","state":"HI"},"type":"Feature","geometry":{"type":"Point","coordinates":[-157.858333,21.306944]}},{"properties":{"city":"The Woodlands","zip":"77382","geo_score":0.857,"id":"a6asaperm0n8","geo_precision":"city","state":"TX"},"type":"Feature","geometry":{"type":"Point","coordinates":[-95.489385,30.157994]}},{"properties":{"city":"Slaughter","zip":"70777","geo_score":0.857,"id":"a6asaphqbs1e","geo_precision":"city","state":"LA"},"type":"Feature","geometry":{"type":"Point","coordinates":[-91.07376,30.75711]}},{"properties":{"city":"Honolulu","zip":"96818","geo_score":0.857,"id":"a6asapelnvab","geo_precision":"city","state":"HI"},"type":"Feature","geometry":{"type":"Point","coordinates":[-157.858333,21.306944]}},{"properties":{"city":"San Jose","zip":"95138","geo_score":0.857,"id":"a6asapc8zbo1","geo_precision":"city","state":"CA"},"type":"Feature","geometry":{"type":"Point","coordinates":[-121.894956,37.339386]}},{"properties":{"city":"Kailua","zip":"96734","geo_score":0.796,"id":"a6asap46f4n7","geo_precision":"city","state":"HI"},"type":"Feature","geometry":{"type":"Point","coordinates":[-157.948056,21.384722]}},{"properties":{"city":"Citrus Heights","zip":"95610","geo_score":0.857,"id":"a6asapgott3n","geo_precision":"city","state":"CA"},"type":"Feature","geometry":{"type":"Point","coordinates":[-121.26736,38.689802]}},{"properties":{"city":"Mililani, Hi","zip":"96789","geo_score":0.729,"id":"a6asap3uxees","geo_precision":"city","state":"HI"},"type":"Feature","geometry":{"type":"Point","coordinates":[-156.006944,20.6975]}},{"properties":{"city":"Honolulu","zip":"96816","geo_score":0.857,"id":"a6asapei587t","geo_precision":"city","state":"HI"},"type":"Feature","geometry":{"type":"Point","coordinates":[-157.858333,21.306944]}},{"properties":{"city":"Kaneohe","zip":"96744","geo_score":0.857,"id":"a6asaphsiukx","geo_precision":"city","state":"HI"},"type":"Feature","geometry":{"type":"Point","coordinates":[-157.93955,21.66875]}},{"properties":{"city":"Blissfield","zip":"49221","geo_score":0.857,"id":"a6asapblfgji","geo_precision":"city","state":"MI"},"type":"Feature","geometry":{"type":"Point","coordinates":[-83.873899,41.852645]}},{"properties":{"city":"Vancouver","zip":"98662","geo_score":0.857,"id":"a6asapgrtgfp","geo_precision":"city","state":"WA"},"type":"Feature","geometry":{"type":"Point","coordinates":[-122.661486,45.638728]}},{"properties":{"city":"Golden","zip":"80401","geo_score":0.857,"id":"a6asapbxppfm","geo_precision":"city","state":"CO"},"type":"Feature","geometry":{"type":"Point","coordinates":[-105.245659,39.718539]}},{"properties":{"city":"Reedley","zip":"93654","geo_score":0.755,"id":"a6asapgmwgr2","geo_precision":"city","state":"CA"},"type":"Feature","geometry":{"type":"Point","coordinates":[-122.907217,38.499079]}},{"properties":{"city":"Ukiah","zip":"95482","geo_score":0.857,"id":"a6asapcb2mhy","geo_precision":"city","state":"CA"},"type":"Feature","geometry":{"type":"Point","coordinates":[-123.321202,39.403699]}},{"properties":{"city":"The Colony","zip":"75056","geo_score":0.778,"id":"a6asap86oxr0","geo_precision":"city","state":"TX"},"type":"Feature","geometry":{"type":"Point","coordinates":[-97.181657,28.705548]}},{"properties":{"city":"Ewa Beach","zip":"96707","geo_score":0.768,"id":"a6asapem5qs6","geo_precision":"city","state":"HI"},"type":"Feature","geometry":{"type":"Point","coordinates":[-158.040278,21.3425]}},{"properties":{"city":"Honolulu","zip":"96821","geo_score":0.857,"id":"a6asap5uc1j5","geo_precision":"city","state":"HI"},"type":"Feature","geometry":{"type":"Point","coordinates":[-157.858333,21.306944]}},{"properties":{"city":"Kaneohe","zip":"96744","geo_score":0.857,"id":"a6asapjgn0ul","geo_precision":"city","state":"HI"},"type":"Feature","geometry":{"type":"Point","coordinates":[-157.93955,21.66875]}},{"properties":{"city":"Louisville","zip":"40245","geo_score":0.857,"id":"a6asap7wb2dl","geo_precision":"city","state":"KY"},"type":"Feature","geometry":{"type":"Point","coordinates":[-85.759407,38.254238]}},{"properties":{"city":"Sparta","zip":"62286","geo_score":0.857,"id":"a6asapibqesb","geo_precision":"city","state":"IL"},"type":"Feature","geometry":{"type":"Point","coordinates":[-89.726486,38.108083]}},{"properties":{"city":"Putnam Valley","zip":"10579","geo_score":0.738,"id":"a6asaphj758l","geo_precision":"city","state":"NY"},"type":"Feature","geometry":{"type":"Point","coordinates":[-74.082365,41.136484]}},{"properties":{"city":"Hazleton","zip":"18201","geo_score":0.857,"id":"a6asap8o6vzy","geo_precision":"city","state":"PA"},"type":"Feature","geometry":{"type":"Point","coordinates":[-75.972337,40.950407]}},{"properties":{"city":"Woodland","zip":"95776","geo_score":0.802,"id":"a6asapd6l3ch","geo_precision":"city","state":"CA"},"type":"Feature","geometry":{"type":"Point","coordinates":[-118.60592,34.168339]}},{"properties":{"city":"Lincoln","zip":"94929","geo_score":0.786,"id":"a6asap983nd5","geo_precision":"city","state":"CA"},"type":"Feature","geometry":{"type":"Point","coordinates":[-118.222848,33.827795]}},{"properties":{"city":"Honolulu","zip":"96822","geo_score":0.857,"id":"a6asap445aj8","geo_precision":"city","state":"HI"},"type":"Feature","geometry":{"type":"Point","coordinates":[-157.858333,21.306944]}},{"properties":{"city":"Kaneohe","zip":"96744","geo_score":0.857,"id":"a6asap7l50it","geo_precision":"city","state":"HI"},"type":"Feature","geometry":{"type":"Point","coordinates":[-157.93955,21.66875]}},{"properties":{"city":"Honolulu","zip":"96816","geo_score":0.857,"id":"a6asapahjha4","geo_precision":"city","state":"HI"},"type":"Feature","geometry":{"type":"Point","coordinates":[-157.858333,21.306944]}},{"properties":{"city":"Mililani","zip":"96789","geo_score":0.0,"id":"a6asap8tl93z","geo_precision":"unmatched","state":"HI"},"type":"Feature","geometry":null},{"properties":{"city":"Gales Ferry","zip":"06335","geo_score":0.857,"id":"a6asapjd2gqa","geo_precision":"city","state":"CT"},"type":"Feature","geometry":{"type":"Point","coordinates":[-72.021165,41.523377]}},{"properties":{"city":"Peabody","zip":"01960","geo_score":0.857,"id":"a6asaphud8ui","geo_precision":"city","state":"MA"},"type":"Feature","geometry":{"type":"Point","coordinates":[-70.973646,42.536996]}},{"properties":{"city":"Rancho Santa Margarita","zip":"92688","geo_score":0.829,"id":"a6asapdqgos4","geo_precision":"city","state":"CA"},"type":"Feature","geometry":{"type":"Point","coordinates":[-118.53203,34.439995]}},{"properties":{"city":"Edmonds","zip":"98020","geo_score":0.857,"id":"a6asap5mvnwy","geo_precision":"city","state":"WA"},"type":"Feature","geometry":{"type":"Point","coordinates":[-122.372401,47.806068]}},{"properties":{"city":"El Segundo","zip":"90245","geo_score":0.857,"id":"a6asapdrlals","geo_precision":"city","state":"CA"},"type":"Feature","geometry":{"type":"Point","coordinates":[-118.298662,33.786594]}},{"properties":{"city":"Waipahu","zip":"96797","geo_score":0.857,"id":"a6asapamphza","geo_precision":"city","state":"HI"},"type":"Feature","geometry":{"type":"Point","coordinates":[-158.015151,21.399548]}},{"properties":{"city":"San Antonio","zip":"78230","geo_score":0.857,"id":"a6asap4duu7p","geo_precision":"city","state":"TX"},"type":"Feature","geometry":{"type":"Point","coordinates":[-98.493628,29.424122]}},{"properties":{"city":"Mililani","zip":"96789","geo_score":0.0,"id":"a6asapd5qi10","geo_precision":"unmatched","state":"HI"},"type":"Feature","geometry":null},{"properties":{"city":"Ewa Beach","zip":"96706","geo_score":0.768,"id":"a6asap7niea4","geo_precision":"city","state":"HI"},"type":"Feature","geometry":{"type":"Point","coordinates":[-158.040278,21.3425]}},{"properties":{"city":"Draper","zip":"84020","geo_score":0.857,"id":"a6asap6slchs","geo_precision":"city","state":"UT"},"type":"Feature","geometry":{"type":"Point","coordinates":[-111.869671,40.506148]}},{"properties":{"city":"Pearl City","zip":"96782","geo_score":0.857,"id":"a6asap8898or","geo_precision":"city","state":"HI"},"type":"Feature","geometry":{"type":"Point","coordinates":[-157.994662,21.51195]}}],"is_temporal":false,"author":{"url":"","metadata":"","contact_name":"","contact_address":"","source":"","contact_phone":""},"source":"","pagination":{"sort":null,"start":0,"total":187,"limit":1000000},"state":"complete","tags":"","published":"2014-08-13T08:04:13-04:00","id":157634}