{"type":"FeatureCollection","data_type":"Dataset","url_type":null,"permissions":[{"permissions":{"download":true,"view":true},"group_id":"everyone"}],"classification":null,"title":"Geocode Test Atrazine Level 2008","count":48,"stream_id":15910,"contributor":{"url":"http://geocommons.com/users/185","name":"emily"},"data_attributes":null,"calculation_params":null,"icon_link":null,"link":"http://geocommons.com/overlays/15910.json","extent":[-98.113,29.0477,-81.1153,41.4755],"geometry_types":["point"],"unique_name":null,"name":"Geocode Test Atrazine Level 2008","feature_count":48,"description":"","next_feature":null,"is_raster":false,"short_classification":"Y","stats":{"g 28279 ppb":{"max":1.12,"mean":0.177083333333333,"variance":0.0579210992907802,"stdev":0.240668027146898,"min":0.025,"median":0.1},"geo_score":{"max":1.0,"mean":0.751395833333333,"variance":0.0385841165780142,"stdev":0.196428400640066,"min":0.0,"median":0.817},"tct sum":{"max":48.92,"mean":6.99916666666667,"variance":122.695430141844,"stdev":11.0767969260903,"min":0.44,"median":3.345},"g 30033 ppb":{"max":2.84,"mean":0.462395833333333,"variance":0.445042542109929,"stdev":0.667115089103769,"min":0.025,"median":0.25},"year":{"max":2008.0,"mean":2008.0,"variance":0.0,"stdev":0.0,"min":2008.0,"median":2008.0},"simazine ppb":{"max":2.92,"mean":0.2321875,"variance":0.319477559840425,"stdev":0.565223460093816,"min":0.025,"median":0.025},"atrazine ppb":{"max":45.0,"mean":5.83208333333333,"variance":97.2650764184397,"stdev":9.86230583679292,"min":0.07,"median":2.14},"g 28273 ppb":{"max":0.89,"mean":0.295416666666667,"variance":0.0238551418439716,"stdev":0.154451098552168,"min":0.25,"median":0.25}},"features":[{"properties":{"simazine nd_d":"nd","city":"Alliance","g 28279 ppb":0.025,"g 30033 nd_d":"nd","zip":null,"accuracy":"Plant","date":{"end_time":"2008/07/21 00:00:01 -0400","original":"Mon Jul 21 00:00:00 -0400 2008","granularity":"sec","time":"2008/07/21 00:00:00 -0400"},"geo_score":0.817,"tct sum":0.465,"g 28273 nd_d":"nd","g 30033 ppb":0.025,"g 28279 nd_d":"nd","year":2008.0,"type of water r or f":"F","simazine ppb":0.025,"program":"AMP","date sampled":"07/21/2008 07:00 AM +0000","atrazine nd_d":"d","id":"a667tvwh30so","address":"12251 Rockhill Ave NE","geo_precision":"range","cws actual name":"Alliance Water Treatment Plant","atrazine ppb":0.14,"g 28273 ppb":0.25,"method of analysis":"LC2","state":"Ohio"},"type":"Feature","geometry":{"type":"Point","coordinates":[-81.115317,40.947823]}},{"properties":{"simazine nd_d":"d","city":"Altoona","g 28279 ppb":0.08,"g 30033 nd_d":"d","zip":"66710","accuracy":"Plant","date":{"end_time":"2008/05/27 00:00:01 -0400","original":"Tue May 27 00:00:00 -0400 2008","granularity":"sec","time":"2008/05/27 00:00:00 -0400"},"geo_score":0.708,"tct sum":6.43,"g 28273 nd_d":"nd","g 30033 ppb":0.3,"g 28279 nd_d":"d","year":2008.0,"type of water r or f":"F","simazine ppb":0.1,"program":"AMP","date sampled":"05/27/2008 07:00 AM +0000","atrazine nd_d":"d","id":"a667tw2oae2a","address":"715 Main St","geo_precision":"street","cws actual name":"Altoona","atrazine ppb":5.7,"g 28273 ppb":0.25,"method of analysis":"LC2","state":"Kansas"},"type":"Feature","geometry":{"type":"Point","coordinates":[-95.662323,37.526334]}},{"properties":{"simazine nd_d":"nd","city":"Ashland","g 28279 ppb":0.15,"g 30033 nd_d":"d","zip":"62612","accuracy":"Plant","date":{"end_time":"2008/08/11 00:00:01 -0400","original":"Mon Aug 11 00:00:00 -0400 2008","granularity":"sec","time":"2008/08/11 00:00:00 -0400"},"geo_score":0.748,"tct sum":2.135,"g 28273 nd_d":"nd","g 30033 ppb":0.41,"g 28279 nd_d":"d","year":2008.0,"type of water r or f":"F","simazine ppb":0.025,"program":"AMP","date sampled":"08/11/2008 07:00 AM +0000","atrazine nd_d":"d","id":"a667tvscbgc7","address":"901 S Charles","geo_precision":"street","cws actual name":"Ashland","atrazine ppb":1.3,"g 28273 ppb":0.25,"method of analysis":"LC2","state":"Illinois"},"type":"Feature","geometry":{"type":"Point","coordinates":[-90.016055,39.882763]}},{"properties":{"simazine nd_d":"nd","city":"Atchison","g 28279 ppb":0.07,"g 30033 nd_d":"d","zip":null,"accuracy":"Not Exact","date":{"end_time":"2008/05/12 00:00:01 -0400","original":"Mon May 12 00:00:00 -0400 2008","granularity":"sec","time":"2008/05/12 00:00:00 -0400"},"geo_score":0.817,"tct sum":7.185,"g 28273 nd_d":"nd","g 30033 ppb":0.34,"g 28279 nd_d":"d","year":2008.0,"type of water r or f":"F","simazine ppb":0.025,"program":"AMP","date sampled":"05/12/2008 07:00 AM +0000","atrazine nd_d":"d","id":"a667tw1uojkq","address":"1801 Main St","geo_precision":"range","cws actual name":"Atchison","atrazine ppb":6.5,"g 28273 ppb":0.25,"method of analysis":"LC2","state":"Kansas"},"type":"Feature","geometry":{"type":"Point","coordinates":[-95.144927,39.560738]}},{"properties":{"simazine nd_d":"nd","city":"Williamson","g 28279 ppb":0.06,"g 30033 nd_d":"d","zip":null,"accuracy":"City","date":{"end_time":"2008/05/05 00:00:01 -0400","original":"Mon May 05 00:00:00 -0400 2008","granularity":"sec","time":"2008/05/05 00:00:00 -0400"},"geo_score":0.0,"tct sum":1.365,"g 28273 nd_d":"nd","g 30033 ppb":0.13,"g 28279 nd_d":"d","year":2008.0,"type of water r or f":"F","simazine ppb":0.025,"program":"AMP","date sampled":"05/05/2008 07:00 AM +0000","atrazine nd_d":"d","id":"a667tw0uzrak","address":"Granger Lake","geo_precision":"unmatched","cws actual name":"BRA Granger Lake Regional Water","atrazine ppb":0.9,"g 28273 ppb":0.25,"method of analysis":"LC2","state":"Texas"},"type":"Feature","geometry":null},{"properties":{"simazine nd_d":"nd","city":"Baxter Springs","g 28279 ppb":0.11,"g 30033 nd_d":"d","zip":"66713-2718","accuracy":"Plant","date":{"end_time":"2008/05/27 00:00:01 -0400","original":"Tue May 27 00:00:00 -0400 2008","granularity":"sec","time":"2008/05/27 00:00:00 -0400"},"geo_score":0.925,"tct sum":12.055,"g 28273 nd_d":"nd","g 30033 ppb":0.42,"g 28279 nd_d":"d","year":2008.0,"type of water r or f":"F","simazine ppb":0.025,"program":"AMP","date sampled":"05/27/2008 07:00 AM +0000","atrazine nd_d":"d","id":"a667tvq1vtez","address":"1445 Military Ave","geo_precision":"range","cws actual name":"Baxter Springs Water Treatment Plant","atrazine ppb":11.25,"g 28273 ppb":0.25,"method of analysis":"LC2","state":"Kansas"},"type":"Feature","geometry":{"type":"Point","coordinates":[-94.735526,37.021093]}},{"properties":{"simazine nd_d":"d","city":"Beloit","g 28279 ppb":0.65,"g 30033 nd_d":"d","zip":"67420-3107","accuracy":"Department","date":{"end_time":"2008/05/27 00:00:01 -0400","original":"Tue May 27 00:00:00 -0400 2008","granularity":"sec","time":"2008/05/27 00:00:00 -0400"},"geo_score":0.878,"tct sum":46.16,"g 28273 nd_d":"d","g 30033 ppb":2.84,"g 28279 nd_d":"d","year":2008.0,"type of water r or f":"F","simazine ppb":0.26,"program":"AMP","date sampled":"05/27/2008 07:00 AM +0000","atrazine nd_d":"d","id":"a667tvq715sz","address":"215 S Chestnut St","geo_precision":"range","cws actual name":"Beloit Water Department","atrazine ppb":41.61,"g 28273 ppb":0.8,"method of analysis":"LC2","state":"Kansas"},"type":"Feature","geometry":{"type":"Point","coordinates":[-98.112983,39.457686]}},{"properties":{"simazine nd_d":"nd","city":"Bowling Green","g 28279 ppb":0.025,"g 30033 nd_d":"d","zip":"43402","accuracy":"Plant","date":{"end_time":"2008/05/12 00:00:01 -0400","original":"Mon May 12 00:00:00 -0400 2008","granularity":"sec","time":"2008/05/12 00:00:00 -0400"},"geo_score":0.664,"tct sum":0.65,"g 28273 nd_d":"nd","g 30033 ppb":0.08,"g 28279 nd_d":"nd","year":2008.0,"type of water r or f":"F","simazine ppb":0.025,"program":"AMP","date sampled":"05/12/2008 07:00 AM +0000","atrazine nd_d":"d","id":"a667tvz62q92","address":"17549 West River Road","geo_precision":"street","cws actual name":"Bowling Green Water Treatment Plant","atrazine ppb":0.27,"g 28273 ppb":0.25,"method of analysis":"LC2","state":"Ohio"},"type":"Feature","geometry":{"type":"Point","coordinates":[-83.739364,41.475523]}},{"properties":{"simazine nd_d":"d","city":"Lake Jackson","g 28279 ppb":0.15,"g 30033 nd_d":"d","zip":"77566","accuracy":"Office","date":{"end_time":"2008/04/29 00:00:01 -0400","original":"Tue Apr 29 00:00:00 -0400 2008","granularity":"sec","time":"2008/04/29 00:00:00 -0400"},"geo_score":0.665,"tct sum":4.75,"g 28273 nd_d":"nd","g 30033 ppb":0.47,"g 28279 nd_d":"d","year":2008.0,"type of water r or f":"F","simazine ppb":0.07,"program":"AMP","date sampled":"04/29/2008 07:00 AM +0000","atrazine nd_d":"d","id":"a667tvnb3372","address":"1251 FM 2004 Rd","geo_precision":"street","cws actual name":"Brazosport Water Authority","atrazine ppb":3.81,"g 28273 ppb":0.25,"method of analysis":"LC2","state":"Texas"},"type":"Feature","geometry":{"type":"Point","coordinates":[-95.471212,29.047653]}},{"properties":{"simazine nd_d":"nd","city":"Bucklin","g 28279 ppb":0.025,"g 30033 nd_d":"d","zip":"64631","accuracy":"Department","date":{"end_time":"2008/07/23 00:00:01 -0400","original":"Wed Jul 23 00:00:00 -0400 2008","granularity":"sec","time":"2008/07/23 00:00:00 -0400"},"geo_score":0.733,"tct sum":0.62,"g 28273 nd_d":"nd","g 30033 ppb":0.07,"g 28279 nd_d":"nd","year":2008.0,"type of water r or f":"F","simazine ppb":0.025,"program":"AMP","date sampled":"07/23/2008 07:00 AM +0000","atrazine nd_d":"d","id":"a667tvrqjuk5","address":"22 N Livingston","geo_precision":"street","cws actual name":"Bucklin Water Department","atrazine ppb":0.25,"g 28273 ppb":0.25,"method of analysis":"LC2","state":"Missouri"},"type":"Feature","geometry":{"type":"Point","coordinates":[-92.892028,39.779024]}},{"properties":{"simazine nd_d":"nd","city":"Burlington","g 28279 ppb":0.17,"g 30033 nd_d":"d","zip":"66839","accuracy":"Office","date":{"end_time":"2008/06/02 00:00:01 -0400","original":"Mon Jun 02 00:00:00 -0400 2008","granularity":"sec","time":"2008/06/02 00:00:00 -0400"},"geo_score":0.924,"tct sum":3.765,"g 28273 nd_d":"nd","g 30033 ppb":0.28,"g 28279 nd_d":"d","year":2008.0,"type of water r or f":"F","simazine ppb":0.025,"program":"AMP","date sampled":"06/02/2008 07:00 AM +0000","atrazine nd_d":"d","id":"a667tvua7f1p","address":"101 Miami St","geo_precision":"range","cws actual name":"Burlington City Water Works","atrazine ppb":3.04,"g 28273 ppb":0.25,"method of analysis":"LC2","state":"Kansas"},"type":"Feature","geometry":{"type":"Point","coordinates":[-95.734164,38.196479]}},{"properties":{"simazine nd_d":"nd","city":"Cameron","g 28279 ppb":0.08,"g 30033 nd_d":"d","zip":"76520","accuracy":"Plant","date":{"end_time":"2008/04/28 00:00:01 -0400","original":"Mon Apr 28 00:00:00 -0400 2008","granularity":"sec","time":"2008/04/28 00:00:00 -0400"},"geo_score":0.922,"tct sum":2.125,"g 28273 nd_d":"nd","g 30033 ppb":0.27,"g 28279 nd_d":"d","year":2008.0,"type of water r or f":"F","simazine ppb":0.025,"program":"AMP","date sampled":"04/28/2008 07:00 AM +0000","atrazine nd_d":"d","id":"a667tvxh3ho3","address":"201 N Milam Ave","geo_precision":"range","cws actual name":"Cameron","atrazine ppb":1.5,"g 28273 ppb":0.25,"method of analysis":"LC2","state":"Texas"},"type":"Feature","geometry":{"type":"Point","coordinates":[-96.974166,30.85083]}},{"properties":{"simazine nd_d":"nd","city":"Chanute","g 28279 ppb":0.14,"g 30033 nd_d":"d","zip":null,"accuracy":"Office","date":{"end_time":"2008/05/05 00:00:01 -0400","original":"Mon May 05 00:00:00 -0400 2008","granularity":"sec","time":"2008/05/05 00:00:00 -0400"},"geo_score":0.833,"tct sum":7.355,"g 28273 nd_d":"nd","g 30033 ppb":0.43,"g 28279 nd_d":"d","year":2008.0,"type of water r or f":"F","simazine ppb":0.025,"program":"AMP","date sampled":"05/05/2008 07:00 AM +0000","atrazine nd_d":"d","id":"a667tvx0mqf4","address":"101 S Lincoln Ave","geo_precision":"range","cws actual name":"Chanute","atrazine ppb":6.51,"g 28273 ppb":0.25,"method of analysis":"LC2","state":"Kansas"},"type":"Feature","geometry":{"type":"Point","coordinates":[-95.451723,37.68089]}},{"properties":{"simazine nd_d":"nd","city":"Chetopa","g 28279 ppb":0.07,"g 30033 nd_d":"d","zip":"67336","accuracy":"Plant","date":{"end_time":"2008/04/29 00:00:01 -0400","original":"Tue Apr 29 00:00:00 -0400 2008","granularity":"sec","time":"2008/04/29 00:00:00 -0400"},"geo_score":0.739,"tct sum":7.205,"g 28273 nd_d":"nd","g 30033 ppb":0.21,"g 28279 nd_d":"d","year":2008.0,"type of water r or f":"F","simazine ppb":0.025,"program":"AMP","date sampled":"04/29/2008 07:00 AM +0000","atrazine nd_d":"d","id":"a667tvszhxhf","address":"104 Maple St","geo_precision":"street","cws actual name":"Chetopa","atrazine ppb":6.65,"g 28273 ppb":0.25,"method of analysis":"LC2","state":"Kansas"},"type":"Feature","geometry":{"type":"Point","coordinates":[-95.082715,37.03695]}},{"properties":{"simazine nd_d":"d","city":"West Salem","g 28279 ppb":0.025,"g 30033 nd_d":"d","zip":"44287-9600","accuracy":"Company","date":{"end_time":"2008/10/06 00:00:01 -0400","original":"Mon Oct 06 00:00:00 -0400 2008","granularity":"sec","time":"2008/10/06 00:00:00 -0400"},"geo_score":0.667,"tct sum":1.275,"g 28273 nd_d":"nd","g 30033 ppb":0.14,"g 28279 nd_d":"nd","year":2008.0,"type of water r or f":"F","simazine ppb":0.12,"program":"AMP","date sampled":"10/06/2008 07:00 AM +0000","atrazine nd_d":"d","id":"a667tvyvdjh3","address":"1443 Laurel Dr","geo_precision":"street","cws actual name":"Cinnamon Lake Utility Co.","atrazine ppb":0.74,"g 28273 ppb":0.25,"method of analysis":"LC2","state":"Ohio"},"type":"Feature","geometry":{"type":"Point","coordinates":[-82.078485,40.981952]}},{"properties":{"simazine nd_d":"d","city":"Batavia","g 28279 ppb":0.07,"g 30033 nd_d":"d","zip":null,"accuracy":"Plant","date":{"end_time":"2008/05/27 00:00:01 -0400","original":"Tue May 27 00:00:00 -0400 2008","granularity":"sec","time":"2008/05/27 00:00:00 -0400"},"geo_score":0.643,"tct sum":2.73,"g 28273 nd_d":"nd","g 30033 ppb":0.14,"g 28279 nd_d":"d","year":2008.0,"type of water r or f":"F","simazine ppb":0.13,"program":"AMP","date sampled":"05/27/2008 07:00 AM +0000","atrazine nd_d":"d","id":"a667tvzdlar7","address":"3690 Greenbriar Road","geo_precision":"street","cws actual name":"Clermont Co. Water, BMWTP","atrazine ppb":2.14,"g 28273 ppb":0.25,"method of analysis":"LC2","state":"Ohio"},"type":"Feature","geometry":{"type":"Point","coordinates":[-84.156463,39.044758]}},{"properties":{"simazine nd_d":"nd","city":"Cooper","g 28279 ppb":0.12,"g 30033 nd_d":"d","zip":"75432","accuracy":"Plant","date":{"end_time":"2008/03/19 00:00:01 -0400","original":"Wed Mar 19 00:00:00 -0400 2008","granularity":"sec","time":"2008/03/19 00:00:00 -0400"},"geo_score":0.622,"tct sum":3.345,"g 28273 nd_d":"nd","g 30033 ppb":0.13,"g 28279 nd_d":"d","year":2008.0,"type of water r or f":"F","simazine ppb":0.025,"program":"AMP","date sampled":"03/19/2008 07:00 AM +0000","atrazine nd_d":"d","id":"a667tvmzad5a","address":"Highway 24","geo_precision":"street","cws actual name":"Cooper Water Treatment Plant","atrazine ppb":2.82,"g 28273 ppb":0.25,"method of analysis":"LC2","state":"Texas"},"type":"Feature","geometry":{"type":"Point","coordinates":[-95.688729,33.373838]}},{"properties":{"simazine nd_d":"nd","city":"Creston","g 28279 ppb":0.15,"g 30033 nd_d":"d","zip":null,"accuracy":"Office","date":{"end_time":"2008/07/14 00:00:01 -0400","original":"Mon Jul 14 00:00:00 -0400 2008","granularity":"sec","time":"2008/07/14 00:00:00 -0400"},"geo_score":0.805,"tct sum":3.375,"g 28273 nd_d":"nd","g 30033 ppb":0.45,"g 28279 nd_d":"d","year":2008.0,"type of water r or f":"F","simazine ppb":0.025,"program":"AMP","date sampled":"07/14/2008 07:00 AM +0000","atrazine nd_d":"d","id":"a667tvo6jqpm","address":"820 S Park St","geo_precision":"range","cws actual name":"Creston (3 Mile Lake and Finished)","atrazine ppb":2.5,"g 28273 ppb":0.25,"method of analysis":"LC2","state":"Iowa"},"type":"Feature","geometry":{"type":"Point","coordinates":[-94.379563,41.049754]}},{"properties":{"simazine nd_d":"d","city":"Defiance","g 28279 ppb":0.36,"g 30033 nd_d":"d","zip":null,"accuracy":"Plant","date":{"end_time":"2008/05/27 00:00:01 -0400","original":"Tue May 27 00:00:00 -0400 2008","granularity":"sec","time":"2008/05/27 00:00:00 -0400"},"geo_score":0.817,"tct sum":12.37,"g 28273 nd_d":"nd","g 30033 ppb":0.52,"g 28279 nd_d":"d","year":2008.0,"type of water r or f":"F","simazine ppb":0.69,"program":"AMP","date sampled":"05/27/2008 07:00 AM +0000","atrazine nd_d":"d","id":"a667tvp4feuu","address":"1356 Baltimore St","geo_precision":"range","cws actual name":"Defiance","atrazine ppb":10.55,"g 28273 ppb":0.25,"method of analysis":"LC2","state":"Ohio"},"type":"Feature","geometry":{"type":"Point","coordinates":[-84.381426,41.277953]}},{"properties":{"simazine nd_d":"d","city":"Delaware","g 28279 ppb":0.025,"g 30033 nd_d":"d","zip":"43015-9722","accuracy":"Plant","date":{"end_time":"2008/06/09 00:00:01 -0400","original":"Mon Jun 09 00:00:00 -0400 2008","granularity":"sec","time":"2008/06/09 00:00:00 -0400"},"geo_score":0.89,"tct sum":4.405,"g 28273 nd_d":"nd","g 30033 ppb":0.35,"g 28279 nd_d":"nd","year":2008.0,"type of water r or f":"F","simazine ppb":0.28,"program":"AMP","date sampled":"06/09/2008 07:00 AM +0000","atrazine nd_d":"d","id":"a667tvrlu6wt","address":"3080 US Highway 23 N","geo_precision":"range","cws actual name":"Delaware Water Plant","atrazine ppb":3.5,"g 28273 ppb":0.25,"method of analysis":"LC2","state":"Ohio"},"type":"Feature","geometry":{"type":"Point","coordinates":[-83.060876,40.252833]}},{"properties":{"simazine nd_d":"d","city":"Jefferson","g 28279 ppb":0.13,"g 30033 nd_d":"d","zip":null,"accuracy":"Plant","date":{"end_time":"2008/06/02 00:00:01 -0400","original":"Mon Jun 02 00:00:00 -0400 2008","granularity":"sec","time":"2008/06/02 00:00:00 -0400"},"geo_score":0.902,"tct sum":2.2,"g 28273 nd_d":"nd","g 30033 ppb":0.17,"g 28279 nd_d":"d","year":2008.0,"type of water r or f":"F","simazine ppb":0.11,"program":"AMP","date sampled":"06/02/2008 07:00 AM +0000","atrazine nd_d":"d","id":"a667tw1b1d9k","address":"3600 Jefferson Highway","geo_precision":"range","cws actual name":"E. Jefferson Water Works Dist. #1","atrazine ppb":1.54,"g 28273 ppb":0.25,"method of analysis":"LC2","state":"Louisiana"},"type":"Feature","geometry":{"type":"Point","coordinates":[-90.162292,29.963106]}},{"properties":{"simazine nd_d":"nd","city":"Emporia","g 28279 ppb":0.25,"g 30033 nd_d":"d","zip":null,"accuracy":"Office","date":{"end_time":"2008/05/27 00:00:01 -0400","original":"Tue May 27 00:00:00 -0400 2008","granularity":"sec","time":"2008/05/27 00:00:00 -0400"},"geo_score":0.732,"tct sum":3.425,"g 28273 nd_d":"d","g 30033 ppb":0.86,"g 28279 nd_d":"d","year":2008.0,"type of water r or f":"F","simazine ppb":0.025,"program":"AMP","date sampled":"05/27/2008 07:00 AM +0000","atrazine nd_d":"d","id":"a667tvsg30l1","address":"2910 W 24th Ave","geo_precision":"range","cws actual name":"Emporia","atrazine ppb":1.64,"g 28273 ppb":0.65,"method of analysis":"LC2","state":"Kansas"},"type":"Feature","geometry":{"type":"Point","coordinates":[-96.220317,38.426846]}},{"properties":{"simazine nd_d":"nd","city":"Ennis","g 28279 ppb":0.025,"g 30033 nd_d":"d","zip":"75119-4736","accuracy":"Department","date":{"end_time":"2008/05/12 00:00:01 -0400","original":"Mon May 12 00:00:00 -0400 2008","granularity":"sec","time":"2008/05/12 00:00:00 -0400"},"geo_score":1.0,"tct sum":1.32,"g 28273 nd_d":"nd","g 30033 ppb":0.08,"g 28279 nd_d":"nd","year":2008.0,"type of water r or f":"F","simazine ppb":0.025,"program":"AMP","date sampled":"05/12/2008 07:00 AM +0000","atrazine nd_d":"d","id":"a667tvtd40wn","address":"115 W Brown St","geo_precision":"range","cws actual name":"Ennis","atrazine ppb":0.94,"g 28273 ppb":0.25,"method of analysis":"LC2","state":"Texas"},"type":"Feature","geometry":{"type":"Point","coordinates":[-96.626652,32.326963]}},{"properties":{"simazine nd_d":"d","city":"Evansville","g 28279 ppb":0.44,"g 30033 nd_d":"d","zip":null,"accuracy":"Office","date":{"end_time":"2008/05/12 00:00:01 -0400","original":"Mon May 12 00:00:00 -0400 2008","granularity":"sec","time":"2008/05/12 00:00:00 -0400"},"geo_score":0.424,"tct sum":15.15,"g 28273 nd_d":"nd","g 30033 ppb":0.35,"g 28279 nd_d":"d","year":2008.0,"type of water r or f":"F","simazine ppb":2.92,"program":"AMP","date sampled":"05/12/2008 07:00 AM +0000","atrazine nd_d":"d","id":"a667tvzjp4z2","address":"1 NW M L King Blvd","geo_precision":"street","cws actual name":"Evansville","atrazine ppb":11.19,"g 28273 ppb":0.25,"method of analysis":"LC2","state":"Illinois"},"type":"Feature","geometry":{"type":"Point","coordinates":[-89.979565,38.134786]}},{"properties":{"simazine nd_d":"nd","city":"Hannibal","g 28279 ppb":0.1,"g 30033 nd_d":"d","zip":null,"accuracy":"Plant","date":{"end_time":"2008/06/09 00:00:01 -0400","original":"Mon Jun 09 00:00:00 -0400 2008","granularity":"sec","time":"2008/06/09 00:00:00 -0400"},"geo_score":0.863,"tct sum":6.715,"g 28273 nd_d":"nd","g 30033 ppb":0.55,"g 28279 nd_d":"d","year":2008.0,"type of water r or f":"F","simazine ppb":0.025,"program":"AMP","date sampled":"06/09/2008 07:00 AM +0000","atrazine nd_d":"d","id":"a667tw1ecujd","address":"1 Riverview Park Dr","geo_precision":"range","cws actual name":"Hannibal Water Treatment Plant","atrazine ppb":5.79,"g 28273 ppb":0.25,"method of analysis":"LC2","state":"Missouri"},"type":"Feature","geometry":{"type":"Point","coordinates":[-91.377057,39.721114]}},{"properties":{"simazine nd_d":"nd","city":"Harveyville","g 28279 ppb":0.07,"g 30033 nd_d":"nd","zip":"66431","accuracy":"Plant","date":{"end_time":"2008/01/07 00:00:01 -0500","original":"Mon Jan 07 00:00:00 -0500 2008","granularity":"sec","time":"2008/01/07 00:00:00 -0500"},"geo_score":0.863,"tct sum":0.44,"g 28273 nd_d":"nd","g 30033 ppb":0.025,"g 28279 nd_d":"d","year":2008.0,"type of water r or f":"F","simazine ppb":0.025,"program":"AMP","date sampled":"01/07/2008 08:00 AM +0000","atrazine nd_d":"d","id":"a667tvstp2jx","address":"157 W Oak St","geo_precision":"range","cws actual name":"Harveyville","atrazine ppb":0.07,"g 28273 ppb":0.25,"method of analysis":"LC2","state":"Kansas"},"type":"Feature","geometry":{"type":"Point","coordinates":[-95.960554,38.791423]}},{"properties":{"simazine nd_d":"nd","city":"Kansas City","g 28279 ppb":0.025,"g 30033 nd_d":"d","zip":"66101-2930","accuracy":"Office","date":{"end_time":"2008/06/05 00:00:01 -0400","original":"Thu Jun 05 00:00:00 -0400 2008","granularity":"sec","time":"2008/06/05 00:00:00 -0400"},"geo_score":0.863,"tct sum":2.09,"g 28273 nd_d":"nd","g 30033 ppb":0.16,"g 28279 nd_d":"nd","year":2008.0,"type of water r or f":"F","simazine ppb":0.025,"program":"AMP","date sampled":"06/05/2008 07:00 AM +0000","atrazine nd_d":"d","id":"a667tvukxc5m","address":"540 Minnesota Avenue","geo_precision":"range","cws actual name":"Kansas City Board of Public Utilities","atrazine ppb":1.63,"g 28273 ppb":0.25,"method of analysis":"LC2","state":"Kansas"},"type":"Feature","geometry":{"type":"Point","coordinates":[-94.622226,39.115548]}},{"properties":{"simazine nd_d":"d","city":"Lima","g 28279 ppb":0.14,"g 30033 nd_d":"d","zip":null,"accuracy":"Plant","date":{"end_time":"2008/11/17 00:00:01 -0500","original":"Mon Nov 17 00:00:00 -0500 2008","granularity":"sec","time":"2008/11/17 00:00:00 -0500"},"geo_score":0.902,"tct sum":2.1,"g 28273 nd_d":"nd","g 30033 ppb":0.2,"g 28279 nd_d":"d","year":2008.0,"type of water r or f":"F","simazine ppb":0.17,"program":"AMP","date sampled":"11/17/2008 08:00 AM +0000","atrazine nd_d":"d","id":"a667tvofnjiw","address":"1100 E Wayne St","geo_precision":"range","cws actual name":"Lima","atrazine ppb":1.34,"g 28273 ppb":0.25,"method of analysis":"LC2","state":"Ohio"},"type":"Feature","geometry":{"type":"Point","coordinates":[-84.087826,40.743832]}},{"properties":{"simazine nd_d":"nd","city":"LaCygne","g 28279 ppb":0.025,"g 30033 nd_d":"d","zip":null,"accuracy":"Plant","date":{"end_time":"2008/03/03 00:00:01 -0500","original":"Mon Mar 03 00:00:00 -0500 2008","granularity":"sec","time":"2008/03/03 00:00:00 -0500"},"geo_score":0.33,"tct sum":0.45,"g 28273 nd_d":"nd","g 30033 ppb":0.06,"g 28279 nd_d":"nd","year":2008.0,"type of water r or f":"F","simazine ppb":0.025,"program":"AMP","date sampled":"03/03/2008 08:00 AM +0000","atrazine nd_d":"d","id":"a667tvwupsr6","address":"Walnut St. and N. 7th St.","geo_precision":"intersection","cws actual name":"Linn Valley Lakes POA","atrazine ppb":0.09,"g 28273 ppb":0.25,"method of analysis":"LC2","state":"Kansas"},"type":"Feature","geometry":{"type":"Point","coordinates":[-94.757342,38.346326]}},{"properties":{"simazine nd_d":"d","city":"Logansport","g 28279 ppb":0.93,"g 30033 nd_d":"d","zip":"46947","accuracy":"Office","date":{"end_time":"2008/06/02 00:00:01 -0400","original":"Mon Jun 02 00:00:00 -0400 2008","granularity":"sec","time":"2008/06/02 00:00:00 -0400"},"geo_score":0.935,"tct sum":26.87,"g 28273 nd_d":"d","g 30033 ppb":2.8,"g 28279 nd_d":"d","year":2008.0,"type of water r or f":"F","simazine ppb":1.31,"program":"AMP","date sampled":"06/02/2008 07:00 AM +0000","atrazine nd_d":"d","id":"a667tvtelrfy","address":"601 East Broadway","geo_precision":"range","cws actual name":"Logansport (Special Purpose Samples)","atrazine ppb":20.94,"g 28273 ppb":0.89,"method of analysis":"LC2","state":"Indiana"},"type":"Feature","geometry":{"type":"Point","coordinates":[-86.363002,40.754487]}},{"properties":{"simazine nd_d":"nd","city":"Marceline","g 28279 ppb":0.025,"g 30033 nd_d":"d","zip":null,"accuracy":"Plant","date":{"end_time":"2008/02/12 00:00:01 -0500","original":"Tue Feb 12 00:00:00 -0500 2008","granularity":"sec","time":"2008/02/12 00:00:00 -0500"},"geo_score":0.452,"tct sum":0.8,"g 28273 nd_d":"nd","g 30033 ppb":0.09,"g 28279 nd_d":"nd","year":2008.0,"type of water r or f":"F","simazine ppb":0.025,"program":"AMP","date sampled":"02/12/2008 08:00 AM +0000","atrazine nd_d":"d","id":"a667tvy401yl","address":"10283 Long Branch Ave","geo_precision":"street","cws actual name":"Marceline Water Treatment Plant","atrazine ppb":0.41,"g 28273 ppb":0.25,"method of analysis":"LC2","state":"Missouri"},"type":"Feature","geometry":{"type":"Point","coordinates":[-93.07762,39.80281]}},{"properties":{"simazine nd_d":"d","city":"Mc Clure","g 28279 ppb":1.12,"g 30033 nd_d":"d","zip":"43534","accuracy":"Plant","date":{"end_time":"2008/06/03 00:00:01 -0400","original":"Tue Jun 03 00:00:00 -0400 2008","granularity":"sec","time":"2008/06/03 00:00:00 -0400"},"geo_score":0.668,"tct sum":40.39,"g 28273 nd_d":"d","g 30033 ppb":2.14,"g 28279 nd_d":"d","year":2008.0,"type of water r or f":"F","simazine ppb":2.46,"program":"AMP","date sampled":"06/03/2008 07:00 AM +0000","atrazine nd_d":"d","id":"a667tw3fx22q","address":"145 State Route 65","geo_precision":"range","cws actual name":"Mc Clure Water Treatment Plant","atrazine ppb":33.83,"g 28273 ppb":0.84,"method of analysis":"LC2","state":"Ohio"},"type":"Feature","geometry":{"type":"Point","coordinates":[-83.941399,41.37194]}},{"properties":{"simazine nd_d":"d","city":"Midlothian","g 28279 ppb":0.09,"g 30033 nd_d":"d","zip":"76065","accuracy":"Plant","date":{"end_time":"2008/05/12 00:00:01 -0400","original":"Mon May 12 00:00:00 -0400 2008","granularity":"sec","time":"2008/05/12 00:00:00 -0400"},"geo_score":0.922,"tct sum":3.77,"g 28273 nd_d":"nd","g 30033 ppb":0.25,"g 28279 nd_d":"d","year":2008.0,"type of water r or f":"F","simazine ppb":0.25,"program":"AMP","date sampled":"05/12/2008 07:00 AM +0000","atrazine nd_d":"d","id":"a667tvs35qxc","address":"440 Tayman Dr","geo_precision":"range","cws actual name":"Midlothian Water Treatment Plant","atrazine ppb":2.93,"g 28273 ppb":0.25,"method of analysis":"LC2","state":"Texas"},"type":"Feature","geometry":{"type":"Point","coordinates":[-96.990715,32.532098]}},{"properties":{"simazine nd_d":"d","city":"Monroe City","g 28279 ppb":0.12,"g 30033 nd_d":"d","zip":null,"accuracy":"Plant","date":{"end_time":"2008/07/08 00:00:01 -0400","original":"Tue Jul 08 00:00:00 -0400 2008","granularity":"sec","time":"2008/07/08 00:00:00 -0400"},"geo_score":0.479,"tct sum":2.88,"g 28273 nd_d":"nd","g 30033 ppb":0.3,"g 28279 nd_d":"d","year":2008.0,"type of water r or f":"F","simazine ppb":0.26,"program":"AMP","date sampled":"07/08/2008 07:00 AM +0000","atrazine nd_d":"d","id":"a667tvo910oc","address":"40126 Monroe Road 596","geo_precision":"street","cws actual name":"Monroe City (Finished)","atrazine ppb":1.95,"g 28273 ppb":0.25,"method of analysis":"LC2","state":"Missouri"},"type":"Feature","geometry":{"type":"Point","coordinates":[-91.728263,39.648011]}},{"properties":{"simazine nd_d":"d","city":"Newark","g 28279 ppb":0.21,"g 30033 nd_d":"d","zip":null,"accuracy":"Office","date":{"end_time":"2008/06/02 00:00:01 -0400","original":"Mon Jun 02 00:00:00 -0400 2008","granularity":"sec","time":"2008/06/02 00:00:00 -0400"},"geo_score":0.707,"tct sum":7.46,"g 28273 nd_d":"nd","g 30033 ppb":0.48,"g 28279 nd_d":"d","year":2008.0,"type of water r or f":"F","simazine ppb":0.39,"program":"AMP","date sampled":"06/02/2008 07:00 AM +0000","atrazine nd_d":"d","id":"a667tw3dwfcw","address":"34 S. Fifth St.","geo_precision":"range","cws actual name":"Newark Water Works","atrazine ppb":6.13,"g 28273 ppb":0.25,"method of analysis":"LC2","state":"Ohio"},"type":"Feature","geometry":{"type":"Point","coordinates":[-82.405512,40.055959]}},{"properties":{"simazine nd_d":"nd","city":"Norwalk","g 28279 ppb":0.06,"g 30033 nd_d":"nd","zip":null,"accuracy":"Plant","date":{"end_time":"2008/11/17 00:00:01 -0500","original":"Mon Nov 17 00:00:00 -0500 2008","granularity":"sec","time":"2008/11/17 00:00:00 -0500"},"geo_score":0.819,"tct sum":0.7,"g 28273 nd_d":"nd","g 30033 ppb":0.025,"g 28279 nd_d":"d","year":2008.0,"type of water r or f":"F","simazine ppb":0.025,"program":"AMP","date sampled":"11/17/2008 08:00 AM +0000","atrazine nd_d":"d","id":"a667tvrwweo7","address":"201 Woodlawn Ave","geo_precision":"range","cws actual name":"Norwalk Water Treatment Plant","atrazine ppb":0.34,"g 28273 ppb":0.25,"method of analysis":"LC2","state":"Ohio"},"type":"Feature","geometry":{"type":"Point","coordinates":[-82.591073,41.240717]}},{"properties":{"simazine nd_d":"nd","city":"Lenexa","g 28279 ppb":0.025,"g 30033 nd_d":"d","zip":"66227","accuracy":"Plant","date":{"end_time":"2008/02/11 00:00:01 -0500","original":"Mon Feb 11 00:00:00 -0500 2008","granularity":"sec","time":"2008/02/11 00:00:00 -0500"},"geo_score":0.624,"tct sum":1.16,"g 28273 nd_d":"nd","g 30033 ppb":0.14,"g 28279 nd_d":"nd","year":2008.0,"type of water r or f":"F","simazine ppb":0.025,"program":"AMP","date sampled":"02/11/2008 08:00 AM +0000","atrazine nd_d":"d","id":"a667tvnb3lhn","address":"27065 West 83rd Street","geo_precision":"range","cws actual name":"Olathe (Kansas River and Finished)","atrazine ppb":0.72,"g 28273 ppb":0.25,"method of analysis":"LC2","state":"Kansas"},"type":"Feature","geometry":{"type":"Point","coordinates":[-94.896904,38.978013]}},{"properties":{"simazine nd_d":"d","city":"Osawatomie","g 28279 ppb":0.31,"g 30033 nd_d":"d","zip":"66064","accuracy":"Office","date":{"end_time":"2008/05/27 00:00:01 -0400","original":"Tue May 27 00:00:00 -0400 2008","granularity":"sec","time":"2008/05/27 00:00:00 -0400"},"geo_score":0.638,"tct sum":10.42,"g 28273 nd_d":"nd","g 30033 ppb":1.06,"g 28279 nd_d":"d","year":2008.0,"type of water r or f":"F","simazine ppb":0.1,"program":"AMP","date sampled":"05/27/2008 07:00 AM +0000","atrazine nd_d":"d","id":"a667tvww7k99","address":"101 11th Street","geo_precision":"street","cws actual name":"Osawatomie","atrazine ppb":8.7,"g 28273 ppb":0.25,"method of analysis":"LC2","state":"Kansas"},"type":"Feature","geometry":{"type":"Point","coordinates":[-94.960689,38.497306]}},{"properties":{"simazine nd_d":"d","city":"Piqua","g 28279 ppb":0.87,"g 30033 nd_d":"d","zip":null,"accuracy":"Plant","date":{"end_time":"2008/06/16 00:00:01 -0400","original":"Mon Jun 16 00:00:00 -0400 2008","granularity":"sec","time":"2008/06/16 00:00:00 -0400"},"geo_score":0.805,"tct sum":48.92,"g 28273 nd_d":"nd","g 30033 ppb":2.29,"g 28279 nd_d":"d","year":2008.0,"type of water r or f":"F","simazine ppb":0.51,"program":"AMP","date sampled":"06/16/2008 07:00 AM +0000","atrazine nd_d":"d","id":"a667tvwcyhf8","address":"9300 State Route 66","geo_precision":"range","cws actual name":"Piqua (Swift Run Lake and finished)","atrazine ppb":45.0,"g 28273 ppb":0.25,"method of analysis":"LC2","state":"Ohio"},"type":"Feature","geometry":{"type":"Point","coordinates":[-84.260341,40.174053]}},{"properties":{"simazine nd_d":"nd","city":"Shelby","g 28279 ppb":0.11,"g 30033 nd_d":"d","zip":"44875-1302","accuracy":"Plant","date":{"end_time":"2008/11/17 00:00:01 -0500","original":"Mon Nov 17 00:00:00 -0500 2008","granularity":"sec","time":"2008/11/17 00:00:00 -0500"},"geo_score":0.935,"tct sum":1.415,"g 28273 nd_d":"nd","g 30033 ppb":0.18,"g 28279 nd_d":"d","year":2008.0,"type of water r or f":"F","simazine ppb":0.025,"program":"AMP","date sampled":"11/17/2008 08:00 AM +0000","atrazine nd_d":"d","id":"a667tw2ogfzb","address":"34 Mansfield Ave","geo_precision":"range","cws actual name":"Shelby (Reservoir 2 and Finished)","atrazine ppb":0.85,"g 28273 ppb":0.25,"method of analysis":"LC2","state":"Ohio"},"type":"Feature","geometry":{"type":"Point","coordinates":[-82.65611,40.878818]}},{"properties":{"simazine nd_d":"nd","city":"St. Paul","g 28279 ppb":0.19,"g 30033 nd_d":"d","zip":null,"accuracy":"Plant","date":{"end_time":"2008/05/12 00:00:01 -0400","original":"Mon May 12 00:00:00 -0400 2008","granularity":"sec","time":"2008/05/12 00:00:00 -0400"},"geo_score":0.46,"tct sum":7.125,"g 28273 nd_d":"nd","g 30033 ppb":0.48,"g 28279 nd_d":"d","year":2008.0,"type of water r or f":"F","simazine ppb":0.025,"program":"AMP","date sampled":"05/12/2008 07:00 AM +0000","atrazine nd_d":"d","id":"a667tvv8h3c1","address":"911 Jefferson St","geo_precision":"street","cws actual name":"St. Paul","atrazine ppb":6.18,"g 28273 ppb":0.25,"method of analysis":"LC2","state":"Kansas"},"type":"Feature","geometry":{"type":"Point","coordinates":[-94.869767,38.565844]}},{"properties":{"simazine nd_d":"d","city":"Thibodaux","g 28279 ppb":0.1,"g 30033 nd_d":"d","zip":"70301-2939","accuracy":"Plant","date":{"end_time":"2008/05/27 00:00:01 -0400","original":"Tue May 27 00:00:00 -0400 2008","granularity":"sec","time":"2008/05/27 00:00:00 -0400"},"geo_score":1.0,"tct sum":4.88,"g 28273 nd_d":"nd","g 30033 ppb":0.16,"g 28279 nd_d":"d","year":2008.0,"type of water r or f":"F","simazine ppb":0.07,"program":"AMP","date sampled":"05/27/2008 07:00 AM +0000","atrazine nd_d":"d","id":"a667tvrdv7ln","address":"110 E Bayou Rd","geo_precision":"range","cws actual name":"Thibodaux Water Works","atrazine ppb":4.3,"g 28273 ppb":0.25,"method of analysis":"LC2","state":"Louisiana"},"type":"Feature","geometry":{"type":"Point","coordinates":[-90.817517,29.800022]}},{"properties":{"simazine nd_d":"d","city":"Upper Sandusky","g 28279 ppb":0.11,"g 30033 nd_d":"d","zip":null,"accuracy":"Plant","date":{"end_time":"2008/01/14 00:00:01 -0500","original":"Mon Jan 14 00:00:00 -0500 2008","granularity":"sec","time":"2008/01/14 00:00:00 -0500"},"geo_score":0.611,"tct sum":1.24,"g 28273 nd_d":"nd","g 30033 ppb":0.2,"g 28279 nd_d":"d","year":2008.0,"type of water r or f":"F","simazine ppb":0.06,"program":"AMP","date sampled":"01/14/2008 08:00 AM +0000","atrazine nd_d":"d","id":"a667tvvaplr2","address":"155 Indian Mill Dr","geo_precision":"street","cws actual name":"Upper Sandusky","atrazine ppb":0.62,"g 28273 ppb":0.25,"method of analysis":"LC2","state":"Ohio"},"type":"Feature","geometry":{"type":"Point","coordinates":[-83.270997,40.851292]}},{"properties":{"simazine nd_d":"nd","city":"Waverly","g 28279 ppb":0.24,"g 30033 nd_d":"d","zip":"62692-1008","accuracy":"Plant","date":{"end_time":"2008/06/09 00:00:01 -0400","original":"Mon Jun 09 00:00:00 -0400 2008","granularity":"sec","time":"2008/06/09 00:00:00 -0400"},"geo_score":1.0,"tct sum":7.955,"g 28273 nd_d":"nd","g 30033 ppb":0.65,"g 28279 nd_d":"d","year":2008.0,"type of water r or f":"F","simazine ppb":0.025,"program":"AMP","date sampled":"06/09/2008 07:00 AM +0000","atrazine nd_d":"d","id":"a667tvtp3zlu","address":"171 N Pearl St","geo_precision":"range","cws actual name":"Waverly","atrazine ppb":6.79,"g 28273 ppb":0.25,"method of analysis":"LC2","state":"Illinois"},"type":"Feature","geometry":{"type":"Point","coordinates":[-89.953417,39.592437]}},{"properties":{"simazine nd_d":"nd","city":"Waxahachie","g 28279 ppb":0.08,"g 30033 nd_d":"d","zip":null,"accuracy":"Plant","date":{"end_time":"2008/05/13 00:00:01 -0400","original":"Tue May 13 00:00:00 -0400 2008","granularity":"sec","time":"2008/05/13 00:00:00 -0400"},"geo_score":0.824,"tct sum":2.255,"g 28273 nd_d":"nd","g 30033 ppb":0.11,"g 28279 nd_d":"d","year":2008.0,"type of water r or f":"F","simazine ppb":0.025,"program":"AMP","date sampled":"05/13/2008 07:00 AM +0000","atrazine nd_d":"d","id":"a667tvxapwo4","address":"1900 Howard Rd","geo_precision":"range","cws actual name":"Waxahachie Water Treatment Plant","atrazine ppb":1.79,"g 28273 ppb":0.25,"method of analysis":"LC2","state":"Texas"},"type":"Feature","geometry":{"type":"Point","coordinates":[-96.844195,32.369445]}},{"properties":{"simazine nd_d":"nd","city":"Sardinia","g 28279 ppb":0.1,"g 30033 nd_d":"d","zip":"45171- 9749","accuracy":"Office","date":{"end_time":"2008/01/02 00:00:01 -0500","original":"Wed Jan 02 00:00:00 -0500 2008","granularity":"sec","time":"2008/01/02 00:00:00 -0500"},"geo_score":0.922,"tct sum":0.795,"g 28273 nd_d":"nd","g 30033 ppb":0.09,"g 28279 nd_d":"d","year":2008.0,"type of water r or f":"F","simazine ppb":0.025,"program":"AMP","date sampled":"01/02/2008 08:00 AM +0000","atrazine nd_d":"d","id":"a667tvnsypsl","address":"1 Waynoka Dr.","geo_precision":"range","cws actual name":"Waynoka Regional Water","atrazine ppb":0.33,"g 28273 ppb":0.25,"method of analysis":"LC2","state":"Ohio"},"type":"Feature","geometry":{"type":"Point","coordinates":[-83.784283,38.925656]}},{"properties":{"simazine nd_d":"d","city":"Westport","g 28279 ppb":0.025,"g 30033 nd_d":"d","zip":"47283","accuracy":"Company","date":{"end_time":"2008/07/14 00:00:01 -0400","original":"Mon Jul 14 00:00:00 -0400 2008","granularity":"sec","time":"2008/07/14 00:00:00 -0400"},"geo_score":0.629,"tct sum":1.565,"g 28273 nd_d":"nd","g 30033 ppb":0.17,"g 28279 nd_d":"nd","year":2008.0,"type of water r or f":"F","simazine ppb":0.11,"program":"AMP","date sampled":"07/14/2008 07:00 AM +0000","atrazine nd_d":"d","id":"a667tvvczix9","address":"207 Johnson Ave","geo_precision":"street","cws actual name":"Westport Water Company","atrazine ppb":1.01,"g 28273 ppb":0.25,"method of analysis":"LC2","state":"Indiana"},"type":"Feature","geometry":{"type":"Point","coordinates":[-85.571766,39.180894]}},{"properties":{"simazine nd_d":"d","city":"Wilmington","g 28279 ppb":0.025,"g 30033 nd_d":"d","zip":"45177-8885","accuracy":"Plant","date":{"end_time":"2008/06/17 00:00:01 -0400","original":"Tue Jun 17 00:00:00 -0400 2008","granularity":"sec","time":"2008/06/17 00:00:00 -0400"},"geo_score":0.941,"tct sum":1.705,"g 28273 nd_d":"nd","g 30033 ppb":0.12,"g 28279 nd_d":"nd","year":2008.0,"type of water r or f":"F","simazine ppb":0.1,"program":"AMP","date sampled":"06/17/2008 07:00 AM +0000","atrazine nd_d":"d","id":"a667tvzia4r7","address":"1142 Prairie Rd","geo_precision":"range","cws actual name":"Wilmington","atrazine ppb":1.21,"g 28273 ppb":0.25,"method of analysis":"LC2","state":"Ohio"},"type":"Feature","geometry":{"type":"Point","coordinates":[-83.810939,39.45764]}}],"is_temporal":true,"author":{"url":"","metadata":"","contact_name":"","contact_address":"","source":"","contact_phone":""},"source":"","pagination":{"sort":null,"start":0,"total":48,"limit":1000000},"state":"complete","tags":"atrazine,geocode","published":"2014-08-10T20:56:24-04:00","id":15910}