{"type":"FeatureCollection","data_type":"Dataset","url_type":null,"permissions":[{"permissions":{"download":true,"view":true},"group_id":"everyone"}],"classification":null,"title":"mulch9","count":162,"stream_id":159585,"contributor":{"url":"http://geocommons.com/users/19610","name":"YmerejRedienhcs"},"data_attributes":null,"calculation_params":null,"icon_link":null,"link":"http://geocommons.com/overlays/159585.json","extent":[-169.512,-14.2267,-72.5855,64.6798],"geometry_types":["point"],"unique_name":"","name":"mulch9","feature_count":162,"description":"","next_feature":null,"is_raster":false,"short_classification":"Y","stats":{"numbags":{"max":70,"mean":18.2345679012346,"variance":174.516064718964,"stdev":13.210452858209,"min":0,"median":15}},"features":[{"properties":{"city":"Falls Church","zip":"22046","geo_score":0.707,"country":"US","numbags":20,"id":"a6czonm2k5n9","geo_precision":"street","address":"101 Poplar Dr","state":"VA"},"type":"Feature","geometry":{"type":"Point","coordinates":[-82.622746,38.434488]}},{"properties":{"city":"Falls Church","zip":"22046","geo_score":0.493,"country":"US","numbags":10,"id":"a6czonrz7kpk","geo_precision":"street","address":"102 W. Rosemary Lane","state":"VA"},"type":"Feature","geometry":{"type":"Point","coordinates":[-90.277005,32.091597]}},{"properties":{"city":"Falls Church","zip":"22046","geo_score":0.707,"country":"US","numbags":20,"id":"a6czonokodk1","geo_precision":"range","address":"105 S. Lee St.","state":"VA"},"type":"Feature","geometry":{"type":"Point","coordinates":[-107.087599,39.400745]}},{"properties":{"city":"Falls Church","zip":"22046","geo_score":0.79,"country":"US","numbags":5,"id":"a6czonhul2kj","geo_precision":"range","address":"105 W. Greenway Blvd","state":"VA"},"type":"Feature","geometry":{"type":"Point","coordinates":[-83.976342,33.575195]}},{"properties":{"city":"Falls Church","zip":"22046","geo_score":0.707,"country":"US","numbags":5,"id":"a6czonkwlucb","geo_precision":"range","address":"106 Dulany Pl","state":"VA"},"type":"Feature","geometry":{"type":"Point","coordinates":[-86.345369,33.27937]}},{"properties":{"city":"Falls Church","zip":"22046","geo_score":0.447,"country":"US","numbags":2,"id":"a6czonsb8t47","geo_precision":"street","address":"106 Grace Lane","state":"VA"},"type":"Feature","geometry":{"type":"Point","coordinates":[-86.518344,34.33549]}},{"properties":{"city":"Falls Church","zip":"22046","geo_score":0.87,"country":"US","numbags":5,"id":"a6czonpexc6m","geo_precision":"range","address":"108 S. Spring St","state":"VA"},"type":"Feature","geometry":{"type":"Point","coordinates":[-72.585486,42.106826]}},{"properties":{"city":"Falls Church","zip":"22046","geo_score":0.659,"country":"US","numbags":20,"id":"a6czonjqhrwo","geo_precision":"street","address":"110 E. Jefferson St","state":"VA"},"type":"Feature","geometry":{"type":"Point","coordinates":[-86.783823,33.569148]}},{"properties":{"city":"Falls Church","zip":"22046","geo_score":0.87,"country":"US","numbags":10,"id":"a6czonn7jnfb","geo_precision":"range","address":"112 S. Spring St","state":"VA"},"type":"Feature","geometry":{"type":"Point","coordinates":[-72.585574,42.106893]}},{"properties":{"city":"Falls Church","zip":"22046","geo_score":0.551,"country":"US","numbags":6,"id":"a6czongx7ijt","geo_precision":"street","address":"115 W. Cameron Rd","state":"VA"},"type":"Feature","geometry":{"type":"Point","coordinates":[-116.571981,46.605976]}},{"properties":{"city":"Falls Church","zip":"22046","geo_score":0.79,"country":"US","numbags":40,"id":"a6czonnpa2eq","geo_precision":"range","address":"115 W. Greenway Blvd","state":"VA"},"type":"Feature","geometry":{"type":"Point","coordinates":[-83.976485,33.575187]}},{"properties":{"city":"Falls Church","zip":"22046","geo_score":0.488,"country":"US","numbags":8,"id":"a6czonmxs0ga","geo_precision":"street","address":"117 W. Annandale Rd","state":"VA"},"type":"Feature","geometry":{"type":"Point","coordinates":[-86.265228,39.213595]}},{"properties":{"city":"Falls Church","zip":"22046","geo_score":0.659,"country":"US","numbags":15,"id":"a6czonejuqg8","geo_precision":"street","address":"118 E. Jefferson St","state":"VA"},"type":"Feature","geometry":{"type":"Point","coordinates":[-86.783823,33.569148]}},{"properties":{"city":"Falls Church","zip":"22046","geo_score":0.666,"country":"US","numbags":20,"id":"a6czono9tox9","geo_precision":"street","address":"119 S. Oak St.","state":"VA"},"type":"Feature","geometry":{"type":"Point","coordinates":[-82.599954,29.814624]}},{"properties":{"city":"Falls Church","zip":"22046","geo_score":0.464,"country":"US","numbags":15,"id":"a6czonokuj35","geo_precision":"street","address":"120 N. Fairfax St","state":"VA"},"type":"Feature","geometry":{"type":"Point","coordinates":[-85.148229,32.746376]}},{"properties":{"city":"Falls Church","zip":"22046","geo_score":0.551,"country":"US","numbags":25,"id":"a6czonlc6pyn","geo_precision":"street","address":"120 W. Cameron Rd","state":"VA"},"type":"Feature","geometry":{"type":"Point","coordinates":[-116.571981,46.605976]}},{"properties":{"city":"Falls Church","zip":"22046","geo_score":0.666,"country":"US","numbags":30,"id":"a6czonevx8ro","geo_precision":"street","address":"124 S. Oak St","state":"VA"},"type":"Feature","geometry":{"type":"Point","coordinates":[-82.599954,29.814624]}},{"properties":{"city":"Falls Church","zip":"22046","geo_score":0.823,"country":"US","numbags":30,"id":"a6czoniycckx","geo_precision":"range","address":"124 W. Marshall St","state":"VA"},"type":"Feature","geometry":{"type":"Point","coordinates":[-87.704461,34.513635]}},{"properties":{"city":"Falls Church","zip":"22046","geo_score":0.342,"country":"US","numbags":20,"id":"a6czondnokn9","geo_precision":"street","address":"131 N. Fairfax St","state":"VA"},"type":"Feature","geometry":{"type":"Point","coordinates":[-85.148229,32.746376]}},{"properties":{"city":"Falls Church","zip":"22046","geo_score":0.464,"country":"US","numbags":20,"id":"a6czonschc1l","geo_precision":"street","address":"134 N. Fairfax St.","state":"VA"},"type":"Feature","geometry":{"type":"Point","coordinates":[-85.148229,32.746376]}},{"properties":{"city":"Falls Church","zip":"22046","geo_score":0.87,"country":"US","numbags":20,"id":"a6czonkfrpwn","geo_precision":"range","address":"149 S. Spring St","state":"VA"},"type":"Feature","geometry":{"type":"Point","coordinates":[-72.587331,42.107876]}},{"properties":{"city":"Falls Church","zip":"22046","geo_score":0.707,"country":"US","numbags":5,"id":"a6czonopy4et","geo_precision":"range","address":"198 S. Lee St.","state":"VA"},"type":"Feature","geometry":{"type":"Point","coordinates":[-107.087569,39.400605]}},{"properties":{"city":"Falls Church","zip":"22046","geo_score":0.666,"country":"US","numbags":30,"id":"a6czonrif7r5","geo_precision":"street","address":"200 S. Oak St","state":"VA"},"type":"Feature","geometry":{"type":"Point","coordinates":[-82.599954,29.814624]}},{"properties":{"city":"Falls Church","zip":"22046","geo_score":0.431,"country":"US","numbags":10,"id":"a6czonhm0nf8","geo_precision":"street","address":"200 W. George Mason Rd","state":"VA"},"type":"Feature","geometry":{"type":"Point","coordinates":[-86.92954,34.449694]}},{"properties":{"city":"Falls Church","zip":"22046","geo_score":0.493,"country":"US","numbags":30,"id":"a6czondosshv","geo_precision":"street","address":"200 W. Rosemary Lane","state":"VA"},"type":"Feature","geometry":{"type":"Point","coordinates":[-90.277005,32.091597]}},{"properties":{"city":"Falls Church","zip":"22046","geo_score":0.732,"country":"US","numbags":6,"id":"a6czonnp1cq5","geo_precision":"range","address":"201 Buxton Rd","state":"VA"},"type":"Feature","geometry":{"type":"Point","coordinates":[-84.75632,33.266164]}},{"properties":{"city":"Falls Church","zip":"22046","geo_score":0.551,"country":"US","numbags":12,"id":"a6czono5108p","geo_precision":"street","address":"201 W. Cameron Rd","state":"VA"},"type":"Feature","geometry":{"type":"Point","coordinates":[-116.571981,46.605976]}},{"properties":{"city":"Falls Church","zip":"22046","geo_score":0.652,"country":"US","numbags":20,"id":"a6czonn843h6","geo_precision":"range","address":"202 Brook Dr","state":"VA"},"type":"Feature","geometry":{"type":"Point","coordinates":[-94.127845,33.673009]}},{"properties":{"city":"Falls Church","zip":"22046","geo_score":0.431,"country":"US","numbags":20,"id":"a6czoni7qe13","geo_precision":"street","address":"204 W. George Mason Rd","state":"VA"},"type":"Feature","geometry":{"type":"Point","coordinates":[-86.92954,34.449694]}},{"properties":{"city":"Falls Church","zip":"22046","geo_score":0.431,"country":"US","numbags":3,"id":"a6czonhm8104","geo_precision":"street","address":"204 W. George Mason Rd","state":"VA"},"type":"Feature","geometry":{"type":"Point","coordinates":[-86.92954,34.449694]}},{"properties":{"city":"Falls Church","zip":"22046","geo_score":0.707,"country":"US","numbags":25,"id":"a6czong5nmoo","geo_precision":"range","address":"205 N. Lee St","state":"VA"},"type":"Feature","geometry":{"type":"Point","coordinates":[-107.087569,39.400599]}},{"properties":{"city":"Falls Church","zip":"22046","geo_score":0.666,"country":"US","numbags":10,"id":"a6czonhrlq29","geo_precision":"street","address":"205 S. Oak St","state":"VA"},"type":"Feature","geometry":{"type":"Point","coordinates":[-82.599954,29.814624]}},{"properties":{"city":"Falls Church","zip":"22046","geo_score":0.902,"country":"US","numbags":10,"id":"a6czonokuo9i","geo_precision":"range","address":"206 Forest Dr","state":"VA"},"type":"Feature","geometry":{"type":"Point","coordinates":[-87.534167,33.064008]}},{"properties":{"city":"Falls Church","zip":"22046","geo_score":0.79,"country":"US","numbags":40,"id":"a6czonqm4e3a","geo_precision":"range","address":"206 W. Greenway Blvd","state":"VA"},"type":"Feature","geometry":{"type":"Point","coordinates":[-83.978139,33.575697]}},{"properties":{"city":"Falls Church","zip":"22046","geo_score":0.732,"country":"US","numbags":15,"id":"a6czonevhqqr","geo_precision":"range","address":"207 Buxton Rd","state":"VA"},"type":"Feature","geometry":{"type":"Point","coordinates":[-84.756305,33.266163]}},{"properties":{"city":"Falls Church","zip":"22046","geo_score":0.463,"country":"US","numbags":3,"id":"a6czontc1gki","geo_precision":"street","address":"207 Gundry Dr","state":"VA"},"type":"Feature","geometry":{"type":"Point","coordinates":[-91.548386,43.067416]}},{"properties":{"city":"Falls Church","zip":"22046","geo_score":0.4,"country":"US","numbags":10,"id":"a6czonebjou1","geo_precision":"city","address":"208 S. West St","state":"VA"},"type":"Feature","geometry":{"type":"Point","coordinates":[-111.805435,34.86724]}},{"properties":{"city":"Falls Church","zip":"22046","geo_score":0.79,"country":"US","numbags":10,"id":"a6czonsaxo0t","geo_precision":"range","address":"208 W. Greenway Blvd","state":"VA"},"type":"Feature","geometry":{"type":"Point","coordinates":[-83.978155,33.575727]}},{"properties":{"city":"Falls Church","zip":"22046","geo_score":0.429,"country":"US","numbags":4,"id":"a6czonl87mvs","geo_precision":"street","address":"209 W. George Mason Rd","state":"VA"},"type":"Feature","geometry":{"type":"Point","coordinates":[-86.931001,34.44975]}},{"properties":{"city":"Falls Church","zip":"22046","geo_score":0.512,"country":"US","numbags":35,"id":"a6czonmu5x2n","geo_precision":"street","address":"210 Noland St","state":"VA"},"type":"Feature","geometry":{"type":"Point","coordinates":[-91.069985,36.212951]}},{"properties":{"city":"Falls Church","zip":"22046","geo_score":0.4,"country":"US","numbags":8,"id":"a6czonqjk31q","geo_precision":"city","address":"210 S. West St.","state":"VA"},"type":"Feature","geometry":{"type":"Point","coordinates":[-111.805435,34.86724]}},{"properties":{"city":"Falls Church","zip":"22046","geo_score":0.447,"country":"US","numbags":50,"id":"a6czonfmrc44","geo_precision":"city","address":"212 Midvale St","state":"VA"},"type":"Feature","geometry":{"type":"Point","coordinates":[-75.610482,39.659835]}},{"properties":{"city":"Falls Church","zip":"22046","geo_score":0.463,"country":"US","numbags":4,"id":"a6czonns1ush","geo_precision":"street","address":"213 Gundry Dr","state":"VA"},"type":"Feature","geometry":{"type":"Point","coordinates":[-91.548386,43.067416]}},{"properties":{"city":"Falls Church","zip":"22046","geo_score":0.876,"country":"US","numbags":3,"id":"a6czonkakmp6","geo_precision":"range","address":"213 W. Columbia St","state":"VA"},"type":"Feature","geometry":{"type":"Point","coordinates":[-92.56519,38.98017]}},{"properties":{"city":"Falls Church","zip":"22046","geo_score":0.574,"country":"US","numbags":30,"id":"a6czonls3cac","geo_precision":"street","address":"214 Lawton St","state":"VA"},"type":"Feature","geometry":{"type":"Point","coordinates":[-98.404699,34.624296]}},{"properties":{"city":"Falls Church","zip":"22046","geo_score":0.447,"country":"US","numbags":10,"id":"a6czongybl2i","geo_precision":"city","address":"214 Midvale St","state":"VA"},"type":"Feature","geometry":{"type":"Point","coordinates":[-75.610482,39.659835]}},{"properties":{"city":"Falls Church","zip":"22046","geo_score":0.468,"country":"US","numbags":30,"id":"a6czonkofyy0","geo_precision":"range","address":"215 N. Van Buren St","state":"VA"},"type":"Feature","geometry":{"type":"Point","coordinates":[-87.148294,33.728745]}},{"properties":{"city":"Falls Church","zip":"22046","geo_score":0.0,"country":"US","numbags":10,"id":"a6czonq9204o","geo_precision":"unmatched","address":"218 James Thurber Ct","state":"VA"},"type":"Feature","geometry":null},{"properties":{"city":"Falls Church","zip":"22046","geo_score":0.79,"country":"US","numbags":6,"id":"a6czonicmwho","geo_precision":"range","address":"218 W. Greenway Blvd","state":"VA"},"type":"Feature","geometry":{"type":"Point","coordinates":[-83.978262,33.575874]}},{"properties":{"city":"Falls Church","zip":"22046","geo_score":0.0,"country":"US","numbags":3,"id":"a6czonj2llp0","geo_precision":"unmatched","address":"219 James Thurber Ct","state":"VA"},"type":"Feature","geometry":null},{"properties":{"city":"Falls Church","zip":"22046","geo_score":0.551,"country":"US","numbags":25,"id":"a6czonsdgxac","geo_precision":"street","address":"221 W. Cameron Rd","state":"VA"},"type":"Feature","geometry":{"type":"Point","coordinates":[-116.571981,46.605976]}},{"properties":{"city":"Falls Church","zip":"22046","geo_score":0.512,"country":"US","numbags":13,"id":"a6czonfn6ytk","geo_precision":"street","address":"226 Noland St","state":"VA"},"type":"Feature","geometry":{"type":"Point","coordinates":[-91.069985,36.212951]}},{"properties":{"city":"Falls Church","zip":"22046","geo_score":0.577,"country":"US","numbags":10,"id":"a6czonjuwuty","geo_precision":"street","address":"226 S. Virginia Ave.","state":"VA"},"type":"Feature","geometry":{"type":"Point","coordinates":[-87.003491,33.43947]}},{"properties":{"city":"Falls Church","zip":"22046","geo_score":0.659,"country":"US","numbags":12,"id":"a6czonswcyj1","geo_precision":"street","address":"232 Kent St","state":"VA"},"type":"Feature","geometry":{"type":"Point","coordinates":[-122.276482,47.364739]}},{"properties":{"city":"Falls Church","zip":"22046","geo_score":0.463,"country":"US","numbags":10,"id":"a6czonmarbqu","geo_precision":"street","address":"255 Gundry Dr","state":"VA"},"type":"Feature","geometry":{"type":"Point","coordinates":[-91.548386,43.067416]}},{"properties":{"city":"Falls Church","zip":"22046","geo_score":0.33,"country":"US","numbags":20,"id":"a6czontpyr62","geo_precision":"street","address":"300 Grove Ave","state":"VA"},"type":"Feature","geometry":{"type":"Point","coordinates":[-90.869495,42.494405]}},{"properties":{"city":"Falls Church","zip":"22046","geo_score":0.707,"country":"US","numbags":50,"id":"a6czonnkttao","geo_precision":"street","address":"300 Poplar Dr","state":"VA"},"type":"Feature","geometry":{"type":"Point","coordinates":[-82.622746,38.434488]}},{"properties":{"city":"Falls Church","zip":"22046","geo_score":0.4,"country":"US","numbags":40,"id":"a6czonjl1sb6","geo_precision":"city","address":"300 S. West St","state":"VA"},"type":"Feature","geometry":{"type":"Point","coordinates":[-111.805435,34.86724]}},{"properties":{"city":"Falls Church","zip":"22046","geo_score":0.688,"country":"US","numbags":20,"id":"a6czone2kcdz","geo_precision":"street","address":"300 Sycamore St","state":"VA"},"type":"Feature","geometry":{"type":"Point","coordinates":[-93.148924,33.906777]}},{"properties":{"city":"Falls Church","zip":"22046","geo_score":0.805,"country":"US","numbags":5,"id":"a6czonsb6a8a","geo_precision":"range","address":"301 Parker Ave","state":"VA"},"type":"Feature","geometry":{"type":"Point","coordinates":[-88.511182,37.837959]}},{"properties":{"city":"Falls Church","zip":"22046","geo_score":0.688,"country":"US","numbags":10,"id":"a6czonh0tvdk","geo_precision":"street","address":"301 Sycamore St","state":"VA"},"type":"Feature","geometry":{"type":"Point","coordinates":[-93.148924,33.906777]}},{"properties":{"city":"Falls Church","zip":"22046","geo_score":0.463,"country":"US","numbags":12,"id":"a6czonoqlwxp","geo_precision":"street","address":"304 Gundry Dr","state":"VA"},"type":"Feature","geometry":{"type":"Point","coordinates":[-91.548386,43.067416]}},{"properties":{"city":"Falls Church","zip":"22046","geo_score":0.0,"country":"US","numbags":30,"id":"a6czonr0262h","geo_precision":"unmatched","address":"305 Fellows Ct","state":"VA"},"type":"Feature","geometry":null},{"properties":{"city":"Falls Church","zip":"22046","geo_score":0.902,"country":"US","numbags":12,"id":"a6czonr1bbw3","geo_precision":"range","address":"305 Pine St","state":"VA"},"type":"Feature","geometry":{"type":"Point","coordinates":[-86.87832,34.526654]}},{"properties":{"city":"Falls Church","zip":"22046","geo_score":0.683,"country":"US","numbags":20,"id":"a6czonegrsac","geo_precision":"street","address":"306 N. Underwood St","state":"VA"},"type":"Feature","geometry":{"type":"Point","coordinates":[-86.604115,33.575365]}},{"properties":{"city":"Falls Church","zip":"22046","geo_score":0.415,"country":"US","numbags":20,"id":"a6czonmlzhc0","geo_precision":"city","address":"306 Rollins St","state":"VA"},"type":"Feature","geometry":{"type":"Point","coordinates":[-75.70632,38.635392]}},{"properties":{"city":"Falls Church","zip":"22046","geo_score":0.902,"country":"US","numbags":5,"id":"a6czontojt26","geo_precision":"range","address":"307 Walnut St","state":"VA"},"type":"Feature","geometry":{"type":"Point","coordinates":[-93.46741,35.47334]}},{"properties":{"city":"Falls Church","zip":"22046","geo_score":0.675,"country":"US","numbags":10,"id":"a6czonl7jf8y","geo_precision":"range","address":"308 N. Virginia Ave","state":"VA"},"type":"Feature","geometry":{"type":"Point","coordinates":[-87.006757,33.439875]}},{"properties":{"city":"Falls Church","zip":"22046","geo_score":0.732,"country":"US","numbags":20,"id":"a6czonjbi7k5","geo_precision":"range","address":"309 Buxton Rd","state":"VA"},"type":"Feature","geometry":{"type":"Point","coordinates":[-84.756059,33.266151]}},{"properties":{"city":"Falls Church","zip":"22046","geo_score":0.61,"country":"US","numbags":20,"id":"a6czonsn1zdb","geo_precision":"street","address":"309 Sycamore St","state":"VA"},"type":"Feature","geometry":{"type":"Point","coordinates":[-93.148924,33.906777]}},{"properties":{"city":"Falls Church","zip":"22046","geo_score":0.553,"country":"US","numbags":5,"id":"a6czonkjb5w4","geo_precision":"street","address":"311 N. Virginia Ave.","state":"VA"},"type":"Feature","geometry":{"type":"Point","coordinates":[-87.007151,33.439858]}},{"properties":{"city":"Falls Church","zip":"22046","geo_score":0.33,"country":"US","numbags":40,"id":"a6czonhtkyxn","geo_precision":"street","address":"312 Grove Ave","state":"VA"},"type":"Feature","geometry":{"type":"Point","coordinates":[-90.869495,42.494405]}},{"properties":{"city":"Falls Church","zip":"22046","geo_score":0.561,"country":"US","numbags":20,"id":"a6czoni5id58","geo_precision":"street","address":"315 N. Underwood St","state":"VA"},"type":"Feature","geometry":{"type":"Point","coordinates":[-86.604115,33.575365]}},{"properties":{"city":"Falls Church","zip":"22046","geo_score":0.468,"country":"US","numbags":10,"id":"a6czones90id","geo_precision":"range","address":"317 N. Van Buren St","state":"VA"},"type":"Feature","geometry":{"type":"Point","coordinates":[-87.146844,33.728465]}},{"properties":{"city":"Falls Church","zip":"22046","geo_score":0.351,"country":"US","numbags":20,"id":"a6czonns2vud","geo_precision":"range","address":"318 Van Buren St","state":"VA"},"type":"Feature","geometry":{"type":"Point","coordinates":[-87.146817,33.728469]}},{"properties":{"city":"Falls Church","zip":"22046","geo_score":0.332,"country":"US","numbags":25,"id":"a6czons630lw","geo_precision":"street","address":"319 Grove Ave","state":"VA"},"type":"Feature","geometry":{"type":"Point","coordinates":[-90.872873,42.491313]}},{"properties":{"city":"Falls Church","zip":"22046","geo_score":0.408,"country":"US","numbags":20,"id":"a6czonm71q9f","geo_precision":"city","address":"320 Wrens Way","state":"VA"},"type":"Feature","geometry":{"type":"Point","coordinates":[-83.864342,31.891007]}},{"properties":{"city":"Falls Church","zip":"22046","geo_score":0.351,"country":"US","numbags":25,"id":"a6czonpqbzjc","geo_precision":"range","address":"322 Van Buren St","state":"VA"},"type":"Feature","geometry":{"type":"Point","coordinates":[-87.146769,33.728485]}},{"properties":{"city":"Falls Church","zip":"22046","geo_score":0.351,"country":"US","numbags":20,"id":"a6czonqf3xb2","geo_precision":"range","address":"324 Van Buren St","state":"VA"},"type":"Feature","geometry":{"type":"Point","coordinates":[-87.146732,33.728496]}},{"properties":{"city":"Falls Church","zip":"22046","geo_score":0.499,"country":"US","numbags":6,"id":"a6czonkp7xpw","geo_precision":"street","address":"341 James St.","state":"VA"},"type":"Feature","geometry":{"type":"Point","coordinates":[-83.473873,32.966496]}},{"properties":{"city":"Falls Church","zip":"22046","geo_score":0.415,"country":"US","numbags":15,"id":"a6czong7zefo","geo_precision":"city","address":"345 Little Falls St","state":"VA"},"type":"Feature","geometry":{"type":"Point","coordinates":[-169.512222,-14.226667]}},{"properties":{"city":"Falls Church","zip":"22046","geo_score":0.499,"country":"US","numbags":10,"id":"a6czonq052es","geo_precision":"street","address":"347 James St","state":"VA"},"type":"Feature","geometry":{"type":"Point","coordinates":[-83.473873,32.966496]}},{"properties":{"city":"Falls Church","zip":"22046","geo_score":0.435,"country":"US","numbags":20,"id":"a6czonpj2rxc","geo_precision":"city","address":"401 Timber Lane","state":"VA"},"type":"Feature","geometry":{"type":"Point","coordinates":[-91.426528,37.363101]}},{"properties":{"city":"Falls Church","zip":"22046","geo_score":0.447,"country":"US","numbags":36,"id":"a6czonlsu7ec","geo_precision":"city","address":"411 Midvale St","state":"VA"},"type":"Feature","geometry":{"type":"Point","coordinates":[-75.610482,39.659835]}},{"properties":{"city":"Falls Church","zip":"22046","geo_score":0.46,"country":"US","numbags":10,"id":"a6czonpt5f0u","geo_precision":"street","address":"412 N. Cherry St","state":"VA"},"type":"Feature","geometry":{"type":"Point","coordinates":[-112.224382,34.522562]}},{"properties":{"city":"Falls Church","zip":"22046","geo_score":0.415,"country":"US","numbags":60,"id":"a6czonh37ted","geo_precision":"street","address":"412 S. West St.","state":"VA"},"type":"Feature","geometry":{"type":"Point","coordinates":[-112.465263,34.796848]}},{"properties":{"city":"Falls Church","zip":"22046","geo_score":0.628,"country":"US","numbags":8,"id":"a6czoniv1tmy","geo_precision":"street","address":"414 Lincoln Ave","state":"VA"},"type":"Feature","geometry":{"type":"Point","coordinates":[-96.707029,40.808085]}},{"properties":{"city":"Falls Church","zip":"22046","geo_score":0.539,"country":"US","numbags":20,"id":"a6czonk2q6zf","geo_precision":"street","address":"415 E. Jefferson St","state":"VA"},"type":"Feature","geometry":{"type":"Point","coordinates":[-86.783823,33.569148]}},{"properties":{"city":"Falls Church","zip":"22046","geo_score":0.415,"country":"US","numbags":3,"id":"a6czonmto11w","geo_precision":"city","address":"419 Rollins St","state":"VA"},"type":"Feature","geometry":{"type":"Point","coordinates":[-75.70632,38.635392]}},{"properties":{"city":"Falls Church","zip":"22046","geo_score":0.707,"country":"US","numbags":20,"id":"a6czonjq3gsp","geo_precision":"street","address":"421 Poplar Dr","state":"VA"},"type":"Feature","geometry":{"type":"Point","coordinates":[-82.622746,38.434488]}},{"properties":{"city":"Falls Church","zip":"22046","geo_score":0.376,"country":"US","numbags":16,"id":"a6czonlhlyu6","geo_precision":"street","address":"422 Sherrow Ave","state":"VA"},"type":"Feature","geometry":{"type":"Point","coordinates":[-112.224382,34.522562]}},{"properties":{"city":"Falls Church","zip":"22046","geo_score":0.778,"country":"US","numbags":35,"id":"a6czonqm6n06","geo_precision":"street","address":"500 E. Columbia St","state":"VA"},"type":"Feature","geometry":{"type":"Point","coordinates":[-92.143589,39.20671]}},{"properties":{"city":"Falls Church","zip":"22046","geo_score":0.6,"country":"US","numbags":40,"id":"a6czonplzgfj","geo_precision":"street","address":"501 Dorchester Rd","state":"VA"},"type":"Feature","geometry":{"type":"Point","coordinates":[-81.376046,31.768596]}},{"properties":{"city":"Falls Church","zip":"22046","geo_score":0.537,"country":"US","numbags":6,"id":"a6czoni7o31g","geo_precision":"street","address":"501 Great Falls St","state":"VA"},"type":"Feature","geometry":{"type":"Point","coordinates":[-113.200754,48.425169]}},{"properties":{"city":"Falls Church","zip":"22046","geo_score":0.423,"country":"US","numbags":10,"id":"a6czonezbfi8","geo_precision":"city","address":"501 W. Westmoreland Rd","state":"VA"},"type":"Feature","geometry":{"type":"Point","coordinates":[-92.407933,34.880367]}},{"properties":{"city":"Falls Church","zip":"22046","geo_score":0.6,"country":"US","numbags":60,"id":"a6czonq0kh3z","geo_precision":"street","address":"503 Dorchester Rd","state":"VA"},"type":"Feature","geometry":{"type":"Point","coordinates":[-81.376046,31.768596]}},{"properties":{"city":"Falls Church","zip":"22046","geo_score":0.876,"country":"US","numbags":20,"id":"a6czoneplc4d","geo_precision":"range","address":"503 E. Columbia St","state":"VA"},"type":"Feature","geometry":{"type":"Point","coordinates":[-92.143589,39.20671]}},{"properties":{"city":"Falls Church","zip":"22046","geo_score":0.4,"country":"US","numbags":40,"id":"a6czondyzhme","geo_precision":"city","address":"503 N. West St","state":"VA"},"type":"Feature","geometry":{"type":"Point","coordinates":[-111.805435,34.86724]}},{"properties":{"city":"Falls Church","zip":"22046","geo_score":0.516,"country":"US","numbags":20,"id":"a6czonglkjd8","geo_precision":"street","address":"508 Greenwich St","state":"VA"},"type":"Feature","geometry":{"type":"Point","coordinates":[-118.866806,34.179452]}},{"properties":{"city":"Falls Church","zip":"22046","geo_score":0.537,"country":"US","numbags":12,"id":"a6czondeno8p","geo_precision":"street","address":"515 Great Falls St","state":"VA"},"type":"Feature","geometry":{"type":"Point","coordinates":[-113.200754,48.425169]}},{"properties":{"city":"Falls Church","zip":"22046","geo_score":0.516,"country":"US","numbags":20,"id":"a6czonr2385j","geo_precision":"street","address":"515 Greenwich St","state":"VA"},"type":"Feature","geometry":{"type":"Point","coordinates":[-118.866806,34.179452]}},{"properties":{"city":"Falls Church","zip":"22046","geo_score":0.435,"country":"US","numbags":12,"id":"a6czonl11w64","geo_precision":"city","address":"521 Timber Lane","state":"VA"},"type":"Feature","geometry":{"type":"Point","coordinates":[-91.426528,37.363101]}},{"properties":{"city":"Falls Church","zip":"22046","geo_score":0.707,"country":"US","numbags":20,"id":"a6czons37145","geo_precision":"street","address":"523 Poplar Dr","state":"VA"},"type":"Feature","geometry":{"type":"Point","coordinates":[-82.622746,38.434488]}},{"properties":{"city":"Falls Church","zip":"22046","geo_score":0.537,"country":"US","numbags":4,"id":"a6czonhvgzh3","geo_precision":"street","address":"527 Great Falls St","state":"VA"},"type":"Feature","geometry":{"type":"Point","coordinates":[-113.200754,48.425169]}},{"properties":{"city":"Falls Church","zip":"22046","geo_score":0.628,"country":"US","numbags":10,"id":"a6czont9ecum","geo_precision":"street","address":"601 Lincoln Ave","state":"VA"},"type":"Feature","geometry":{"type":"Point","coordinates":[-96.707029,40.808085]}},{"properties":{"city":"Falls Church","zip":"22046","geo_score":0.512,"country":"US","numbags":4,"id":"a6czonpmme0j","geo_precision":"range","address":"602 E. Broad St","state":"VA"},"type":"Feature","geometry":{"type":"Point","coordinates":[-90.479147,36.067225]}},{"properties":{"city":"Falls Church","zip":"22046","geo_score":0.601,"country":"US","numbags":30,"id":"a6czong1smqs","geo_precision":"street","address":"603 Dorchester Rd","state":"VA"},"type":"Feature","geometry":{"type":"Point","coordinates":[-81.376046,31.768596]}},{"properties":{"city":"Falls Church","zip":"22046","geo_score":0.512,"country":"US","numbags":10,"id":"a6czonsxb5d6","geo_precision":"range","address":"604 E. Broad St","state":"VA"},"type":"Feature","geometry":{"type":"Point","coordinates":[-90.479134,36.067224]}},{"properties":{"city":"Falls Church","zip":"22046","geo_score":0.709,"country":"US","numbags":25,"id":"a6czonmldxoe","geo_precision":"range","address":"606 Greenwich St","state":"VA"},"type":"Feature","geometry":{"type":"Point","coordinates":[-118.866735,34.17949]}},{"properties":{"city":"Falls Church","zip":"22046","geo_score":0.55,"country":"US","numbags":30,"id":"a6czonrh465i","geo_precision":"street","address":"606 Langston Lane","state":"VA"},"type":"Feature","geometry":{"type":"Point","coordinates":[-118.271722,34.696556]}},{"properties":{"city":"Falls Church","zip":"22046","geo_score":0.628,"country":"US","numbags":20,"id":"a6czonnk991m","geo_precision":"street","address":"607 Lincoln Ave","state":"VA"},"type":"Feature","geometry":{"type":"Point","coordinates":[-96.707029,40.808085]}},{"properties":{"city":"Falls Church","zip":"22046","geo_score":0.4,"country":"US","numbags":10,"id":"a6czonmix9za","geo_precision":"city","address":"609 N. West St","state":"VA"},"type":"Feature","geometry":{"type":"Point","coordinates":[-111.805435,34.86724]}},{"properties":{"city":"Falls Church","zip":"22046","geo_score":0.55,"country":"US","numbags":10,"id":"a6czonk2p23l","geo_precision":"street","address":"610 Langston Lane","state":"VA"},"type":"Feature","geometry":{"type":"Point","coordinates":[-118.271722,34.696556]}},{"properties":{"city":"Falls Church","zip":"22046","geo_score":0.707,"country":"US","numbags":30,"id":"a6czonh9tht1","geo_precision":"street","address":"701 Poplar Dr","state":"VA"},"type":"Feature","geometry":{"type":"Point","coordinates":[-82.622746,38.434488]}},{"properties":{"city":"Falls Church","zip":"22046","geo_score":0.435,"country":"US","numbags":30,"id":"a6czoneo04gy","geo_precision":"city","address":"701 Timber Lane","state":"VA"},"type":"Feature","geometry":{"type":"Point","coordinates":[-91.426528,37.363101]}},{"properties":{"city":"Falls Church","zip":"22046","geo_score":0.628,"country":"US","numbags":15,"id":"a6czonlm57lo","geo_precision":"street","address":"702 Lincoln Ave","state":"VA"},"type":"Feature","geometry":{"type":"Point","coordinates":[-96.707029,40.808085]}},{"properties":{"city":"Falls Church","zip":"22046","geo_score":0.823,"country":"US","numbags":10,"id":"a6czonmr3dd9","geo_precision":"range","address":"703 Randolph St","state":"VA"},"type":"Feature","geometry":{"type":"Point","coordinates":[-120.660889,40.433643]}},{"properties":{"city":"Falls Church","zip":"22046","geo_score":0.628,"country":"US","numbags":30,"id":"a6czonmkwf2q","geo_precision":"street","address":"704 Lincoln Ave","state":"VA"},"type":"Feature","geometry":{"type":"Point","coordinates":[-96.707029,40.808085]}},{"properties":{"city":"Falls Church","zip":"22046","geo_score":0.708,"country":"US","numbags":40,"id":"a6czondu6t9k","geo_precision":"street","address":"704 Park Ave","state":"VA"},"type":"Feature","geometry":{"type":"Point","coordinates":[-92.79959,34.349979]}},{"properties":{"city":"Falls Church","zip":"22046","geo_score":0.707,"country":"US","numbags":70,"id":"a6czonpygj55","geo_precision":"street","address":"707 Poplar Dr","state":"VA"},"type":"Feature","geometry":{"type":"Point","coordinates":[-82.622746,38.434488]}},{"properties":{"city":"Falls Church","zip":"22046","geo_score":0.612,"country":"US","numbags":60,"id":"a6czonkve2ia","geo_precision":"street","address":"709 Parker Ave","state":"VA"},"type":"Feature","geometry":{"type":"Point","coordinates":[-88.511164,37.84162]}},{"properties":{"city":"Falls Church","zip":"22046","geo_score":0.707,"country":"US","numbags":6,"id":"a6czones1pws","geo_precision":"street","address":"709 Poplar Dr","state":"VA"},"type":"Feature","geometry":{"type":"Point","coordinates":[-82.622746,38.434488]}},{"properties":{"city":"Falls Church","zip":"22046","geo_score":0.586,"country":"US","numbags":6,"id":"a6czonq77xtz","geo_precision":"street","address":"802 Berry St","state":"VA"},"type":"Feature","geometry":{"type":"Point","coordinates":[-92.058619,33.603155]}},{"properties":{"city":"Falls Church","zip":"22046","geo_score":0.629,"country":"US","numbags":20,"id":"a6czonh7k7tb","geo_precision":"street","address":"807 Lincoln Ave","state":"VA"},"type":"Feature","geometry":{"type":"Point","coordinates":[-96.707029,40.808085]}},{"properties":{"city":"Falls Church","zip":"22046","geo_score":0.437,"country":"US","numbags":15,"id":"a6czonr1gkro","geo_precision":"street","address":"813 Fulton Ave","state":"VA"},"type":"Feature","geometry":{"type":"Point","coordinates":[-90.77136,34.780319]}},{"properties":{"city":"Falls Church","zip":"22046","geo_score":0.437,"country":"US","numbags":25,"id":"a6czonfkaafe","geo_precision":"street","address":"819 Fulton Ave","state":"VA"},"type":"Feature","geometry":{"type":"Point","coordinates":[-90.77136,34.780319]}},{"properties":{"city":"Falls Church","zip":"22046","geo_score":0.63,"country":"US","numbags":4,"id":"a6czonp2rtjj","geo_precision":"street","address":"910 Lincoln Ave","state":"VA"},"type":"Feature","geometry":{"type":"Point","coordinates":[-96.707029,40.808085]}},{"properties":{"city":"Falls Church","zip":"22046","geo_score":0.708,"country":"US","numbags":10,"id":"a6czonqqxkm1","geo_precision":"street","address":"910 Park Ave","state":"VA"},"type":"Feature","geometry":{"type":"Point","coordinates":[-92.79959,34.349979]}},{"properties":{"city":"Falls Church","zip":"22046","geo_score":0.79,"country":"US","numbags":10,"id":"a6czonpd1qnd","geo_precision":"range","address":"915 Hillwood Ave","state":"VA"},"type":"Feature","geometry":{"type":"Point","coordinates":[-80.123375,26.012068]}},{"properties":{"city":"Falls Church","zip":"22046","geo_score":0.708,"country":"US","numbags":10,"id":"a6czonjkaz3z","geo_precision":"street","address":"920 Park Ave","state":"VA"},"type":"Feature","geometry":{"type":"Point","coordinates":[-92.79959,34.349979]}},{"properties":{"city":"Falls Church","zip":"22046","geo_score":0.644,"country":"US","numbags":2,"id":"a6czonqog5eh","geo_precision":"street","address":"1010 Madison Lane","state":"VA"},"type":"Feature","geometry":{"type":"Point","coordinates":[-89.411048,43.067772]}},{"properties":{"city":"Falls Church","zip":"22046","geo_score":0.442,"country":"US","numbags":20,"id":"a6czonrva4pw","geo_precision":"city","address":"1011 N. Tuckahoe St","state":"VA"},"type":"Feature","geometry":{"type":"Point","coordinates":[-94.529394,37.12867]}},{"properties":{"city":"Falls Church","zip":"22046","geo_score":0.708,"country":"US","numbags":20,"id":"a6czonfa7jsc","geo_precision":"street","address":"1012 Parker St","state":"VA"},"type":"Feature","geometry":{"type":"Point","coordinates":[-88.842475,37.204784]}},{"properties":{"city":"Falls Church","zip":"22046","geo_score":0.393,"country":"US","numbags":10,"id":"a6czonpz7f7c","geo_precision":"street","address":"1016 Ellison Sq","state":"VA"},"type":"Feature","geometry":{"type":"Point","coordinates":[-147.063856,64.679817]}},{"properties":{"city":"Falls Church","zip":"22046","geo_score":0.393,"country":"US","numbags":15,"id":"a6czonj9tbhm","geo_precision":"street","address":"1020 Ellison Sq","state":"VA"},"type":"Feature","geometry":{"type":"Point","coordinates":[-147.063856,64.679817]}},{"properties":{"city":"Falls Church","zip":"22046","geo_score":0.549,"country":"US","numbags":10,"id":"a6czonqekn6z","geo_precision":"street","address":"1020 Spruce St","state":"VA"},"type":"Feature","geometry":{"type":"Point","coordinates":[-104.620886,37.145211]}},{"properties":{"city":"Falls Church","zip":"22046","geo_score":0.442,"country":"US","numbags":40,"id":"a6czonetn6jw","geo_precision":"city","address":"1100 N. Tuckahoe St","state":"VA"},"type":"Feature","geometry":{"type":"Point","coordinates":[-94.529394,37.12867]}},{"properties":{"city":"Falls Church","zip":"22046","geo_score":0.756,"country":"US","numbags":0,"id":"a6czonm64x8o","geo_precision":"range","address":"1104 Seaton Lane","state":"VA"},"type":"Feature","geometry":{"type":"Point","coordinates":[-88.242838,30.415783]}},{"properties":{"city":"Falls Church","zip":"22046","geo_score":0.0,"country":"US","numbags":6,"id":"a6czoni85w51","geo_precision":"unmatched","address":"1108 Jackson Ct.","state":"VA"},"type":"Feature","geometry":null},{"properties":{"city":"Falls Church","zip":"22046","geo_score":0.756,"country":"US","numbags":30,"id":"a6czonk1xtjb","geo_precision":"range","address":"1110 Seaton Lane","state":"VA"},"type":"Feature","geometry":{"type":"Point","coordinates":[-88.242837,30.415782]}},{"properties":{"city":"Falls Church","zip":"22046","geo_score":0.823,"country":"US","numbags":15,"id":"a6czonope1tr","geo_precision":"range","address":"1113 Lincoln Ave","state":"VA"},"type":"Feature","geometry":{"type":"Point","coordinates":[-96.705416,40.808085]}},{"properties":{"city":"Falls Church","zip":"22046","geo_score":0.756,"country":"US","numbags":30,"id":"a6czonmuzolm","geo_precision":"range","address":"1208 Seaton Lane","state":"VA"},"type":"Feature","geometry":{"type":"Point","coordinates":[-88.242825,30.415773]}},{"properties":{"city":"Falls Church","zip":"22046","geo_score":0.393,"country":"US","numbags":12,"id":"a6czonp5xn0a","geo_precision":"street","address":"1215 Ellison St","state":"VA"},"type":"Feature","geometry":{"type":"Point","coordinates":[-147.063856,64.679817]}},{"properties":{"city":"Falls Church","zip":"22046","geo_score":0.844,"country":"US","numbags":10,"id":"a6czoni4p8bb","geo_precision":"range","address":"1304 Robinson Pl.","state":"VA"},"type":"Feature","geometry":{"type":"Point","coordinates":[-86.358282,32.461123]}},{"properties":{"city":"Falls Church","zip":"22046","geo_score":0.634,"country":"US","numbags":10,"id":"a6czonfij42b","geo_precision":"street","address":"1306 Gibson Pl","state":"VA"},"type":"Feature","geometry":{"type":"Point","coordinates":[-92.548169,34.311994]}},{"properties":{"city":"Falls Church","zip":"22046","geo_score":0.54,"country":"US","numbags":45,"id":"a6czonrex9qa","geo_precision":"street","address":"1508 Crane St","state":"VA"},"type":"Feature","geometry":{"type":"Point","coordinates":[-87.824957,34.273867]}},{"properties":{"city":"Falls Church","zip":"22043","geo_score":0.707,"country":"US","numbags":30,"id":"a6czonk1mff3","geo_precision":"street","address":"1842 Griffith Rd","state":"VA"},"type":"Feature","geometry":{"type":"Point","coordinates":[-88.584296,33.994237]}},{"properties":{"city":"Arlington","zip":"22205","geo_score":0.271,"country":"US","numbags":4,"id":"a6czonjk85x4","geo_precision":"street","address":"1915 N. Van Buren","state":"VA"},"type":"Feature","geometry":{"type":"Point","coordinates":[-87.146427,33.728645]}},{"properties":{"city":"Falls Church","zip":"22043","geo_score":0.0,"country":"US","numbags":20,"id":"a6czonrf6sgd","geo_precision":"unmatched","address":"2119 Natahoa Ct","state":"VA"},"type":"Feature","geometry":null},{"properties":{"city":"Falls Church","zip":"22046","geo_score":0.0,"country":"US","numbags":20,"id":"a6czonp5k3yx","geo_precision":"unmatched","address":"2238 Casemont Dr","state":"VA"},"type":"Feature","geometry":null},{"properties":{"city":"Falls Church","zip":"22046","geo_score":0.329,"country":"US","numbags":12,"id":"a6czonfdvijd","geo_precision":"street","address":"2323 Grove Ave","state":"VA"},"type":"Feature","geometry":{"type":"Point","coordinates":[-90.868034,42.495871]}},{"properties":{"city":"Falls Church","zip":"22046","geo_score":0.634,"country":"US","numbags":25,"id":"a6czonfarpj9","geo_precision":"street","address":"2532 Stuart Place","state":"VA"},"type":"Feature","geometry":{"type":"Point","coordinates":[-85.148122,31.883367]}},{"properties":{"city":"Falls Church","zip":"22044","geo_score":0.0,"country":"US","numbags":10,"id":"a6czontp54kb","geo_precision":"unmatched","address":"2602 Faber Ct","state":"VA"},"type":"Feature","geometry":null},{"properties":{"city":"Falls Church","zip":"22042","geo_score":0.654,"country":"US","numbags":10,"id":"a6czonln5fsh","geo_precision":"street","address":"2753 Marshal St","state":"VA"},"type":"Feature","geometry":{"type":"Point","coordinates":[-86.924495,34.424471]}},{"properties":{"city":"Falls Church","zip":"22042","geo_score":0.0,"country":"US","numbags":6,"id":"a6czons58ege","geo_precision":"unmatched","address":"2806 Prince Albert Ct","state":"VA"},"type":"Feature","geometry":null},{"properties":{"city":"Arlington","zip":"22207","geo_score":0.512,"country":"US","numbags":7,"id":"a6czonqlxe5t","geo_precision":"street","address":"4940 N. 35th St","state":"VA"},"type":"Feature","geometry":{"type":"Point","coordinates":[-92.993404,34.076263]}},{"properties":{"city":"Arlington","zip":null,"geo_score":0.642,"country":"US","numbags":30,"id":"a6czonp6q3z1","geo_precision":"street","address":"4952 Terrell St","state":"VA"},"type":"Feature","geometry":{"type":"Point","coordinates":[-83.759294,31.6326]}},{"properties":{"city":"Arlington","zip":"22046","geo_score":0.0,"country":"US","numbags":5,"id":"a6czonevwvsi","geo_precision":"unmatched","address":"6411 11th St North","state":"VA"},"type":"Feature","geometry":null},{"properties":{"city":"Falls Church","zip":"22046","geo_score":0.48,"country":"US","numbags":10,"id":"a6czono87tqf","geo_precision":"street","address":"6700 Fisher Ave","state":"VA"},"type":"Feature","geometry":{"type":"Point","coordinates":[-91.000717,35.81776]}},{"properties":{"city":"Falls Church","zip":"22046","geo_score":0.598,"country":"US","numbags":50,"id":"a6czonq4jh5b","geo_precision":"street","address":"7237 Allan Ave","state":"VA"},"type":"Feature","geometry":{"type":"Point","coordinates":[-82.068657,32.396664]}},{"properties":{"city":"Falls Church","zip":"22043","geo_score":0.505,"country":"US","numbags":10,"id":"a6czonoscge7","geo_precision":"street","address":"7303 Gordons Rd","state":"VA"},"type":"Feature","geometry":{"type":"Point","coordinates":[-73.58027,40.58648]}},{"properties":{"city":"Falls Church","zip":"22043","geo_score":0.0,"country":"US","numbags":20,"id":"a6czonkh8pjb","geo_precision":"unmatched","address":"7603 Bent Oak Ct","state":"VA"},"type":"Feature","geometry":null}],"is_temporal":false,"author":{"url":"","metadata":"","contact_name":"","contact_address":"","source":"","contact_phone":""},"source":"","pagination":{"sort":null,"start":0,"total":162,"limit":1000000},"state":"complete","tags":"","published":"2014-08-13T11:05:47-04:00","id":159585}