{"type":"FeatureCollection","data_type":"Dataset","url_type":null,"permissions":[{"permissions":{"download":true,"view":true},"group_id":"everyone"}],"classification":null,"title":"JOC Test Heat Map","count":12,"stream_id":159754,"contributor":{"url":"http://geocommons.com/users/27147","name":"AschneiderGroupon"},"data_attributes":null,"calculation_params":null,"icon_link":null,"link":"http://geocommons.com/overlays/159754.json","extent":[-93.2638,37.5764,-84.4569,44.98],"geometry_types":["point"],"unique_name":null,"name":"JOC Test Heat Map","feature_count":12,"description":"","next_feature":null,"is_raster":false,"short_classification":"Y","stats":{"count":{"max":80,"mean":14.1666666666667,"variance":439.787878787879,"stdev":20.9711201128571,"min":6,"median":7}},"features":[{"properties":{"city":"CHICAGO","geo_score":0.857,"count":80,"id":"a634d3hwqboh","geo_precision":"city","state":"IL"},"type":"Feature","geometry":{"type":"Point","coordinates":[-87.650052,41.850033]}},{"properties":{"city":"GRAND RAPIDS","geo_score":0.857,"count":17,"id":"a634d3gbb1wo","geo_precision":"city","state":"MI"},"type":"Feature","geometry":{"type":"Point","coordinates":[-85.668086,42.96336]}},{"properties":{"city":"MADISON","geo_score":0.857,"count":11,"id":"a634d38yem6d","geo_precision":"city","state":"WI"},"type":"Feature","geometry":{"type":"Point","coordinates":[-89.40123,43.073052]}},{"properties":{"city":"MINNEAPOLIS","geo_score":0.857,"count":9,"id":"a634d3hwaymf","geo_precision":"city","state":"MN"},"type":"Feature","geometry":{"type":"Point","coordinates":[-93.263836,44.979965]}},{"properties":{"city":"LOUISVILLE","geo_score":0.857,"count":8,"id":"a634d3j4z2df","geo_precision":"city","state":"KY"},"type":"Feature","geometry":{"type":"Point","coordinates":[-85.759407,38.254238]}},{"properties":{"city":"NAPERVILLE","geo_score":0.857,"count":7,"id":"a634d3fmv7k3","geo_precision":"city","state":"IL"},"type":"Feature","geometry":{"type":"Point","coordinates":[-88.152381,41.759029]}},{"properties":{"city":"ARLINGTON HEIGHTS","geo_score":0.857,"count":7,"id":"a634d3j9qu8h","geo_precision":"city","state":"IL"},"type":"Feature","geometry":{"type":"Point","coordinates":[-87.99822,42.085626]}},{"properties":{"city":"WINNETKA","geo_score":0.857,"count":7,"id":"a634d3iyg7qr","geo_precision":"city","state":"IL"},"type":"Feature","geometry":{"type":"Point","coordinates":[-87.940168,42.112176]}},{"properties":{"city":"PALATINE","geo_score":0.786,"count":6,"id":"a634d3e60ptc","geo_precision":"city","state":"IL"},"type":"Feature","geometry":{"type":"Point","coordinates":[-88.803953,37.763938]}},{"properties":{"city":"OAK PARK","geo_score":0.776,"count":6,"id":"a634d38rd9v9","geo_precision":"city","state":"IL"},"type":"Feature","geometry":{"type":"Point","coordinates":[-88.517825,37.576438]}},{"properties":{"city":"CARMEL","geo_score":0.857,"count":6,"id":"a634d37kr9e5","geo_precision":"city","state":"IN"},"type":"Feature","geometry":{"type":"Point","coordinates":[-86.117215,40.071102]}},{"properties":{"city":"CINCINNATI","geo_score":0.857,"count":6,"id":"a634d3etaz0c","geo_precision":"city","state":"OH"},"type":"Feature","geometry":{"type":"Point","coordinates":[-84.456886,39.162004]}}],"is_temporal":false,"author":{"url":"","metadata":"","contact_name":"","contact_address":"","source":"","contact_phone":""},"source":"","pagination":{"sort":null,"start":0,"total":12,"limit":1000000},"state":"complete","tags":"","published":"2014-08-13T11:19:19-04:00","id":159754}