{"type":"FeatureCollection","data_type":"Dataset","url_type":null,"permissions":[{"permissions":{"download":true,"view":true},"group_id":"everyone"}],"classification":null,"title":"Primary Research Sites, by Settlement, Social Water Management, Afghanistan 2005","count":19,"stream_id":16094,"contributor":{"url":"http://geocommons.com/users/2943","name":"Margot"},"data_attributes":null,"calculation_params":null,"icon_link":null,"link":"http://geocommons.com/overlays/16094.json","extent":[62.2917,33.6357,70.7439,36.9735],"geometry_types":["point"],"unique_name":null,"name":"Primary Research Sites, by Settlement, Social Water Management, Afghanistan 2005","feature_count":19,"description":"This data comes from a research paper from the Social Water Management which was sponsored by the Afghaninstan Research and Evaluation Unit. The data in this layer shows the primary research sites in Nangarhar, Ghazni, Herat, and Kunduz provinces. The data is geocoded for latitude and longitude and uploaded into Geocommons as a csv. \n\nThe primary research sites are located in four provinces, Nangarhar, Ghazni, Kunduz\nand Herat, and demonstrate considerable variations in terms of geography, climate\nand agricultural activities, as well as social management of water supplies.\nFieldwork was conducted in the four study areas in November–December 2005:\n15–21 November 2005 Nangarhar: Jalalabad; Surkh Rod\n22–24 November 2005 Ghazni: Band-i-Sultan; Qala-i-Naw; Zala Qala; Pyada Rah\n27–30 November 2005 Kunduz: Afghan Mazar; Dana Haji\n1–5 December 2005 Herat: Gawashk; Tunyan; Gharak; Sir Zar; Khalifa Rahmati-\nUlya","next_feature":null,"is_raster":false,"short_classification":"Y","stats":{"elevation":{"max":2560.0,"mean":1327.63157894737,"variance":580945.467836257,"stdev":762.197787871532,"min":335.0,"median":1165.0},"latitude":{"max":36.97347222,"mean":34.6785419589474,"variance":1.4478479526533,"stdev":1.20326553705045,"min":33.63572222,"median":34.25611111},"longitude":{"max":70.74388889,"mean":67.5006548247368,"variance":10.3827307499293,"stdev":3.22222450334071,"min":62.29169444,"median":68.42013889}},"features":[{"properties":{"elevation":2490.0,"latitude":33.67394444,"district":"Umari","longitude":68.341,"id":"a62fyjvfqy0i","settlement":"Pyada Rah","province":"Ghazni"},"type":"Feature","geometry":{"type":"Point","coordinates":[68.341,33.67394444]}},{"properties":{"elevation":2255.0,"latitude":33.63572222,"district":"Umari","longitude":68.42013889,"id":"a62fyjyjypb2","settlement":"Qala-i-Naw","province":"Ghazni"},"type":"Feature","geometry":{"type":"Point","coordinates":[68.42013889,33.63572222]}},{"properties":{"elevation":2300.0,"latitude":33.68530556,"district":"Umari","longitude":68.39888889,"id":"a62fyk5imii2","settlement":"Turmai","province":"Ghazni"},"type":"Feature","geometry":{"type":"Point","coordinates":[68.39888889,33.68530556]}},{"properties":{"elevation":2360.0,"latitude":33.72790833,"district":"Khwaja","longitude":68.38846944,"id":"a62fyjzpab1w","settlement":"Chel Gunbad","province":"Ghazni"},"type":"Feature","geometry":{"type":"Point","coordinates":[68.38846944,33.72790833]}},{"properties":{"elevation":2560.0,"latitude":33.64702778,"district":"Umari","longitude":68.31575,"id":"a62fyjt9nlk6","settlement":"Zala Qala","province":"Ghazni"},"type":"Feature","geometry":{"type":"Point","coordinates":[68.31575,33.64702778]}},{"properties":{"elevation":1030.0,"latitude":34.30616667,"district":"Zarghun","longitude":62.51830556,"id":"a62fyjtbf0is","settlement":"Tunyan","province":"Herat"},"type":"Feature","geometry":{"type":"Point","coordinates":[62.51830556,34.30616667]}},{"properties":{"elevation":1165.0,"latitude":34.33991667,"district":"Zarghun","longitude":62.60338889,"id":"a62fyjxkpo74","settlement":"Gharak","province":"Herat"},"type":"Feature","geometry":{"type":"Point","coordinates":[62.60338889,34.33991667]}},{"properties":{"elevation":1305.0,"latitude":34.76955556,"district":"Kushk","longitude":62.29169444,"id":"a62fyk6tjf2l","settlement":"Khalifa Rahmat-i-Ulya","province":"Herat"},"type":"Feature","geometry":{"type":"Point","coordinates":[62.29169444,34.76955556]}},{"properties":{"elevation":1090.0,"latitude":34.29169444,"district":"Pashtun","longitude":62.66152778,"id":"a62fyk6g6l89","settlement":"Gawashk","province":"Herat"},"type":"Feature","geometry":{"type":"Point","coordinates":[62.66152778,34.29169444]}},{"properties":{"elevation":1490.0,"latitude":34.74591667,"district":"Kushk","longitude":62.31594444,"id":"a62fyk4bgnpt","settlement":"Sir Zar","province":"Herat"},"type":"Feature","geometry":{"type":"Point","coordinates":[62.31594444,34.74591667]}},{"properties":{"elevation":335.0,"latitude":36.97347222,"district":"Qala-i-Zal","longitude":68.53116667,"id":"a62fyk4vs4mc","settlement":"Dana Haji","province":"Kunduz"},"type":"Feature","geometry":{"type":"Point","coordinates":[68.53116667,36.97347222]}},{"properties":{"elevation":340.0,"latitude":36.96161111,"district":"Qala-i-Zal","longitude":68.57827778,"id":"a62fyk3tcr7o","settlement":"Afghan Mazar","province":"Kunduz"},"type":"Feature","geometry":{"type":"Point","coordinates":[68.57827778,36.96161111]}},{"properties":{"elevation":345.0,"latitude":36.91463889,"district":"Qala-i-Zal","longitude":68.58288889,"id":"a62fyjxd0p3o","settlement":"Wakil Jangal","province":"Kunduz"},"type":"Feature","geometry":{"type":"Point","coordinates":[68.58288889,36.91463889]}},{"properties":{"elevation":800.0,"latitude":36.56872222,"district":"Khanabad","longitude":69.12472222,"id":"a62fyjxlwjgv","settlement":"Abdul Nazar","province":"Kunduz"},"type":"Feature","geometry":{"type":"Point","coordinates":[69.12472222,36.56872222]}},{"properties":{"elevation":550.0,"latitude":34.25611111,"district":"Batikot","longitude":70.74388889,"id":"a62fyk50znew","settlement":"Janikhel","province":"Nangarhar"},"type":"Feature","geometry":{"type":"Point","coordinates":[70.74388889,34.25611111]}},{"properties":{"elevation":690.0,"latitude":34.19597222,"district":"Achin","longitude":70.70666667,"id":"a62fyk4h8wux","settlement":"Maruf China","province":"Nangarhar"},"type":"Feature","geometry":{"type":"Point","coordinates":[70.70666667,34.19597222]}},{"properties":{"elevation":950.0,"latitude":34.12722222,"district":"Achin","longitude":70.71666667,"id":"a62fyk4r3436","settlement":"Sra Qala","province":"Nangarhar"},"type":"Feature","geometry":{"type":"Point","coordinates":[70.71666667,34.12722222]}},{"properties":{"elevation":1470.0,"latitude":34.05472222,"district":"Achin","longitude":70.64611111,"id":"a62fyjvgtnnn","settlement":"Otarkhel","province":"Nangarhar"},"type":"Feature","geometry":{"type":"Point","coordinates":[70.64611111,34.05472222]}},{"properties":{"elevation":1700.0,"latitude":34.01666667,"district":"Achin","longitude":70.62694444,"id":"a62fyk5kjd12","settlement":"Khawaji","province":"Nangarhar"},"type":"Feature","geometry":{"type":"Point","coordinates":[70.62694444,34.01666667]}}],"is_temporal":false,"author":{"url":"http://www.areu.org.af/index.php?searchword=social+water+managem&option=com_search&Itemid=112","metadata":"http://www.areu.org.af/index.php?searchword=social+water+managem&option=com_search&Itemid=112","contact_name":"","contact_address":"","source":"Afghanistan Research and Evaluation Unit-Social Water Management","contact_phone":""},"source":"http://www.areu.org.af/index.php?searchword=social+water+managem&option=com_search&Itemid=112","pagination":{"sort":null,"start":0,"total":19,"limit":1000000},"state":"complete","tags":"afghanistan,afghanth,management,research,settlements,social,water","published":"2005-01-01T12:00:00Z","id":16094}