{"type":"FeatureCollection","data_type":"Dataset","url_type":null,"permissions":[{"permissions":{"download":true,"view":true},"group_id":"everyone"}],"classification":null,"title":"20090812 POST SALE LIST","count":50,"stream_id":16225,"contributor":{"url":"http://geocommons.com/users/8589","name":"satspy"},"data_attributes":null,"calculation_params":null,"icon_link":null,"link":"http://geocommons.com/overlays/16225.json","extent":[-105.184,37.2356,-103.085,39.105],"geometry_types":["point"],"unique_name":null,"name":"20090812 POST SALE LIST","feature_count":50,"description":"","next_feature":null,"is_raster":false,"short_classification":"Y","stats":{"zipcode":{"max":80951.0,"mean":80870.44,"variance":24233.5983673469,"stdev":155.671443647661,"min":80132.0,"median":80910.0},"geo_score":{"max":0.902,"mean":0.8441,"variance":0.0178421326530612,"stdev":0.133574446108008,"min":0.359,"median":0.902}},"features":[{"properties":{"city":"Peyton","name":"10562 PICTURED ROCKS DR, PEYTON, CO, 80831","zipcode":80831.0,"geo_score":0.509,"id":"a673di174f77","geo_precision":"city","address":"10562 PICTURED ROCKS DR","state":"CO"},"type":"Feature","geometry":{"type":"Point","coordinates":[-104.526328,38.984206]}},{"properties":{"city":"Colorado Springs","name":"1173 Willow Bend Circle #C, Colorado Springs, CO, 80918","zipcode":80918.0,"geo_score":0.882,"id":"a673diatzfyr","geo_precision":"range","address":"1173 Willow Bend Circle #C","state":"CO"},"type":"Feature","geometry":{"type":"Point","coordinates":[-104.806932,38.925692]}},{"properties":{"city":"Colorado Springs","name":"1185 Mazatlan Circle, Colorado Springs, CO, 80910","zipcode":80910.0,"geo_score":0.902,"id":"a673di13vqc6","geo_precision":"range","address":"1185 Mazatlan Circle","state":"CO"},"type":"Feature","geometry":{"type":"Point","coordinates":[-104.768851,38.8178]}},{"properties":{"city":"Colorado Springs","name":"1299 Vondelpark Dr Apt D, Colorado Springs, CO, 80907","zipcode":80907.0,"geo_score":0.829,"id":"a673dieu18lw","geo_precision":"range","address":"1299 Vondelpark Dr Apt D","state":"CO"},"type":"Feature","geometry":{"type":"Point","coordinates":[-104.8474,38.88839]}},{"properties":{"city":"Colorado Springs","name":"1320 Rangely Drive, Colorado Springs, CO, 80921","zipcode":80921.0,"geo_score":0.902,"id":"a673dictxej6","geo_precision":"range","address":"1320 Rangely Drive","state":"CO"},"type":"Feature","geometry":{"type":"Point","coordinates":[-104.802171,39.045887]}},{"properties":{"city":"Colorado Springs","name":"1559 Willshire Drive, Colorado Springs, CO, 80906","zipcode":80906.0,"geo_score":0.902,"id":"a673difwnmgd","geo_precision":"range","address":"1559 Willshire Drive","state":"CO"},"type":"Feature","geometry":{"type":"Point","coordinates":[-104.770016,38.762528]}},{"properties":{"city":"Peyton","name":"16775 KATHYS LOOP ST, PEYTON, CO, 80831","zipcode":80831.0,"geo_score":0.829,"id":"a673di7m63n4","geo_precision":"range","address":"16775 KATHYS LOOP ST","state":"CO"},"type":"Feature","geometry":{"type":"Point","coordinates":[-104.528467,38.891049]}},{"properties":{"city":"Monument","name":"1679 Deer Creek Road, Monument, CO, 80132","zipcode":80132.0,"geo_score":0.902,"id":"a673di3gmynk","geo_precision":"range","address":"1679 Deer Creek Road","state":"CO"},"type":"Feature","geometry":{"type":"Point","coordinates":[-104.858388,39.105026]}},{"properties":{"city":"Colorado Springs","name":"1715 Ivy Place, Colorado Springs, CO, 80906","zipcode":80906.0,"geo_score":0.902,"id":"a673di3ux2ht","geo_precision":"range","address":"1715 Ivy Place","state":"CO"},"type":"Feature","geometry":{"type":"Point","coordinates":[-104.830271,38.809314]}},{"properties":{"city":"Colorado Springs","name":"18335 BAKERS FARM RD, COLORADO SPRINGS, CO, 80908","zipcode":80908.0,"geo_score":0.708,"id":"a673di3ocbzs","geo_precision":"street","address":"18335 BAKERS FARM RD","state":"CO"},"type":"Feature","geometry":{"type":"Point","coordinates":[-104.749124,39.092597]}},{"properties":{"city":"Colorado Springs","name":"1909 Hallam Avenue, Colorado Springs, CO, 80911","zipcode":80911.0,"geo_score":0.902,"id":"a673di8e2759","geo_precision":"range","address":"1909 Hallam Avenue","state":"CO"},"type":"Feature","geometry":{"type":"Point","coordinates":[-104.748795,38.76293]}},{"properties":{"city":"Colorado Springs","name":"1939 WILDWOOD PASS DRIVE, COLORADO SPRINGS, CO, 80920","zipcode":80920.0,"geo_score":0.819,"id":"a673di0pa7jg","geo_precision":"range","address":"1939 WILDWOOD PASS DRIVE","state":"CO"},"type":"Feature","geometry":{"type":"Point","coordinates":[-104.788176,38.931257]}},{"properties":{"city":"Colorado Springs","name":"1994 COPPER CREEK DRIVE, COLORADO SPRINGS, CO, 80910","zipcode":80910.0,"geo_score":0.902,"id":"a673di9lo1sn","geo_precision":"range","address":"1994 COPPER CREEK DRIVE","state":"CO"},"type":"Feature","geometry":{"type":"Point","coordinates":[-104.778473,38.803814]}},{"properties":{"city":"Colorado Springs","name":"2282 PTARMIGAN LN, COLORADO SPRINGS, CO, 80918","zipcode":80918.0,"geo_score":0.902,"id":"a673di4th4bn","geo_precision":"range","address":"2282 PTARMIGAN LN","state":"CO"},"type":"Feature","geometry":{"type":"Point","coordinates":[-104.788332,38.923828]}},{"properties":{"city":"Colorado Springs","name":"2322 North Union Boulevard, Colorado Springs, CO, 80909","zipcode":80909.0,"geo_score":0.902,"id":"a673dif62l37","geo_precision":"range","address":"2322 North Union Boulevard","state":"CO"},"type":"Feature","geometry":{"type":"Point","coordinates":[-104.794128,38.865842]}},{"properties":{"city":"Colorado Springs","name":"2336 Valley Forge Road, Colorado Springs, CO, 80907","zipcode":80907.0,"geo_score":0.902,"id":"a673di8u1wh4","geo_precision":"range","address":"2336 Valley Forge Road","state":"CO"},"type":"Feature","geometry":{"type":"Point","coordinates":[-104.798675,38.865384]}},{"properties":{"city":"Colorado Springs","name":"23775 JAYHAWK AVENUE, COLORADO SPRINGS, CO, 80928","zipcode":80928.0,"geo_score":0.902,"id":"a673di51g15j","geo_precision":"range","address":"23775 JAYHAWK AVENUE","state":"CO"},"type":"Feature","geometry":{"type":"Point","coordinates":[-104.386953,38.760773]}},{"properties":{"city":"Colorado Springs","name":"3026 Maizeland Road, Colorado Springs, CO, 80909","zipcode":80909.0,"geo_score":0.902,"id":"a673dif772cd","geo_precision":"range","address":"3026 Maizeland Road","state":"CO"},"type":"Feature","geometry":{"type":"Point","coordinates":[-104.770894,38.86513]}},{"properties":{"city":"Colorado Springs","name":"325 FAY DRIVE, COLORADO SPRINGS, CO, 80911","zipcode":80911.0,"geo_score":0.902,"id":"a673dienoou9","geo_precision":"range","address":"325 FAY DRIVE","state":"CO"},"type":"Feature","geometry":{"type":"Point","coordinates":[-104.71761,38.729686]}},{"properties":{"city":"Colorado Springs","name":"3585 Darkwood Place, Colorado Springs, CO, 80910","zipcode":80910.0,"geo_score":0.902,"id":"a673di4bdh70","geo_precision":"range","address":"3585 Darkwood Place","state":"CO"},"type":"Feature","geometry":{"type":"Point","coordinates":[-104.762095,38.808533]}},{"properties":{"city":"Peyton","name":"3850 BLUE STALLION DRIVE, PEYTON, CO, 80831","zipcode":80831.0,"geo_score":0.902,"id":"a673die1iosu","geo_precision":"range","address":"3850 BLUE STALLION DRIVE","state":"CO"},"type":"Feature","geometry":{"type":"Point","coordinates":[-104.503958,38.8875]}},{"properties":{"city":"Colorado Springs","name":"3890 Strawberry Field Grove F, Colorado Springs, CO, 80906","zipcode":80906.0,"geo_score":0.889,"id":"a673di4l11pc","geo_precision":"range","address":"3890 Strawberry Field Grove F","state":"CO"},"type":"Feature","geometry":{"type":"Point","coordinates":[-104.806186,38.777848]}},{"properties":{"city":"Colorado Springs","name":"4515 Gunbarrel Drive, Colorado Springs, CO, 80925","zipcode":80925.0,"geo_score":0.902,"id":"a673di3fe2t6","geo_precision":"range","address":"4515 Gunbarrel Drive","state":"CO"},"type":"Feature","geometry":{"type":"Point","coordinates":[-104.653161,38.767864]}},{"properties":{"city":"Colorado Springs","name":"4725 Rustler Ct, Colorado Springs, CO, 80918","zipcode":80918.0,"geo_score":0.902,"id":"a673di6bs6d8","geo_precision":"range","address":"4725 Rustler Ct","state":"CO"},"type":"Feature","geometry":{"type":"Point","coordinates":[-104.741345,38.91731]}},{"properties":{"city":"Colorado Springs","name":"4845 Hunters Run, Colorado Springs, CO, 80911","zipcode":80911.0,"geo_score":0.902,"id":"a673di7j1l6f","geo_precision":"range","address":"4845 Hunters Run","state":"CO"},"type":"Feature","geometry":{"type":"Point","coordinates":[-104.733673,38.764621]}},{"properties":{"city":"Colorado Springs","name":"4849 South Splendid Cir, Colorado Springs, CO, 80917","zipcode":80917.0,"geo_score":0.902,"id":"a673di29fje0","geo_precision":"range","address":"4849 South Splendid Cir","state":"CO"},"type":"Feature","geometry":{"type":"Point","coordinates":[-104.736873,38.891657]}},{"properties":{"city":"Colorado Springs","name":"5030 EL CAMINO DRIVE #13, COLORADO SPRINGS, CO, 80918-2147","zipcode":80918.0,"geo_score":0.756,"id":"a673difwth8m","geo_precision":"range","address":"5030 EL CAMINO DRIVE #13","state":"CO"},"type":"Feature","geometry":{"type":"Point","coordinates":[-104.76925,38.903397]}},{"properties":{"city":"Colorado Springs","name":"5030 Whimsical Drive, Colorado Springs, CO, 80917","zipcode":80917.0,"geo_score":0.902,"id":"a673diebr7x6","geo_precision":"range","address":"5030 Whimsical Drive","state":"CO"},"type":"Feature","geometry":{"type":"Point","coordinates":[-104.734907,38.881377]}},{"properties":{"city":"Colorado Springs","name":"5032 HARVEST RD, COLORADO SPRINGS, CO, 80917","zipcode":80917.0,"geo_score":0.902,"id":"a673di4vhi60","geo_precision":"range","address":"5032 HARVEST RD","state":"CO"},"type":"Feature","geometry":{"type":"Point","coordinates":[-104.734089,38.903972]}},{"properties":{"city":"Colorado Springs","name":"5105 SPLITRAIL CT, COLORADO SPRINGS, CO, 80917-1863","zipcode":80917.0,"geo_score":0.902,"id":"a673diagk5y3","geo_precision":"range","address":"5105 SPLITRAIL CT","state":"CO"},"type":"Feature","geometry":{"type":"Point","coordinates":[-104.732278,38.893821]}},{"properties":{"city":"Colorado Springs","name":"530 ROSEMONT DRIVE, COLORADO SPRINGS, CO, 80911","zipcode":80911.0,"geo_score":0.902,"id":"a673diax62xh","geo_precision":"range","address":"530 ROSEMONT DRIVE","state":"CO"},"type":"Feature","geometry":{"type":"Point","coordinates":[-104.735418,38.751991]}},{"properties":{"city":"Colorado Springs","name":"5325 Aubrey Way, Colorado Springs, CO, 80919","zipcode":80919.0,"geo_score":0.902,"id":"a673di2wv8ve","geo_precision":"range","address":"5325 Aubrey Way","state":"CO"},"type":"Feature","geometry":{"type":"Point","coordinates":[-104.875281,38.909861]}},{"properties":{"city":"Colorado Springs","name":"536 Winnie Way, Colorado Springs, CO, 80904","zipcode":80904.0,"geo_score":0.902,"id":"a673di871zh5","geo_precision":"range","address":"536 Winnie Way","state":"CO"},"type":"Feature","geometry":{"type":"Point","coordinates":[-104.863129,38.856037]}},{"properties":{"city":"Colorado Springs","name":"540 Winnie Way, Colorado Springs, CO, 80904","zipcode":80904.0,"geo_score":0.902,"id":"a673di5ji0c9","geo_precision":"range","address":"540 Winnie Way","state":"CO"},"type":"Feature","geometry":{"type":"Point","coordinates":[-104.863121,38.856076]}},{"properties":{"city":"Colorado Springs","name":"544 Winnie Way, Colorado Springs, CO, 80904","zipcode":80904.0,"geo_score":0.902,"id":"a673di2ilju8","geo_precision":"range","address":"544 Winnie Way","state":"CO"},"type":"Feature","geometry":{"type":"Point","coordinates":[-104.863112,38.856114]}},{"properties":{"city":"Colorado Springs","name":"548 Winnie Way, Colorado Springs, CO, 80904","zipcode":80904.0,"geo_score":0.902,"id":"a673dideu3lw","geo_precision":"range","address":"548 Winnie Way","state":"CO"},"type":"Feature","geometry":{"type":"Point","coordinates":[-104.863104,38.856153]}},{"properties":{"city":"Colorado Springs","name":"6043 COLONY CIRCLE, COLORADO SPRINGS, CO, 80919","zipcode":80919.0,"geo_score":0.902,"id":"a673di9179ys","geo_precision":"range","address":"6043 COLONY CIRCLE","state":"CO"},"type":"Feature","geometry":{"type":"Point","coordinates":[-104.823458,38.919576]}},{"properties":{"city":"MANITOU SPRINGS","name":"6370 WATERFALL LOOP, MANITOU SPRINGS, CO, 80829","zipcode":80829.0,"geo_score":0.902,"id":"a673di0yu8b4","geo_precision":"range","address":"6370 WATERFALL LOOP","state":"CO"},"type":"Feature","geometry":{"type":"Point","coordinates":[-104.932537,38.82594]}},{"properties":{"city":"Colorado Springs","name":"6449 Alibi Circle, Colorado Springs, CO, 80922","zipcode":80922.0,"geo_score":0.902,"id":"a673di2t80wa","geo_precision":"range","address":"6449 Alibi Circle","state":"CO"},"type":"Feature","geometry":{"type":"Point","coordinates":[-104.705867,38.924173]}},{"properties":{"city":"Colorado Springs","name":"6455 Casual Drive, Colorado Springs, CO, 80923","zipcode":80923.0,"geo_score":0.902,"id":"a673di1ueiwv","geo_precision":"range","address":"6455 Casual Drive","state":"CO"},"type":"Feature","geometry":{"type":"Point","coordinates":[-104.70292,38.924806]}},{"properties":{"city":"Colorado Springs","name":"6749 Noble Street, Colorado Springs, CO, 80915","zipcode":80915.0,"geo_score":0.805,"id":"a673dia45fs5","geo_precision":"street","address":"6749 Noble Street","state":"CO"},"type":"Feature","geometry":{"type":"Point","coordinates":[-104.701285,38.853218]}},{"properties":{"city":"Fountain","name":"7419 Wind Haven Trail,Fountain, CO, 80817","zipcode":80817.0,"geo_score":0.463,"id":"a673di41n0ya","geo_precision":"street","address":"7419 Wind Haven Trail","state":"CO"},"type":"Feature","geometry":{"type":"Point","coordinates":[-105.184174,38.860748]}},{"properties":{"city":"Colorado Springs","name":"7677 MARMOT PT, COLORADO SPRINGS, CO, 80922","zipcode":80922.0,"geo_score":0.902,"id":"a673di5ftr4m","geo_precision":"range","address":"7677 MARMOT PT","state":"CO"},"type":"Feature","geometry":{"type":"Point","coordinates":[-104.686306,38.897368]}},{"properties":{"city":"Fountain","name":"7807 SANDY SPRINGS POINT,Fountain, CO, 80817","zipcode":80817.0,"geo_score":0.484,"id":"a673difnxkms","geo_precision":"street","address":"7807 SANDY SPRINGS POINT","state":"CO"},"type":"Feature","geometry":{"type":"Point","coordinates":[-104.926471,38.855147]}},{"properties":{"city":"Colorado Springs","name":"7989 Parsonage Lane, Colorado Springs, CO, 80951","zipcode":80951.0,"geo_score":0.531,"id":"a673di99qt1s","geo_precision":"city","address":"7989 Parsonage Lane","state":"CO"},"type":"Feature","geometry":{"type":"Point","coordinates":[-104.857828,38.861469]}},{"properties":{"city":"Colorado Springs","name":"803 POINT OF THE PINES DRIVE, COLORADO SPRINGS, CO, 80919","zipcode":80919.0,"geo_score":0.359,"id":"a673di6hpicy","geo_precision":"street","address":"803 POINT OF THE PINES DRIVE","state":"CO"},"type":"Feature","geometry":{"type":"Point","coordinates":[-103.085127,37.235644]}},{"properties":{"city":"Fountain","name":"805 MARSHALL DRIVE,Fountain, CO, 80817","zipcode":80817.0,"geo_score":0.902,"id":"a673dicx9251","geo_precision":"range","address":"805 MARSHALL DRIVE","state":"CO"},"type":"Feature","geometry":{"type":"Point","coordinates":[-104.682415,38.66958]}},{"properties":{"city":"Monument","name":"812 SABER CREEK DRIVE, MONUMENT, CO, 80132","zipcode":80132.0,"geo_score":0.902,"id":"a673diazahur","geo_precision":"range","address":"812 SABER CREEK DRIVE","state":"CO"},"type":"Feature","geometry":{"type":"Point","coordinates":[-104.832331,39.064386]}},{"properties":{"city":"Colorado Springs","name":"830 LOGAN AVE, COLORADO SPRINGS, CO, 80910","zipcode":80910.0,"geo_score":0.87,"id":"a673dichd113","geo_precision":"range","address":"830 LOGAN AVE","state":"CO"},"type":"Feature","geometry":{"type":"Point","coordinates":[-104.798646,38.844784]}},{"properties":{"city":"Colorado Springs","name":"909 East Cimarron Street, Colorado Springs, CO, 80903","zipcode":80903.0,"geo_score":0.902,"id":"a673di56pu34","geo_precision":"range","address":"909 East Cimarron Street","state":"CO"},"type":"Feature","geometry":{"type":"Point","coordinates":[-104.808089,38.826376]}}],"is_temporal":false,"author":{"url":"","metadata":"","contact_name":"","contact_address":"","source":"","contact_phone":""},"source":"","pagination":{"sort":null,"start":0,"total":50,"limit":1000000},"state":"complete","tags":"foreclosure","published":"2014-08-10T21:24:51-04:00","id":16225}