{"type":"FeatureCollection","data_type":"Dataset","url_type":null,"permissions":[{"permissions":{"download":true,"view":true},"group_id":"everyone"}],"classification":null,"title":"Reg H Zip Codes","count":56,"stream_id":16275,"contributor":{"url":"http://geocommons.com/users/4269","name":"thurmsw"},"data_attributes":null,"calculation_params":null,"icon_link":null,"link":"http://geocommons.com/overlays/16275.json","extent":[-118.954,33.7866,-118.18,34.1075],"geometry_types":["point"],"unique_name":null,"name":"Reg H Zip Codes","feature_count":56,"description":"","next_feature":null,"is_raster":false,"short_classification":"Y","stats":{},"features":[{"properties":{"zip":"90024","id":"a66rsv6yyz0o","geo_precision":"zip"},"type":"Feature","geometry":{"type":"Point","coordinates":[-118.298662,33.786594]}},{"properties":{"zip":"90025","id":"a66rsv0duvv2","geo_precision":"zip"},"type":"Feature","geometry":{"type":"Point","coordinates":[-118.298662,33.786594]}},{"properties":{"zip":"90034","id":"a66rsv79nz2h","geo_precision":"zip"},"type":"Feature","geometry":{"type":"Point","coordinates":[-118.405633,34.022789]}},{"properties":{"zip":"90035","id":"a66rsv3ijkqb","geo_precision":"zip"},"type":"Feature","geometry":{"type":"Point","coordinates":[-118.298662,33.786594]}},{"properties":{"zip":"90036","id":"a66rsv8dhl57","geo_precision":"zip"},"type":"Feature","geometry":{"type":"Point","coordinates":[-118.298662,33.786594]}},{"properties":{"zip":"90045","id":"a66rsuvppd8p","geo_precision":"zip"},"type":"Feature","geometry":{"type":"Point","coordinates":[-118.400632,33.959735]}},{"properties":{"zip":"90046","id":"a66rsv2pxlnj","geo_precision":"zip"},"type":"Feature","geometry":{"type":"Point","coordinates":[-118.298662,33.786594]}},{"properties":{"zip":"90048","id":"a66rsv6gyqoh","geo_precision":"zip"},"type":"Feature","geometry":{"type":"Point","coordinates":[-118.298662,33.786594]}},{"properties":{"zip":"90049","id":"a66rsv46e8wa","geo_precision":"zip"},"type":"Feature","geometry":{"type":"Point","coordinates":[-118.298662,33.786594]}},{"properties":{"zip":"90064","id":"a66rsv1zp536","geo_precision":"zip"},"type":"Feature","geometry":{"type":"Point","coordinates":[-118.298662,33.786594]}},{"properties":{"zip":"90066","id":"a66rsv3mg962","geo_precision":"zip"},"type":"Feature","geometry":{"type":"Point","coordinates":[-118.298662,33.786594]}},{"properties":{"zip":"90067","id":"a66rsv7osfq9","geo_precision":"zip"},"type":"Feature","geometry":{"type":"Point","coordinates":[-118.298662,33.786594]}},{"properties":{"zip":"90069","id":"a66rsuywc5hu","geo_precision":"zip"},"type":"Feature","geometry":{"type":"Point","coordinates":[-118.298662,33.786594]}},{"properties":{"zip":"90073","id":"a66rsv3qu0iw","geo_precision":"zip"},"type":"Feature","geometry":{"type":"Point","coordinates":[-118.298662,33.786594]}},{"properties":{"zip":"90077","id":"a66rsuzaoi4j","geo_precision":"zip"},"type":"Feature","geometry":{"type":"Point","coordinates":[-118.298662,33.786594]}},{"properties":{"zip":"90095","id":"a66rsutu6j74","geo_precision":"zip"},"type":"Feature","geometry":{"type":"Point","coordinates":[-118.298662,33.786594]}},{"properties":{"zip":"90209","id":"a66rsv8qocky","geo_precision":"zip"},"type":"Feature","geometry":{"type":"Point","coordinates":[-118.298662,33.786594]}},{"properties":{"zip":"90210","id":"a66rsut8e8nq","geo_precision":"zip"},"type":"Feature","geometry":{"type":"Point","coordinates":[-118.298662,33.786594]}},{"properties":{"zip":"90211","id":"a66rsuxjxxhn","geo_precision":"zip"},"type":"Feature","geometry":{"type":"Point","coordinates":[-118.298662,33.786594]}},{"properties":{"zip":"90212","id":"a66rsv3gz5m7","geo_precision":"zip"},"type":"Feature","geometry":{"type":"Point","coordinates":[-118.298662,33.786594]}},{"properties":{"zip":"90213","id":"a66rsv82292s","geo_precision":"zip"},"type":"Feature","geometry":{"type":"Point","coordinates":[-118.298662,33.786594]}},{"properties":{"zip":"90230","id":"a66rsv87p15t","geo_precision":"zip"},"type":"Feature","geometry":{"type":"Point","coordinates":[-118.298662,33.786594]}},{"properties":{"zip":"90231","id":"a66rsv15y2ee","geo_precision":"zip"},"type":"Feature","geometry":{"type":"Point","coordinates":[-118.298662,33.786594]}},{"properties":{"zip":"90232","id":"a66rsv3ybf5g","geo_precision":"zip"},"type":"Feature","geometry":{"type":"Point","coordinates":[-118.298662,33.786594]}},{"properties":{"zip":"90245","id":"a66rsv03hqmh","geo_precision":"zip"},"type":"Feature","geometry":{"type":"Point","coordinates":[-118.378687,33.922236]}},{"properties":{"zip":"90254","id":"a66rsv432gk2","geo_precision":"zip"},"type":"Feature","geometry":{"type":"Point","coordinates":[-118.298662,33.786594]}},{"properties":{"zip":"90265","id":"a66rsv0ehbh4","geo_precision":"zip"},"type":"Feature","geometry":{"type":"Point","coordinates":[-118.953708,34.050008]}},{"properties":{"zip":"90266","id":"a66rsusv3uij","geo_precision":"zip"},"type":"Feature","geometry":{"type":"Point","coordinates":[-118.298662,33.786594]}},{"properties":{"zip":"90272","id":"a66rsv0eu6b3","geo_precision":"zip"},"type":"Feature","geometry":{"type":"Point","coordinates":[-118.561194,34.042509]}},{"properties":{"zip":"90274","id":"a66rsuxloc1b","geo_precision":"zip"},"type":"Feature","geometry":{"type":"Point","coordinates":[-118.298662,33.786594]}},{"properties":{"zip":"90275","id":"a66rsv8dhmh9","geo_precision":"zip"},"type":"Feature","geometry":{"type":"Point","coordinates":[-118.298662,33.786594]}},{"properties":{"zip":"90277","id":"a66rsuyjxqiw","geo_precision":"zip"},"type":"Feature","geometry":{"type":"Point","coordinates":[-118.298662,33.786594]}},{"properties":{"zip":"90278","id":"a66rsuy6jwhg","geo_precision":"zip"},"type":"Feature","geometry":{"type":"Point","coordinates":[-118.179754,33.987613]}},{"properties":{"zip":"90290","id":"a66rsv7u5mag","geo_precision":"zip"},"type":"Feature","geometry":{"type":"Point","coordinates":[-118.629252,34.107507]}},{"properties":{"zip":"90291","id":"a66rsv4eolxs","geo_precision":"zip"},"type":"Feature","geometry":{"type":"Point","coordinates":[-118.298662,33.786594]}},{"properties":{"zip":"90292","id":"a66rsv5x2hbp","geo_precision":"zip"},"type":"Feature","geometry":{"type":"Point","coordinates":[-118.298662,33.786594]}},{"properties":{"zip":"90293","id":"a66rsv10h1bb","geo_precision":"zip"},"type":"Feature","geometry":{"type":"Point","coordinates":[-118.298662,33.786594]}},{"properties":{"zip":"90294","id":"a66rsuz41799","geo_precision":"zip"},"type":"Feature","geometry":{"type":"Point","coordinates":[-118.298662,33.786594]}},{"properties":{"zip":"90295","id":"a66rsuv1qswv","geo_precision":"zip"},"type":"Feature","geometry":{"type":"Point","coordinates":[-118.298662,33.786594]}},{"properties":{"zip":"90401","id":"a66rsv09j601","geo_precision":"zip"},"type":"Feature","geometry":{"type":"Point","coordinates":[-118.298662,33.786594]}},{"properties":{"zip":"90402","id":"a66rsv0qffhx","geo_precision":"zip"},"type":"Feature","geometry":{"type":"Point","coordinates":[-118.298662,33.786594]}},{"properties":{"zip":"90403","id":"a66rsuwvhdr3","geo_precision":"zip"},"type":"Feature","geometry":{"type":"Point","coordinates":[-118.298662,33.786594]}},{"properties":{"zip":"90404","id":"a66rsv76rxmg","geo_precision":"zip"},"type":"Feature","geometry":{"type":"Point","coordinates":[-118.298662,33.786594]}},{"properties":{"zip":"90405","id":"a66rsut2bdbp","geo_precision":"zip"},"type":"Feature","geometry":{"type":"Point","coordinates":[-118.483691,34.002233]}},{"properties":{"zip":"90406","id":"a66rsv5eoijq","geo_precision":"zip"},"type":"Feature","geometry":{"type":"Point","coordinates":[-118.298662,33.786594]}},{"properties":{"zip":"90408","id":"a66rsv4sv5ax","geo_precision":"zip"},"type":"Feature","geometry":{"type":"Point","coordinates":[-118.298662,33.786594]}},{"properties":{"zip":"90501","id":"a66rsv3ms8rx","geo_precision":"zip"},"type":"Feature","geometry":{"type":"Point","coordinates":[-118.303805,33.835665]}},{"properties":{"zip":"90502","id":"a66rsuylhjfn","geo_precision":"zip"},"type":"Feature","geometry":{"type":"Point","coordinates":[-118.293405,33.833816]}},{"properties":{"zip":"90503","id":"a66rsv1m049p","geo_precision":"zip"},"type":"Feature","geometry":{"type":"Point","coordinates":[-118.298662,33.786594]}},{"properties":{"zip":"90504","id":"a66rsut2j6gd","geo_precision":"zip"},"type":"Feature","geometry":{"type":"Point","coordinates":[-118.298662,33.786594]}},{"properties":{"zip":"90505","id":"a66rsuuekf9h","geo_precision":"zip"},"type":"Feature","geometry":{"type":"Point","coordinates":[-118.298662,33.786594]}},{"properties":{"zip":"90510","id":"a66rsv8ojxai","geo_precision":"zip"},"type":"Feature","geometry":{"type":"Point","coordinates":[-118.298662,33.786594]}},{"properties":{"zip":"90704","id":"a66rsuuzzcvo","geo_precision":"zip"},"type":"Feature","geometry":{"type":"Point","coordinates":[-118.298662,33.786594]}},{"properties":{"zip":"90710","id":"a66rsv25y8u5","geo_precision":"zip"},"type":"Feature","geometry":{"type":"Point","coordinates":[-118.251554,33.791267]}},{"properties":{"zip":"90717","id":"a66rsuv6dcg8","geo_precision":"zip"},"type":"Feature","geometry":{"type":"Point","coordinates":[-118.298662,33.786594]}},{"properties":{"zip":"90732","id":"a66rsuzdw17k","geo_precision":"zip"},"type":"Feature","geometry":{"type":"Point","coordinates":[-118.298662,33.786594]}}],"is_temporal":false,"author":{"url":"","metadata":"","contact_name":"","contact_address":"","source":"","contact_phone":""},"source":"","pagination":{"sort":null,"start":0,"total":56,"limit":1000000},"state":"complete","tags":"nasw","published":"2009-09-21T12:00:00Z","id":16275}