{"type":"FeatureCollection","data_type":"Dataset","url_type":null,"permissions":[{"permissions":{"download":true,"view":true},"group_id":"everyone"}],"classification":null,"title":"qqH","count":180,"stream_id":16329,"contributor":{"url":"http://geocommons.com/users/8619","name":"dchoe"},"data_attributes":null,"calculation_params":null,"icon_link":null,"link":"http://geocommons.com/overlays/16329.json","extent":[-111.738,25.9741,-86.5199,40.3956],"geometry_types":["point"],"unique_name":null,"name":"qqH","feature_count":180,"description":"","next_feature":null,"is_raster":false,"short_classification":"Y","stats":{"latitude":{"max":40.3956152,"mean":30.2902478722222,"variance":2.56983242064501,"stdev":1.60306968677129,"min":25.9740611,"median":29.8296506},"visits":{"max":96.0,"mean":5.16111111111111,"variance":119.175015518311,"stdev":10.9167309904711,"min":1.0,"median":1.0},"longitude":{"max":-86.5198651,"mean":-95.9016877383333,"variance":4.01099170524804,"stdev":2.00274604112654,"min":-111.7376178,"median":-95.509247}},"features":[{"properties":{"city":"Arab","latitude":34.3483541,"zip":"35016","longitude":-86.5198651,"visits":1.0,"id":"a6a1yb4nzto8"},"type":"Feature","geometry":{"type":"Point","coordinates":[-86.5198651,34.3483541]}},{"properties":{"city":null,"latitude":35.2256463,"zip":"38133","longitude":-89.7849127,"visits":1.0,"id":"a6a1yb62p9ic"},"type":"Feature","geometry":{"type":"Point","coordinates":[-89.7849127,35.2256463]}},{"properties":{"city":"Columbia","latitude":31.2165811,"zip":"39429","longitude":-89.7379958,"visits":1.0,"id":"a6a1ybaup3kc"},"type":"Feature","geometry":{"type":"Point","coordinates":[-89.7379958,31.2165811]}},{"properties":{"city":"Lawrence","latitude":38.8851891,"zip":"66047","longitude":-95.3730176,"visits":1.0,"id":"a6a1yb25oj1j"},"type":"Feature","geometry":{"type":"Point","coordinates":[-95.3730176,38.8851891]}},{"properties":{"city":"El Dorado","latitude":37.8251682,"zip":"67042","longitude":-96.7922355,"visits":1.0,"id":"a6a1yb1v4yh6"},"type":"Feature","geometry":{"type":"Point","coordinates":[-96.7922355,37.8251682]}},{"properties":{"city":"Baton Rouge","latitude":30.4200465,"zip":"70816","longitude":-91.0490374,"visits":2.0,"id":"a6a1yb8cxo1k"},"type":"Feature","geometry":{"type":"Point","coordinates":[-91.0490374,30.4200465]}},{"properties":{"city":"Russellville","latitude":35.3305527,"zip":"72802","longitude":-93.0375914,"visits":1.0,"id":"a6a1ybetnyue"},"type":"Feature","geometry":{"type":"Point","coordinates":[-93.0375914,35.3305527]}},{"properties":{"city":"Plano","latitude":33.0787152,"zip":"75024","longitude":-96.8083063,"visits":1.0,"id":"a6a1yb3458f2"},"type":"Feature","geometry":{"type":"Point","coordinates":[-96.8083063,33.0787152]}},{"properties":{"city":null,"latitude":33.0313883,"zip":"75028","longitude":-97.0552218,"visits":1.0,"id":"a6a1yb0k5t85"},"type":"Feature","geometry":{"type":"Point","coordinates":[-97.0552218,33.0313883]}},{"properties":{"city":"Frisco","latitude":33.1423417,"zip":"75035","longitude":-96.7708138,"visits":1.0,"id":"a6a1yazwyfjl"},"type":"Feature","geometry":{"type":"Point","coordinates":[-96.7708138,33.1423417]}},{"properties":{"city":"Dallas","latitude":32.8668443,"zip":"75225","longitude":-96.7868794,"visits":2.0,"id":"a6a1ybddx9zn"},"type":"Feature","geometry":{"type":"Point","coordinates":[-96.7868794,32.8668443]}},{"properties":{"city":"Dallas","latitude":33.001448,"zip":"75252","longitude":-96.7868794,"visits":1.0,"id":"a6a1ybae8pxo"},"type":"Feature","geometry":{"type":"Point","coordinates":[-96.7868794,33.001448]}},{"properties":{"city":null,"latitude":32.2549724,"zip":"75631","longitude":-94.4593791,"visits":1.0,"id":"a6a1yb0r678o"},"type":"Feature","geometry":{"type":"Point","coordinates":[-94.4593791,32.2549724]}},{"properties":{"city":"Cleburne","latitude":32.2917352,"zip":"76033","longitude":-97.5030669,"visits":1.0,"id":"a6a1yb6llxqu"},"type":"Feature","geometry":{"type":"Point","coordinates":[-97.5030669,32.2917352]}},{"properties":{"city":"Southlake","latitude":32.9533477,"zip":"76092","longitude":-97.1467072,"visits":1.0,"id":"a6a1yb7xmb80"},"type":"Feature","geometry":{"type":"Point","coordinates":[-97.1467072,32.9533477]}},{"properties":{"city":"Benbrook","latitude":32.6623667,"zip":"76132","longitude":-97.4219122,"visits":1.0,"id":"a6a1yb4e083i"},"type":"Feature","geometry":{"type":"Point","coordinates":[-97.4219122,32.6623667]}},{"properties":{"city":null,"latitude":33.120724,"zip":"76226","longitude":-97.1574784,"visits":1.0,"id":"a6a1ybaoz0zr"},"type":"Feature","geometry":{"type":"Point","coordinates":[-97.1574784,33.120724]}},{"properties":{"city":null,"latitude":31.1829037,"zip":"76656","longitude":-97.0713572,"visits":1.0,"id":"a6a1ybcil037"},"type":"Feature","geometry":{"type":"Point","coordinates":[-97.0713572,31.1829037]}},{"properties":{"city":"Waco","latitude":31.5343579,"zip":"76710","longitude":-97.1951913,"visits":1.0,"id":"a6a1yb94ajxs"},"type":"Feature","geometry":{"type":"Point","coordinates":[-97.1951913,31.5343579]}},{"properties":{"city":"Houston","latitude":29.752554,"zip":"77002","longitude":-95.3704009,"visits":1.0,"id":"a6a1ybb6nrlc"},"type":"Feature","geometry":{"type":"Point","coordinates":[-95.3704009,29.752554]}},{"properties":{"city":"Houston","latitude":29.7476265,"zip":"77003","longitude":-95.3494719,"visits":2.0,"id":"a6a1ybdft2r9"},"type":"Feature","geometry":{"type":"Point","coordinates":[-95.3494719,29.7476265]}},{"properties":{"city":"Houston","latitude":29.7213263,"zip":"77004","longitude":-95.3573194,"visits":2.0,"id":"a6a1yb2a53gj"},"type":"Feature","geometry":{"type":"Point","coordinates":[-95.3573194,29.7213263]}},{"properties":{"city":null,"latitude":29.7183467,"zip":"77005","longitude":-95.4306141,"visits":56.0,"id":"a6a1yb8yzfwv"},"type":"Feature","geometry":{"type":"Point","coordinates":[-95.4306141,29.7183467]}},{"properties":{"city":"Houston","latitude":29.7431508,"zip":"77006","longitude":-95.38872,"visits":5.0,"id":"a6a1yb9aykuv"},"type":"Feature","geometry":{"type":"Point","coordinates":[-95.38872,29.7431508]}},{"properties":{"city":"Houston","latitude":29.7769344,"zip":"77007","longitude":-95.4096633,"visits":6.0,"id":"a6a1yb30mn7g"},"type":"Feature","geometry":{"type":"Point","coordinates":[-95.4096633,29.7769344]}},{"properties":{"city":"Houston","latitude":29.7995924,"zip":"77008","longitude":-95.4201377,"visits":8.0,"id":"a6a1yb1yyoih"},"type":"Feature","geometry":{"type":"Point","coordinates":[-95.4201377,29.7995924]}},{"properties":{"city":"Houston","latitude":29.7901812,"zip":"77009","longitude":-95.3677844,"visits":6.0,"id":"a6a1yb3o0m8w"},"type":"Feature","geometry":{"type":"Point","coordinates":[-95.3677844,29.7901812]}},{"properties":{"city":"Houston","latitude":29.9824128,"zip":"77014","longitude":-95.4620545,"visits":1.0,"id":"a6a1ybczdca5"},"type":"Feature","geometry":{"type":"Point","coordinates":[-95.4620545,29.9824128]}},{"properties":{"city":"Houston","latitude":29.6964209,"zip":"77017","longitude":-95.2579968,"visits":1.0,"id":"a6a1yb0101e7"},"type":"Feature","geometry":{"type":"Point","coordinates":[-95.2579968,29.6964209]}},{"properties":{"city":"Houston","latitude":29.8282298,"zip":"77018","longitude":-95.4253757,"visits":5.0,"id":"a6a1yb68xalc"},"type":"Feature","geometry":{"type":"Point","coordinates":[-95.4253757,29.8282298]}},{"properties":{"city":"Houston","latitude":29.7538445,"zip":"77019","longitude":-95.4096633,"visits":23.0,"id":"a6a1ybcv24t3"},"type":"Feature","geometry":{"type":"Point","coordinates":[-95.4096633,29.7538445]}},{"properties":{"city":"Houston","latitude":29.8359225,"zip":"77022","longitude":-95.3782513,"visits":1.0,"id":"a6a1ybexs6ig"},"type":"Feature","geometry":{"type":"Point","coordinates":[-95.3782513,29.8359225]}},{"properties":{"city":null,"latitude":29.7726138,"zip":"77024","longitude":-95.514493,"visits":96.0,"id":"a6a1yb41uhmt"},"type":"Feature","geometry":{"type":"Point","coordinates":[-95.514493,29.7726138]}},{"properties":{"city":null,"latitude":29.6832677,"zip":"77025","longitude":-95.4410924,"visits":18.0,"id":"a6a1ybae93ig"},"type":"Feature","geometry":{"type":"Point","coordinates":[-95.4410924,29.6832677]}},{"properties":{"city":"Houston","latitude":29.740582,"zip":"77027","longitude":-95.4515725,"visits":16.0,"id":"a6a1ybapmo3k"},"type":"Feature","geometry":{"type":"Point","coordinates":[-95.4515725,29.740582]}},{"properties":{"city":"Houston","latitude":29.7597385,"zip":"77029","longitude":-95.2632201,"visits":1.0,"id":"a6a1yb4guh2k"},"type":"Feature","geometry":{"type":"Point","coordinates":[-95.2632201,29.7597385]}},{"properties":{"city":"Houston","latitude":29.7080797,"zip":"77030","longitude":-95.3991907,"visits":9.0,"id":"a6a1yb9hjpo7"},"type":"Feature","geometry":{"type":"Point","coordinates":[-95.3991907,29.7080797]}},{"properties":{"city":"Houston","latitude":29.6124152,"zip":"77034","longitude":-95.1901384,"visits":1.0,"id":"a6a1yb53ngr3"},"type":"Feature","geometry":{"type":"Point","coordinates":[-95.1901384,29.6124152]}},{"properties":{"city":"Houston","latitude":29.6464527,"zip":"77035","longitude":-95.4935119,"visits":7.0,"id":"a6a1yaz4ypbi"},"type":"Feature","geometry":{"type":"Point","coordinates":[-95.4935119,29.6464527]}},{"properties":{"city":"Houston","latitude":29.9196533,"zip":"77038","longitude":-95.4463322,"visits":1.0,"id":"a6a1yb67zk5q"},"type":"Feature","geometry":{"type":"Point","coordinates":[-95.4463322,29.9196533]}},{"properties":{"city":null,"latitude":29.8760239,"zip":"77040","longitude":-95.5249863,"visits":2.0,"id":"a6a1yb6i2v33"},"type":"Feature","geometry":{"type":"Point","coordinates":[-95.5249863,29.8760239]}},{"properties":{"city":"Houston","latitude":29.8673877,"zip":"77041","longitude":-95.593239,"visits":3.0,"id":"a6a1ybcqz2kc"},"type":"Feature","geometry":{"type":"Point","coordinates":[-95.593239,29.8673877]}},{"properties":{"city":"Houston","latitude":29.7362281,"zip":"77042","longitude":-95.5564777,"visits":5.0,"id":"a6a1yb598qnw"},"type":"Feature","geometry":{"type":"Point","coordinates":[-95.5564777,29.7362281]}},{"properties":{"city":"Houston","latitude":29.8050424,"zip":"77043","longitude":-95.5669786,"visits":3.0,"id":"a6a1yb6tx7th"},"type":"Feature","geometry":{"type":"Point","coordinates":[-95.5669786,29.8050424]}},{"properties":{"city":"Houston","latitude":29.8963788,"zip":"77044","longitude":-95.1640605,"visits":1.0,"id":"a6a1yb2c6020"},"type":"Feature","geometry":{"type":"Point","coordinates":[-95.1640605,29.8963788]}},{"properties":{"city":"Houston","latitude":29.8390871,"zip":"77049","longitude":-95.1536327,"visits":1.0,"id":"a6a1yb84r6by"},"type":"Feature","geometry":{"type":"Point","coordinates":[-95.1536327,29.8390871]}},{"properties":{"city":"Houston","latitude":29.6627223,"zip":"77051","longitude":-95.3782513,"visits":1.0,"id":"a6a1yb9l4s4j"},"type":"Feature","geometry":{"type":"Point","coordinates":[-95.3782513,29.6627223]}},{"properties":{"city":"Houston","latitude":29.7634,"zip":"77052","longitude":-95.3631,"visits":1.0,"id":"a6a1yb61t7ro"},"type":"Feature","geometry":{"type":"Point","coordinates":[-95.3631,29.7634]}},{"properties":{"city":"Houston","latitude":29.5895374,"zip":"77053","longitude":-95.4725384,"visits":2.0,"id":"a6a1ybcq36j9"},"type":"Feature","geometry":{"type":"Point","coordinates":[-95.4725384,29.5895374]}},{"properties":{"city":"Houston","latitude":29.684552,"zip":"77054","longitude":-95.4096633,"visits":1.0,"id":"a6a1ybe13gfy"},"type":"Feature","geometry":{"type":"Point","coordinates":[-95.4096633,29.684552]}},{"properties":{"city":"Houston","latitude":29.7965697,"zip":"77055","longitude":-95.4935119,"visits":12.0,"id":"a6a1yb3lz22b"},"type":"Feature","geometry":{"type":"Point","coordinates":[-95.4935119,29.7965697]}},{"properties":{"city":"Houston","latitude":29.7484861,"zip":"77056","longitude":-95.4699173,"visits":16.0,"id":"a6a1yb51fw7m"},"type":"Feature","geometry":{"type":"Point","coordinates":[-95.4699173,29.7484861]}},{"properties":{"city":"Houston","latitude":29.7503969,"zip":"77057","longitude":-95.4935119,"visits":19.0,"id":"a6a1yb1pfi2n"},"type":"Feature","geometry":{"type":"Point","coordinates":[-95.4935119,29.7503969]}},{"properties":{"city":"Houston","latitude":29.609663,"zip":"77059","longitude":-95.1119407,"visits":1.0,"id":"a6a1yb3ws7g1"},"type":"Feature","geometry":{"type":"Point","coordinates":[-95.1119407,29.609663]}},{"properties":{"city":"Houston","latitude":29.5797532,"zip":"77062","longitude":-95.1379946,"visits":1.0,"id":"a6a1ybbri2x7"},"type":"Feature","geometry":{"type":"Point","coordinates":[-95.1379946,29.5797532]}},{"properties":{"city":"Houston","latitude":29.7375438,"zip":"77063","longitude":-95.5249863,"visits":6.0,"id":"a6a1ybbpbutd"},"type":"Feature","geometry":{"type":"Point","coordinates":[-95.5249863,29.7375438]}},{"properties":{"city":"Houston","latitude":29.915288,"zip":"77064","longitude":-95.551228,"visits":3.0,"id":"a6a1yb9lous6"},"type":"Feature","geometry":{"type":"Point","coordinates":[-95.551228,29.915288]}},{"properties":{"city":"Houston","latitude":29.935683,"zip":"77065","longitude":-95.6142558,"visits":5.0,"id":"a6a1yba7bzn9"},"type":"Feature","geometry":{"type":"Point","coordinates":[-95.6142558,29.935683]}},{"properties":{"city":"Houston","latitude":29.9631614,"zip":"77066","longitude":-95.509247,"visits":1.0,"id":"a6a1yb3j104r"},"type":"Feature","geometry":{"type":"Point","coordinates":[-95.509247,29.9631614]}},{"properties":{"city":"Houston","latitude":29.991318,"zip":"77069","longitude":-95.5249863,"visits":3.0,"id":"a6a1yb2vy8ul"},"type":"Feature","geometry":{"type":"Point","coordinates":[-95.5249863,29.991318]}},{"properties":{"city":"Houston","latitude":29.9835689,"zip":"77070","longitude":-95.5722297,"visits":4.0,"id":"a6a1yb548kwe"},"type":"Feature","geometry":{"type":"Point","coordinates":[-95.5722297,29.9835689]}},{"properties":{"city":"Houston","latitude":29.6455836,"zip":"77071","longitude":-95.514493,"visits":3.0,"id":"a6a1yb2g7846"},"type":"Feature","geometry":{"type":"Point","coordinates":[-95.514493,29.6455836]}},{"properties":{"city":"Houston","latitude":29.6917896,"zip":"77074","longitude":-95.514493,"visits":2.0,"id":"a6a1ybam7zja"},"type":"Feature","geometry":{"type":"Point","coordinates":[-95.514493,29.6917896]}},{"properties":{"city":"Houston","latitude":29.7455614,"zip":"77077","longitude":-95.6090009,"visits":5.0,"id":"a6a1yb1tv0cd"},"type":"Feature","geometry":{"type":"Point","coordinates":[-95.6090009,29.7455614]}},{"properties":{"city":"Houston","latitude":29.7801889,"zip":"77079","longitude":-95.6090009,"visits":24.0,"id":"a6a1yb6g1odg"},"type":"Feature","geometry":{"type":"Point","coordinates":[-95.6090009,29.7801889]}},{"properties":{"city":"Houston","latitude":29.8183406,"zip":"77080","longitude":-95.5249863,"visits":2.0,"id":"a6a1yb3tlhlz"},"type":"Feature","geometry":{"type":"Point","coordinates":[-95.5249863,29.8183406]}},{"properties":{"city":"Houston","latitude":29.7161912,"zip":"77081","longitude":-95.4830243,"visits":6.0,"id":"a6a1yb2b3ons"},"type":"Feature","geometry":{"type":"Point","coordinates":[-95.4830243,29.7161912]}},{"properties":{"city":"Houston","latitude":29.7220267,"zip":"77082","longitude":-95.6195112,"visits":5.0,"id":"a6a1yb7utu6y"},"type":"Feature","geometry":{"type":"Point","coordinates":[-95.6195112,29.7220267]}},{"properties":{"city":"Houston","latitude":29.685598,"zip":"77083","longitude":-95.661571,"visits":3.0,"id":"a6a1ybdnq2ta"},"type":"Feature","geometry":{"type":"Point","coordinates":[-95.661571,29.685598]}},{"properties":{"city":"Houston","latitude":29.8296506,"zip":"77084","longitude":-95.6668306,"visits":4.0,"id":"a6a1ybaus69s"},"type":"Feature","geometry":{"type":"Point","coordinates":[-95.6668306,29.8296506]}},{"properties":{"city":"Houston","latitude":29.9179181,"zip":"77086","longitude":-95.4882679,"visits":2.0,"id":"a6a1ybdowwjx"},"type":"Feature","geometry":{"type":"Point","coordinates":[-95.4882679,29.9179181]}},{"properties":{"city":"Houston","latitude":30.0118752,"zip":"77090","longitude":-95.4463322,"visits":1.0,"id":"a6a1ybe36tvf"},"type":"Feature","geometry":{"type":"Point","coordinates":[-95.4463322,30.0118752]}},{"properties":{"city":"Houston","latitude":29.8265052,"zip":"77092","longitude":-95.4672962,"visits":1.0,"id":"a6a1yb2pnpwu"},"type":"Feature","geometry":{"type":"Point","coordinates":[-95.4672962,29.8265052]}},{"properties":{"city":"Houston","latitude":29.8547143,"zip":"77093","longitude":-95.3416255,"visits":2.0,"id":"a6a1ybbbiu77"},"type":"Feature","geometry":{"type":"Point","coordinates":[-95.3416255,29.8547143]}},{"properties":{"city":"Houston","latitude":29.7484236,"zip":"77094","longitude":-95.6773512,"visits":5.0,"id":"a6a1yb7trgpj"},"type":"Feature","geometry":{"type":"Point","coordinates":[-95.6773512,29.7484236]}},{"properties":{"city":"Houston","latitude":29.9108312,"zip":"77095","longitude":-95.6563119,"visits":14.0,"id":"a6a1ybczzya1"},"type":"Feature","geometry":{"type":"Point","coordinates":[-95.6563119,29.9108312]}},{"properties":{"city":"Houston","latitude":29.6699914,"zip":"77096","longitude":-95.4830243,"visits":37.0,"id":"a6a1ybeltt8y"},"type":"Feature","geometry":{"type":"Point","coordinates":[-95.4830243,29.6699914]}},{"properties":{"city":"Houston","latitude":29.7333171,"zip":"77098","longitude":-95.417519,"visits":4.0,"id":"a6a1ybes249i"},"type":"Feature","geometry":{"type":"Point","coordinates":[-95.417519,29.7333171]}},{"properties":{"city":"Houston","latitude":29.7632,"zip":"77224","longitude":-95.3633,"visits":1.0,"id":"a6a1yb94j01o"},"type":"Feature","geometry":{"type":"Point","coordinates":[-95.3633,29.7632]}},{"properties":{"city":"Houston","latitude":29.7632,"zip":"77248","longitude":-95.3633,"visits":1.0,"id":"a6a1yb5ah8oz"},"type":"Feature","geometry":{"type":"Point","coordinates":[-95.3633,29.7632]}},{"properties":{"city":"Houston","latitude":29.7632,"zip":"77254","longitude":-95.3633,"visits":2.0,"id":"a6a1ybav72mh"},"type":"Feature","geometry":{"type":"Point","coordinates":[-95.3633,29.7632]}},{"properties":{"city":"Houston","latitude":29.7632,"zip":"77268","longitude":-95.3633,"visits":1.0,"id":"a6a1ybfa2y0w"},"type":"Feature","geometry":{"type":"Point","coordinates":[-95.3633,29.7632]}},{"properties":{"city":"Houston","latitude":29.7632,"zip":"77270","longitude":-95.3633,"visits":1.0,"id":"a6a1yb8yeeyo"},"type":"Feature","geometry":{"type":"Point","coordinates":[-95.3633,29.7632]}},{"properties":{"city":"Montgomery","latitude":30.3344712,"zip":"77316","longitude":-95.7089241,"visits":1.0,"id":"a6a1yb3a2gkc"},"type":"Feature","geometry":{"type":"Point","coordinates":[-95.7089241,30.3344712]}},{"properties":{"city":"Willis","latitude":30.4336128,"zip":"77318","longitude":-95.5407299,"visits":1.0,"id":"a6a1yb6gt990"},"type":"Feature","geometry":{"type":"Point","coordinates":[-95.5407299,30.4336128]}},{"properties":{"city":"Cleveland","latitude":30.3792489,"zip":"77328","longitude":-95.1849219,"visits":1.0,"id":"a6a1yb7uroa0"},"type":"Feature","geometry":{"type":"Point","coordinates":[-95.1849219,30.3792489]}},{"properties":{"city":null,"latitude":30.0379935,"zip":"77336","longitude":-95.0806918,"visits":2.0,"id":"a6a1ybazclsx"},"type":"Feature","geometry":{"type":"Point","coordinates":[-95.0806918,30.0379935]}},{"properties":{"city":"Humble","latitude":29.9956304,"zip":"77338","longitude":-95.2788926,"visits":1.0,"id":"a6a1ybdy432d"},"type":"Feature","geometry":{"type":"Point","coordinates":[-95.2788926,29.9956304]}},{"properties":{"city":"Humble","latitude":30.0442264,"zip":"77339","longitude":-95.2162283,"visits":5.0,"id":"a6a1yb62801s"},"type":"Feature","geometry":{"type":"Point","coordinates":[-95.2162283,30.0442264]}},{"properties":{"city":null,"latitude":30.0633614,"zip":"77345","longitude":-95.1692752,"visits":2.0,"id":"a6a1ybaw6ynt"},"type":"Feature","geometry":{"type":"Point","coordinates":[-95.1692752,30.0633614]}},{"properties":{"city":"Humble","latitude":29.9997656,"zip":"77346","longitude":-95.1744903,"visits":4.0,"id":"a6a1yb5vdavx"},"type":"Feature","geometry":{"type":"Point","coordinates":[-95.1744903,29.9997656]}},{"properties":{"city":"Magnolia","latitude":30.2001196,"zip":"77354","longitude":-95.624767,"visits":2.0,"id":"a6a1yb953gux"},"type":"Feature","geometry":{"type":"Point","coordinates":[-95.624767,30.2001196]}},{"properties":{"city":"Montgomery","latitude":30.4502629,"zip":"77356","longitude":-95.6878736,"visits":2.0,"id":"a6a1yb6f4m5j"},"type":"Feature","geometry":{"type":"Point","coordinates":[-95.6878736,30.4502629]}},{"properties":{"city":null,"latitude":30.1713448,"zip":"77357","longitude":-95.2057909,"visits":2.0,"id":"a6a1yazpdaok"},"type":"Feature","geometry":{"type":"Point","coordinates":[-95.2057909,30.1713448]}},{"properties":{"city":null,"latitude":30.477683,"zip":"77371","longitude":-95.018246,"visits":1.0,"id":"a6a1ybd1yajq"},"type":"Feature","geometry":{"type":"Point","coordinates":[-95.018246,30.477683]}},{"properties":{"city":"Spring","latitude":30.0605454,"zip":"77373","longitude":-95.3834854,"visits":5.0,"id":"a6a1ybb0egv3"},"type":"Feature","geometry":{"type":"Point","coordinates":[-95.3834854,30.0605454]}},{"properties":{"city":"Tomball","latitude":30.1098349,"zip":"77375","longitude":-95.5827334,"visits":2.0,"id":"a6a1yb9r2oq3"},"type":"Feature","geometry":{"type":"Point","coordinates":[-95.5827334,30.1098349]}},{"properties":{"city":"Tomball","latitude":30.0712446,"zip":"77377","longitude":-95.6773512,"visits":3.0,"id":"a6a1ybe2aqwy"},"type":"Feature","geometry":{"type":"Point","coordinates":[-95.6773512,30.0712446]}},{"properties":{"city":"Willis","latitude":30.4882668,"zip":"77378","longitude":-95.3311652,"visits":1.0,"id":"a6a1yb4dokeb"},"type":"Feature","geometry":{"type":"Point","coordinates":[-95.3311652,30.4882668]}},{"properties":{"city":"Spring","latitude":30.0314279,"zip":"77379","longitude":-95.5302337,"visits":19.0,"id":"a6a1yb4e7tci"},"type":"Feature","geometry":{"type":"Point","coordinates":[-95.5302337,30.0314279]}},{"properties":{"city":"Spring","latitude":30.1261952,"zip":"77380","longitude":-95.4672962,"visits":2.0,"id":"a6a1yb2c88go"},"type":"Feature","geometry":{"type":"Point","coordinates":[-95.4672962,30.1261952]}},{"properties":{"city":null,"latitude":30.1704912,"zip":"77381","longitude":-95.509247,"visits":7.0,"id":"a6a1yb8t50tm"},"type":"Feature","geometry":{"type":"Point","coordinates":[-95.509247,30.1704912]}},{"properties":{"city":null,"latitude":30.1977163,"zip":"77382","longitude":-95.5459787,"visits":20.0,"id":"a6a1yazsdgxy"},"type":"Feature","geometry":{"type":"Point","coordinates":[-95.5459787,30.1977163]}},{"properties":{"city":null,"latitude":30.2404085,"zip":"77384","longitude":-95.4882679,"visits":3.0,"id":"a6a1yb427bix"},"type":"Feature","geometry":{"type":"Point","coordinates":[-95.4882679,30.2404085]}},{"properties":{"city":null,"latitude":30.1969977,"zip":"77385","longitude":-95.4253757,"visits":1.0,"id":"a6a1yazf79va"},"type":"Feature","geometry":{"type":"Point","coordinates":[-95.4253757,30.1969977]}},{"properties":{"city":"Spring","latitude":30.1185635,"zip":"77386","longitude":-95.3730176,"visits":5.0,"id":"a6a1yba6vpox"},"type":"Feature","geometry":{"type":"Point","coordinates":[-95.3730176,30.1185635]}},{"properties":{"city":"Spring","latitude":30.0570946,"zip":"77388","longitude":-95.4672962,"visits":4.0,"id":"a6a1yb4cdlrg"},"type":"Feature","geometry":{"type":"Point","coordinates":[-95.4672962,30.0570946]}},{"properties":{"city":"Spring","latitude":30.1244455,"zip":"77389","longitude":-95.509247,"visits":1.0,"id":"a6a1ybbiu0mp"},"type":"Feature","geometry":{"type":"Point","coordinates":[-95.509247,30.1244455]}},{"properties":{"city":"Bellaire","latitude":29.7055074,"zip":"77401","longitude":-95.4620545,"visits":56.0,"id":"a6a1ybaxvcdt"},"type":"Feature","geometry":{"type":"Point","coordinates":[-95.4620545,29.7055074]}},{"properties":{"city":"Richmond","latitude":29.650588,"zip":"77406","longitude":-95.8037437,"visits":1.0,"id":"a6a1yb7nkyx2"},"type":"Feature","geometry":{"type":"Point","coordinates":[-95.8037437,29.650588]}},{"properties":{"city":null,"latitude":29.6773427,"zip":"77407","longitude":-95.7194522,"visits":1.0,"id":"a6a1yb98sywk"},"type":"Feature","geometry":{"type":"Point","coordinates":[-95.7194522,29.6773427]}},{"properties":{"city":"Bellville","latitude":29.9673076,"zip":"77418","longitude":-96.195132,"visits":1.0,"id":"a6a1yb9fdt23"},"type":"Feature","geometry":{"type":"Point","coordinates":[-96.195132,29.9673076]}},{"properties":{"city":null,"latitude":29.8147644,"zip":"77423","longitude":-96.0044121,"visits":1.0,"id":"a6a1yb891604"},"type":"Feature","geometry":{"type":"Point","coordinates":[-96.0044121,29.8147644]}},{"properties":{"city":null,"latitude":30.0141064,"zip":"77429","longitude":-95.6668306,"visits":28.0,"id":"a6a1yb20uenw"},"type":"Feature","geometry":{"type":"Point","coordinates":[-95.6668306,30.0141064]}},{"properties":{"city":null,"latitude":29.920097,"zip":"77433","longitude":-95.7089241,"visits":5.0,"id":"a6a1ybbrvtvy"},"type":"Feature","geometry":{"type":"Point","coordinates":[-95.7089241,29.920097]}},{"properties":{"city":null,"latitude":29.3475038,"zip":"77443","longitude":-96.1818684,"visits":1.0,"id":"a6a1ybdrmrpn"},"type":"Feature","geometry":{"type":"Point","coordinates":[-96.1818684,29.3475038]}},{"properties":{"city":"Katy","latitude":29.83801,"zip":"77449","longitude":-95.7405139,"visits":3.0,"id":"a6a1ybd53q7v"},"type":"Feature","geometry":{"type":"Point","coordinates":[-95.7405139,29.83801]}},{"properties":{"city":"Katy","latitude":29.7226173,"zip":"77450","longitude":-95.7405139,"visits":14.0,"id":"a6a1yb61d7cd"},"type":"Feature","geometry":{"type":"Point","coordinates":[-95.7405139,29.7226173]}},{"properties":{"city":"Missouri City","latitude":29.5235688,"zip":"77459","longitude":-95.5302337,"visits":39.0,"id":"a6a1ybbdwv7q"},"type":"Feature","geometry":{"type":"Point","coordinates":[-95.5302337,29.5235688]}},{"properties":{"city":null,"latitude":29.3601936,"zip":"77461","longitude":-95.8353837,"visits":1.0,"id":"a6a1yb2hky3w"},"type":"Feature","geometry":{"type":"Point","coordinates":[-95.8353837,29.3601936]}},{"properties":{"city":null,"latitude":29.4600078,"zip":"77469","longitude":-95.6668306,"visits":6.0,"id":"a6a1ybec329e"},"type":"Feature","geometry":{"type":"Point","coordinates":[-95.6668306,29.4600078]}},{"properties":{"city":null,"latitude":29.4704121,"zip":"77470","longitude":-96.5730004,"visits":1.0,"id":"a6a1yb5azhar"},"type":"Feature","geometry":{"type":"Point","coordinates":[-96.5730004,29.4704121]}},{"properties":{"city":"Stafford","latitude":29.6202873,"zip":"77477","longitude":-95.5669786,"visits":4.0,"id":"a6a1ybdec7ec"},"type":"Feature","geometry":{"type":"Point","coordinates":[-95.5669786,29.6202873]}},{"properties":{"city":"Sugar Land","latitude":29.6185208,"zip":"77478","longitude":-95.6090009,"visits":13.0,"id":"a6a1yb5ajx5j"},"type":"Feature","geometry":{"type":"Point","coordinates":[-95.6090009,29.6185208]}},{"properties":{"city":"Sugar Land","latitude":29.5654066,"zip":"77479","longitude":-95.6352801,"visits":41.0,"id":"a6a1yayyvoxo"},"type":"Feature","geometry":{"type":"Point","coordinates":[-95.6352801,29.5654066]}},{"properties":{"city":"Waller","latitude":30.0471471,"zip":"77484","longitude":-95.9621106,"visits":1.0,"id":"a6a1yb4qbolq"},"type":"Feature","geometry":{"type":"Point","coordinates":[-95.9621106,30.0471471]}},{"properties":{"city":"Missouri City","latitude":29.5938012,"zip":"77489","longitude":-95.509247,"visits":2.0,"id":"a6a1yazftk32"},"type":"Feature","geometry":{"type":"Point","coordinates":[-95.509247,29.5938012]}},{"properties":{"city":"Katy","latitude":29.8555243,"zip":"77493","longitude":-95.8670405,"visits":2.0,"id":"a6a1yb9ets6x"},"type":"Feature","geometry":{"type":"Point","coordinates":[-95.8670405,29.8555243]}},{"properties":{"city":"Katy","latitude":29.7300195,"zip":"77494","longitude":-95.8353837,"visits":10.0,"id":"a6a1yb5e6ht2"},"type":"Feature","geometry":{"type":"Point","coordinates":[-95.8353837,29.7300195]}},{"properties":{"city":"Pasadena","latitude":29.6813519,"zip":"77502","longitude":-95.2005729,"visits":1.0,"id":"a6a1ybexf2ol"},"type":"Feature","geometry":{"type":"Point","coordinates":[-95.2005729,29.6813519]}},{"properties":{"city":"Pasadena","latitude":29.6487144,"zip":"77505","longitude":-95.1484196,"visits":1.0,"id":"a6a1yb6uinnm"},"type":"Feature","geometry":{"type":"Point","coordinates":[-95.1484196,29.6487144]}},{"properties":{"city":"Alvin","latitude":29.3845708,"zip":"77511","longitude":-95.2475518,"visits":7.0,"id":"a6a1yb4d7dfg"},"type":"Feature","geometry":{"type":"Point","coordinates":[-95.2475518,29.3845708]}},{"properties":{"city":null,"latitude":29.7291996,"zip":"77520","longitude":-95.0078451,"visits":1.0,"id":"a6a1yb2lq8wi"},"type":"Feature","geometry":{"type":"Point","coordinates":[-95.0078451,29.7291996]}},{"properties":{"city":"Baytown","latitude":29.8000653,"zip":"77521","longitude":-94.9662608,"visits":1.0,"id":"a6a1yb5c2lnq"},"type":"Feature","geometry":{"type":"Point","coordinates":[-94.9662608,29.8000653]}},{"properties":{"city":null,"latitude":29.7688846,"zip":"77523","longitude":-94.8728093,"visits":1.0,"id":"a6a1yb3adao7"},"type":"Feature","geometry":{"type":"Point","coordinates":[-94.8728093,29.7688846]}},{"properties":{"city":"Clute","latitude":29.0190224,"zip":"77531","longitude":-95.4044268,"visits":1.0,"id":"a6a1ybdgypjl"},"type":"Feature","geometry":{"type":"Point","coordinates":[-95.4044268,29.0190224]}},{"properties":{"city":"Crosby","latitude":29.9473469,"zip":"77532","longitude":-95.0390536,"visits":1.0,"id":"a6a1yb0zlkc5"},"type":"Feature","geometry":{"type":"Point","coordinates":[-95.0390536,29.9473469]}},{"properties":{"city":null,"latitude":30.0204656,"zip":"77535","longitude":-94.9350929,"visits":1.0,"id":"a6a1yb7cbrtf"},"type":"Feature","geometry":{"type":"Point","coordinates":[-94.9350929,30.0204656]}},{"properties":{"city":"Deer Park","latitude":29.7021247,"zip":"77536","longitude":-95.1119407,"visits":4.0,"id":"a6a1yb8y3ve1"},"type":"Feature","geometry":{"type":"Point","coordinates":[-95.1119407,29.7021247]}},{"properties":{"city":"Dickinson","latitude":29.4500892,"zip":"77539","longitude":-95.0494602,"visits":1.0,"id":"a6a1yb0i15ye"},"type":"Feature","geometry":{"type":"Point","coordinates":[-95.0494602,29.4500892]}},{"properties":{"city":"Fresno","latitude":29.5492923,"zip":"77545","longitude":-95.4672962,"visits":1.0,"id":"a6a1ybdbz6vw"},"type":"Feature","geometry":{"type":"Point","coordinates":[-95.4672962,29.5492923]}},{"properties":{"city":"Friendswood","latitude":29.5434428,"zip":"77546","longitude":-95.1797058,"visits":3.0,"id":"a6a1yb0iufaq"},"type":"Feature","geometry":{"type":"Point","coordinates":[-95.1797058,29.5434428]}},{"properties":{"city":"Galveston","latitude":29.2787953,"zip":"77551","longitude":-94.8261424,"visits":2.0,"id":"a6a1yazd23dh"},"type":"Feature","geometry":{"type":"Point","coordinates":[-94.8261424,29.2787953]}},{"properties":{"city":null,"latitude":30.0994396,"zip":"77564","longitude":-94.6657027,"visits":1.0,"id":"a6a1yb2pvfq4"},"type":"Feature","geometry":{"type":"Point","coordinates":[-94.6657027,30.0994396]}},{"properties":{"city":"League City","latitude":29.4947986,"zip":"77573","longitude":-95.0911062,"visits":10.0,"id":"a6a1yb60xfcg"},"type":"Feature","geometry":{"type":"Point","coordinates":[-95.0911062,29.4947986]}},{"properties":{"city":"Manvel","latitude":29.4841585,"zip":"77578","longitude":-95.3625516,"visits":3.0,"id":"a6a1yba2ta4v"},"type":"Feature","geometry":{"type":"Point","coordinates":[-95.3625516,29.4841585]}},{"properties":{"city":"Pearland","latitude":29.5800207,"zip":"77581","longitude":-95.2788926,"visits":7.0,"id":"a6a1ybc1zdoo"},"type":"Feature","geometry":{"type":"Point","coordinates":[-95.2788926,29.5800207]}},{"properties":{"city":"Pearland","latitude":29.5535522,"zip":"77584","longitude":-95.3625516,"visits":10.0,"id":"a6a1ybdwhku0"},"type":"Feature","geometry":{"type":"Point","coordinates":[-95.3625516,29.5535522]}},{"properties":{"city":"Seabrook","latitude":29.5897112,"zip":"77586","longitude":-95.0286488,"visits":1.0,"id":"a6a1yb9f0al3"},"type":"Feature","geometry":{"type":"Point","coordinates":[-95.0286488,29.5897112]}},{"properties":{"city":"Webster","latitude":29.5334914,"zip":"77598","longitude":-95.1379946,"visits":1.0,"id":"a6a1yb8s8ryh"},"type":"Feature","geometry":{"type":"Point","coordinates":[-95.1379946,29.5334914]}},{"properties":{"city":"Port Neches","latitude":29.9785552,"zip":"77651","longitude":-93.9521382,"visits":1.0,"id":"a6a1yb9vqjbk"},"type":"Feature","geometry":{"type":"Point","coordinates":[-93.9521382,29.9785552]}},{"properties":{"city":null,"latitude":29.2785091,"zip":"77995","longitude":-97.0498442,"visits":2.0,"id":"a6a1ybcr4563"},"type":"Feature","geometry":{"type":"Point","coordinates":[-97.0498442,29.2785091]}},{"properties":{"city":"Helotes","latitude":29.6172123,"zip":"78023","longitude":-98.7260927,"visits":2.0,"id":"a6a1ybaagm68"},"type":"Feature","geometry":{"type":"Point","coordinates":[-98.7260927,29.6172123]}},{"properties":{"city":"Floresville","latitude":29.1218718,"zip":"78114","longitude":-98.1775638,"visits":1.0,"id":"a6a1yb5wax8v"},"type":"Feature","geometry":{"type":"Point","coordinates":[-98.1775638,29.1218718]}},{"properties":{"city":"Poth","latitude":29.0591721,"zip":"78147","longitude":-98.068343,"visits":1.0,"id":"a6a1yb0u7cvf"},"type":"Feature","geometry":{"type":"Point","coordinates":[-98.068343,29.0591721]}},{"properties":{"city":"Schertz","latitude":29.587207,"zip":"78154","longitude":-98.2978951,"visits":1.0,"id":"a6a1yb5am7sz"},"type":"Feature","geometry":{"type":"Point","coordinates":[-98.2978951,29.587207]}},{"properties":{"city":"San Antonio","latitude":29.4854054,"zip":"78209","longitude":-98.4513272,"visits":1.0,"id":"a6a1ybc9z88h"},"type":"Feature","geometry":{"type":"Point","coordinates":[-98.4513272,29.4854054]}},{"properties":{"city":"San Antonio","latitude":29.580333,"zip":"78231","longitude":-98.5418899,"visits":1.0,"id":"a6a1ybbogg6j"},"type":"Feature","geometry":{"type":"Point","coordinates":[-98.5418899,29.580333]}},{"properties":{"city":"San Antonio","latitude":29.6451457,"zip":"78258","longitude":-98.4732718,"visits":1.0,"id":"a6a1ybcb8nf3"},"type":"Feature","geometry":{"type":"Point","coordinates":[-98.4732718,29.6451457]}},{"properties":{"city":null,"latitude":29.6426901,"zip":"78266","longitude":-98.3307468,"visits":1.0,"id":"a6a1ybb6w9u9"},"type":"Feature","geometry":{"type":"Point","coordinates":[-98.3307468,29.6426901]}},{"properties":{"city":null,"latitude":25.9740611,"zip":"78520","longitude":-97.5572231,"visits":1.0,"id":"a6a1yb392516"},"type":"Feature","geometry":{"type":"Point","coordinates":[-97.5572231,25.9740611]}},{"properties":{"city":null,"latitude":30.2319316,"zip":"78620","longitude":-98.090174,"visits":1.0,"id":"a6a1ybb4oawg"},"type":"Feature","geometry":{"type":"Point","coordinates":[-98.090174,30.2319316]}},{"properties":{"city":"Leander","latitude":30.5707,"zip":"78646","longitude":-97.8366,"visits":1.0,"id":"a6a1ybeoyzxm"},"type":"Feature","geometry":{"type":"Point","coordinates":[-97.8366,30.5707]}},{"properties":{"city":null,"latitude":30.1270728,"zip":"78652","longitude":-97.8340757,"visits":1.0,"id":"a6a1yb61d26h"},"type":"Feature","geometry":{"type":"Point","coordinates":[-97.8340757,30.1270728]}},{"properties":{"city":"Round Rock","latitude":30.5041381,"zip":"78664","longitude":-97.6602365,"visits":3.0,"id":"a6a1yb9ptkml"},"type":"Feature","geometry":{"type":"Point","coordinates":[-97.6602365,30.5041381]}},{"properties":{"city":"Austin","latitude":30.2915328,"zip":"78703","longitude":-97.7688358,"visits":3.0,"id":"a6a1yb3bhqna"},"type":"Feature","geometry":{"type":"Point","coordinates":[-97.7688358,30.2915328]}},{"properties":{"city":"Austin","latitude":30.4244596,"zip":"78726","longitude":-97.8449549,"visits":1.0,"id":"a6a1ybcxeld4"},"type":"Feature","geometry":{"type":"Point","coordinates":[-97.8449549,30.4244596]}},{"properties":{"city":"Austin","latitude":30.3542409,"zip":"78731","longitude":-97.7742702,"visits":2.0,"id":"a6a1ybd3oyt1"},"type":"Feature","geometry":{"type":"Point","coordinates":[-97.7742702,30.3542409]}},{"properties":{"city":null,"latitude":30.3248056,"zip":"78733","longitude":-97.883045,"visits":1.0,"id":"a6a1yaz8qzf7"},"type":"Feature","geometry":{"type":"Point","coordinates":[-97.883045,30.3248056]}},{"properties":{"city":null,"latitude":30.3181862,"zip":"78738","longitude":-97.991986,"visits":2.0,"id":"a6a1yb0okdyj"},"type":"Feature","geometry":{"type":"Point","coordinates":[-97.991986,30.3181862]}},{"properties":{"city":"Austin","latitude":30.1859258,"zip":"78739","longitude":-97.90482,"visits":1.0,"id":"a6a1yb6pv5rs"},"type":"Feature","geometry":{"type":"Point","coordinates":[-97.90482,30.1859258]}},{"properties":{"city":"Austin","latitude":30.2259488,"zip":"78741","longitude":-97.7145152,"visits":1.0,"id":"a6a1yb9dzlwn"},"type":"Feature","geometry":{"type":"Point","coordinates":[-97.7145152,30.2259488]}},{"properties":{"city":null,"latitude":30.305809,"zip":"78746","longitude":-97.8177601,"visits":1.0,"id":"a6a1ybd8siqv"},"type":"Feature","geometry":{"type":"Point","coordinates":[-97.8177601,30.305809]}},{"properties":{"city":"Austin","latitude":30.168207,"zip":"78748","longitude":-97.8177601,"visits":1.0,"id":"a6a1yb2q5bv8"},"type":"Feature","geometry":{"type":"Point","coordinates":[-97.8177601,30.168207]}},{"properties":{"city":"Austin","latitude":30.4156188,"zip":"78750","longitude":-97.8014482,"visits":1.0,"id":"a6a1ybacknh7"},"type":"Feature","geometry":{"type":"Point","coordinates":[-97.8014482,30.4156188]}},{"properties":{"city":"Austin","latitude":30.3297767,"zip":"78752","longitude":-97.7036561,"visits":1.0,"id":"a6a1ybbmq3gj"},"type":"Feature","geometry":{"type":"Point","coordinates":[-97.7036561,30.3297767]}},{"properties":{"city":"Austin","latitude":30.401356,"zip":"78759","longitude":-97.7525352,"visits":1.0,"id":"a6a1yb0zkooi"},"type":"Feature","geometry":{"type":"Point","coordinates":[-97.7525352,30.401356]}},{"properties":{"city":"Fayetteville","latitude":29.9225108,"zip":"78940","longitude":-96.642433,"visits":1.0,"id":"a6a1yb0huw7j"},"type":"Feature","geometry":{"type":"Point","coordinates":[-96.642433,29.9225108]}},{"properties":{"city":null,"latitude":40.3956152,"zip":"84062","longitude":-111.7376178,"visits":1.0,"id":"a6a1yb8ihw7i"},"type":"Feature","geometry":{"type":"Point","coordinates":[-111.7376178,40.3956152]}},{"properties":{"city":"Santa Fe","latitude":35.616067,"zip":"87505","longitude":-105.8525154,"visits":1.0,"id":"a6a1yb2zj2r8"},"type":"Feature","geometry":{"type":"Point","coordinates":[-105.8525154,35.616067]}}],"is_temporal":false,"author":{"url":"","metadata":"","contact_name":"","contact_address":"","source":"","contact_phone":""},"source":"","pagination":{"sort":null,"start":0,"total":180,"limit":1000000},"state":"complete","tags":"","published":"2014-08-10T21:32:19-04:00","id":16329}