{"type":"FeatureCollection","data_type":"Dataset","url_type":null,"permissions":[{"permissions":{"download":true,"view":true},"group_id":"everyone"}],"classification":null,"title":"qqA","count":20,"stream_id":16332,"contributor":{"url":"http://geocommons.com/users/8619","name":"dchoe"},"data_attributes":null,"calculation_params":null,"icon_link":null,"link":"http://geocommons.com/overlays/16332.json","extent":[-97.992,30.1682,-97.2437,30.5417],"geometry_types":["point"],"unique_name":null,"name":"qqA","feature_count":20,"description":"","next_feature":null,"is_raster":false,"short_classification":"Y","stats":{"latitude":{"max":30.5416653,"mean":30.34251092,"variance":0.0126452752586037,"stdev":0.112451212792943,"min":30.168207,"median":30.3297767},"visits":{"max":8.0,"mean":2.05,"variance":3.62894736842105,"stdev":1.90497962414852,"min":1.0,"median":1.0},"longitude":{"max":-97.2437105,"mean":-97.78638732,"variance":0.0235738638242181,"stdev":0.153537825385858,"min":-97.991986,"median":-97.7742702}},"features":[{"properties":{"city":"Thrall","latitude":30.5336966,"zip":"76578","longitude":-97.2437105,"visits":1.0,"id":"a65hjjlxx7m6"},"type":"Feature","geometry":{"type":"Point","coordinates":[-97.2437105,30.5336966]}},{"properties":{"city":null,"latitude":30.5416653,"zip":"78641","longitude":-97.8939317,"visits":1.0,"id":"a65hjjsk9rwc"},"type":"Feature","geometry":{"type":"Point","coordinates":[-97.8939317,30.5416653]}},{"properties":{"city":"Round Rock","latitude":30.5041381,"zip":"78664","longitude":-97.6602365,"visits":2.0,"id":"a65hjjs7b12p"},"type":"Feature","geometry":{"type":"Point","coordinates":[-97.6602365,30.5041381]}},{"properties":{"city":"Austin","latitude":30.2915328,"zip":"78703","longitude":-97.7688358,"visits":8.0,"id":"a65hjjuskyr2"},"type":"Feature","geometry":{"type":"Point","coordinates":[-97.7688358,30.2915328]}},{"properties":{"city":"Austin","latitude":30.2456728,"zip":"78704","longitude":-97.7688358,"visits":2.0,"id":"a65hjjmjly9i"},"type":"Feature","geometry":{"type":"Point","coordinates":[-97.7688358,30.2456728]}},{"properties":{"city":"Austin","latitude":30.4916577,"zip":"78717","longitude":-97.7742702,"visits":1.0,"id":"a65hjjom727o"},"type":"Feature","geometry":{"type":"Point","coordinates":[-97.7742702,30.4916577]}},{"properties":{"city":"Austin","latitude":30.4244596,"zip":"78726","longitude":-97.8449549,"visits":4.0,"id":"a65hjjvqj98b"},"type":"Feature","geometry":{"type":"Point","coordinates":[-97.8449549,30.4244596]}},{"properties":{"city":"Austin","latitude":30.3542409,"zip":"78731","longitude":-97.7742702,"visits":3.0,"id":"a65hjjorhz1h"},"type":"Feature","geometry":{"type":"Point","coordinates":[-97.7742702,30.3542409]}},{"properties":{"city":null,"latitude":30.3248056,"zip":"78733","longitude":-97.883045,"visits":1.0,"id":"a65hjjw4rh7c"},"type":"Feature","geometry":{"type":"Point","coordinates":[-97.883045,30.3248056]}},{"properties":{"city":null,"latitude":30.3666665,"zip":"78734","longitude":-97.9483898,"visits":1.0,"id":"a65hjju1j2ft"},"type":"Feature","geometry":{"type":"Point","coordinates":[-97.9483898,30.3666665]}},{"properties":{"city":null,"latitude":30.2742178,"zip":"78735","longitude":-97.8667182,"visits":1.0,"id":"a65hjjnol8l5"},"type":"Feature","geometry":{"type":"Point","coordinates":[-97.8667182,30.2742178]}},{"properties":{"city":null,"latitude":30.3181862,"zip":"78738","longitude":-97.991986,"visits":2.0,"id":"a65hjjqqnw5q"},"type":"Feature","geometry":{"type":"Point","coordinates":[-97.991986,30.3181862]}},{"properties":{"city":"Austin","latitude":30.1859258,"zip":"78739","longitude":-97.90482,"visits":1.0,"id":"a65hjjsaxv2h"},"type":"Feature","geometry":{"type":"Point","coordinates":[-97.90482,30.1859258]}},{"properties":{"city":"Austin","latitude":30.2259488,"zip":"78741","longitude":-97.7145152,"visits":1.0,"id":"a65hjjml1p4a"},"type":"Feature","geometry":{"type":"Point","coordinates":[-97.7145152,30.2259488]}},{"properties":{"city":null,"latitude":30.305809,"zip":"78746","longitude":-97.8177601,"visits":6.0,"id":"a65hjjl8bg1v"},"type":"Feature","geometry":{"type":"Point","coordinates":[-97.8177601,30.305809]}},{"properties":{"city":"Austin","latitude":30.168207,"zip":"78748","longitude":-97.8177601,"visits":1.0,"id":"a65hjjm2u8sn"},"type":"Feature","geometry":{"type":"Point","coordinates":[-97.8177601,30.168207]}},{"properties":{"city":"Austin","latitude":30.2114847,"zip":"78749","longitude":-97.8612767,"visits":2.0,"id":"a65hjju0lewj"},"type":"Feature","geometry":{"type":"Point","coordinates":[-97.8612767,30.2114847]}},{"properties":{"city":"Austin","latitude":30.3297767,"zip":"78752","longitude":-97.7036561,"visits":1.0,"id":"a65hjjtrzo0j"},"type":"Feature","geometry":{"type":"Point","coordinates":[-97.7036561,30.3297767]}},{"properties":{"city":"Austin","latitude":30.3507705,"zip":"78757","longitude":-97.7362384,"visits":1.0,"id":"a65hjjl8czl5"},"type":"Feature","geometry":{"type":"Point","coordinates":[-97.7362384,30.3507705]}},{"properties":{"city":"Austin","latitude":30.401356,"zip":"78759","longitude":-97.7525352,"visits":1.0,"id":"a65hjjrvkvu2"},"type":"Feature","geometry":{"type":"Point","coordinates":[-97.7525352,30.401356]}}],"is_temporal":false,"author":{"url":"","metadata":"","contact_name":"","contact_address":"","source":"","contact_phone":""},"source":"","pagination":{"sort":null,"start":0,"total":20,"limit":1000000},"state":"complete","tags":"","published":"2014-08-10T21:32:26-04:00","id":16332}