{"type":"FeatureCollection","data_type":"Dataset","url_type":null,"permissions":[{"permissions":{"download":true,"view":true},"group_id":"everyone"}],"classification":null,"title":"Coachella_2a_csv","count":4,"stream_id":163828,"contributor":{"url":"http://geocommons.com/users/32409","name":"JYoshitomi"},"data_attributes":null,"calculation_params":null,"icon_link":null,"link":"http://geocommons.com/overlays/163828.json","extent":[-116.199,33.5524,-116.147,33.7048],"geometry_types":["point"],"unique_name":null,"name":"Coachella_2a_csv","feature_count":4,"description":"","next_feature":null,"is_raster":false,"short_classification":"Y","stats":{"number":{"max":4,"mean":2.5,"variance":1.66666666666667,"stdev":1.29099444873581,"min":1,"median":3}},"features":[{"properties":{"city":"Thermal","zip":"92274","number":1,"geo_score":0.554,"street address":"84001 Avenue 54","organization":"Augustine Band of Mission Indians","id":"a6h788vkzfop","geo_precision":"street","state":"CA"},"type":"Feature","geometry":{"type":"Point","coordinates":[-116.199282,33.656552]}},{"properties":{"city":"Indio","zip":"92203","number":2,"geo_score":0.745,"street address":"84245 Indio Spring Drive","organization":"Cabazon Band of Mission Indians","id":"a6h788ztksw2","geo_precision":"range","state":"CA"},"type":"Feature","geometry":{"type":"Point","coordinates":[-116.195984,33.704756]}},{"properties":{"city":"Thermal","zip":"92274","number":3,"geo_score":0.805,"street address":"68300 Polk Road","organization":"Historical &amp; Language Tribal Consultant; Res. Res","id":"a6h788tq9xlc","geo_precision":"range","state":"CA"},"type":"Feature","geometry":{"type":"Point","coordinates":[-116.147496,33.55244]}},{"properties":{"city":"Thermal","zip":"92274","number":4,"geo_score":0.844,"street address":"66810 Martinez Street","organization":"Torres-Martinez Reservation","id":"a6h78939pdgd","geo_precision":"range","state":"CA"},"type":"Feature","geometry":{"type":"Point","coordinates":[-116.149953,33.561973]}}],"is_temporal":false,"author":{"url":"","metadata":null,"contact_name":null,"contact_address":null,"source":null,"contact_phone":null},"source":"","pagination":{"sort":null,"start":0,"total":4,"limit":1000000},"state":"complete","tags":"","published":"2014-08-13T02:47:15-04:00","id":163828}