{"type":"FeatureCollection","data_type":"Dataset","url_type":null,"permissions":[{"permissions":{"download":true,"view":true},"group_id":"everyone"}],"classification":null,"title":"test5","count":9,"stream_id":16439,"contributor":{"url":"http://geocommons.com/users/8307","name":"axway"},"data_attributes":null,"calculation_params":null,"icon_link":null,"link":"http://geocommons.com/overlays/16439.json","extent":[-121.803,32.7812,-70.2624,47.4323],"geometry_types":["point"],"unique_name":null,"name":"test5","feature_count":9,"description":"test data","next_feature":null,"is_raster":false,"short_classification":"Y","stats":{"geo_score":{"max":0.857,"mean":0.853,"variance":0.000144,"stdev":0.012,"min":0.821,"median":0.857},"sas":{"max":4.0,"mean":2.11111111111111,"variance":1.36111111111111,"stdev":1.16666666666667,"min":1.0,"median":2.0}},"features":[{"properties":{"city":"arlington","geo_score":0.857,"sas":2.0,"id":"a65pz9toyruu","geo_precision":"city","state":"va"},"type":"Feature","geometry":{"type":"Point","coordinates":[-77.099113,38.885484]}},{"properties":{"city":"atlanta","geo_score":0.857,"sas":4.0,"id":"a65pz9jnxd6l","geo_precision":"city","state":"GA"},"type":"Feature","geometry":{"type":"Point","coordinates":[-84.47405,33.844371]}},{"properties":{"city":"bloomsberg","geo_score":0.821,"sas":1.0,"id":"a65pz9p4w7gn","geo_precision":"city","state":"pa"},"type":"Feature","geometry":{"type":"Point","coordinates":[-76.430563,41.005609]}},{"properties":{"city":"dallas","geo_score":0.857,"sas":3.0,"id":"a65pz9pc0cqo","geo_precision":"city","state":"TX"},"type":"Feature","geometry":{"type":"Point","coordinates":[-96.790329,32.781179]}},{"properties":{"city":"fresno","geo_score":0.857,"sas":3.0,"id":"a65pz9p77xax","geo_precision":"city","state":"CA"},"type":"Feature","geometry":{"type":"Point","coordinates":[-119.801015,36.8411]}},{"properties":{"city":"hartford","geo_score":0.857,"sas":1.0,"id":"a65pz9xtlgmv","geo_precision":"city","state":"ct"},"type":"Feature","geometry":{"type":"Point","coordinates":[-72.677099,41.78007]}},{"properties":{"city":"portland","geo_score":0.857,"sas":1.0,"id":"a65pz9woqrve","geo_precision":"city","state":"me"},"type":"Feature","geometry":{"type":"Point","coordinates":[-70.262393,43.658784]}},{"properties":{"city":"scottsdale","geo_score":0.857,"sas":3.0,"id":"a65pz9nfow1d","geo_precision":"city","state":"AZ"},"type":"Feature","geometry":{"type":"Point","coordinates":[-111.874248,33.524143]}},{"properties":{"city":"seattle","geo_score":0.857,"sas":1.0,"id":"a65pz9rbdyop","geo_precision":"city","state":"WA"},"type":"Feature","geometry":{"type":"Point","coordinates":[-121.803388,47.432251]}}],"is_temporal":false,"author":{"url":"","metadata":"","contact_name":"","contact_address":"","source":"","contact_phone":""},"source":"","pagination":{"sort":null,"start":0,"total":9,"limit":1000000},"state":"complete","tags":"test5","published":"2014-08-10T21:44:46-04:00","id":16439}