{"type":"FeatureCollection","data_type":"Dataset","url_type":null,"permissions":[{"permissions":{"download":true,"view":true},"group_id":"everyone"}],"classification":null,"title":"Different Numbers","count":35,"stream_id":16453,"contributor":{"url":"http://geocommons.com/users/8701","name":"greggwitt"},"data_attributes":null,"calculation_params":null,"icon_link":null,"link":"http://geocommons.com/overlays/16453.json","extent":[-91.1301,35.3743,-89.9047,36.0464],"geometry_types":["point"],"unique_name":null,"name":"Different Numbers","feature_count":35,"description":"","next_feature":null,"is_raster":false,"short_classification":"Y","stats":{"latitude":{"max":36.046414,"mean":35.6993376571429,"variance":0.0378271452688203,"stdev":0.19449201852215,"min":35.374264,"median":35.67484},"cable subs":{"max":3760.0,"mean":462.0,"variance":513145.235294118,"stdev":716.341563288155,"min":18.0,"median":198.0},"longitude":{"max":-89.904739,"mean":-90.4298342285714,"variance":0.120707846710651,"stdev":0.347430347998921,"min":-91.130124,"median":-90.342529}},"features":[{"properties":{"city":"Arbyrd","latitude":36.046414,"cable subs":112.0,"longitude":-90.238097,"id":"a65xy6pxn26s","state":"MO"},"type":"Feature","geometry":{"type":"Point","coordinates":[-90.238097,36.046414]}},{"properties":{"city":"Bassett","latitude":35.535988,"cable subs":42.0,"longitude":-90.126951,"id":"a65xy6o7qe8f","state":"AR"},"type":"Feature","geometry":{"type":"Point","coordinates":[-90.126951,35.535988]}},{"properties":{"city":"Black Oak","latitude":35.83589,"cable subs":55.0,"longitude":-90.368024,"id":"a65xy6q1vtsc","state":"AR"},"type":"Feature","geometry":{"type":"Point","coordinates":[-90.368024,35.83589]}},{"properties":{"city":"Blytheville","latitude":35.92848,"cable subs":3760.0,"longitude":-89.904739,"id":"a65xy6rffek4","state":"AR"},"type":"Feature","geometry":{"type":"Point","coordinates":[-89.904739,35.92848]}},{"properties":{"city":"Bono","latitude":35.90885,"cable subs":713.0,"longitude":-90.801254,"id":"a65xy6iyf1r0","state":"AR"},"type":"Feature","geometry":{"type":"Point","coordinates":[-90.801254,35.90885]}},{"properties":{"city":"Brookland","latitude":35.90106,"cable subs":424.0,"longitude":-90.580434,"id":"a65xy6rml59n","state":"AR"},"type":"Feature","geometry":{"type":"Point","coordinates":[-90.580434,35.90106]}},{"properties":{"city":"Caraway","latitude":35.758155,"cable subs":351.0,"longitude":-90.323374,"id":"a65xy6oesvwz","state":"AR"},"type":"Feature","geometry":{"type":"Point","coordinates":[-90.323374,35.758155]}},{"properties":{"city":"Cardwell","latitude":36.045945,"cable subs":190.0,"longitude":-90.293224,"id":"a65xy6kurmzh","state":"MO"},"type":"Feature","geometry":{"type":"Point","coordinates":[-90.293224,36.045945]}},{"properties":{"city":"Cash","latitude":35.79873,"cable subs":50.0,"longitude":-90.933834,"id":"a65xy6u48fm8","state":"AR"},"type":"Feature","geometry":{"type":"Point","coordinates":[-90.933834,35.79873]}},{"properties":{"city":"Cherry Valley","latitude":35.40297,"cable subs":139.0,"longitude":-90.753304,"id":"a65xy6v3jqx0","state":"AR"},"type":"Feature","geometry":{"type":"Point","coordinates":[-90.753304,35.40297]}},{"properties":{"city":"Dyess","latitude":35.59091,"cable subs":79.0,"longitude":-90.213924,"id":"a65xy6p8dfoc","state":"AR"},"type":"Feature","geometry":{"type":"Point","coordinates":[-90.213924,35.59091]}},{"properties":{"city":"Fisher","latitude":35.491775,"cable subs":57.0,"longitude":-90.972809,"id":"a65xy6nshsay","state":"AR"},"type":"Feature","geometry":{"type":"Point","coordinates":[-90.972809,35.491775]}},{"properties":{"city":"Gilmore","latitude":35.411215,"cable subs":23.0,"longitude":-90.279614,"id":"a65xy6x3pb1g","state":"AR"},"type":"Feature","geometry":{"type":"Point","coordinates":[-90.279614,35.411215]}},{"properties":{"city":"Gosnell","latitude":35.959795,"cable subs":503.0,"longitude":-89.968399,"id":"a65xy6q4pol9","state":"AR"},"type":"Feature","geometry":{"type":"Point","coordinates":[-89.968399,35.959795]}},{"properties":{"city":"Grubbs","latitude":35.651935,"cable subs":104.0,"longitude":-91.074424,"id":"a65xy6jcbnor","state":"AR"},"type":"Feature","geometry":{"type":"Point","coordinates":[-91.074424,35.651935]}},{"properties":{"city":"Harrisburg","latitude":35.5641,"cable subs":741.0,"longitude":-90.716829,"id":"a65xy6wko2ig","state":"AR"},"type":"Feature","geometry":{"type":"Point","coordinates":[-90.716829,35.5641]}},{"properties":{"city":"Hickory Ridge","latitude":35.401732,"cable subs":64.0,"longitude":-90.995407,"id":"a65xy6lhiqnt","state":"AR"},"type":"Feature","geometry":{"type":"Point","coordinates":[-90.995407,35.401732]}},{"properties":{"city":"Joiner","latitude":35.507585,"cable subs":140.0,"longitude":-90.150004,"id":"a65xy6okdv02","state":"AR"},"type":"Feature","geometry":{"type":"Point","coordinates":[-90.150004,35.507585]}},{"properties":{"city":"Jonesboro","latitude":35.83526,"cable subs":112.0,"longitude":-90.705054,"id":"a65xy6vxc08l","state":"AR"},"type":"Feature","geometry":{"type":"Point","coordinates":[-90.705054,35.83526]}},{"properties":{"city":"Keiser","latitude":35.67484,"cable subs":204.0,"longitude":-90.098764,"id":"a65xy6intoqm","state":"AR"},"type":"Feature","geometry":{"type":"Point","coordinates":[-90.098764,35.67484]}},{"properties":{"city":"Lake City","latitude":35.820849,"cable subs":604.0,"longitude":-90.432698,"id":"a65xy6v6h04z","state":"AR"},"type":"Feature","geometry":{"type":"Point","coordinates":[-90.432698,35.820849]}},{"properties":{"city":"Leachville","latitude":35.936235,"cable subs":435.0,"longitude":-90.258054,"id":"a65xy6tpog91","state":"AR"},"type":"Feature","geometry":{"type":"Point","coordinates":[-90.258054,35.936235]}},{"properties":{"city":"Lepanto","latitude":35.613015,"cable subs":610.0,"longitude":-90.330779,"id":"a65xy6i27tnm","state":"AR"},"type":"Feature","geometry":{"type":"Point","coordinates":[-90.330779,35.613015]}},{"properties":{"city":"Luxora","latitude":35.75667,"cable subs":240.0,"longitude":-89.928079,"id":"a65xy6ob0mal","state":"AR"},"type":"Feature","geometry":{"type":"Point","coordinates":[-89.928079,35.75667]}},{"properties":{"city":"Manila","latitude":35.879795,"cable subs":822.0,"longitude":-90.166244,"id":"a65xy6v1kj06","state":"AR"},"type":"Feature","geometry":{"type":"Point","coordinates":[-90.166244,35.879795]}},{"properties":{"city":"Marked Tree","latitude":35.533045,"cable subs":764.0,"longitude":-90.422609,"id":"a65xy6pazez2","state":"AR"},"type":"Feature","geometry":{"type":"Point","coordinates":[-90.422609,35.533045]}},{"properties":{"city":"Monette","latitude":35.891335,"cable subs":411.0,"longitude":-90.342529,"id":"a65xy6xc06et","state":"AR"},"type":"Feature","geometry":{"type":"Point","coordinates":[-90.342529,35.891335]}},{"properties":{"city":"Osceola","latitude":35.70496,"cable subs":1656.0,"longitude":-89.970744,"id":"a65xy6vci9xs","state":"AR"},"type":"Feature","geometry":{"type":"Point","coordinates":[-89.970744,35.70496]}},{"properties":{"city":"Payneway","latitude":35.54432,"cable subs":18.0,"longitude":-90.502357,"id":"a65xy6u8ws0b","state":"AR"},"type":"Feature","geometry":{"type":"Point","coordinates":[-90.502357,35.54432]}},{"properties":{"city":"Swifton","latitude":35.824255,"cable subs":149.0,"longitude":-91.130124,"id":"a65xy6pl1nze","state":"AR"},"type":"Feature","geometry":{"type":"Point","coordinates":[-91.130124,35.824255]}},{"properties":{"city":"Trumann","latitude":35.664505,"cable subs":1922.0,"longitude":-90.508759,"id":"a65xy6js9d3d","state":"AR"},"type":"Feature","geometry":{"type":"Point","coordinates":[-90.508759,35.664505]}},{"properties":{"city":"Turrell","latitude":35.374264,"cable subs":96.0,"longitude":-90.256128,"id":"a65xy6m8geke","state":"AR"},"type":"Feature","geometry":{"type":"Point","coordinates":[-90.256128,35.374264]}},{"properties":{"city":"Tyronza","latitude":35.491825,"cable subs":183.0,"longitude":-90.358519,"id":"a65xy6t21sxq","state":"AR"},"type":"Feature","geometry":{"type":"Point","coordinates":[-90.358519,35.491825]}},{"properties":{"city":"Weiner","latitude":35.61976,"cable subs":199.0,"longitude":-90.898699,"id":"a65xy6quv9z4","state":"AR"},"type":"Feature","geometry":{"type":"Point","coordinates":[-90.898699,35.61976]}},{"properties":{"city":"Wilson","latitude":35.570356,"cable subs":198.0,"longitude":-90.039413,"id":"a65xy6ky6cns","state":"AR"},"type":"Feature","geometry":{"type":"Point","coordinates":[-90.039413,35.570356]}}],"is_temporal":false,"author":{"url":"","metadata":"","contact_name":"","contact_address":"","source":"","contact_phone":""},"source":"","pagination":{"sort":null,"start":0,"total":35,"limit":1000000},"state":"complete","tags":"","published":"2014-08-10T21:45:09-04:00","id":16453}