{"type":"FeatureCollection","data_type":"Dataset","url_type":null,"permissions":[{"permissions":{"download":true,"view":true},"group_id":"everyone"}],"classification":null,"title":"ML Truck Stops August 2009","count":64,"stream_id":16468,"contributor":{"url":"http://geocommons.com/users/6861","name":"pbiegen"},"data_attributes":null,"calculation_params":null,"icon_link":null,"link":"http://geocommons.com/overlays/16468.json","extent":[-122.086,30.204,-71.9115,47.4731],"geometry_types":["point"],"unique_name":null,"name":"ML Truck Stops August 2009","feature_count":64,"description":"","next_feature":null,"is_raster":false,"short_classification":"Y","stats":{"latitude":{"max":47.473145,"mean":39.97289765625,"variance":10.5720314152278,"stdev":3.25146604091566,"min":30.204012,"median":40.708505},"weight":{"max":1.0,"mean":1.0,"variance":0.0,"stdev":0.0,"min":1.0,"median":1.0},"longitude":{"max":-71.911524,"mean":-82.30869596875,"variance":64.2286135747362,"stdev":8.01427561135354,"min":-122.086137,"median":-80.241094}},"features":[{"properties":{"city":"HAYWARD","name":null,"latitude":37.671197,"weight":1.0,"longitude":-122.086137,"id":"a69zriybjiqs","state":"CA"},"type":"Feature","geometry":{"type":"Point","coordinates":[-122.086137,37.671197]}},{"properties":{"city":"TIFTON","name":null,"latitude":31.451382,"weight":1.0,"longitude":-83.509327,"id":"a69zriv3vdq5","state":"GA"},"type":"Feature","geometry":{"type":"Point","coordinates":[-83.509327,31.451382]}},{"properties":{"city":"CHICAGO","name":null,"latitude":41.88415,"weight":1.0,"longitude":-87.632409,"id":"a69zrj2rj49f","state":"IL"},"type":"Feature","geometry":{"type":"Point","coordinates":[-87.632409,41.88415]}},{"properties":{"city":"STREATOR","name":null,"latitude":41.12147,"weight":1.0,"longitude":-88.834189,"id":"a69zripqfd82","state":"IL"},"type":"Feature","geometry":{"type":"Point","coordinates":[-88.834189,41.12147]}},{"properties":{"city":"MACOMB","name":null,"latitude":40.459895,"weight":1.0,"longitude":-90.669479,"id":"a69zritp7kll","state":"IL"},"type":"Feature","geometry":{"type":"Point","coordinates":[-90.669479,40.459895]}},{"properties":{"city":"DANVILLE","name":null,"latitude":40.159465,"weight":1.0,"longitude":-87.630434,"id":"a69zriqkp57q","state":"IL"},"type":"Feature","geometry":{"type":"Point","coordinates":[-87.630434,40.159465]}},{"properties":{"city":"VILLA PARK","name":null,"latitude":41.88929,"weight":1.0,"longitude":-87.979104,"id":"a69zrit00v24","state":"IL"},"type":"Feature","geometry":{"type":"Point","coordinates":[-87.979104,41.88929]}},{"properties":{"city":"Mokena","name":null,"latitude":41.534245,"weight":1.0,"longitude":-87.884674,"id":"a69zrittgxn5","state":"IL"},"type":"Feature","geometry":{"type":"Point","coordinates":[-87.884674,41.534245]}},{"properties":{"city":"LAFAYETTE","name":null,"latitude":40.41737,"weight":1.0,"longitude":-86.876554,"id":"a69zrj1n8qg3","state":"IN"},"type":"Feature","geometry":{"type":"Point","coordinates":[-86.876554,40.41737]}},{"properties":{"city":"GEISMAR","name":null,"latitude":30.204012,"weight":1.0,"longitude":-91.025638,"id":"a69zrix19gq0","state":"LA"},"type":"Feature","geometry":{"type":"Point","coordinates":[-91.025638,30.204012]}},{"properties":{"city":"SHREVEPORT","name":null,"latitude":32.514615,"weight":1.0,"longitude":-93.747274,"id":"a69zrj14a3v4","state":"LA"},"type":"Feature","geometry":{"type":"Point","coordinates":[-93.747274,32.514615]}},{"properties":{"city":"WESTMINSTER","name":null,"latitude":42.545785,"weight":1.0,"longitude":-71.911524,"id":"a69zrj2alwrj","state":"MA"},"type":"Feature","geometry":{"type":"Point","coordinates":[-71.911524,42.545785]}},{"properties":{"city":"CAPITAL HEIGHTS","name":null,"latitude":38.885115,"weight":1.0,"longitude":-76.913619,"id":"a69zrirlsnx6","state":"MD"},"type":"Feature","geometry":{"type":"Point","coordinates":[-76.913619,38.885115]}},{"properties":{"city":"DEXTER","name":null,"latitude":42.338785,"weight":1.0,"longitude":-83.890234,"id":"a69zrj23tfx6","state":"MI"},"type":"Feature","geometry":{"type":"Point","coordinates":[-83.890234,42.338785]}},{"properties":{"city":"OWOSSO","name":null,"latitude":42.997565,"weight":1.0,"longitude":-84.176219,"id":"a69zriv3egcw","state":"MI"},"type":"Feature","geometry":{"type":"Point","coordinates":[-84.176219,42.997565]}},{"properties":{"city":"BURTON","name":null,"latitude":42.96847,"weight":1.0,"longitude":-83.633054,"id":"a69zrj4dugii","state":"MI"},"type":"Feature","geometry":{"type":"Point","coordinates":[-83.633054,42.96847]}},{"properties":{"city":"GRAND RAPIDS","name":null,"latitude":42.96641,"weight":1.0,"longitude":-85.671179,"id":"a69zrj3boczc","state":"MI"},"type":"Feature","geometry":{"type":"Point","coordinates":[-85.671179,42.96641]}},{"properties":{"city":"FLINT","name":null,"latitude":43.010745,"weight":1.0,"longitude":-83.686019,"id":"a69zrit0jjbj","state":"MI"},"type":"Feature","geometry":{"type":"Point","coordinates":[-83.686019,43.010745]}},{"properties":{"city":"MADISON HEIGHTS","name":null,"latitude":42.519985,"weight":1.0,"longitude":-83.109409,"id":"a69zriyy7cov","state":"MI"},"type":"Feature","geometry":{"type":"Point","coordinates":[-83.109409,42.519985]}},{"properties":{"city":"YPSILANTI","name":null,"latitude":42.24088,"weight":1.0,"longitude":-83.613089,"id":"a69zrioef3z8","state":"MI"},"type":"Feature","geometry":{"type":"Point","coordinates":[-83.613089,42.24088]}},{"properties":{"city":"BEMIDJI","name":null,"latitude":47.473145,"weight":1.0,"longitude":-94.879649,"id":"a69zritqso4h","state":"MN"},"type":"Feature","geometry":{"type":"Point","coordinates":[-94.879649,47.473145]}},{"properties":{"city":"EARTH CITY","name":null,"latitude":38.76564,"weight":1.0,"longitude":-90.460029,"id":"a69zrix1091y","state":"MO"},"type":"Feature","geometry":{"type":"Point","coordinates":[-90.460029,38.76564]}},{"properties":{"city":"KIDDER","name":null,"latitude":39.781475,"weight":1.0,"longitude":-94.102474,"id":"a69zrj1fsrj2","state":"MO"},"type":"Feature","geometry":{"type":"Point","coordinates":[-94.102474,39.781475]}},{"properties":{"city":"MERIDIAN","name":null,"latitude":32.36503,"weight":1.0,"longitude":-88.703069,"id":"a69zriukp18z","state":"MS"},"type":"Feature","geometry":{"type":"Point","coordinates":[-88.703069,32.36503]}},{"properties":{"city":"MONROE","name":null,"latitude":34.98263,"weight":1.0,"longitude":-80.548914,"id":"a69zrj2cy8bv","state":"NC"},"type":"Feature","geometry":{"type":"Point","coordinates":[-80.548914,34.98263]}},{"properties":{"city":"WINSTON SALEM","name":null,"latitude":36.099625,"weight":1.0,"longitude":-80.241094,"id":"a69zritkzzqs","state":"NC"},"type":"Feature","geometry":{"type":"Point","coordinates":[-80.241094,36.099625]}},{"properties":{"city":"DURHAM","name":null,"latitude":35.995275,"weight":1.0,"longitude":-78.896014,"id":"a69zrivhplaf","state":"NC"},"type":"Feature","geometry":{"type":"Point","coordinates":[-78.896014,35.995275]}},{"properties":{"city":"CARTERET","name":null,"latitude":40.578852,"weight":1.0,"longitude":-74.219563,"id":"a69zrj0iuyt4","state":"NJ"},"type":"Feature","geometry":{"type":"Point","coordinates":[-74.219563,40.578852]}},{"properties":{"city":"SPRINGFIELD","name":null,"latitude":40.708505,"weight":1.0,"longitude":-74.313574,"id":"a69zrj3dmsff","state":"NJ"},"type":"Feature","geometry":{"type":"Point","coordinates":[-74.313574,40.708505]}},{"properties":{"city":"E. ORANGE","name":null,"latitude":40.772846,"weight":1.0,"longitude":-74.229219,"id":"a69zrizk5nd9","state":"NJ"},"type":"Feature","geometry":{"type":"Point","coordinates":[-74.229219,40.772846]}},{"properties":{"city":"WEST ORANGE","name":null,"latitude":40.778241,"weight":1.0,"longitude":-74.238975,"id":"a69zrj3h33od","state":"NJ"},"type":"Feature","geometry":{"type":"Point","coordinates":[-74.238975,40.778241]}},{"properties":{"city":"LINDEN","name":null,"latitude":40.631995,"weight":1.0,"longitude":-74.255204,"id":"a69zrisxjm61","state":"NJ"},"type":"Feature","geometry":{"type":"Point","coordinates":[-74.255204,40.631995]}},{"properties":{"city":"ORANGE","name":null,"latitude":40.772846,"weight":1.0,"longitude":-74.229219,"id":"a69zrj2dnmdu","state":"NJ"},"type":"Feature","geometry":{"type":"Point","coordinates":[-74.229219,40.772846]}},{"properties":{"city":"LIC","name":null,"latitude":42.856319,"weight":1.0,"longitude":-76.501892,"id":"a69zrj2rq6md","state":"NY"},"type":"Feature","geometry":{"type":"Point","coordinates":[-76.501892,42.856319]}},{"properties":{"city":"LACKAWANNA","name":null,"latitude":42.8258,"weight":1.0,"longitude":-78.824734,"id":"a69zriv3wg2p","state":"NY"},"type":"Feature","geometry":{"type":"Point","coordinates":[-78.824734,42.8258]}},{"properties":{"city":"LONG ISLAND","name":null,"latitude":40.75087,"weight":1.0,"longitude":-73.941359,"id":"a69zrj2jan5v","state":"NY"},"type":"Feature","geometry":{"type":"Point","coordinates":[-73.941359,40.75087]}},{"properties":{"city":"ROCHESTER","name":null,"latitude":43.1555,"weight":1.0,"longitude":-77.616033,"id":"a69zrj059bil","state":"NY"},"type":"Feature","geometry":{"type":"Point","coordinates":[-77.616033,43.1555]}},{"properties":{"city":"SALAMANCA","name":null,"latitude":42.153815,"weight":1.0,"longitude":-78.708909,"id":"a69zriueqi4a","state":"NY"},"type":"Feature","geometry":{"type":"Point","coordinates":[-78.708909,42.153815]}},{"properties":{"city":"MASPETH","name":null,"latitude":40.727682,"weight":1.0,"longitude":-73.895471,"id":"a69zritnx8o8","state":"NY"},"type":"Feature","geometry":{"type":"Point","coordinates":[-73.895471,40.727682]}},{"properties":{"city":"ELMIRA","name":null,"latitude":42.09041,"weight":1.0,"longitude":-76.798814,"id":"a69zrixfzj1g","state":"NY"},"type":"Feature","geometry":{"type":"Point","coordinates":[-76.798814,42.09041]}},{"properties":{"city":"SYRACUSE","name":null,"latitude":43.04999,"weight":1.0,"longitude":-76.147389,"id":"a69zrivyqdge","state":"NY"},"type":"Feature","geometry":{"type":"Point","coordinates":[-76.147389,43.04999]}},{"properties":{"city":"BUFFALO","name":null,"latitude":42.88544,"weight":1.0,"longitude":-78.878464,"id":"a69zriwhloq9","state":"NY"},"type":"Feature","geometry":{"type":"Point","coordinates":[-78.878464,42.88544]}},{"properties":{"city":"BROOKLYN","name":null,"latitude":40.692385,"weight":1.0,"longitude":-73.989872,"id":"a69zriuqjpi7","state":"NY"},"type":"Feature","geometry":{"type":"Point","coordinates":[-73.989872,40.692385]}},{"properties":{"city":"OLEAN","name":null,"latitude":42.077555,"weight":1.0,"longitude":-78.428875,"id":"a69zriqxj01s","state":"NY"},"type":"Feature","geometry":{"type":"Point","coordinates":[-78.428875,42.077555]}},{"properties":{"city":"PORT CHESTER","name":null,"latitude":41.000495,"weight":1.0,"longitude":-73.666589,"id":"a69zriqgmz3f","state":"NY"},"type":"Feature","geometry":{"type":"Point","coordinates":[-73.666589,41.000495]}},{"properties":{"city":"AKRON","name":null,"latitude":41.084195,"weight":1.0,"longitude":-81.514059,"id":"a69zritokeir","state":"OH"},"type":"Feature","geometry":{"type":"Point","coordinates":[-81.514059,41.084195]}},{"properties":{"city":"ZANESVILLE","name":null,"latitude":39.940549,"weight":1.0,"longitude":-82.001389,"id":"a69zritt3uu0","state":"OH"},"type":"Feature","geometry":{"type":"Point","coordinates":[-82.001389,39.940549]}},{"properties":{"city":"CAMBRIDGE","name":null,"latitude":40.02479,"weight":1.0,"longitude":-81.590109,"id":"a69zriyurw61","state":"OH"},"type":"Feature","geometry":{"type":"Point","coordinates":[-81.590109,40.02479]}},{"properties":{"city":"MONCLOVA","name":null,"latitude":41.558784,"weight":1.0,"longitude":-83.734174,"id":"a69zriqnjptr","state":"OH"},"type":"Feature","geometry":{"type":"Point","coordinates":[-83.734174,41.558784]}},{"properties":{"city":"COLUMBUS","name":null,"latitude":39.96196,"weight":1.0,"longitude":-83.002984,"id":"a69zrj4i5ov3","state":"OH"},"type":"Feature","geometry":{"type":"Point","coordinates":[-83.002984,39.96196]}},{"properties":{"city":"DAYTON","name":null,"latitude":39.75911,"weight":1.0,"longitude":-84.194439,"id":"a69zrj4hfg50","state":"OH"},"type":"Feature","geometry":{"type":"Point","coordinates":[-84.194439,39.75911]}},{"properties":{"city":"DUNCANSVILLE","name":null,"latitude":40.423355,"weight":1.0,"longitude":-78.433624,"id":"a69zriubh498","state":"PA"},"type":"Feature","geometry":{"type":"Point","coordinates":[-78.433624,40.423355]}},{"properties":{"city":"PHILADELPHIA","name":null,"latitude":39.95227,"weight":1.0,"longitude":-75.162369,"id":"a69zrj2tfooa","state":"PA"},"type":"Feature","geometry":{"type":"Point","coordinates":[-75.162369,39.95227]}},{"properties":{"city":"GREENSBURG","name":null,"latitude":40.299245,"weight":1.0,"longitude":-79.543159,"id":"a69zritnf7b9","state":"PA"},"type":"Feature","geometry":{"type":"Point","coordinates":[-79.543159,40.299245]}},{"properties":{"city":"BRADFORD","name":null,"latitude":41.95586,"weight":1.0,"longitude":-78.650479,"id":"a69zrit02183","state":"PA"},"type":"Feature","geometry":{"type":"Point","coordinates":[-78.650479,41.95586]}},{"properties":{"city":"PITTSBURGH","name":null,"latitude":40.438315,"weight":1.0,"longitude":-79.997449,"id":"a69zriq8n7bm","state":"PA"},"type":"Feature","geometry":{"type":"Point","coordinates":[-79.997449,40.438315]}},{"properties":{"city":"PUNXSUTAWNEY","name":null,"latitude":40.94368,"weight":1.0,"longitude":-78.970514,"id":"a69zriuy7wjq","state":"PA"},"type":"Feature","geometry":{"type":"Point","coordinates":[-78.970514,40.94368]}},{"properties":{"city":"KELLER","name":null,"latitude":32.930862,"weight":1.0,"longitude":-97.22511,"id":"a69zrj3xrzca","state":"TX"},"type":"Feature","geometry":{"type":"Point","coordinates":[-97.22511,32.930862]}},{"properties":{"city":"KILGORE","name":null,"latitude":32.38028,"weight":1.0,"longitude":-94.869044,"id":"a69zrj071fps","state":"TX"},"type":"Feature","geometry":{"type":"Point","coordinates":[-94.869044,32.38028]}},{"properties":{"city":"FOREST","name":null,"latitude":37.362861,"weight":1.0,"longitude":-79.288435,"id":"a69zrj31wuhh","state":"VA"},"type":"Feature","geometry":{"type":"Point","coordinates":[-79.288435,37.362861]}},{"properties":{"city":"VIENNA","name":null,"latitude":38.900375,"weight":1.0,"longitude":-77.263654,"id":"a69zrirek9fk","state":"VA"},"type":"Feature","geometry":{"type":"Point","coordinates":[-77.263654,38.900375]}},{"properties":{"city":"CHANTILLY","name":null,"latitude":38.883607,"weight":1.0,"longitude":-77.439755,"id":"a69zriptjw0z","state":"VA"},"type":"Feature","geometry":{"type":"Point","coordinates":[-77.439755,38.883607]}},{"properties":{"city":"CHARLESTON","name":null,"latitude":38.350195,"weight":1.0,"longitude":-81.638989,"id":"a69zrisgro0d","state":"WV"},"type":"Feature","geometry":{"type":"Point","coordinates":[-81.638989,38.350195]}},{"properties":{"city":"INWOOD","name":null,"latitude":39.36196,"weight":1.0,"longitude":-78.041844,"id":"a69zrizmuup4","state":"WV"},"type":"Feature","geometry":{"type":"Point","coordinates":[-78.041844,39.36196]}}],"is_temporal":false,"author":{"url":"","metadata":"","contact_name":"","contact_address":"","source":"","contact_phone":""},"source":"","pagination":{"sort":null,"start":0,"total":64,"limit":1000000},"state":"complete","tags":"","published":"2014-08-10T21:45:26-04:00","id":16468}