{"type":"FeatureCollection","data_type":"Dataset","url_type":null,"permissions":[{"permissions":{"download":true,"view":true},"group_id":"everyone"}],"classification":null,"title":"Bank Owned Properties","count":33,"stream_id":16478,"contributor":{"url":"http://geocommons.com/users/8721","name":"ernie.espinoza"},"data_attributes":null,"calculation_params":null,"icon_link":null,"link":"http://geocommons.com/overlays/16478.json","extent":[-118.566,33.7866,-116.247,34.2923],"geometry_types":["point"],"unique_name":null,"name":"Bank Owned Properties","feature_count":33,"description":"Pending inventory that will be listed soon as Bank owned Property for sale","next_feature":null,"is_raster":false,"short_classification":"Y","stats":{"geo_score":{"max":0.857,"mean":0.807666666666666,"variance":0.0126019166666667,"stdev":0.112258258790463,"min":0.429,"median":0.857}},"features":[{"properties":{"city":"Baldwin Park","zip":"91706","county":"LA - BK","geo_score":0.857,"id":"a62ljzg8qwk0","geo_precision":"zip"},"type":"Feature","geometry":{"type":"Point","coordinates":[-118.298662,33.786594]}},{"properties":{"city":"Calabasas","zip":"91302","county":"LA","geo_score":0.857,"id":"a62ljzgz9gvw","geo_precision":"zip"},"type":"Feature","geometry":{"type":"Point","coordinates":[-118.298662,33.786594]}},{"properties":{"city":"Chatsworth","zip":"91311","county":"LA","geo_score":0.857,"id":"a62ljzkpo1vm","geo_precision":"zip"},"type":"Feature","geometry":{"type":"Point","coordinates":[-118.298662,33.786594]}},{"properties":{"city":"Compton","zip":"90221","county":"LA","geo_score":0.857,"id":"a62ljzmapny7","geo_precision":"zip"},"type":"Feature","geometry":{"type":"Point","coordinates":[-118.21681,33.879565]}},{"properties":{"city":"Compton","zip":"90221","county":"LA","geo_score":0.857,"id":"a62ljzadf4so","geo_precision":"zip"},"type":"Feature","geometry":{"type":"Point","coordinates":[-118.21681,33.879565]}},{"properties":{"city":"Encino","zip":"91316","county":"LA","geo_score":0.857,"id":"a62ljzf0phjt","geo_precision":"zip"},"type":"Feature","geometry":{"type":"Point","coordinates":[-118.298662,33.786594]}},{"properties":{"city":"Fontana","zip":"92336","county":"LA","geo_score":0.857,"id":"a62ljznd36eq","geo_precision":"zip"},"type":"Feature","geometry":{"type":"Point","coordinates":[-116.247005,34.122307]}},{"properties":{"city":"Harbor City","zip":"90710","county":"LA","geo_score":0.857,"id":"a62ljzhcav65","geo_precision":"zip"},"type":"Feature","geometry":{"type":"Point","coordinates":[-118.251554,33.791267]}},{"properties":{"city":"Los Angeles","zip":"91325","county":"LA","geo_score":0.429,"id":"a62ljzidijf6","geo_precision":"street"},"type":"Feature","geometry":{"type":"Point","coordinates":[-118.509864,34.209641]}},{"properties":{"city":"Los Angeles","zip":"91307","county":"LA","geo_score":0.6,"id":"a62ljzgvfn4a","geo_precision":"street"},"type":"Feature","geometry":{"type":"Point","coordinates":[-118.565992,34.292321]}},{"properties":{"city":"Los Angeles","zip":"90016","county":"LA","geo_score":0.857,"id":"a62ljzf3eb8t","geo_precision":"zip"},"type":"Feature","geometry":{"type":"Point","coordinates":[-118.298662,33.786594]}},{"properties":{"city":"Los Angeles","zip":"90065","county":"LA","geo_score":0.857,"id":"a62ljzpeav9v","geo_precision":"zip"},"type":"Feature","geometry":{"type":"Point","coordinates":[-118.298662,33.786594]}},{"properties":{"city":"Los Angeles","zip":"90068","county":"LA","geo_score":0.857,"id":"a62ljzbfpqro","geo_precision":"zip"},"type":"Feature","geometry":{"type":"Point","coordinates":[-118.298662,33.786594]}},{"properties":{"city":"Los Angeles","zip":"91331","county":"LA","geo_score":0.6,"id":"a62ljzlhwch6","geo_precision":"street"},"type":"Feature","geometry":{"type":"Point","coordinates":[-118.565992,34.292321]}},{"properties":{"city":"Los Angeles","zip":"90026","county":"LA","geo_score":0.857,"id":"a62ljznalupd","geo_precision":"zip"},"type":"Feature","geometry":{"type":"Point","coordinates":[-118.298662,33.786594]}},{"properties":{"city":"Los Angeles","zip":"90033","county":"LA","geo_score":0.857,"id":"a62ljzda08hr","geo_precision":"zip"},"type":"Feature","geometry":{"type":"Point","coordinates":[-118.298662,33.786594]}},{"properties":{"city":"Los Angeles","zip":"90043","county":"LA","geo_score":0.857,"id":"a62ljzatoa8c","geo_precision":"zip"},"type":"Feature","geometry":{"type":"Point","coordinates":[-118.298662,33.786594]}},{"properties":{"city":"Los Angeles","zip":"91335","county":"LA","geo_score":0.6,"id":"a62ljzl9yn9z","geo_precision":"street"},"type":"Feature","geometry":{"type":"Point","coordinates":[-118.565992,34.292321]}},{"properties":{"city":"Los Angeles","zip":"90037","county":"LA","geo_score":0.857,"id":"a62ljzqbxq93","geo_precision":"zip"},"type":"Feature","geometry":{"type":"Point","coordinates":[-118.298662,33.786594]}},{"properties":{"city":"Lynwood","zip":"90262","county":"LA","geo_score":0.857,"id":"a62ljzgn56op","geo_precision":"zip"},"type":"Feature","geometry":{"type":"Point","coordinates":[-118.202954,33.924538]}},{"properties":{"city":"Maywood","zip":"90270","county":"LA","geo_score":0.857,"id":"a62ljze9kldj","geo_precision":"zip"},"type":"Feature","geometry":{"type":"Point","coordinates":[-118.187376,33.988463]}},{"properties":{"city":"Pacoima","zip":"91331","county":"LA","geo_score":0.857,"id":"a62ljzhyl1wa","geo_precision":"zip"},"type":"Feature","geometry":{"type":"Point","coordinates":[-118.298662,33.786594]}},{"properties":{"city":"Paramount","zip":"90723","county":"LA","geo_score":0.857,"id":"a62ljzfgsh1t","geo_precision":"zip"},"type":"Feature","geometry":{"type":"Point","coordinates":[-118.165152,33.899015]}},{"properties":{"city":"Pasadena","zip":"91107","county":"LA","geo_score":0.857,"id":"a62ljzbdufw4","geo_precision":"zip"},"type":"Feature","geometry":{"type":"Point","coordinates":[-118.298662,33.786594]}},{"properties":{"city":"Pasadena","zip":"91104","county":"LA","geo_score":0.857,"id":"a62ljziwz8bi","geo_precision":"zip"},"type":"Feature","geometry":{"type":"Point","coordinates":[-118.298662,33.786594]}},{"properties":{"city":"Pasadena","zip":"91103","county":"LA","geo_score":0.857,"id":"a62ljza55934","geo_precision":"zip"},"type":"Feature","geometry":{"type":"Point","coordinates":[-118.298662,33.786594]}},{"properties":{"city":"Reseda","zip":"91335","county":"LA","geo_score":0.857,"id":"a62ljzk0u8a3","geo_precision":"zip"},"type":"Feature","geometry":{"type":"Point","coordinates":[-118.298662,33.786594]}},{"properties":{"city":"Reseda","zip":"91335","county":"LA","geo_score":0.857,"id":"a62ljzl0zevv","geo_precision":"zip"},"type":"Feature","geometry":{"type":"Point","coordinates":[-118.298662,33.786594]}},{"properties":{"city":"Sun Valley","zip":"91352","county":"LA","geo_score":0.857,"id":"a62ljzmmvj5l","geo_precision":"zip"},"type":"Feature","geometry":{"type":"Point","coordinates":[-118.298662,33.786594]}},{"properties":{"city":"Van Nuys","zip":"91411","county":"LA","geo_score":0.857,"id":"a62ljzn1giwc","geo_precision":"zip"},"type":"Feature","geometry":{"type":"Point","coordinates":[-118.298662,33.786594]}},{"properties":{"city":"Van Nuys","zip":null,"county":"LA","geo_score":0.714,"id":"a62ljznj0go8","geo_precision":"city"},"type":"Feature","geometry":{"type":"Point","coordinates":[-118.298662,33.786594]}},{"properties":{"city":"West Hollywood","zip":"90046","county":"LA","geo_score":0.571,"id":"a62ljzn49s2q","geo_precision":"street"},"type":"Feature","geometry":{"type":"Point","coordinates":[-118.345205,34.1016]}},{"properties":{"city":"Whittier","zip":"90601","county":"LA","geo_score":0.857,"id":"a62ljznp2pik","geo_precision":"zip"},"type":"Feature","geometry":{"type":"Point","coordinates":[-118.0441,34.004311]}}],"is_temporal":false,"author":{"url":"","metadata":"","contact_name":"Ernie Espinoza","contact_address":"","source":"","contact_phone":"626 502 7208"},"source":"","pagination":{"sort":null,"start":0,"total":33,"limit":1000000},"state":"complete","tags":"angeles,bank,ca,california,foreclosure,los,owned","published":"2014-08-10T21:45:33-04:00","id":16478}