{"type":"FeatureCollection","data_type":"Dataset","url_type":null,"permissions":[{"permissions":{"download":true,"view":true},"group_id":"everyone"}],"classification":null,"title":"Shipment CountA B","count":599,"stream_id":16533,"contributor":{"url":"http://geocommons.com/users/6861","name":"pbiegen"},"data_attributes":null,"calculation_params":null,"icon_link":null,"link":"http://geocommons.com/overlays/16533.json","extent":[-157.858,0.0,114.187,53.3736],"geometry_types":["point"],"unique_name":null,"name":"Shipment CountA B","feature_count":599,"description":"","next_feature":null,"is_raster":false,"short_classification":"Y","stats":{"latitude":{"max":53.37365,"mean":38.1856481135225,"variance":34.4093012489825,"stdev":5.86594419074905,"min":0.0,"median":39.626032},"weight":{"max":133.0,"mean":3.84974958263773,"variance":81.1646780308324,"stdev":9.00914413420234,"min":1.0,"median":1.0},"longitude":{"max":114.18705,"mean":-88.1004497529216,"variance":330.655368631961,"stdev":18.1839316054576,"min":-157.857619,"median":-84.95088}},"features":[{"properties":{"city":"BIRMINGHAM","name":null,"latitude":33.520295,"weight":15.0,"longitude":-86.811504,"id":"a6f53b98hbys","state":"AL"},"type":"Feature","geometry":{"type":"Point","coordinates":[-86.811504,33.520295]}},{"properties":{"city":"FORT PAYNE","name":null,"latitude":34.441318,"weight":1.0,"longitude":-85.714378,"id":"a6f53bdeltrv","state":"AL"},"type":"Feature","geometry":{"type":"Point","coordinates":[-85.714378,34.441318]}},{"properties":{"city":"LOXLEY","name":null,"latitude":30.62097,"weight":3.0,"longitude":-87.752999,"id":"a6f53b6rnjl8","state":"AL"},"type":"Feature","geometry":{"type":"Point","coordinates":[-87.752999,30.62097]}},{"properties":{"city":"DOTHAN","name":null,"latitude":31.22324,"weight":5.0,"longitude":-85.3933,"id":"a6f53b7p3gvq","state":"AL"},"type":"Feature","geometry":{"type":"Point","coordinates":[-85.3933,31.22324]}},{"properties":{"city":"MADISON","name":null,"latitude":34.705885,"weight":1.0,"longitude":-86.750929,"id":"a6f53be28wlx","state":"AL"},"type":"Feature","geometry":{"type":"Point","coordinates":[-86.750929,34.705885]}},{"properties":{"city":"HUNTSVILLE","name":null,"latitude":34.729121,"weight":1.0,"longitude":-86.584961,"id":"a6f53b9byrdv","state":"AL"},"type":"Feature","geometry":{"type":"Point","coordinates":[-86.584961,34.729121]}},{"properties":{"city":"EUFAULA","name":null,"latitude":31.89499,"weight":1.0,"longitude":-85.145856,"id":"a6f53b46vtp8","state":"AL"},"type":"Feature","geometry":{"type":"Point","coordinates":[-85.145856,31.89499]}},{"properties":{"city":"DECATUR","name":null,"latitude":34.607389,"weight":3.0,"longitude":-86.979767,"id":"a6f53bbg45yf","state":"AL"},"type":"Feature","geometry":{"type":"Point","coordinates":[-86.979767,34.607389]}},{"properties":{"city":"BLYTHEVILLE","name":null,"latitude":35.92848,"weight":6.0,"longitude":-89.904739,"id":"a6f53bb7bz51","state":"AR"},"type":"Feature","geometry":{"type":"Point","coordinates":[-89.904739,35.92848]}},{"properties":{"city":"FORREST CITY","name":null,"latitude":35.011425,"weight":3.0,"longitude":-90.786204,"id":"a6f53b5e0h1y","state":"AR"},"type":"Feature","geometry":{"type":"Point","coordinates":[-90.786204,35.011425]}},{"properties":{"city":"FORT SMITH","name":null,"latitude":35.3846,"weight":1.0,"longitude":-94.421299,"id":"a6f53b37je1m","state":"AR"},"type":"Feature","geometry":{"type":"Point","coordinates":[-94.421299,35.3846]}},{"properties":{"city":"JONESBORO","name":null,"latitude":35.83526,"weight":1.0,"longitude":-90.705054,"id":"a6f53bcgr2wi","state":"AR"},"type":"Feature","geometry":{"type":"Point","coordinates":[-90.705054,35.83526]}},{"properties":{"city":"HARRISON","name":null,"latitude":36.22865,"weight":1.0,"longitude":-93.110514,"id":"a6f53baek9mm","state":"AR"},"type":"Feature","geometry":{"type":"Point","coordinates":[-93.110514,36.22865]}},{"properties":{"city":"CAMDEN","name":null,"latitude":33.58698,"weight":1.0,"longitude":-92.829579,"id":"a6f53bape2h2","state":"AR"},"type":"Feature","geometry":{"type":"Point","coordinates":[-92.829579,33.58698]}},{"properties":{"city":"LITTLE ROCK","name":null,"latitude":34.748655,"weight":12.0,"longitude":-92.274494,"id":"a6f53ba5jxs7","state":"AR"},"type":"Feature","geometry":{"type":"Point","coordinates":[-92.274494,34.748655]}},{"properties":{"city":"JACKSONVILLE","name":null,"latitude":34.867038,"weight":1.0,"longitude":-92.112305,"id":"a6f53bbn5d8l","state":"AR"},"type":"Feature","geometry":{"type":"Point","coordinates":[-92.112305,34.867038]}},{"properties":{"city":"FAYETTEVILLE","name":null,"latitude":36.063205,"weight":2.0,"longitude":-94.157914,"id":"a6f53b2lq6o5","state":"AR"},"type":"Feature","geometry":{"type":"Point","coordinates":[-94.157914,36.063205]}},{"properties":{"city":"KINGMAN","name":null,"latitude":35.188825,"weight":1.0,"longitude":-114.055434,"id":"a6f53bgd4yyg","state":"AZ"},"type":"Feature","geometry":{"type":"Point","coordinates":[-114.055434,35.188825]}},{"properties":{"city":"ANTHEM","name":null,"latitude":33.85806,"weight":1.0,"longitude":-112.130565,"id":"a6f53b2f75qr","state":"AZ"},"type":"Feature","geometry":{"type":"Point","coordinates":[-112.130565,33.85806]}},{"properties":{"city":"FLAGSTAFF","name":null,"latitude":35.1982,"weight":1.0,"longitude":-111.651304,"id":"a6f53bav1tw1","state":"AZ"},"type":"Feature","geometry":{"type":"Point","coordinates":[-111.651304,35.1982]}},{"properties":{"city":"CASA GRANDE","name":null,"latitude":32.879545,"weight":1.0,"longitude":-111.750324,"id":"a6f53b00dv86","state":"AZ"},"type":"Feature","geometry":{"type":"Point","coordinates":[-111.750324,32.879545]}},{"properties":{"city":"CHANDLER","name":null,"latitude":33.30288,"weight":1.0,"longitude":-111.840839,"id":"a6f53b35vmg9","state":"AZ"},"type":"Feature","geometry":{"type":"Point","coordinates":[-111.840839,33.30288]}},{"properties":{"city":"HAWTHORNE","name":null,"latitude":33.91819,"weight":1.0,"longitude":-118.353744,"id":"a6f53b7q21r1","state":"CA"},"type":"Feature","geometry":{"type":"Point","coordinates":[-118.353744,33.91819]}},{"properties":{"city":"FOUNTAIN VALLEY","name":null,"latitude":33.70907,"weight":1.0,"longitude":-117.950664,"id":"a6f53bbepyab","state":"CA"},"type":"Feature","geometry":{"type":"Point","coordinates":[-117.950664,33.70907]}},{"properties":{"city":"HUNTINGTON BEACH","name":null,"latitude":33.67889,"weight":1.0,"longitude":-118.001574,"id":"a6f53b6t7m4x","state":"CA"},"type":"Feature","geometry":{"type":"Point","coordinates":[-118.001574,33.67889]}},{"properties":{"city":"ANAHEIM","name":null,"latitude":33.83276,"weight":2.0,"longitude":-117.915719,"id":"a6f53b4gkr4u","state":"CA"},"type":"Feature","geometry":{"type":"Point","coordinates":[-117.915719,33.83276]}},{"properties":{"city":"BURBANK","name":null,"latitude":34.18147,"weight":3.0,"longitude":-118.308124,"id":"a6f53bf1zduw","state":"CA"},"type":"Feature","geometry":{"type":"Point","coordinates":[-118.308124,34.18147]}},{"properties":{"city":"APPLE VALLEY","name":null,"latitude":34.523211,"weight":1.0,"longitude":-117.215742,"id":"a6f53b1adn4n","state":"CA"},"type":"Feature","geometry":{"type":"Point","coordinates":[-117.215742,34.523211]}},{"properties":{"city":"HACIENDA HTS","name":null,"latitude":33.993649,"weight":1.0,"longitude":-117.970917,"id":"a6f53b5d0gbg","state":"CA"},"type":"Feature","geometry":{"type":"Point","coordinates":[-117.970917,33.993649]}},{"properties":{"city":"ARCADIA","name":null,"latitude":34.136165,"weight":1.0,"longitude":-118.038854,"id":"a6f53b6wovlx","state":"CA"},"type":"Feature","geometry":{"type":"Point","coordinates":[-118.038854,34.136165]}},{"properties":{"city":"DAVIS","name":null,"latitude":38.546663,"weight":1.0,"longitude":-121.744775,"id":"a6f53b1u2wn6","state":"CA"},"type":"Feature","geometry":{"type":"Point","coordinates":[-121.744775,38.546663]}},{"properties":{"city":"CAMBRIA","name":null,"latitude":35.550861,"weight":1.0,"longitude":-121.072072,"id":"a6f53b7o72us","state":"CA"},"type":"Feature","geometry":{"type":"Point","coordinates":[-121.072072,35.550861]}},{"properties":{"city":"CYPRESS","name":null,"latitude":33.824345,"weight":2.0,"longitude":-118.037489,"id":"a6f53b5nl368","state":"CA"},"type":"Feature","geometry":{"type":"Point","coordinates":[-118.037489,33.824345]}},{"properties":{"city":"COSTA MESA","name":null,"latitude":33.66388,"weight":1.0,"longitude":-117.903424,"id":"a6f53b098f2f","state":"CA"},"type":"Feature","geometry":{"type":"Point","coordinates":[-117.903424,33.66388]}},{"properties":{"city":"ARROYO GRANDE","name":null,"latitude":35.124195,"weight":2.0,"longitude":-120.577169,"id":"a6f53bd5he82","state":"CA"},"type":"Feature","geometry":{"type":"Point","coordinates":[-120.577169,35.124195]}},{"properties":{"city":"INDIO","name":null,"latitude":33.721702,"weight":1.0,"longitude":-116.219425,"id":"a6f53bf5ofgf","state":"CA"},"type":"Feature","geometry":{"type":"Point","coordinates":[-116.219425,33.721702]}},{"properties":{"city":"FALLBROOK","name":null,"latitude":33.384659,"weight":1.0,"longitude":-117.253124,"id":"a6f53b0dhvoo","state":"CA"},"type":"Feature","geometry":{"type":"Point","coordinates":[-117.253124,33.384659]}},{"properties":{"city":"FOSTER CITY","name":null,"latitude":37.560928,"weight":1.0,"longitude":-122.268521,"id":"a6f53bgg5xgg","state":"CA"},"type":"Feature","geometry":{"type":"Point","coordinates":[-122.268521,37.560928]}},{"properties":{"city":"CARLSBAD","name":null,"latitude":33.165887,"weight":1.0,"longitude":-117.338225,"id":"a6f53bg5stoh","state":"CA"},"type":"Feature","geometry":{"type":"Point","coordinates":[-117.338225,33.165887]}},{"properties":{"city":"LINCOLN","name":null,"latitude":38.89116,"weight":1.0,"longitude":-121.292809,"id":"a6f53b1hrvc7","state":"CA"},"type":"Feature","geometry":{"type":"Point","coordinates":[-121.292809,38.89116]}},{"properties":{"city":"GILROY","name":null,"latitude":37.004385,"weight":1.0,"longitude":-121.571669,"id":"a6f53bdhdlqb","state":"CA"},"type":"Feature","geometry":{"type":"Point","coordinates":[-121.571669,37.004385]}},{"properties":{"city":"ATASCADERO","name":null,"latitude":35.488695,"weight":1.0,"longitude":-120.669064,"id":"a6f53b6fiplf","state":"CA"},"type":"Feature","geometry":{"type":"Point","coordinates":[-120.669064,35.488695]}},{"properties":{"city":"LAKE FOREST","name":null,"latitude":33.627647,"weight":2.0,"longitude":-117.717069,"id":"a6f53bf5rdrg","state":"CA"},"type":"Feature","geometry":{"type":"Point","coordinates":[-117.717069,33.627647]}},{"properties":{"city":"GARDENA","name":null,"latitude":33.88379,"weight":2.0,"longitude":-118.307504,"id":"a6f53b61nojt","state":"CA"},"type":"Feature","geometry":{"type":"Point","coordinates":[-118.307504,33.88379]}},{"properties":{"city":"COMPTON","name":null,"latitude":33.895285,"weight":1.0,"longitude":-118.224329,"id":"a6f53b67cpsc","state":"CA"},"type":"Feature","geometry":{"type":"Point","coordinates":[-118.224329,33.895285]}},{"properties":{"city":"BISHOP","name":null,"latitude":37.366715,"weight":1.0,"longitude":-118.395354,"id":"a6f53b63jkzy","state":"CA"},"type":"Feature","geometry":{"type":"Point","coordinates":[-118.395354,37.366715]}},{"properties":{"city":"LOS ANGELES","name":null,"latitude":34.05349,"weight":5.0,"longitude":-118.245319,"id":"a6f53bfiqbgx","state":"CA"},"type":"Feature","geometry":{"type":"Point","coordinates":[-118.245319,34.05349]}},{"properties":{"city":"BOULDER CREEK","name":null,"latitude":37.126081,"weight":1.0,"longitude":-122.126669,"id":"a6f53b6sarm0","state":"CA"},"type":"Feature","geometry":{"type":"Point","coordinates":[-122.126669,37.126081]}},{"properties":{"city":"ANGWIN","name":null,"latitude":38.57238,"weight":1.0,"longitude":-122.442215,"id":"a6f53b5i3a3j","state":"CA"},"type":"Feature","geometry":{"type":"Point","coordinates":[-122.442215,38.57238]}},{"properties":{"city":"LIVERMORE","name":null,"latitude":37.675245,"weight":2.0,"longitude":-121.757829,"id":"a6f53b8a9ify","state":"CA"},"type":"Feature","geometry":{"type":"Point","coordinates":[-121.757829,37.675245]}},{"properties":{"city":"LONG BEACH","name":null,"latitude":33.766725,"weight":3.0,"longitude":-118.192399,"id":"a6f53bbtvxpa","state":"CA"},"type":"Feature","geometry":{"type":"Point","coordinates":[-118.192399,33.766725]}},{"properties":{"city":"BALDWIN PARK","name":null,"latitude":34.085189,"weight":1.0,"longitude":-117.960296,"id":"a6f53b50n2tx","state":"CA"},"type":"Feature","geometry":{"type":"Point","coordinates":[-117.960296,34.085189]}},{"properties":{"city":"HAYWARD","name":null,"latitude":37.671197,"weight":3.0,"longitude":-122.086137,"id":"a6f53b901tx5","state":"CA"},"type":"Feature","geometry":{"type":"Point","coordinates":[-122.086137,37.671197]}},{"properties":{"city":"LOMPOC","name":null,"latitude":34.639805,"weight":1.0,"longitude":-120.457879,"id":"a6f53b7got6t","state":"CA"},"type":"Feature","geometry":{"type":"Point","coordinates":[-120.457879,34.639805]}},{"properties":{"city":"LOS GATOS","name":null,"latitude":37.221245,"weight":2.0,"longitude":-121.978639,"id":"a6f53b3kya67","state":"CA"},"type":"Feature","geometry":{"type":"Point","coordinates":[-121.978639,37.221245]}},{"properties":{"city":"IRVINE","name":null,"latitude":33.686887,"weight":3.0,"longitude":-117.825348,"id":"a6f53bbew3nw","state":"CA"},"type":"Feature","geometry":{"type":"Point","coordinates":[-117.825348,33.686887]}},{"properties":{"city":"CHULA VISTA","name":null,"latitude":32.640565,"weight":1.0,"longitude":-117.084154,"id":"a6f53b9wa48p","state":"CA"},"type":"Feature","geometry":{"type":"Point","coordinates":[-117.084154,32.640565]}},{"properties":{"city":"LAGUNA BEACH","name":null,"latitude":33.545375,"weight":1.0,"longitude":-117.781537,"id":"a6f53b6gaino","state":"CA"},"type":"Feature","geometry":{"type":"Point","coordinates":[-117.781537,33.545375]}},{"properties":{"city":"ENCINO","name":null,"latitude":34.164971,"weight":1.0,"longitude":-118.525809,"id":"a6f53bdvh6t2","state":"CA"},"type":"Feature","geometry":{"type":"Point","coordinates":[-118.525809,34.164971]}},{"properties":{"city":"GRASS VALLEY","name":null,"latitude":0.0,"weight":1.0,"longitude":0.0,"id":"a6f53bcbcgc1","state":"CA"},"type":"Feature","geometry":{"type":"Point","coordinates":[0.0,0.0]}},{"properties":{"city":"FULLERTON","name":null,"latitude":33.870325,"weight":1.0,"longitude":-117.929104,"id":"a6f53bbfscsq","state":"CA"},"type":"Feature","geometry":{"type":"Point","coordinates":[-117.929104,33.870325]}},{"properties":{"city":"CASTRO VALLEY","name":null,"latitude":37.694496,"weight":1.0,"longitude":-122.085897,"id":"a6f53bdm8tu3","state":"CA"},"type":"Feature","geometry":{"type":"Point","coordinates":[-122.085897,37.694496]}},{"properties":{"city":"ESCONDIDO","name":null,"latitude":33.12316,"weight":1.0,"longitude":-117.082169,"id":"a6f53bdytsm5","state":"CA"},"type":"Feature","geometry":{"type":"Point","coordinates":[-117.082169,33.12316]}},{"properties":{"city":"FRESNO","name":null,"latitude":36.740685,"weight":3.0,"longitude":-119.785734,"id":"a6f53b9s0c5r","state":"CA"},"type":"Feature","geometry":{"type":"Point","coordinates":[-119.785734,36.740685]}},{"properties":{"city":"BEVERLY HILLS","name":null,"latitude":34.07292,"weight":2.0,"longitude":-118.399809,"id":"a6f53bghn4qd","state":"CA"},"type":"Feature","geometry":{"type":"Point","coordinates":[-118.399809,34.07292]}},{"properties":{"city":"KOWLOON","name":null,"latitude":22.331261,"weight":2.0,"longitude":114.18705,"id":"a6f53bb76vv6","state":"CHINA"},"type":"Feature","geometry":{"type":"Point","coordinates":[114.18705,22.331261]}},{"properties":{"city":"GRAND JUNCTION","name":null,"latitude":39.06879,"weight":8.0,"longitude":-108.564454,"id":"a6f53b446xus","state":"CO"},"type":"Feature","geometry":{"type":"Point","coordinates":[-108.564454,39.06879]}},{"properties":{"city":"Estes Park","name":null,"latitude":40.37612,"weight":1.0,"longitude":-105.524364,"id":"a6f53b6vlkwd","state":"CO"},"type":"Feature","geometry":{"type":"Point","coordinates":[-105.524364,40.37612]}},{"properties":{"city":"ELIZABETH","name":null,"latitude":39.361508,"weight":1.0,"longitude":-104.601674,"id":"a6f53b773ds4","state":"CO"},"type":"Feature","geometry":{"type":"Point","coordinates":[-104.601674,39.361508]}},{"properties":{"city":"LAKEWOOD","name":null,"latitude":39.71095,"weight":2.0,"longitude":-105.082738,"id":"a6f53b5oa2m7","state":"CO"},"type":"Feature","geometry":{"type":"Point","coordinates":[-105.082738,39.71095]}},{"properties":{"city":"DENVER","name":null,"latitude":39.74001,"weight":1.0,"longitude":-104.992259,"id":"a6f53b4ons0j","state":"CO"},"type":"Feature","geometry":{"type":"Point","coordinates":[-104.992259,39.74001]}},{"properties":{"city":"COLORADO SPRINGS","name":null,"latitude":38.83345,"weight":10.0,"longitude":-104.821814,"id":"a6f53b0p97o4","state":"CO"},"type":"Feature","geometry":{"type":"Point","coordinates":[-104.821814,38.83345]}},{"properties":{"city":"EAST HAMPTON","name":null,"latitude":41.583136,"weight":1.0,"longitude":-72.504133,"id":"a6f53b5ozj67","state":"CT"},"type":"Feature","geometry":{"type":"Point","coordinates":[-72.504133,41.583136]}},{"properties":{"city":"BRIDGEPORT","name":null,"latitude":41.18188,"weight":1.0,"longitude":-73.191269,"id":"a6f53b41mf56","state":"CT"},"type":"Feature","geometry":{"type":"Point","coordinates":[-73.191269,41.18188]}},{"properties":{"city":"DURHAM","name":null,"latitude":41.470575,"weight":1.0,"longitude":-72.680229,"id":"a6f53b9eh4ja","state":"CT"},"type":"Feature","geometry":{"type":"Point","coordinates":[-72.680229,41.470575]}},{"properties":{"city":"CEVENTRY","name":null,"latitude":41.515572,"weight":1.0,"longitude":-72.757477,"id":"a6f53baz1zpy","state":"CT"},"type":"Feature","geometry":{"type":"Point","coordinates":[-72.757477,41.515572]}},{"properties":{"city":"GRANBY","name":null,"latitude":41.955696,"weight":1.0,"longitude":-72.832095,"id":"a6f53bfcwh6h","state":"CT"},"type":"Feature","geometry":{"type":"Point","coordinates":[-72.832095,41.955696]}},{"properties":{"city":"BEAR","name":null,"latitude":39.626032,"weight":2.0,"longitude":-75.661145,"id":"a6f53bghw94n","state":"DE"},"type":"Feature","geometry":{"type":"Point","coordinates":[-75.661145,39.626032]}},{"properties":{"city":"DANIA","name":null,"latitude":26.052255,"weight":1.0,"longitude":-80.145094,"id":"a6f53b0y90t6","state":"FL"},"type":"Feature","geometry":{"type":"Point","coordinates":[-80.145094,26.052255]}},{"properties":{"city":"AVENTURE","name":null,"latitude":25.96861,"weight":1.0,"longitude":-80.144639,"id":"a6f53b4m50nq","state":"FL"},"type":"Feature","geometry":{"type":"Point","coordinates":[-80.144639,25.96861]}},{"properties":{"city":"CORAL SPRINGS","name":null,"latitude":26.272495,"weight":2.0,"longitude":-80.253059,"id":"a6f53b4hd46g","state":"FL"},"type":"Feature","geometry":{"type":"Point","coordinates":[-80.253059,26.272495]}},{"properties":{"city":"LAKE CITY","name":null,"latitude":30.190345,"weight":1.0,"longitude":-82.637129,"id":"a6f53bcuk5ox","state":"FL"},"type":"Feature","geometry":{"type":"Point","coordinates":[-82.637129,30.190345]}},{"properties":{"city":"CLEARWATER","name":null,"latitude":27.9656,"weight":7.0,"longitude":-82.799764,"id":"a6f53b6t4dbs","state":"FL"},"type":"Feature","geometry":{"type":"Point","coordinates":[-82.799764,27.9656]}},{"properties":{"city":"AUBURNDALE","name":null,"latitude":28.0642,"weight":1.0,"longitude":-81.789029,"id":"a6f53bcxsozu","state":"FL"},"type":"Feature","geometry":{"type":"Point","coordinates":[-81.789029,28.0642]}},{"properties":{"city":"APOPKA","name":null,"latitude":28.67312,"weight":1.0,"longitude":-81.507604,"id":"a6f53b6lnyjh","state":"FL"},"type":"Feature","geometry":{"type":"Point","coordinates":[-81.507604,28.67312]}},{"properties":{"city":"LEHIGH ACRES","name":null,"latitude":26.606455,"weight":2.0,"longitude":-81.645074,"id":"a6f53b8aahy7","state":"FL"},"type":"Feature","geometry":{"type":"Point","coordinates":[-81.645074,26.606455]}},{"properties":{"city":"JACKSONVILLE","name":null,"latitude":30.33138,"weight":7.0,"longitude":-81.655799,"id":"a6f53b7x3hke","state":"FL"},"type":"Feature","geometry":{"type":"Point","coordinates":[-81.655799,30.33138]}},{"properties":{"city":"DELTONA","name":null,"latitude":28.932215,"weight":4.0,"longitude":-81.223354,"id":"a6f53b7l0g1o","state":"FL"},"type":"Feature","geometry":{"type":"Point","coordinates":[-81.223354,28.932215]}},{"properties":{"city":"BOCA RATON","name":null,"latitude":26.35049,"weight":1.0,"longitude":-80.089004,"id":"a6f53b4ty6rw","state":"FL"},"type":"Feature","geometry":{"type":"Point","coordinates":[-80.089004,26.35049]}},{"properties":{"city":"LITHIA","name":null,"latitude":27.86266,"weight":1.0,"longitude":-82.170289,"id":"a6f53b107fbp","state":"FL"},"type":"Feature","geometry":{"type":"Point","coordinates":[-82.170289,27.86266]}},{"properties":{"city":"LEESBURG","name":null,"latitude":28.811105,"weight":1.0,"longitude":-81.877284,"id":"a6f53baorh95","state":"FL"},"type":"Feature","geometry":{"type":"Point","coordinates":[-81.877284,28.811105]}},{"properties":{"city":"ALVA","name":null,"latitude":26.71615,"weight":1.0,"longitude":-81.609419,"id":"a6f53b3fdfsq","state":"FL"},"type":"Feature","geometry":{"type":"Point","coordinates":[-81.609419,26.71615]}},{"properties":{"city":"FORT LAUDERDALE","name":null,"latitude":26.12367,"weight":1.0,"longitude":-80.143564,"id":"a6f53bd5wmud","state":"FL"},"type":"Feature","geometry":{"type":"Point","coordinates":[-80.143564,26.12367]}},{"properties":{"city":"LONGWOOD","name":null,"latitude":28.70015,"weight":2.0,"longitude":-81.347514,"id":"a6f53b6x6y2l","state":"FL"},"type":"Feature","geometry":{"type":"Point","coordinates":[-81.347514,28.70015]}},{"properties":{"city":"FORT MYERS BEACH","name":null,"latitude":26.44867,"weight":1.0,"longitude":-81.942769,"id":"a6f53bb6ut6e","state":"FL"},"type":"Feature","geometry":{"type":"Point","coordinates":[-81.942769,26.44867]}},{"properties":{"city":"LAKE WORTH","name":null,"latitude":26.616265,"weight":1.0,"longitude":-80.057244,"id":"a6f53b8flojk","state":"FL"},"type":"Feature","geometry":{"type":"Point","coordinates":[-80.057244,26.616265]}},{"properties":{"city":"EDGEWATER","name":null,"latitude":28.99367,"weight":1.0,"longitude":-80.905184,"id":"a6f53b15pspf","state":"FL"},"type":"Feature","geometry":{"type":"Point","coordinates":[-80.905184,28.99367]}},{"properties":{"city":"ELGIN AFB","name":null,"latitude":30.46969,"weight":1.0,"longitude":-86.562263,"id":"a6f53b6z4z46","state":"FL"},"type":"Feature","geometry":{"type":"Point","coordinates":[-86.562263,30.46969]}},{"properties":{"city":"KEY WEST","name":null,"latitude":24.554255,"weight":2.0,"longitude":-81.800629,"id":"a6f53b8g9q87","state":"FL"},"type":"Feature","geometry":{"type":"Point","coordinates":[-81.800629,24.554255]}},{"properties":{"city":"HOLLYWOOD","name":null,"latitude":26.010403,"weight":13.0,"longitude":-80.160084,"id":"a6f53b3fb6rh","state":"FL"},"type":"Feature","geometry":{"type":"Point","coordinates":[-80.160084,26.010403]}},{"properties":{"city":"FORT PIERCE","name":null,"latitude":27.44865,"weight":6.0,"longitude":-80.326614,"id":"a6f53b7pcv59","state":"FL"},"type":"Feature","geometry":{"type":"Point","coordinates":[-80.326614,27.44865]}},{"properties":{"city":"LAKELAND","name":null,"latitude":28.04419,"weight":6.0,"longitude":-81.947864,"id":"a6f53b5rmieg","state":"FL"},"type":"Feature","geometry":{"type":"Point","coordinates":[-81.947864,28.04419]}},{"properties":{"city":"CLEVELAND","name":null,"latitude":34.59665,"weight":1.0,"longitude":-83.761344,"id":"a6f53bb1pkg5","state":"GA"},"type":"Feature","geometry":{"type":"Point","coordinates":[-83.761344,34.59665]}},{"properties":{"city":"DALLAS","name":null,"latitude":33.925182,"weight":1.0,"longitude":-84.841532,"id":"a6f53b8lqrh0","state":"GA"},"type":"Feature","geometry":{"type":"Point","coordinates":[-84.841532,33.925182]}},{"properties":{"city":"GAINESVILLE","name":null,"latitude":34.297274,"weight":5.0,"longitude":-83.825503,"id":"a6f53b72tphs","state":"GA"},"type":"Feature","geometry":{"type":"Point","coordinates":[-83.825503,34.297274]}},{"properties":{"city":"DALTON","name":null,"latitude":34.76145,"weight":4.0,"longitude":-84.972179,"id":"a6f53bb42r6m","state":"GA"},"type":"Feature","geometry":{"type":"Point","coordinates":[-84.972179,34.76145]}},{"properties":{"city":"FORT BENNING","name":null,"latitude":32.3575,"weight":1.0,"longitude":-84.95623,"id":"a6f53bbb1n9z","state":"GA"},"type":"Feature","geometry":{"type":"Point","coordinates":[-84.95623,32.3575]}},{"properties":{"city":"AUGUSTA","name":null,"latitude":33.47909,"weight":30.0,"longitude":-81.975309,"id":"a6f53b6jnyqj","state":"GA"},"type":"Feature","geometry":{"type":"Point","coordinates":[-81.975309,33.47909]}},{"properties":{"city":"CARTERSVILLE","name":null,"latitude":34.165154,"weight":1.0,"longitude":-84.795688,"id":"a6f53bgec5q5","state":"GA"},"type":"Feature","geometry":{"type":"Point","coordinates":[-84.795688,34.165154]}},{"properties":{"city":"MABLETON","name":null,"latitude":33.818631,"weight":10.0,"longitude":-84.578363,"id":"a6f53b9jz1am","state":"GA"},"type":"Feature","geometry":{"type":"Point","coordinates":[-84.578363,33.818631]}},{"properties":{"city":"KENNESAW","name":null,"latitude":34.023405,"weight":1.0,"longitude":-84.616764,"id":"a6f53bapqbzr","state":"GA"},"type":"Feature","geometry":{"type":"Point","coordinates":[-84.616764,34.023405]}},{"properties":{"city":"ELLABELL","name":null,"latitude":32.12583,"weight":1.0,"longitude":-81.486724,"id":"a6f53b53z81j","state":"GA"},"type":"Feature","geometry":{"type":"Point","coordinates":[-81.486724,32.12583]}},{"properties":{"city":"AMERICAS","name":null,"latitude":32.678131,"weight":1.0,"longitude":-83.222931,"id":"a6f53b482d4w","state":"GA"},"type":"Feature","geometry":{"type":"Point","coordinates":[-83.222931,32.678131]}},{"properties":{"city":"LAWRENCEVILLE","name":null,"latitude":33.952465,"weight":4.0,"longitude":-83.987994,"id":"a6f53b080grt","state":"GA"},"type":"Feature","geometry":{"type":"Point","coordinates":[-83.987994,33.952465]}},{"properties":{"city":"CALHOUN","name":null,"latitude":34.505243,"weight":1.0,"longitude":-84.95088,"id":"a6f53bc3jrqk","state":"GA"},"type":"Feature","geometry":{"type":"Point","coordinates":[-84.95088,34.505243]}},{"properties":{"city":"BONAIRE","name":null,"latitude":32.544596,"weight":3.0,"longitude":-83.596717,"id":"a6f53b5tg3wv","state":"GA"},"type":"Feature","geometry":{"type":"Point","coordinates":[-83.596717,32.544596]}},{"properties":{"city":"JESUP","name":null,"latitude":31.60667,"weight":1.0,"longitude":-81.885924,"id":"a6f53b00bqtt","state":"GA"},"type":"Feature","geometry":{"type":"Point","coordinates":[-81.885924,31.60667]}},{"properties":{"city":"COLUMBUS","name":null,"latitude":32.462925,"weight":2.0,"longitude":-84.987629,"id":"a6f53b07af1k","state":"GA"},"type":"Feature","geometry":{"type":"Point","coordinates":[-84.987629,32.462925]}},{"properties":{"city":"DULUTH","name":null,"latitude":34.003365,"weight":10.0,"longitude":-84.144964,"id":"a6f53b98ucsg","state":"GA"},"type":"Feature","geometry":{"type":"Point","coordinates":[-84.144964,34.003365]}},{"properties":{"city":"JONESBORO","name":null,"latitude":33.52198,"weight":3.0,"longitude":-84.354069,"id":"a6f53b197mc4","state":"GA"},"type":"Feature","geometry":{"type":"Point","coordinates":[-84.354069,33.52198]}},{"properties":{"city":"ATLANTA","name":null,"latitude":33.748315,"weight":26.0,"longitude":-84.391109,"id":"a6f53bfn9nya","state":"GA"},"type":"Feature","geometry":{"type":"Point","coordinates":[-84.391109,33.748315]}},{"properties":{"city":"BUFORD","name":null,"latitude":34.119265,"weight":1.0,"longitude":-84.006004,"id":"a6f53b7gopr2","state":"GA"},"type":"Feature","geometry":{"type":"Point","coordinates":[-84.006004,34.119265]}},{"properties":{"city":"CUMMING","name":null,"latitude":34.203574,"weight":2.0,"longitude":-84.139944,"id":"a6f53b9njvvm","state":"GA"},"type":"Feature","geometry":{"type":"Point","coordinates":[-84.139944,34.203574]}},{"properties":{"city":"MACON","name":null,"latitude":32.839685,"weight":5.0,"longitude":-83.627579,"id":"a6f53bbvttqa","state":"GA"},"type":"Feature","geometry":{"type":"Point","coordinates":[-83.627579,32.839685]}},{"properties":{"city":"HONOLULU","name":null,"latitude":21.304735,"weight":1.0,"longitude":-157.857619,"id":"a6f53becgia0","state":"HI"},"type":"Feature","geometry":{"type":"Point","coordinates":[-157.857619,21.304735]}},{"properties":{"city":"KAMUELA","name":null,"latitude":20.02034,"weight":1.0,"longitude":-155.669024,"id":"a6f53b819kju","state":"HI"},"type":"Feature","geometry":{"type":"Point","coordinates":[-155.669024,20.02034]}},{"properties":{"city":"KEYSTONE","name":null,"latitude":41.9998,"weight":1.0,"longitude":-92.202119,"id":"a6f53b46rk6f","state":"IA"},"type":"Feature","geometry":{"type":"Point","coordinates":[-92.202119,41.9998]}},{"properties":{"city":"HAWKEYE","name":null,"latitude":42.93802,"weight":1.0,"longitude":-91.953404,"id":"a6f53b88jnop","state":"IA"},"type":"Feature","geometry":{"type":"Point","coordinates":[-91.953404,42.93802]}},{"properties":{"city":"GARNER","name":null,"latitude":43.105415,"weight":1.0,"longitude":-93.614649,"id":"a6f53b6q8r8m","state":"IA"},"type":"Feature","geometry":{"type":"Point","coordinates":[-93.614649,43.105415]}},{"properties":{"city":"CEDAR RAPIDS","name":null,"latitude":41.976345,"weight":1.0,"longitude":-91.673759,"id":"a6f53b237ieq","state":"IA"},"type":"Feature","geometry":{"type":"Point","coordinates":[-91.673759,41.976345]}},{"properties":{"city":"DUNLAP","name":null,"latitude":41.85499,"weight":1.0,"longitude":-95.601949,"id":"a6f53bg3csrj","state":"IA"},"type":"Feature","geometry":{"type":"Point","coordinates":[-95.601949,41.85499]}},{"properties":{"city":"CRESTON","name":null,"latitude":41.055645,"weight":1.0,"longitude":-94.372624,"id":"a6f53b4easbi","state":"IA"},"type":"Feature","geometry":{"type":"Point","coordinates":[-94.372624,41.055645]}},{"properties":{"city":"Bondurant","name":null,"latitude":41.70294,"weight":1.0,"longitude":-93.461384,"id":"a6f53b53ptex","state":"IA"},"type":"Feature","geometry":{"type":"Point","coordinates":[-93.461384,41.70294]}},{"properties":{"city":"DES MOINES","name":null,"latitude":41.58979,"weight":1.0,"longitude":-93.615659,"id":"a6f53b6dswac","state":"IA"},"type":"Feature","geometry":{"type":"Point","coordinates":[-93.615659,41.58979]}},{"properties":{"city":"BOISE","name":null,"latitude":43.60698,"weight":2.0,"longitude":-116.193409,"id":"a6f53bc9t7hz","state":"ID"},"type":"Feature","geometry":{"type":"Point","coordinates":[-116.193409,43.60698]}},{"properties":{"city":"DONNELLY","name":null,"latitude":44.731465,"weight":1.0,"longitude":-116.078329,"id":"a6f53b1ucrjq","state":"ID"},"type":"Feature","geometry":{"type":"Point","coordinates":[-116.078329,44.731465]}},{"properties":{"city":"HAILEY","name":null,"latitude":43.52106,"weight":1.0,"longitude":-114.316464,"id":"a6f53b8iyfn9","state":"ID"},"type":"Feature","geometry":{"type":"Point","coordinates":[-114.316464,43.52106]}},{"properties":{"city":"COLLINSVILLE","name":null,"latitude":38.669535,"weight":2.0,"longitude":-89.985829,"id":"a6f53b074fmj","state":"IL"},"type":"Feature","geometry":{"type":"Point","coordinates":[-89.985829,38.669535]}},{"properties":{"city":"CALUMET CITY","name":null,"latitude":41.615525,"weight":1.0,"longitude":-87.531089,"id":"a6f53b4kgjyx","state":"IL"},"type":"Feature","geometry":{"type":"Point","coordinates":[-87.531089,41.615525]}},{"properties":{"city":"HARTFORD","name":null,"latitude":38.838345,"weight":1.0,"longitude":-90.095639,"id":"a6f53bepj30d","state":"IL"},"type":"Feature","geometry":{"type":"Point","coordinates":[-90.095639,38.838345]}},{"properties":{"city":"DU QUOIN","name":null,"latitude":38.01061,"weight":1.0,"longitude":-89.243084,"id":"a6f53b641t0l","state":"IL"},"type":"Feature","geometry":{"type":"Point","coordinates":[-89.243084,38.01061]}},{"properties":{"city":"DOWNERS GROVE","name":null,"latitude":41.79505,"weight":1.0,"longitude":-88.006186,"id":"a6f53beshogl","state":"IL"},"type":"Feature","geometry":{"type":"Point","coordinates":[-88.006186,41.79505]}},{"properties":{"city":"ASHTOWN","name":null,"latitude":53.37365,"weight":3.0,"longitude":-6.32772,"id":"a6f53bd74438","state":"IL"},"type":"Feature","geometry":{"type":"Point","coordinates":[-6.32772,53.37365]}},{"properties":{"city":"ELGIN","name":null,"latitude":42.039565,"weight":1.0,"longitude":-88.283244,"id":"a6f53b8io2cq","state":"IL"},"type":"Feature","geometry":{"type":"Point","coordinates":[-88.283244,42.039565]}},{"properties":{"city":"EDWARDSVILLE","name":null,"latitude":38.813372,"weight":2.0,"longitude":-89.956805,"id":"a6f53b8mgo0w","state":"IL"},"type":"Feature","geometry":{"type":"Point","coordinates":[-89.956805,38.813372]}},{"properties":{"city":"KANKAKEE","name":null,"latitude":41.119945,"weight":1.0,"longitude":-87.860414,"id":"a6f53bgeqvae","state":"IL"},"type":"Feature","geometry":{"type":"Point","coordinates":[-87.860414,41.119945]}},{"properties":{"city":"ELK GROVE VILLAGE","name":null,"latitude":42.002816,"weight":8.0,"longitude":-88.009045,"id":"a6f53b105bdj","state":"IL"},"type":"Feature","geometry":{"type":"Point","coordinates":[-88.009045,42.002816]}},{"properties":{"city":"ALTONA","name":null,"latitude":41.115565,"weight":1.0,"longitude":-90.163984,"id":"a6f53bfoxzn2","state":"IL"},"type":"Feature","geometry":{"type":"Point","coordinates":[-90.163984,41.115565]}},{"properties":{"city":"ALTON","name":null,"latitude":38.89086,"weight":2.0,"longitude":-90.183834,"id":"a6f53b9y7xuu","state":"IL"},"type":"Feature","geometry":{"type":"Point","coordinates":[-90.183834,38.89086]}},{"properties":{"city":"ARLINGTON HEIGHTS","name":null,"latitude":42.138015,"weight":4.0,"longitude":-87.995949,"id":"a6f53b9iyqi0","state":"IL"},"type":"Feature","geometry":{"type":"Point","coordinates":[-87.995949,42.138015]}},{"properties":{"city":"BURR RIDGE","name":null,"latitude":41.74993,"weight":1.0,"longitude":-87.915528,"id":"a6f53beev2j2","state":"IL"},"type":"Feature","geometry":{"type":"Point","coordinates":[-87.915528,41.74993]}},{"properties":{"city":"ELMHURST","name":null,"latitude":41.903135,"weight":27.0,"longitude":-87.939889,"id":"a6f53b71vsl7","state":"IL"},"type":"Feature","geometry":{"type":"Point","coordinates":[-87.939889,41.903135]}},{"properties":{"city":"DWIGHT","name":null,"latitude":41.094053,"weight":3.0,"longitude":-88.427789,"id":"a6f53bfg2m39","state":"IL"},"type":"Feature","geometry":{"type":"Point","coordinates":[-88.427789,41.094053]}},{"properties":{"city":"CAROL STREAM","name":null,"latitude":41.916055,"weight":1.0,"longitude":-88.120559,"id":"a6f53b4yma9m","state":"IL"},"type":"Feature","geometry":{"type":"Point","coordinates":[-88.120559,41.916055]}},{"properties":{"city":"DANVILLE","name":null,"latitude":40.159465,"weight":9.0,"longitude":-87.630434,"id":"a6f53b06flfx","state":"IL"},"type":"Feature","geometry":{"type":"Point","coordinates":[-87.630434,40.159465]}},{"properties":{"city":"HARVARD","name":null,"latitude":42.420615,"weight":2.0,"longitude":-88.617454,"id":"a6f53b585bt7","state":"IL"},"type":"Feature","geometry":{"type":"Point","coordinates":[-88.617454,42.420615]}},{"properties":{"city":"GLENVIEW","name":null,"latitude":42.077455,"weight":3.0,"longitude":-87.798569,"id":"a6f53bdg03qa","state":"IL"},"type":"Feature","geometry":{"type":"Point","coordinates":[-87.798569,42.077455]}},{"properties":{"city":"BENSENVILLE","name":null,"latitude":41.95605,"weight":4.0,"longitude":-87.941064,"id":"a6f53b2xl1mo","state":"IL"},"type":"Feature","geometry":{"type":"Point","coordinates":[-87.941064,41.95605]}},{"properties":{"city":"CHICAGO","name":null,"latitude":41.88415,"weight":51.0,"longitude":-87.632409,"id":"a6f53bcgyxao","state":"IL"},"type":"Feature","geometry":{"type":"Point","coordinates":[-87.632409,41.88415]}},{"properties":{"city":"CARTERVILLE","name":null,"latitude":37.761045,"weight":3.0,"longitude":-89.077189,"id":"a6f53b1s7mjq","state":"IL"},"type":"Feature","geometry":{"type":"Point","coordinates":[-89.077189,37.761045]}},{"properties":{"city":"BOLINGBROOK","name":null,"latitude":41.698175,"weight":8.0,"longitude":-88.081199,"id":"a6f53b75x6e3","state":"IL"},"type":"Feature","geometry":{"type":"Point","coordinates":[-88.081199,41.698175]}},{"properties":{"city":"LEMONT","name":null,"latitude":41.674785,"weight":1.0,"longitude":-87.997994,"id":"a6f53b9yeimd","state":"IL"},"type":"Feature","geometry":{"type":"Point","coordinates":[-87.997994,41.674785]}},{"properties":{"city":"FRANKLIN PARK","name":null,"latitude":41.936825,"weight":2.0,"longitude":-87.864209,"id":"a6f53bbu1nrd","state":"IL"},"type":"Feature","geometry":{"type":"Point","coordinates":[-87.864209,41.936825]}},{"properties":{"city":"ADDISON","name":null,"latitude":41.934005,"weight":1.0,"longitude":-87.993359,"id":"a6f53bfhcc5e","state":"IL"},"type":"Feature","geometry":{"type":"Point","coordinates":[-87.993359,41.934005]}},{"properties":{"city":"EUREKA","name":null,"latitude":40.721425,"weight":1.0,"longitude":-89.272264,"id":"a6f53bdklqdz","state":"IL"},"type":"Feature","geometry":{"type":"Point","coordinates":[-89.272264,40.721425]}},{"properties":{"city":"HINSDALE","name":null,"latitude":41.80368,"weight":1.0,"longitude":-87.927484,"id":"a6f53bcsdhun","state":"IL"},"type":"Feature","geometry":{"type":"Point","coordinates":[-87.927484,41.80368]}},{"properties":{"city":"CHAMPAIGN","name":null,"latitude":40.1142,"weight":2.0,"longitude":-88.243499,"id":"a6f53b30v5uf","state":"IL"},"type":"Feature","geometry":{"type":"Point","coordinates":[-88.243499,40.1142]}},{"properties":{"city":"MACOMB","name":null,"latitude":40.459895,"weight":5.0,"longitude":-90.669479,"id":"a6f53b3veyle","state":"IL"},"type":"Feature","geometry":{"type":"Point","coordinates":[-90.669479,40.459895]}},{"properties":{"city":"LASALLE","name":null,"latitude":41.32991,"weight":1.0,"longitude":-89.094264,"id":"a6f53b98r5aa","state":"IL"},"type":"Feature","geometry":{"type":"Point","coordinates":[-89.094264,41.32991]}},{"properties":{"city":"FT. WAYNE","name":null,"latitude":41.075525,"weight":1.0,"longitude":-85.099064,"id":"a6f53bcz9zc9","state":"IN"},"type":"Feature","geometry":{"type":"Point","coordinates":[-85.099064,41.075525]}},{"properties":{"city":"BOONVILLE","name":null,"latitude":38.050015,"weight":1.0,"longitude":-87.274904,"id":"a6f53bby36kw","state":"IN"},"type":"Feature","geometry":{"type":"Point","coordinates":[-87.274904,38.050015]}},{"properties":{"city":"CROWN POINT","name":null,"latitude":41.41854,"weight":1.0,"longitude":-87.363169,"id":"a6f53b57ccl0","state":"IN"},"type":"Feature","geometry":{"type":"Point","coordinates":[-87.363169,41.41854]}},{"properties":{"city":"FORT WAYNE","name":null,"latitude":41.075525,"weight":2.0,"longitude":-85.099064,"id":"a6f53ben8t3i","state":"IN"},"type":"Feature","geometry":{"type":"Point","coordinates":[-85.099064,41.075525]}},{"properties":{"city":"KNOX","name":null,"latitude":41.295275,"weight":1.0,"longitude":-86.620709,"id":"a6f53b0365g6","state":"IN"},"type":"Feature","geometry":{"type":"Point","coordinates":[-86.620709,41.295275]}},{"properties":{"city":"KOKOMO","name":null,"latitude":40.486505,"weight":1.0,"longitude":-86.126239,"id":"a6f53b1yydli","state":"IN"},"type":"Feature","geometry":{"type":"Point","coordinates":[-86.126239,40.486505]}},{"properties":{"city":"HAMMOND","name":null,"latitude":41.60508,"weight":3.0,"longitude":-87.508934,"id":"a6f53bdgonfm","state":"IN"},"type":"Feature","geometry":{"type":"Point","coordinates":[-87.508934,41.60508]}},{"properties":{"city":"ASHLEY","name":null,"latitude":41.5271,"weight":11.0,"longitude":-85.064999,"id":"a6f53b9f4dcm","state":"IN"},"type":"Feature","geometry":{"type":"Point","coordinates":[-85.064999,41.5271]}},{"properties":{"city":"MADISON","name":null,"latitude":38.736335,"weight":1.0,"longitude":-85.380544,"id":"a6f53b09h9fk","state":"IN"},"type":"Feature","geometry":{"type":"Point","coordinates":[-85.380544,38.736335]}},{"properties":{"city":"GRIFFITH","name":null,"latitude":41.523693,"weight":1.0,"longitude":-87.427659,"id":"a6f53b4rn4cl","state":"IN"},"type":"Feature","geometry":{"type":"Point","coordinates":[-87.427659,41.523693]}},{"properties":{"city":"GREENWOOD","name":null,"latitude":39.61364,"weight":1.0,"longitude":-86.110289,"id":"a6f53b3866nr","state":"IN"},"type":"Feature","geometry":{"type":"Point","coordinates":[-86.110289,39.61364]}},{"properties":{"city":"CONNERSVILLE","name":null,"latitude":39.64126,"weight":8.0,"longitude":-85.137739,"id":"a6f53b4l87ie","state":"IN"},"type":"Feature","geometry":{"type":"Point","coordinates":[-85.137739,39.64126]}},{"properties":{"city":"LAFAYETTE","name":null,"latitude":40.41737,"weight":9.0,"longitude":-86.876554,"id":"a6f53b37as1w","state":"IN"},"type":"Feature","geometry":{"type":"Point","coordinates":[-86.876554,40.41737]}},{"properties":{"city":"ELKHART","name":null,"latitude":41.686765,"weight":3.0,"longitude":-85.975674,"id":"a6f53bbqqtlj","state":"IN"},"type":"Feature","geometry":{"type":"Point","coordinates":[-85.975674,41.686765]}},{"properties":{"city":"GREENSBURG","name":null,"latitude":39.337685,"weight":1.0,"longitude":-85.484959,"id":"a6f53bct50aw","state":"IN"},"type":"Feature","geometry":{"type":"Point","coordinates":[-85.484959,39.337685]}},{"properties":{"city":"GARY","name":null,"latitude":41.60299,"weight":7.0,"longitude":-87.337154,"id":"a6f53benmm1f","state":"IN"},"type":"Feature","geometry":{"type":"Point","coordinates":[-87.337154,41.60299]}},{"properties":{"city":"LA PORTE","name":null,"latitude":41.609543,"weight":8.0,"longitude":-86.721392,"id":"a6f53b5j1s65","state":"IN"},"type":"Feature","geometry":{"type":"Point","coordinates":[-86.721392,41.609543]}},{"properties":{"city":"LAPORTE","name":null,"latitude":41.609543,"weight":1.0,"longitude":-86.721392,"id":"a6f53b6n8710","state":"IN"},"type":"Feature","geometry":{"type":"Point","coordinates":[-86.721392,41.609543]}},{"properties":{"city":"LYNN","name":null,"latitude":40.04889,"weight":1.0,"longitude":-84.939992,"id":"a6f53b5mv7kb","state":"IN"},"type":"Feature","geometry":{"type":"Point","coordinates":[-84.939992,40.04889]}},{"properties":{"city":"EVANSVILLE","name":null,"latitude":37.976911,"weight":3.0,"longitude":-87.564125,"id":"a6f53b19n6gt","state":"IN"},"type":"Feature","geometry":{"type":"Point","coordinates":[-87.564125,37.976911]}},{"properties":{"city":"INDIANAPOLIS","name":null,"latitude":39.76691,"weight":40.0,"longitude":-86.149964,"id":"a6f53b03571o","state":"IN"},"type":"Feature","geometry":{"type":"Point","coordinates":[-86.149964,39.76691]}},{"properties":{"city":"CHESTERTON","name":null,"latitude":41.611075,"weight":1.0,"longitude":-87.062979,"id":"a6f53bdqrl51","state":"IN"},"type":"Feature","geometry":{"type":"Point","coordinates":[-87.062979,41.611075]}},{"properties":{"city":"GARDEN CITY","name":null,"latitude":37.96918,"weight":2.0,"longitude":-100.873184,"id":"a6f53be3o35z","state":"KS"},"type":"Feature","geometry":{"type":"Point","coordinates":[-100.873184,37.96918]}},{"properties":{"city":"LAWRENCE","name":null,"latitude":38.973065,"weight":1.0,"longitude":-95.236534,"id":"a6f53b2i547c","state":"KS"},"type":"Feature","geometry":{"type":"Point","coordinates":[-95.236534,38.973065]}},{"properties":{"city":"BELLEVILLE","name":null,"latitude":39.819925,"weight":1.0,"longitude":-97.631034,"id":"a6f53ban07hf","state":"KS"},"type":"Feature","geometry":{"type":"Point","coordinates":[-97.631034,39.819925]}},{"properties":{"city":"EMPORIA","name":null,"latitude":38.405605,"weight":4.0,"longitude":-96.180154,"id":"a6f53b7p2iyn","state":"KS"},"type":"Feature","geometry":{"type":"Point","coordinates":[-96.180154,38.405605]}},{"properties":{"city":"LENEXA","name":null,"latitude":38.960971,"weight":1.0,"longitude":-94.740565,"id":"a6f53b8reszk","state":"KS"},"type":"Feature","geometry":{"type":"Point","coordinates":[-94.740565,38.960971]}},{"properties":{"city":"FT RILEY","name":null,"latitude":39.104172,"weight":1.0,"longitude":-96.73556,"id":"a6f53bb26jbn","state":"KS"},"type":"Feature","geometry":{"type":"Point","coordinates":[-96.73556,39.104172]}},{"properties":{"city":"JAMESTOWN","name":null,"latitude":36.984199,"weight":1.0,"longitude":-85.063223,"id":"a6f53b3fov4v","state":"KY"},"type":"Feature","geometry":{"type":"Point","coordinates":[-85.063223,36.984199]}},{"properties":{"city":"LOUISVILLE","name":null,"latitude":38.25486,"weight":1.0,"longitude":-85.766404,"id":"a6f53bg76lkv","state":"KY"},"type":"Feature","geometry":{"type":"Point","coordinates":[-85.766404,38.25486]}},{"properties":{"city":"HEBRON","name":null,"latitude":39.06599,"weight":29.0,"longitude":-84.69989,"id":"a6f53b183mss","state":"KY"},"type":"Feature","geometry":{"type":"Point","coordinates":[-84.69989,39.06599]}},{"properties":{"city":"ERLINGTON","name":null,"latitude":37.27358,"weight":1.0,"longitude":-87.511799,"id":"a6f53bdbjrpd","state":"KY"},"type":"Feature","geometry":{"type":"Point","coordinates":[-87.511799,37.27358]}},{"properties":{"city":"BROUSSARD","name":null,"latitude":30.14821,"weight":6.0,"longitude":-91.964874,"id":"a6f53b8bzdxe","state":"LA"},"type":"Feature","geometry":{"type":"Point","coordinates":[-91.964874,30.14821]}},{"properties":{"city":"GONZALES","name":null,"latitude":30.23871,"weight":1.0,"longitude":-90.920734,"id":"a6f53b81ayrx","state":"LA"},"type":"Feature","geometry":{"type":"Point","coordinates":[-90.920734,30.23871]}},{"properties":{"city":"ALEXANDRIA","name":null,"latitude":31.312685,"weight":3.0,"longitude":-92.445649,"id":"a6f53b21x3uc","state":"LA"},"type":"Feature","geometry":{"type":"Point","coordinates":[-92.445649,31.312685]}},{"properties":{"city":"DENHAM SPRINGS","name":null,"latitude":30.487035,"weight":5.0,"longitude":-90.955474,"id":"a6f53beed4bt","state":"LA"},"type":"Feature","geometry":{"type":"Point","coordinates":[-90.955474,30.487035]}},{"properties":{"city":"LAKE CHARLES","name":null,"latitude":30.224033,"weight":2.0,"longitude":-93.220111,"id":"a6f53b521951","state":"LA"},"type":"Feature","geometry":{"type":"Point","coordinates":[-93.220111,30.224033]}},{"properties":{"city":"HAUGHTON","name":null,"latitude":32.533246,"weight":1.0,"longitude":-93.505931,"id":"a6f53b59rkj2","state":"LA"},"type":"Feature","geometry":{"type":"Point","coordinates":[-93.505931,32.533246]}},{"properties":{"city":"BATON ROUGE","name":null,"latitude":30.44342,"weight":53.0,"longitude":-91.186874,"id":"a6f53b3psx8e","state":"LA"},"type":"Feature","geometry":{"type":"Point","coordinates":[-91.186874,30.44342]}},{"properties":{"city":"LAFAYETTE","name":null,"latitude":30.220325,"weight":4.0,"longitude":-92.017054,"id":"a6f53b5if1j5","state":"LA"},"type":"Feature","geometry":{"type":"Point","coordinates":[-92.017054,30.220325]}},{"properties":{"city":"GEISMAR","name":null,"latitude":30.204012,"weight":14.0,"longitude":-91.025638,"id":"a6f53bdiv1ff","state":"LA"},"type":"Feature","geometry":{"type":"Point","coordinates":[-91.025638,30.204012]}},{"properties":{"city":"CALHOUN","name":null,"latitude":32.510175,"weight":1.0,"longitude":-92.358374,"id":"a6f53b6cmlbf","state":"LA"},"type":"Feature","geometry":{"type":"Point","coordinates":[-92.358374,32.510175]}},{"properties":{"city":"JENNINGS","name":null,"latitude":30.220795,"weight":1.0,"longitude":-92.658299,"id":"a6f53bbdx6vr","state":"LA"},"type":"Feature","geometry":{"type":"Point","coordinates":[-92.658299,30.220795]}},{"properties":{"city":"HULL","name":null,"latitude":42.271425,"weight":1.0,"longitude":-70.857724,"id":"a6f53b1wezaa","state":"MA"},"type":"Feature","geometry":{"type":"Point","coordinates":[-70.857724,42.271425]}},{"properties":{"city":"ACTON","name":null,"latitude":42.48582,"weight":1.0,"longitude":-71.433299,"id":"a6f53benp692","state":"MA"},"type":"Feature","geometry":{"type":"Point","coordinates":[-71.433299,42.48582]}},{"properties":{"city":"FRAMINGHAM","name":null,"latitude":42.279715,"weight":1.0,"longitude":-71.416399,"id":"a6f53b0zhlgv","state":"MA"},"type":"Feature","geometry":{"type":"Point","coordinates":[-71.416399,42.279715]}},{"properties":{"city":"HUBBARDSTON","name":null,"latitude":42.475905,"weight":1.0,"longitude":-72.007779,"id":"a6f53b5smphk","state":"MA"},"type":"Feature","geometry":{"type":"Point","coordinates":[-72.007779,42.475905]}},{"properties":{"city":"BOXBOROUGH","name":null,"latitude":42.484017,"weight":1.0,"longitude":-71.514117,"id":"a6f53b7c7e3n","state":"MA"},"type":"Feature","geometry":{"type":"Point","coordinates":[-71.514117,42.484017]}},{"properties":{"city":"ANDOVER","name":null,"latitude":42.653568,"weight":1.0,"longitude":-71.136467,"id":"a6f53ba32h95","state":"MA"},"type":"Feature","geometry":{"type":"Point","coordinates":[-71.136467,42.653568]}},{"properties":{"city":"HYANNIS","name":null,"latitude":41.654791,"weight":1.0,"longitude":-70.279634,"id":"a6f53bcb7bmc","state":"MA"},"type":"Feature","geometry":{"type":"Point","coordinates":[-70.279634,41.654791]}},{"properties":{"city":"LYNN","name":null,"latitude":42.4637,"weight":2.0,"longitude":-70.950219,"id":"a6f53bbxic7i","state":"MA"},"type":"Feature","geometry":{"type":"Point","coordinates":[-70.950219,42.4637]}},{"properties":{"city":"CAPITAL HEIGHTS","name":null,"latitude":38.885115,"weight":32.0,"longitude":-76.913619,"id":"a6f53b1alk4n","state":"MD"},"type":"Feature","geometry":{"type":"Point","coordinates":[-76.913619,38.885115]}},{"properties":{"city":"CHESAPEAKE BEACH","name":null,"latitude":38.69534,"weight":1.0,"longitude":-76.533729,"id":"a6f53b42sstl","state":"MD"},"type":"Feature","geometry":{"type":"Point","coordinates":[-76.533729,38.69534]}},{"properties":{"city":"KENSINGTON","name":null,"latitude":39.026155,"weight":1.0,"longitude":-77.074514,"id":"a6f53bdil7qo","state":"MD"},"type":"Feature","geometry":{"type":"Point","coordinates":[-77.074514,39.026155]}},{"properties":{"city":"LUTHERVILLE TIMONIUM","name":null,"latitude":39.439899,"weight":1.0,"longitude":-76.629398,"id":"a6f53bfnmets","state":"MD"},"type":"Feature","geometry":{"type":"Point","coordinates":[-76.629398,39.439899]}},{"properties":{"city":"BROOKEVILLE","name":null,"latitude":39.180021,"weight":1.0,"longitude":-77.058481,"id":"a6f53b4xlbv9","state":"MD"},"type":"Feature","geometry":{"type":"Point","coordinates":[-77.058481,39.180021]}},{"properties":{"city":"GAITHERSBURG","name":null,"latitude":39.139866,"weight":1.0,"longitude":-77.193829,"id":"a6f53bby6aao","state":"MD"},"type":"Feature","geometry":{"type":"Point","coordinates":[-77.193829,39.139866]}},{"properties":{"city":"FALLSTON","name":null,"latitude":39.51976,"weight":1.0,"longitude":-76.414574,"id":"a6f53bfof6ry","state":"MD"},"type":"Feature","geometry":{"type":"Point","coordinates":[-76.414574,39.51976]}},{"properties":{"city":"FREDERICK","name":null,"latitude":39.415745,"weight":1.0,"longitude":-77.412034,"id":"a6f53b913vhq","state":"MD"},"type":"Feature","geometry":{"type":"Point","coordinates":[-77.412034,39.415745]}},{"properties":{"city":"BLADENSBURG","name":null,"latitude":38.942515,"weight":1.0,"longitude":-76.933139,"id":"a6f53b4siww8","state":"MD"},"type":"Feature","geometry":{"type":"Point","coordinates":[-76.933139,38.942515]}},{"properties":{"city":"LANDOVER","name":null,"latitude":38.930906,"weight":1.0,"longitude":-76.891205,"id":"a6f53bcclfz8","state":"MD"},"type":"Feature","geometry":{"type":"Point","coordinates":[-76.891205,38.930906]}},{"properties":{"city":"CUMBERLAND","name":null,"latitude":39.651775,"weight":1.0,"longitude":-78.763334,"id":"a6f53b8a82vc","state":"MD"},"type":"Feature","geometry":{"type":"Point","coordinates":[-78.763334,39.651775]}},{"properties":{"city":"BALTIMORE","name":null,"latitude":39.290555,"weight":2.0,"longitude":-76.609604,"id":"a6f53b56y2s7","state":"MD"},"type":"Feature","geometry":{"type":"Point","coordinates":[-76.609604,39.290555]}},{"properties":{"city":"HANOVER","name":null,"latitude":39.15507,"weight":3.0,"longitude":-76.720465,"id":"a6f53bba39yc","state":"MD"},"type":"Feature","geometry":{"type":"Point","coordinates":[-76.720465,39.15507]}},{"properties":{"city":"BUXTON","name":null,"latitude":43.615325,"weight":1.0,"longitude":-70.509099,"id":"a6f53b2v8frb","state":"ME"},"type":"Feature","geometry":{"type":"Point","coordinates":[-70.509099,43.615325]}},{"properties":{"city":"HOLT","name":null,"latitude":42.64033,"weight":2.0,"longitude":-84.514314,"id":"a6f53b60tk09","state":"MI"},"type":"Feature","geometry":{"type":"Point","coordinates":[-84.514314,42.64033]}},{"properties":{"city":"BELLEVILLE","name":null,"latitude":42.205435,"weight":3.0,"longitude":-83.486324,"id":"a6f53b7g0sbk","state":"MI"},"type":"Feature","geometry":{"type":"Point","coordinates":[-83.486324,42.205435]}},{"properties":{"city":"BRIDGEWATER","name":null,"latitude":42.160406,"weight":1.0,"longitude":-83.899934,"id":"a6f53bfmyge7","state":"MI"},"type":"Feature","geometry":{"type":"Point","coordinates":[-83.899934,42.160406]}},{"properties":{"city":"FENTON","name":null,"latitude":42.793695,"weight":1.0,"longitude":-83.705262,"id":"a6f53bcgr2ny","state":"MI"},"type":"Feature","geometry":{"type":"Point","coordinates":[-83.705262,42.793695]}},{"properties":{"city":"BRIGHTON","name":null,"latitude":42.530745,"weight":2.0,"longitude":-83.785114,"id":"a6f53bdqsbfj","state":"MI"},"type":"Feature","geometry":{"type":"Point","coordinates":[-83.785114,42.530745]}},{"properties":{"city":"FERNDALE","name":null,"latitude":42.460665,"weight":1.0,"longitude":-83.131419,"id":"a6f53beeg8yb","state":"MI"},"type":"Feature","geometry":{"type":"Point","coordinates":[-83.131419,42.460665]}},{"properties":{"city":"LUDINGTON","name":null,"latitude":43.95547,"weight":1.0,"longitude":-86.452804,"id":"a6f53b0ku212","state":"MI"},"type":"Feature","geometry":{"type":"Point","coordinates":[-86.452804,43.95547]}},{"properties":{"city":"LIVONIA","name":null,"latitude":42.39658,"weight":21.0,"longitude":-83.369574,"id":"a6f53b73e2t8","state":"MI"},"type":"Feature","geometry":{"type":"Point","coordinates":[-83.369574,42.39658]}},{"properties":{"city":"DEARBORN","name":null,"latitude":42.32209,"weight":19.0,"longitude":-83.176239,"id":"a6f53bf9cglm","state":"MI"},"type":"Feature","geometry":{"type":"Point","coordinates":[-83.176239,42.32209]}},{"properties":{"city":"L'ANSE","name":null,"latitude":46.750609,"weight":3.0,"longitude":-88.447088,"id":"a6f53bc07zqb","state":"MI"},"type":"Feature","geometry":{"type":"Point","coordinates":[-88.447088,46.750609]}},{"properties":{"city":"ANN ARBOR","name":null,"latitude":42.281875,"weight":49.0,"longitude":-83.748479,"id":"a6f53bc1hy75","state":"MI"},"type":"Feature","geometry":{"type":"Point","coordinates":[-83.748479,42.281875]}},{"properties":{"city":"HARBOR SPRINGS","name":null,"latitude":45.431045,"weight":1.0,"longitude":-84.982709,"id":"a6f53b6ntldr","state":"MI"},"type":"Feature","geometry":{"type":"Point","coordinates":[-84.982709,45.431045]}},{"properties":{"city":"CHARLOTTE","name":null,"latitude":42.563976,"weight":5.0,"longitude":-84.835249,"id":"a6f53b69hqi9","state":"MI"},"type":"Feature","geometry":{"type":"Point","coordinates":[-84.835249,42.563976]}},{"properties":{"city":"CROSWELL","name":null,"latitude":43.264615,"weight":3.0,"longitude":-82.619814,"id":"a6f53b0eij3k","state":"MI"},"type":"Feature","geometry":{"type":"Point","coordinates":[-82.619814,43.264615]}},{"properties":{"city":"COVERT","name":null,"latitude":42.29511,"weight":1.0,"longitude":-86.262519,"id":"a6f53bcp9fx1","state":"MI"},"type":"Feature","geometry":{"type":"Point","coordinates":[-86.262519,42.29511]}},{"properties":{"city":"CHELSEA","name":null,"latitude":42.318455,"weight":5.0,"longitude":-84.019254,"id":"a6f53bgfc9ow","state":"MI"},"type":"Feature","geometry":{"type":"Point","coordinates":[-84.019254,42.318455]}},{"properties":{"city":"HANCOCK","name":null,"latitude":47.126603,"weight":1.0,"longitude":-88.58567,"id":"a6f53bb8xk7n","state":"MI"},"type":"Feature","geometry":{"type":"Point","coordinates":[-88.58567,47.126603]}},{"properties":{"city":"BAY CITY","name":null,"latitude":43.59527,"weight":2.0,"longitude":-83.884914,"id":"a6f53b9wt7e4","state":"MI"},"type":"Feature","geometry":{"type":"Point","coordinates":[-83.884914,43.59527]}},{"properties":{"city":"DETROIT","name":null,"latitude":42.331685,"weight":5.0,"longitude":-83.047924,"id":"a6f53bdgayj2","state":"MI"},"type":"Feature","geometry":{"type":"Point","coordinates":[-83.047924,42.331685]}},{"properties":{"city":"HOWELL","name":null,"latitude":42.60544,"weight":2.0,"longitude":-83.924909,"id":"a6f53b69so8a","state":"MI"},"type":"Feature","geometry":{"type":"Point","coordinates":[-83.924909,42.60544]}},{"properties":{"city":"DEXTER","name":null,"latitude":42.338785,"weight":1.0,"longitude":-83.890234,"id":"a6f53bc3x2m5","state":"MI"},"type":"Feature","geometry":{"type":"Point","coordinates":[-83.890234,42.338785]}},{"properties":{"city":"KEWADIN","name":null,"latitude":44.929327,"weight":1.0,"longitude":-85.365132,"id":"a6f53b61ho62","state":"MI"},"type":"Feature","geometry":{"type":"Point","coordinates":[-85.365132,44.929327]}},{"properties":{"city":"CANTON","name":null,"latitude":42.298855,"weight":4.0,"longitude":-83.48676,"id":"a6f53b326hbl","state":"MI"},"type":"Feature","geometry":{"type":"Point","coordinates":[-83.48676,42.298855]}},{"properties":{"city":"FARMINGTON HILLS","name":null,"latitude":42.484561,"weight":1.0,"longitude":-83.363399,"id":"a6f53b0mx5dg","state":"MI"},"type":"Feature","geometry":{"type":"Point","coordinates":[-83.363399,42.484561]}},{"properties":{"city":"BRONSON","name":null,"latitude":41.872695,"weight":1.0,"longitude":-85.192719,"id":"a6f53bauf9w1","state":"MI"},"type":"Feature","geometry":{"type":"Point","coordinates":[-85.192719,41.872695]}},{"properties":{"city":"HART","name":null,"latitude":43.7023,"weight":1.0,"longitude":-86.363565,"id":"a6f53b133amb","state":"MI"},"type":"Feature","geometry":{"type":"Point","coordinates":[-86.363565,43.7023]}},{"properties":{"city":"CHESANING","name":null,"latitude":43.18617,"weight":1.0,"longitude":-84.127566,"id":"a6f53bc4form","state":"MI"},"type":"Feature","geometry":{"type":"Point","coordinates":[-84.127566,43.18617]}},{"properties":{"city":"CAMDON","name":null,"latitude":43.742691,"weight":1.0,"longitude":-84.62162,"id":"a6f53b30shp5","state":"MI"},"type":"Feature","geometry":{"type":"Point","coordinates":[-84.62162,43.742691]}},{"properties":{"city":"GRAND RAPIDS","name":null,"latitude":42.96641,"weight":18.0,"longitude":-85.671179,"id":"a6f53bb34x88","state":"MI"},"type":"Feature","geometry":{"type":"Point","coordinates":[-85.671179,42.96641]}},{"properties":{"city":"KALKASKA","name":null,"latitude":44.736003,"weight":4.0,"longitude":-85.174507,"id":"a6f53b60y0a3","state":"MI"},"type":"Feature","geometry":{"type":"Point","coordinates":[-85.174507,44.736003]}},{"properties":{"city":"CHESTERFIELD","name":null,"latitude":42.66203,"weight":1.0,"longitude":-82.843384,"id":"a6f53b76z2yn","state":"MI"},"type":"Feature","geometry":{"type":"Point","coordinates":[-82.843384,42.66203]}},{"properties":{"city":"GROSSE POINT","name":null,"latitude":42.386185,"weight":1.0,"longitude":-82.911799,"id":"a6f53b1dn5lu","state":"MI"},"type":"Feature","geometry":{"type":"Point","coordinates":[-82.911799,42.386185]}},{"properties":{"city":"HUDSONVILLE","name":null,"latitude":42.865918,"weight":3.0,"longitude":-85.863672,"id":"a6f53beuswxw","state":"MI"},"type":"Feature","geometry":{"type":"Point","coordinates":[-85.863672,42.865918]}},{"properties":{"city":"BOYNE CITY","name":null,"latitude":45.218422,"weight":1.0,"longitude":-85.014842,"id":"a6f53bfamzut","state":"MI"},"type":"Feature","geometry":{"type":"Point","coordinates":[-85.014842,45.218422]}},{"properties":{"city":"FLINT","name":null,"latitude":43.010745,"weight":46.0,"longitude":-83.686019,"id":"a6f53b2vbd8s","state":"MI"},"type":"Feature","geometry":{"type":"Point","coordinates":[-83.686019,43.010745]}},{"properties":{"city":"CALEDONIA","name":null,"latitude":42.786936,"weight":1.0,"longitude":-85.511789,"id":"a6f53b56bfgm","state":"MI"},"type":"Feature","geometry":{"type":"Point","coordinates":[-85.511789,42.786936]}},{"properties":{"city":"BATTLE CREEK","name":null,"latitude":42.31617,"weight":2.0,"longitude":-85.180224,"id":"a6f53b5z6br7","state":"MI"},"type":"Feature","geometry":{"type":"Point","coordinates":[-85.180224,42.31617]}},{"properties":{"city":"DUNDEE","name":null,"latitude":41.957133,"weight":1.0,"longitude":-83.660113,"id":"a6f53bd65fuv","state":"MI"},"type":"Feature","geometry":{"type":"Point","coordinates":[-83.660113,41.957133]}},{"properties":{"city":"GRASS LAKE","name":null,"latitude":42.251985,"weight":2.0,"longitude":-84.207484,"id":"a6f53b2zujsy","state":"MI"},"type":"Feature","geometry":{"type":"Point","coordinates":[-84.207484,42.251985]}},{"properties":{"city":"GRAND HAVEN","name":null,"latitude":43.06295,"weight":1.0,"longitude":-86.225984,"id":"a6f53b32y96n","state":"MI"},"type":"Feature","geometry":{"type":"Point","coordinates":[-86.225984,43.06295]}},{"properties":{"city":"BURTON","name":null,"latitude":42.96847,"weight":3.0,"longitude":-83.633054,"id":"a6f53b5dw17z","state":"MI"},"type":"Feature","geometry":{"type":"Point","coordinates":[-83.633054,42.96847]}},{"properties":{"city":"LANSING","name":null,"latitude":42.73194,"weight":15.0,"longitude":-84.552249,"id":"a6f53b12vg4v","state":"MI"},"type":"Feature","geometry":{"type":"Point","coordinates":[-84.552249,42.73194]}},{"properties":{"city":"CLARKSTON","name":null,"latitude":42.734776,"weight":2.0,"longitude":-83.419901,"id":"a6f53b08yznq","state":"MI"},"type":"Feature","geometry":{"type":"Point","coordinates":[-83.419901,42.734776]}},{"properties":{"city":"EATON RAPIDS","name":null,"latitude":42.51096,"weight":1.0,"longitude":-84.655844,"id":"a6f53bad8vuj","state":"MI"},"type":"Feature","geometry":{"type":"Point","coordinates":[-84.655844,42.51096]}},{"properties":{"city":"GRANT","name":null,"latitude":43.33396,"weight":1.0,"longitude":-85.810584,"id":"a6f53b3y7i95","state":"MI"},"type":"Feature","geometry":{"type":"Point","coordinates":[-85.810584,43.33396]}},{"properties":{"city":"KALEVA","name":null,"latitude":44.370085,"weight":1.0,"longitude":-86.01017,"id":"a6f53b6nyi42","state":"MI"},"type":"Feature","geometry":{"type":"Point","coordinates":[-86.01017,44.370085]}},{"properties":{"city":"CLINTON TWP","name":null,"latitude":42.065343,"weight":1.0,"longitude":-83.944762,"id":"a6f53b3pea34","state":"MI"},"type":"Feature","geometry":{"type":"Point","coordinates":[-83.944762,42.065343]}},{"properties":{"city":"EVART","name":null,"latitude":43.90062,"weight":1.0,"longitude":-85.263889,"id":"a6f53b4ml2no","state":"MI"},"type":"Feature","geometry":{"type":"Point","coordinates":[-85.263889,43.90062]}},{"properties":{"city":"MADISON HEIGHTS","name":null,"latitude":42.519985,"weight":56.0,"longitude":-83.109409,"id":"a6f53bbrz3u8","state":"MI"},"type":"Feature","geometry":{"type":"Point","coordinates":[-83.109409,42.519985]}},{"properties":{"city":"GLENCOE","name":null,"latitude":44.77204,"weight":1.0,"longitude":-94.153789,"id":"a6f53b881ppe","state":"MN"},"type":"Feature","geometry":{"type":"Point","coordinates":[-94.153789,44.77204]}},{"properties":{"city":"CHISHOLM","name":null,"latitude":47.48975,"weight":1.0,"longitude":-92.88378,"id":"a6f53b5tssar","state":"MN"},"type":"Feature","geometry":{"type":"Point","coordinates":[-92.88378,47.48975]}},{"properties":{"city":"EDGERTON","name":null,"latitude":43.87313,"weight":1.0,"longitude":-96.128624,"id":"a6f53bg1lft4","state":"MN"},"type":"Feature","geometry":{"type":"Point","coordinates":[-96.128624,43.87313]}},{"properties":{"city":"LA CRESCENT","name":null,"latitude":43.828655,"weight":1.0,"longitude":-91.308249,"id":"a6f53b3noazv","state":"MN"},"type":"Feature","geometry":{"type":"Point","coordinates":[-91.308249,43.828655]}},{"properties":{"city":"BURNSVILLE","name":null,"latitude":44.76562,"weight":1.0,"longitude":-93.27419,"id":"a6f53b0qhtc5","state":"MN"},"type":"Feature","geometry":{"type":"Point","coordinates":[-93.27419,44.76562]}},{"properties":{"city":"HIBBING","name":null,"latitude":47.421055,"weight":10.0,"longitude":-92.941739,"id":"a6f53ba5gy48","state":"MN"},"type":"Feature","geometry":{"type":"Point","coordinates":[-92.941739,47.421055]}},{"properties":{"city":"LAKEVILLE","name":null,"latitude":44.657015,"weight":1.0,"longitude":-93.242734,"id":"a6f53b1b1pvi","state":"MN"},"type":"Feature","geometry":{"type":"Point","coordinates":[-93.242734,44.657015]}},{"properties":{"city":"INTERNATIONAL FALLS","name":null,"latitude":48.602605,"weight":1.0,"longitude":-93.403654,"id":"a6f53bfvbpmd","state":"MN"},"type":"Feature","geometry":{"type":"Point","coordinates":[-93.403654,48.602605]}},{"properties":{"city":"BEMIDJI","name":null,"latitude":47.473145,"weight":2.0,"longitude":-94.879649,"id":"a6f53b87dzb2","state":"MN"},"type":"Feature","geometry":{"type":"Point","coordinates":[-94.879649,47.473145]}},{"properties":{"city":"KANSAS CITY","name":null,"latitude":39.10296,"weight":3.0,"longitude":-94.583062,"id":"a6f53b2b5aes","state":"MO"},"type":"Feature","geometry":{"type":"Point","coordinates":[-94.583062,39.10296]}},{"properties":{"city":"JEFFERSON CITY","name":null,"latitude":38.577515,"weight":2.0,"longitude":-92.177839,"id":"a6f53b5u1u0z","state":"MO"},"type":"Feature","geometry":{"type":"Point","coordinates":[-92.177839,38.577515]}},{"properties":{"city":"BERNIE","name":null,"latitude":36.66928,"weight":1.0,"longitude":-89.969199,"id":"a6f53bdk1v7j","state":"MO"},"type":"Feature","geometry":{"type":"Point","coordinates":[-89.969199,36.66928]}},{"properties":{"city":"DEXTER","name":null,"latitude":36.799595,"weight":1.0,"longitude":-89.958354,"id":"a6f53bcmqc2v","state":"MO"},"type":"Feature","geometry":{"type":"Point","coordinates":[-89.958354,36.799595]}},{"properties":{"city":"HIGH RIDGE","name":null,"latitude":38.458964,"weight":3.0,"longitude":-90.536091,"id":"a6f53b4oruw1","state":"MO"},"type":"Feature","geometry":{"type":"Point","coordinates":[-90.536091,38.458964]}},{"properties":{"city":"FARMINGTON","name":null,"latitude":37.780436,"weight":1.0,"longitude":-90.420439,"id":"a6f53baqvco4","state":"MO"},"type":"Feature","geometry":{"type":"Point","coordinates":[-90.420439,37.780436]}},{"properties":{"city":"CUBA","name":null,"latitude":38.063175,"weight":1.0,"longitude":-91.403624,"id":"a6f53b30ghhu","state":"MO"},"type":"Feature","geometry":{"type":"Point","coordinates":[-91.403624,38.063175]}},{"properties":{"city":"LAMAR","name":null,"latitude":37.493229,"weight":1.0,"longitude":-94.275444,"id":"a6f53b5cpusm","state":"MO"},"type":"Feature","geometry":{"type":"Point","coordinates":[-94.275444,37.493229]}},{"properties":{"city":"HUMANSVILLE","name":null,"latitude":37.795494,"weight":1.0,"longitude":-93.576064,"id":"a6f53banrpay","state":"MO"},"type":"Feature","geometry":{"type":"Point","coordinates":[-93.576064,37.795494]}},{"properties":{"city":"CHESTERFIELD","name":null,"latitude":38.653663,"weight":1.0,"longitude":-90.553177,"id":"a6f53beyyl1e","state":"MO"},"type":"Feature","geometry":{"type":"Point","coordinates":[-90.553177,38.653663]}},{"properties":{"city":"GRAIN VALLEY","name":null,"latitude":39.016845,"weight":1.0,"longitude":-94.198139,"id":"a6f53b4mjp4r","state":"MO"},"type":"Feature","geometry":{"type":"Point","coordinates":[-94.198139,39.016845]}},{"properties":{"city":"COLUMBIA","name":null,"latitude":38.952174,"weight":1.0,"longitude":-92.334157,"id":"a6f53beqj54c","state":"MO"},"type":"Feature","geometry":{"type":"Point","coordinates":[-92.334157,38.952174]}},{"properties":{"city":"BLUE SPRINGS","name":null,"latitude":39.018265,"weight":1.0,"longitude":-94.274809,"id":"a6f53b6qr0hg","state":"MO"},"type":"Feature","geometry":{"type":"Point","coordinates":[-94.274809,39.018265]}},{"properties":{"city":"HAZELWOOD","name":null,"latitude":38.784988,"weight":7.0,"longitude":-90.355291,"id":"a6f53b4y56wb","state":"MO"},"type":"Feature","geometry":{"type":"Point","coordinates":[-90.355291,38.784988]}},{"properties":{"city":"EARTH CITY","name":null,"latitude":38.76564,"weight":2.0,"longitude":-90.460029,"id":"a6f53b82aloa","state":"MO"},"type":"Feature","geometry":{"type":"Point","coordinates":[-90.460029,38.76564]}},{"properties":{"city":"KIDDER","name":null,"latitude":39.781475,"weight":6.0,"longitude":-94.102474,"id":"a6f53beprxum","state":"MO"},"type":"Feature","geometry":{"type":"Point","coordinates":[-94.102474,39.781475]}},{"properties":{"city":"HERNANDO","name":null,"latitude":34.823531,"weight":1.0,"longitude":-89.997268,"id":"a6f53b4qek97","state":"MS"},"type":"Feature","geometry":{"type":"Point","coordinates":[-89.997268,34.823531]}},{"properties":{"city":"LUCEDALE","name":null,"latitude":30.92433,"weight":1.0,"longitude":-88.592859,"id":"a6f53b9sp4p3","state":"MS"},"type":"Feature","geometry":{"type":"Point","coordinates":[-88.592859,30.92433]}},{"properties":{"city":"GREENVILLE","name":null,"latitude":33.39847,"weight":10.0,"longitude":-91.037864,"id":"a6f53b10hwy0","state":"MS"},"type":"Feature","geometry":{"type":"Point","coordinates":[-91.037864,33.39847]}},{"properties":{"city":"FLOWWOD","name":null,"latitude":32.311721,"weight":1.0,"longitude":-90.139941,"id":"a6f53b6gak11","state":"MS"},"type":"Feature","geometry":{"type":"Point","coordinates":[-90.139941,32.311721]}},{"properties":{"city":"JACKSON","name":null,"latitude":32.29869,"weight":3.0,"longitude":-90.180489,"id":"a6f53bdv4csj","state":"MS"},"type":"Feature","geometry":{"type":"Point","coordinates":[-90.180489,32.29869]}},{"properties":{"city":"BRANDON","name":null,"latitude":32.27312,"weight":4.0,"longitude":-89.988644,"id":"a6f53b100abq","state":"MS"},"type":"Feature","geometry":{"type":"Point","coordinates":[-89.988644,32.27312]}},{"properties":{"city":"GULFPORT","name":null,"latitude":30.38032,"weight":2.0,"longitude":-89.092354,"id":"a6f53b87cwxh","state":"MS"},"type":"Feature","geometry":{"type":"Point","coordinates":[-89.092354,30.38032]}},{"properties":{"city":"COLUMBUS","name":null,"latitude":33.49509,"weight":7.0,"longitude":-88.428814,"id":"a6f53bdt4z1m","state":"MS"},"type":"Feature","geometry":{"type":"Point","coordinates":[-88.428814,33.49509]}},{"properties":{"city":"HATTIESBURG","name":null,"latitude":31.327357,"weight":1.0,"longitude":-89.290719,"id":"a6f53b0suikd","state":"MS"},"type":"Feature","geometry":{"type":"Point","coordinates":[-89.290719,31.327357]}},{"properties":{"city":"GREENWOOD","name":null,"latitude":33.51711,"weight":8.0,"longitude":-90.180434,"id":"a6f53bbq2gu7","state":"MS"},"type":"Feature","geometry":{"type":"Point","coordinates":[-90.180434,33.51711]}},{"properties":{"city":"LAUREL","name":null,"latitude":45.669766,"weight":1.0,"longitude":-108.771632,"id":"a6f53b5dsuhp","state":"MT"},"type":"Feature","geometry":{"type":"Point","coordinates":[-108.771632,45.669766]}},{"properties":{"city":"BILLINGS","name":null,"latitude":45.783975,"weight":1.0,"longitude":-108.505794,"id":"a6f53b5kq0qg","state":"MT"},"type":"Feature","geometry":{"type":"Point","coordinates":[-108.505794,45.783975]}},{"properties":{"city":"LIBBY","name":null,"latitude":48.388105,"weight":1.0,"longitude":-115.555174,"id":"a6f53bbc1g2x","state":"MT"},"type":"Feature","geometry":{"type":"Point","coordinates":[-115.555174,48.388105]}},{"properties":{"city":"DALLAS","name":null,"latitude":35.316015,"weight":1.0,"longitude":-81.175869,"id":"a6f53bf3c7qr","state":"NC"},"type":"Feature","geometry":{"type":"Point","coordinates":[-81.175869,35.316015]}},{"properties":{"city":"HARRISBURG","name":null,"latitude":35.321075,"weight":1.0,"longitude":-80.661534,"id":"a6f53b77bx96","state":"NC"},"type":"Feature","geometry":{"type":"Point","coordinates":[-80.661534,35.321075]}},{"properties":{"city":"LELAND","name":null,"latitude":34.237375,"weight":1.0,"longitude":-78.009359,"id":"a6f53bc1o6bj","state":"NC"},"type":"Feature","geometry":{"type":"Point","coordinates":[-78.009359,34.237375]}},{"properties":{"city":"GREENVILLE","name":null,"latitude":35.6072,"weight":2.0,"longitude":-77.380234,"id":"a6f53b2l7b12","state":"NC"},"type":"Feature","geometry":{"type":"Point","coordinates":[-77.380234,35.6072]}},{"properties":{"city":"GASTONIA","name":null,"latitude":35.26217,"weight":1.0,"longitude":-81.186384,"id":"a6f53b8bwzus","state":"NC"},"type":"Feature","geometry":{"type":"Point","coordinates":[-81.186384,35.26217]}},{"properties":{"city":"KANNAPOLIS","name":null,"latitude":35.504141,"weight":2.0,"longitude":-80.637628,"id":"a6f53b77amot","state":"NC"},"type":"Feature","geometry":{"type":"Point","coordinates":[-80.637628,35.504141]}},{"properties":{"city":"CONOVER","name":null,"latitude":35.707331,"weight":1.0,"longitude":-81.219973,"id":"a6f53b8yyvme","state":"NC"},"type":"Feature","geometry":{"type":"Point","coordinates":[-81.219973,35.707331]}},{"properties":{"city":"ASHEVILLE","name":null,"latitude":35.59846,"weight":2.0,"longitude":-82.553144,"id":"a6f53ba2d5jo","state":"NC"},"type":"Feature","geometry":{"type":"Point","coordinates":[-82.553144,35.59846]}},{"properties":{"city":"CONCORD","name":null,"latitude":35.409976,"weight":1.0,"longitude":-80.580686,"id":"a6f53b983q53","state":"NC"},"type":"Feature","geometry":{"type":"Point","coordinates":[-80.580686,35.409976]}},{"properties":{"city":"LUMBERTON","name":null,"latitude":34.618302,"weight":2.0,"longitude":-79.012475,"id":"a6f53b6tzh0j","state":"NC"},"type":"Feature","geometry":{"type":"Point","coordinates":[-79.012475,34.618302]}},{"properties":{"city":"FUQUAY VARINA","name":null,"latitude":35.58503,"weight":1.0,"longitude":-78.799824,"id":"a6f53b79hpwv","state":"NC"},"type":"Feature","geometry":{"type":"Point","coordinates":[-78.799824,35.58503]}},{"properties":{"city":"GREENSBORO","name":null,"latitude":0.0,"weight":3.0,"longitude":0.0,"id":"a6f53b8s7oil","state":"NC"},"type":"Feature","geometry":{"type":"Point","coordinates":[0.0,0.0]}},{"properties":{"city":"HUNTERSVILLE","name":null,"latitude":35.409853,"weight":2.0,"longitude":-80.842716,"id":"a6f53b7h09xb","state":"NC"},"type":"Feature","geometry":{"type":"Point","coordinates":[-80.842716,35.409853]}},{"properties":{"city":"DURHAM","name":null,"latitude":35.995275,"weight":2.0,"longitude":-78.896014,"id":"a6f53bdrojz1","state":"NC"},"type":"Feature","geometry":{"type":"Point","coordinates":[-78.896014,35.995275]}},{"properties":{"city":"CHERRY VILLE","name":null,"latitude":35.382093,"weight":1.0,"longitude":-81.379791,"id":"a6f53b8o662k","state":"NC"},"type":"Feature","geometry":{"type":"Point","coordinates":[-81.379791,35.382093]}},{"properties":{"city":"CHARLOTTE","name":null,"latitude":35.2225,"weight":133.0,"longitude":-80.837539,"id":"a6f53b6fcigi","state":"NC"},"type":"Feature","geometry":{"type":"Point","coordinates":[-80.837539,35.2225]}},{"properties":{"city":"HICKORY","name":null,"latitude":35.73491,"weight":1.0,"longitude":-81.335604,"id":"a6f53bdkp7fu","state":"NC"},"type":"Feature","geometry":{"type":"Point","coordinates":[-81.335604,35.73491]}},{"properties":{"city":"CANDLER","name":null,"latitude":35.534811,"weight":1.0,"longitude":-82.689526,"id":"a6f53b5n2ksj","state":"NC"},"type":"Feature","geometry":{"type":"Point","coordinates":[-82.689526,35.534811]}},{"properties":{"city":"DICKINSON","name":null,"latitude":46.87901,"weight":1.0,"longitude":-102.790589,"id":"a6f53bdjpuqg","state":"ND"},"type":"Feature","geometry":{"type":"Point","coordinates":[-102.790589,46.87901]}},{"properties":{"city":"BISMARK","name":null,"latitude":46.805371,"weight":1.0,"longitude":-100.779319,"id":"a6f53bcnkku2","state":"ND"},"type":"Feature","geometry":{"type":"Point","coordinates":[-100.779319,46.805371]}},{"properties":{"city":"CONCORD","name":null,"latitude":43.20725,"weight":1.0,"longitude":-71.536604,"id":"a6f53bfv7e5z","state":"NH"},"type":"Feature","geometry":{"type":"Point","coordinates":[-71.536604,43.20725]}},{"properties":{"city":"ATKINSON","name":null,"latitude":42.840385,"weight":1.0,"longitude":-71.142979,"id":"a6f53b6xx6vq","state":"NH"},"type":"Feature","geometry":{"type":"Point","coordinates":[-71.142979,42.840385]}},{"properties":{"city":"CHICHESTER","name":null,"latitude":43.248123,"weight":1.0,"longitude":-71.394078,"id":"a6f53b1esuef","state":"NH"},"type":"Feature","geometry":{"type":"Point","coordinates":[-71.394078,43.248123]}},{"properties":{"city":"CLIFTON","name":null,"latitude":40.865635,"weight":2.0,"longitude":-74.160254,"id":"a6f53bcnn1qp","state":"NJ"},"type":"Feature","geometry":{"type":"Point","coordinates":[-74.160254,40.865635]}},{"properties":{"city":"CARTERET","name":null,"latitude":40.578852,"weight":11.0,"longitude":-74.219563,"id":"a6f53b94wv4d","state":"NJ"},"type":"Feature","geometry":{"type":"Point","coordinates":[-74.219563,40.578852]}},{"properties":{"city":"HOLMDEL","name":null,"latitude":40.342615,"weight":1.0,"longitude":-74.166604,"id":"a6f53b6kmip6","state":"NJ"},"type":"Feature","geometry":{"type":"Point","coordinates":[-74.166604,40.342615]}},{"properties":{"city":"CARLSTADT","name":null,"latitude":40.841435,"weight":1.0,"longitude":-74.094399,"id":"a6f53b3pyijy","state":"NJ"},"type":"Feature","geometry":{"type":"Point","coordinates":[-74.094399,40.841435]}},{"properties":{"city":"LINDEN","name":null,"latitude":40.631995,"weight":19.0,"longitude":-74.255204,"id":"a6f53b2grb3x","state":"NJ"},"type":"Feature","geometry":{"type":"Point","coordinates":[-74.255204,40.631995]}},{"properties":{"city":"FORDS","name":null,"latitude":40.527405,"weight":1.0,"longitude":-74.309859,"id":"a6f53b8b6lm2","state":"NJ"},"type":"Feature","geometry":{"type":"Point","coordinates":[-74.309859,40.527405]}},{"properties":{"city":"BUDD LAKE","name":null,"latitude":40.864909,"weight":1.0,"longitude":-74.736001,"id":"a6f53b6czw7g","state":"NJ"},"type":"Feature","geometry":{"type":"Point","coordinates":[-74.736001,40.864909]}},{"properties":{"city":"LONG VALLEY","name":null,"latitude":40.788205,"weight":1.0,"longitude":-74.781474,"id":"a6f53bd1egr8","state":"NJ"},"type":"Feature","geometry":{"type":"Point","coordinates":[-74.781474,40.788205]}},{"properties":{"city":"BROADWAY","name":null,"latitude":40.732315,"weight":2.0,"longitude":-75.051394,"id":"a6f53b2ny6tx","state":"NJ"},"type":"Feature","geometry":{"type":"Point","coordinates":[-75.051394,40.732315]}},{"properties":{"city":"BRIDGETON","name":null,"latitude":39.429475,"weight":1.0,"longitude":-75.234064,"id":"a6f53ba33y00","state":"NJ"},"type":"Feature","geometry":{"type":"Point","coordinates":[-75.234064,39.429475]}},{"properties":{"city":"E. RUTHERFORD","name":null,"latitude":40.822985,"weight":1.0,"longitude":-74.101319,"id":"a6f53bcelrqs","state":"NJ"},"type":"Feature","geometry":{"type":"Point","coordinates":[-74.101319,40.822985]}},{"properties":{"city":"BLOOMINGDALE","name":null,"latitude":41.008116,"weight":1.0,"longitude":-74.33925,"id":"a6f53b1s55wt","state":"NJ"},"type":"Feature","geometry":{"type":"Point","coordinates":[-74.33925,41.008116]}},{"properties":{"city":"BOONTON","name":null,"latitude":40.901925,"weight":1.0,"longitude":-74.407428,"id":"a6f53bb5r0kr","state":"NJ"},"type":"Feature","geometry":{"type":"Point","coordinates":[-74.407428,40.901925]}},{"properties":{"city":"CHATHAM","name":null,"latitude":40.737935,"weight":1.0,"longitude":-74.384454,"id":"a6f53bd4ryky","state":"NJ"},"type":"Feature","geometry":{"type":"Point","coordinates":[-74.384454,40.737935]}},{"properties":{"city":"BLOOMFIELD","name":null,"latitude":40.791907,"weight":2.0,"longitude":-74.195733,"id":"a6f53bdywfdf","state":"NJ"},"type":"Feature","geometry":{"type":"Point","coordinates":[-74.195733,40.791907]}},{"properties":{"city":"E. ORANGE","name":null,"latitude":40.772846,"weight":28.0,"longitude":-74.229219,"id":"a6f53bghe7wu","state":"NJ"},"type":"Feature","geometry":{"type":"Point","coordinates":[-74.229219,40.772846]}},{"properties":{"city":"EWING","name":null,"latitude":40.269795,"weight":1.0,"longitude":-74.800609,"id":"a6f53b1hk7wq","state":"NJ"},"type":"Feature","geometry":{"type":"Point","coordinates":[-74.800609,40.269795]}},{"properties":{"city":"KEYPORT","name":null,"latitude":40.436653,"weight":2.0,"longitude":-74.20444,"id":"a6f53b07j5fq","state":"NJ"},"type":"Feature","geometry":{"type":"Point","coordinates":[-74.20444,40.436653]}},{"properties":{"city":"HAMILTON SQUARE","name":null,"latitude":40.227115,"weight":1.0,"longitude":-74.653819,"id":"a6f53b44ctqg","state":"NJ"},"type":"Feature","geometry":{"type":"Point","coordinates":[-74.653819,40.227115]}},{"properties":{"city":"JERSEY CITY","name":null,"latitude":40.7174,"weight":16.0,"longitude":-74.043234,"id":"a6f53b689gn6","state":"NJ"},"type":"Feature","geometry":{"type":"Point","coordinates":[-74.043234,40.7174]}},{"properties":{"city":"LINCOLN PARK","name":null,"latitude":40.920946,"weight":1.0,"longitude":-74.304002,"id":"a6f53b0w1m0w","state":"NJ"},"type":"Feature","geometry":{"type":"Point","coordinates":[-74.304002,40.920946]}},{"properties":{"city":"BEACHWOOD","name":null,"latitude":39.91692,"weight":1.0,"longitude":-74.206764,"id":"a6f53b5x6jas","state":"NJ"},"type":"Feature","geometry":{"type":"Point","coordinates":[-74.206764,39.91692]}},{"properties":{"city":"ATLANTIC CITY","name":null,"latitude":39.362815,"weight":1.0,"longitude":-74.426524,"id":"a6f53behfjk9","state":"NJ"},"type":"Feature","geometry":{"type":"Point","coordinates":[-74.426524,39.362815]}},{"properties":{"city":"HAWTHORNE","name":null,"latitude":40.953615,"weight":1.0,"longitude":-74.155434,"id":"a6f53bamkxu9","state":"NJ"},"type":"Feature","geometry":{"type":"Point","coordinates":[-74.155434,40.953615]}},{"properties":{"city":"GRANTS","name":null,"latitude":35.150638,"weight":1.0,"longitude":-107.849887,"id":"a6f53b4bgtln","state":"NM"},"type":"Feature","geometry":{"type":"Point","coordinates":[-107.849887,35.150638]}},{"properties":{"city":"FARMINGTON","name":null,"latitude":36.72814,"weight":3.0,"longitude":-108.205689,"id":"a6f53b0a95gb","state":"NM"},"type":"Feature","geometry":{"type":"Point","coordinates":[-108.205689,36.72814]}},{"properties":{"city":"ALBUQUERQUE","name":null,"latitude":35.08418,"weight":6.0,"longitude":-106.648639,"id":"a6f53bgbvtd4","state":"NM"},"type":"Feature","geometry":{"type":"Point","coordinates":[-106.648639,35.08418]}},{"properties":{"city":"LAS VEGAS","name":null,"latitude":36.171915,"weight":5.0,"longitude":-115.139974,"id":"a6f53b0ih0uy","state":"NV"},"type":"Feature","geometry":{"type":"Point","coordinates":[-115.139974,36.171915]}},{"properties":{"city":"FALLON","name":null,"latitude":39.474905,"weight":1.0,"longitude":-118.777624,"id":"a6f53b8k4dms","state":"NV"},"type":"Feature","geometry":{"type":"Point","coordinates":[-118.777624,39.474905]}},{"properties":{"city":"ALAMO","name":null,"latitude":37.36846,"weight":1.0,"longitude":-115.159965,"id":"a6f53b3futnm","state":"NV"},"type":"Feature","geometry":{"type":"Point","coordinates":[-115.159965,37.36846]}},{"properties":{"city":"HENDERSON","name":null,"latitude":36.03082,"weight":1.0,"longitude":-114.981094,"id":"a6f53b5w9p6z","state":"NV"},"type":"Feature","geometry":{"type":"Point","coordinates":[-114.981094,36.03082]}},{"properties":{"city":"LONG ISLAND CITY","name":null,"latitude":40.75087,"weight":27.0,"longitude":-73.941359,"id":"a6f53bc14v09","state":"NY"},"type":"Feature","geometry":{"type":"Point","coordinates":[-73.941359,40.75087]}},{"properties":{"city":"GANESVOORT","name":null,"latitude":42.856319,"weight":6.0,"longitude":-76.501892,"id":"a6f53b7412bl","state":"NY"},"type":"Feature","geometry":{"type":"Point","coordinates":[-76.501892,42.856319]}},{"properties":{"city":"GENEVA","name":null,"latitude":42.86642,"weight":4.0,"longitude":-76.982094,"id":"a6f53bcgot5q","state":"NY"},"type":"Feature","geometry":{"type":"Point","coordinates":[-76.982094,42.86642]}},{"properties":{"city":"ALBANY","name":null,"latitude":42.651455,"weight":9.0,"longitude":-73.755274,"id":"a6f53b8gjuay","state":"NY"},"type":"Feature","geometry":{"type":"Point","coordinates":[-73.755274,42.651455]}},{"properties":{"city":"ALBION","name":null,"latitude":43.24572,"weight":2.0,"longitude":-78.193755,"id":"a6f53beaycu8","state":"NY"},"type":"Feature","geometry":{"type":"Point","coordinates":[-78.193755,43.24572]}},{"properties":{"city":"GLEN FALLS","name":null,"latitude":43.31122,"weight":12.0,"longitude":-73.643759,"id":"a6f53b9ncheb","state":"NY"},"type":"Feature","geometry":{"type":"Point","coordinates":[-73.643759,43.31122]}},{"properties":{"city":"KINGSTON","name":null,"latitude":41.926718,"weight":9.0,"longitude":-73.996506,"id":"a6f53b50745k","state":"NY"},"type":"Feature","geometry":{"type":"Point","coordinates":[-73.996506,41.926718]}},{"properties":{"city":"BALDWINSVILLE","name":null,"latitude":43.158626,"weight":1.0,"longitude":-76.333078,"id":"a6f53b163g3x","state":"NY"},"type":"Feature","geometry":{"type":"Point","coordinates":[-76.333078,43.158626]}},{"properties":{"city":"LYNBROOK","name":null,"latitude":40.65736,"weight":1.0,"longitude":-73.674249,"id":"a6f53b3zzxhc","state":"NY"},"type":"Feature","geometry":{"type":"Point","coordinates":[-73.674249,40.65736]}},{"properties":{"city":"JAMESTOWN","name":null,"latitude":42.09605,"weight":13.0,"longitude":-79.237799,"id":"a6f53bd4xp8q","state":"NY"},"type":"Feature","geometry":{"type":"Point","coordinates":[-79.237799,42.09605]}},{"properties":{"city":"HAMBURG","name":null,"latitude":42.71606,"weight":1.0,"longitude":-78.832109,"id":"a6f53b6ckkym","state":"NY"},"type":"Feature","geometry":{"type":"Point","coordinates":[-78.832109,42.71606]}},{"properties":{"city":"ITHACA","name":null,"latitude":42.440495,"weight":2.0,"longitude":-76.495454,"id":"a6f53ba01d1w","state":"NY"},"type":"Feature","geometry":{"type":"Point","coordinates":[-76.495454,42.440495]}},{"properties":{"city":"FORT EDWARDS","name":null,"latitude":43.268087,"weight":3.0,"longitude":-73.585725,"id":"a6f53b18brbs","state":"NY"},"type":"Feature","geometry":{"type":"Point","coordinates":[-73.585725,43.268087]}},{"properties":{"city":"FLUSHING","name":null,"latitude":40.763585,"weight":2.0,"longitude":-73.830029,"id":"a6f53bcd50rv","state":"NY"},"type":"Feature","geometry":{"type":"Point","coordinates":[-73.830029,40.763585]}},{"properties":{"city":"BRONX","name":null,"latitude":40.825745,"weight":12.0,"longitude":-73.923249,"id":"a6f53b27954b","state":"NY"},"type":"Feature","geometry":{"type":"Point","coordinates":[-73.923249,40.825745]}},{"properties":{"city":"BROOKLYN","name":null,"latitude":40.692385,"weight":62.0,"longitude":-73.989872,"id":"a6f53be4ghzm","state":"NY"},"type":"Feature","geometry":{"type":"Point","coordinates":[-73.989872,40.692385]}},{"properties":{"city":"FARMINGDALE","name":null,"latitude":40.73187,"weight":2.0,"longitude":-73.44573,"id":"a6f53b02nm6z","state":"NY"},"type":"Feature","geometry":{"type":"Point","coordinates":[-73.44573,40.73187]}},{"properties":{"city":"LACKAWANNA","name":null,"latitude":42.8258,"weight":1.0,"longitude":-78.824734,"id":"a6f53b0y5lnx","state":"NY"},"type":"Feature","geometry":{"type":"Point","coordinates":[-78.824734,42.8258]}},{"properties":{"city":"LATHAM","name":null,"latitude":42.74415,"weight":4.0,"longitude":-73.761779,"id":"a6f53bgj5ukm","state":"NY"},"type":"Feature","geometry":{"type":"Point","coordinates":[-73.761779,42.74415]}},{"properties":{"city":"BUFFALO","name":null,"latitude":42.88544,"weight":48.0,"longitude":-78.878464,"id":"a6f53b6natz9","state":"NY"},"type":"Feature","geometry":{"type":"Point","coordinates":[-78.878464,42.88544]}},{"properties":{"city":"New Hyde Park","name":null,"latitude":40.733541,"weight":9.0,"longitude":-73.680648,"id":"a6f53bfoufay","state":"NY"},"type":"Feature","geometry":{"type":"Point","coordinates":[-73.680648,40.733541]}},{"properties":{"city":"ENDICOTT","name":null,"latitude":42.09973,"weight":1.0,"longitude":-76.045669,"id":"a6f53b838xk2","state":"NY"},"type":"Feature","geometry":{"type":"Point","coordinates":[-76.045669,42.09973]}},{"properties":{"city":"HORSEHEADS","name":null,"latitude":42.172655,"weight":2.0,"longitude":-76.826069,"id":"a6f53b2fpug1","state":"NY"},"type":"Feature","geometry":{"type":"Point","coordinates":[-76.826069,42.172655]}},{"properties":{"city":"HICKSVILLE","name":null,"latitude":40.763445,"weight":8.0,"longitude":-73.527531,"id":"a6f53bb8n2wm","state":"NY"},"type":"Feature","geometry":{"type":"Point","coordinates":[-73.527531,40.763445]}},{"properties":{"city":"ELMIRA","name":null,"latitude":42.09041,"weight":4.0,"longitude":-76.798814,"id":"a6f53b0rrh0n","state":"NY"},"type":"Feature","geometry":{"type":"Point","coordinates":[-76.798814,42.09041]}},{"properties":{"city":"CHEEKTOWAGA","name":null,"latitude":42.903935,"weight":6.0,"longitude":-78.740574,"id":"a6f53beh08g1","state":"NY"},"type":"Feature","geometry":{"type":"Point","coordinates":[-78.740574,42.903935]}},{"properties":{"city":"CHICHESTER","name":null,"latitude":42.102277,"weight":1.0,"longitude":-74.299636,"id":"a6f53b0uuwhu","state":"NY"},"type":"Feature","geometry":{"type":"Point","coordinates":[-74.299636,42.102277]}},{"properties":{"city":"LIC","name":null,"latitude":42.856319,"weight":5.0,"longitude":-76.501892,"id":"a6f53b1g5msa","state":"NY"},"type":"Feature","geometry":{"type":"Point","coordinates":[-76.501892,42.856319]}},{"properties":{"city":"E. SYRACUSE","name":null,"latitude":43.045128,"weight":8.0,"longitude":-76.105654,"id":"a6f53b1a1he8","state":"NY"},"type":"Feature","geometry":{"type":"Point","coordinates":[-76.105654,43.045128]}},{"properties":{"city":"DELMAR","name":null,"latitude":42.61984,"weight":1.0,"longitude":-73.839719,"id":"a6f53b6skvs8","state":"NY"},"type":"Feature","geometry":{"type":"Point","coordinates":[-73.839719,42.61984]}},{"properties":{"city":"DEPEW","name":null,"latitude":42.904405,"weight":1.0,"longitude":-78.686394,"id":"a6f53b0umrpq","state":"NY"},"type":"Feature","geometry":{"type":"Point","coordinates":[-78.686394,42.904405]}},{"properties":{"city":"E SYRACUSE","name":null,"latitude":43.045128,"weight":2.0,"longitude":-76.105654,"id":"a6f53bdym2lk","state":"NY"},"type":"Feature","geometry":{"type":"Point","coordinates":[-76.105654,43.045128]}},{"properties":{"city":"BOLIVAR","name":null,"latitude":42.066685,"weight":1.0,"longitude":-78.167654,"id":"a6f53b1qxq8i","state":"NY"},"type":"Feature","geometry":{"type":"Point","coordinates":[-78.167654,42.066685]}},{"properties":{"city":"FORT RECOVERY","name":null,"latitude":40.41329,"weight":2.0,"longitude":-84.776564,"id":"a6f53b0wnsyv","state":"OH"},"type":"Feature","geometry":{"type":"Point","coordinates":[-84.776564,40.41329]}},{"properties":{"city":"AKRON","name":null,"latitude":41.084195,"weight":2.0,"longitude":-81.514059,"id":"a6f53ba6m4li","state":"OH"},"type":"Feature","geometry":{"type":"Point","coordinates":[-81.514059,41.084195]}},{"properties":{"city":"FT. RECOVERY","name":null,"latitude":40.41329,"weight":1.0,"longitude":-84.776564,"id":"a6f53bfxpkni","state":"OH"},"type":"Feature","geometry":{"type":"Point","coordinates":[-84.776564,40.41329]}},{"properties":{"city":"HOLLAND","name":null,"latitude":41.618668,"weight":1.0,"longitude":-83.709798,"id":"a6f53b34l3q8","state":"OH"},"type":"Feature","geometry":{"type":"Point","coordinates":[-83.709798,41.618668]}},{"properties":{"city":"DUBLIN","name":null,"latitude":40.104895,"weight":1.0,"longitude":-83.133119,"id":"a6f53b2kurqv","state":"OH"},"type":"Feature","geometry":{"type":"Point","coordinates":[-83.133119,40.104895]}},{"properties":{"city":"HILLIARD","name":null,"latitude":40.02981,"weight":1.0,"longitude":-83.151054,"id":"a6f53b4ggxff","state":"OH"},"type":"Feature","geometry":{"type":"Point","coordinates":[-83.151054,40.02981]}},{"properties":{"city":"AURORA","name":null,"latitude":41.314965,"weight":14.0,"longitude":-81.345497,"id":"a6f53b8mt2ml","state":"OH"},"type":"Feature","geometry":{"type":"Point","coordinates":[-81.345497,41.314965]}},{"properties":{"city":"CHAGRIN FALLS","name":null,"latitude":41.429755,"weight":2.0,"longitude":-81.392554,"id":"a6f53beed55e","state":"OH"},"type":"Feature","geometry":{"type":"Point","coordinates":[-81.392554,41.429755]}},{"properties":{"city":"LOVELAND","name":null,"latitude":39.268779,"weight":2.0,"longitude":-84.261085,"id":"a6f53bbr7s5s","state":"OH"},"type":"Feature","geometry":{"type":"Point","coordinates":[-84.261085,39.268779]}},{"properties":{"city":"LAGRANGE","name":null,"latitude":41.23732,"weight":1.0,"longitude":-82.120424,"id":"a6f53b285anp","state":"OH"},"type":"Feature","geometry":{"type":"Point","coordinates":[-82.120424,41.23732]}},{"properties":{"city":"HAMILTON","name":null,"latitude":39.40008,"weight":1.0,"longitude":-84.562644,"id":"a6f53b367gry","state":"OH"},"type":"Feature","geometry":{"type":"Point","coordinates":[-84.562644,39.40008]}},{"properties":{"city":"MACEDONIA","name":null,"latitude":41.313735,"weight":6.0,"longitude":-81.504834,"id":"a6f53b51sagx","state":"OH"},"type":"Feature","geometry":{"type":"Point","coordinates":[-81.504834,41.313735]}},{"properties":{"city":"LOGAN","name":null,"latitude":39.54052,"weight":1.0,"longitude":-82.406849,"id":"a6f53b17x8i3","state":"OH"},"type":"Feature","geometry":{"type":"Point","coordinates":[-82.406849,39.54052]}},{"properties":{"city":"ARCHBOLD","name":null,"latitude":41.522295,"weight":4.0,"longitude":-84.306319,"id":"a6f53b41jo3n","state":"OH"},"type":"Feature","geometry":{"type":"Point","coordinates":[-84.306319,41.522295]}},{"properties":{"city":"DELTA","name":null,"latitude":41.573916,"weight":2.0,"longitude":-84.002754,"id":"a6f53b9dg7wx","state":"OH"},"type":"Feature","geometry":{"type":"Point","coordinates":[-84.002754,41.573916]}},{"properties":{"city":"GREENVILLE","name":null,"latitude":40.10308,"weight":1.0,"longitude":-84.634049,"id":"a6f53b0jtapm","state":"OH"},"type":"Feature","geometry":{"type":"Point","coordinates":[-84.634049,40.10308]}},{"properties":{"city":"BRECKSVILLE","name":null,"latitude":41.317335,"weight":1.0,"longitude":-81.626863,"id":"a6f53b5gy7d1","state":"OH"},"type":"Feature","geometry":{"type":"Point","coordinates":[-81.626863,41.317335]}},{"properties":{"city":"DAYTON","name":null,"latitude":39.75911,"weight":4.0,"longitude":-84.194439,"id":"a6f53bf9j58o","state":"OH"},"type":"Feature","geometry":{"type":"Point","coordinates":[-84.194439,39.75911]}},{"properties":{"city":"FINDLAY","name":null,"latitude":41.0374,"weight":1.0,"longitude":-83.650288,"id":"a6f53bdxrypk","state":"OH"},"type":"Feature","geometry":{"type":"Point","coordinates":[-83.650288,41.0374]}},{"properties":{"city":"HARRISON","name":null,"latitude":39.262025,"weight":8.0,"longitude":-84.816429,"id":"a6f53bbld203","state":"OH"},"type":"Feature","geometry":{"type":"Point","coordinates":[-84.816429,39.262025]}},{"properties":{"city":"CARROLLTON","name":null,"latitude":40.57321,"weight":1.0,"longitude":-81.086859,"id":"a6f53bg1lrm1","state":"OH"},"type":"Feature","geometry":{"type":"Point","coordinates":[-81.086859,40.57321]}},{"properties":{"city":"BRYAN","name":null,"latitude":41.473955,"weight":1.0,"longitude":-84.551029,"id":"a6f53b5gl57p","state":"OH"},"type":"Feature","geometry":{"type":"Point","coordinates":[-84.551029,41.473955]}},{"properties":{"city":"FAIRFIELD","name":null,"latitude":39.332288,"weight":2.0,"longitude":-84.558867,"id":"a6f53b90x4s9","state":"OH"},"type":"Feature","geometry":{"type":"Point","coordinates":[-84.558867,39.332288]}},{"properties":{"city":"COLUMBUS","name":null,"latitude":39.96196,"weight":40.0,"longitude":-83.002984,"id":"a6f53b486l7n","state":"OH"},"type":"Feature","geometry":{"type":"Point","coordinates":[-83.002984,39.96196]}},{"properties":{"city":"KENT","name":null,"latitude":41.15093,"weight":1.0,"longitude":-81.358219,"id":"a6f53bg6aph0","state":"OH"},"type":"Feature","geometry":{"type":"Point","coordinates":[-81.358219,41.15093]}},{"properties":{"city":"CAMBRIDGE","name":null,"latitude":40.02479,"weight":1.0,"longitude":-81.590109,"id":"a6f53bdd92hw","state":"OH"},"type":"Feature","geometry":{"type":"Point","coordinates":[-81.590109,40.02479]}},{"properties":{"city":"COLDWATER","name":null,"latitude":40.479721,"weight":1.0,"longitude":-84.629269,"id":"a6f53bcoyj17","state":"OH"},"type":"Feature","geometry":{"type":"Point","coordinates":[-84.629269,40.479721]}},{"properties":{"city":"CLEVELAND HEIGHTS","name":null,"latitude":41.519135,"weight":1.0,"longitude":-81.552939,"id":"a6f53bg8m0lu","state":"OH"},"type":"Feature","geometry":{"type":"Point","coordinates":[-81.552939,41.519135]}},{"properties":{"city":"CLEVELAND","name":null,"latitude":41.504365,"weight":2.0,"longitude":-81.690459,"id":"a6f53b0vue5a","state":"OH"},"type":"Feature","geometry":{"type":"Point","coordinates":[-81.690459,41.504365]}},{"properties":{"city":"CIRCLEVILLE","name":null,"latitude":39.60089,"weight":10.0,"longitude":-82.941834,"id":"a6f53bc88vc0","state":"OH"},"type":"Feature","geometry":{"type":"Point","coordinates":[-82.941834,39.60089]}},{"properties":{"city":"CINCINNATI","name":null,"latitude":39.106441,"weight":2.0,"longitude":-84.504694,"id":"a6f53b6d7s40","state":"OH"},"type":"Feature","geometry":{"type":"Point","coordinates":[-84.504694,39.106441]}},{"properties":{"city":"HELENA","name":null,"latitude":41.341325,"weight":1.0,"longitude":-83.291214,"id":"a6f53b2mai9g","state":"OH"},"type":"Feature","geometry":{"type":"Point","coordinates":[-83.291214,41.341325]}},{"properties":{"city":"CANTON","name":null,"latitude":40.79781,"weight":1.0,"longitude":-81.371569,"id":"a6f53bcagykf","state":"OH"},"type":"Feature","geometry":{"type":"Point","coordinates":[-81.371569,40.79781]}},{"properties":{"city":"ELNGLEWOOD","name":null,"latitude":40.190269,"weight":1.0,"longitude":-82.669403,"id":"a6f53b3w1hiq","state":"OH"},"type":"Feature","geometry":{"type":"Point","coordinates":[-82.669403,40.190269]}},{"properties":{"city":"HURON","name":null,"latitude":41.39091,"weight":1.0,"longitude":-82.558389,"id":"a6f53bd7c9dw","state":"OH"},"type":"Feature","geometry":{"type":"Point","coordinates":[-82.558389,41.39091]}},{"properties":{"city":"LAWTON","name":null,"latitude":34.60515,"weight":1.0,"longitude":-98.389834,"id":"a6f53b7w2nlt","state":"OK"},"type":"Feature","geometry":{"type":"Point","coordinates":[-98.389834,34.60515]}},{"properties":{"city":"BIXBY","name":null,"latitude":35.94323,"weight":1.0,"longitude":-95.885289,"id":"a6f53bg1xmux","state":"OK"},"type":"Feature","geometry":{"type":"Point","coordinates":[-95.885289,35.94323]}},{"properties":{"city":"ALBANY","name":null,"latitude":44.63548,"weight":1.0,"longitude":-123.107764,"id":"a6f53b0dgptw","state":"OR"},"type":"Feature","geometry":{"type":"Point","coordinates":[-123.107764,44.63548]}},{"properties":{"city":"ASTORIA","name":null,"latitude":46.18977,"weight":1.0,"longitude":-123.833954,"id":"a6f53ba330ux","state":"OR"},"type":"Feature","geometry":{"type":"Point","coordinates":[-123.833954,46.18977]}},{"properties":{"city":"HILLSBORO","name":null,"latitude":45.522675,"weight":1.0,"longitude":-122.990499,"id":"a6f53b8f8b4i","state":"OR"},"type":"Feature","geometry":{"type":"Point","coordinates":[-122.990499,45.522675]}},{"properties":{"city":"GRESHAM","name":null,"latitude":45.50599,"weight":1.0,"longitude":-122.435309,"id":"a6f53b2rdaku","state":"OR"},"type":"Feature","geometry":{"type":"Point","coordinates":[-122.435309,45.50599]}},{"properties":{"city":"BEAVERTON","name":null,"latitude":45.484895,"weight":1.0,"longitude":-122.796153,"id":"a6f53b9jwt8l","state":"OR"},"type":"Feature","geometry":{"type":"Point","coordinates":[-122.796153,45.484895]}},{"properties":{"city":"KEMPTON","name":null,"latitude":40.623301,"weight":1.0,"longitude":-75.852429,"id":"a6f53b9syhb7","state":"PA"},"type":"Feature","geometry":{"type":"Point","coordinates":[-75.852429,40.623301]}},{"properties":{"city":"KENNET SQ","name":null,"latitude":39.847809,"weight":1.0,"longitude":-75.710899,"id":"a6f53bc49wfj","state":"PA"},"type":"Feature","geometry":{"type":"Point","coordinates":[-75.710899,39.847809]}},{"properties":{"city":"EASTON","name":null,"latitude":40.691195,"weight":1.0,"longitude":-75.209829,"id":"a6f53b2loena","state":"PA"},"type":"Feature","geometry":{"type":"Point","coordinates":[-75.209829,40.691195]}},{"properties":{"city":"HOMER CITY","name":null,"latitude":40.542329,"weight":1.0,"longitude":-79.16088,"id":"a6f53bf4c51p","state":"PA"},"type":"Feature","geometry":{"type":"Point","coordinates":[-79.16088,40.542329]}},{"properties":{"city":"CARNEGIE","name":null,"latitude":40.404572,"weight":1.0,"longitude":-80.091877,"id":"a6f53b1y3mki","state":"PA"},"type":"Feature","geometry":{"type":"Point","coordinates":[-80.091877,40.404572]}},{"properties":{"city":"CHESWICK","name":null,"latitude":40.53903,"weight":1.0,"longitude":-79.797419,"id":"a6f53b71iu1l","state":"PA"},"type":"Feature","geometry":{"type":"Point","coordinates":[-79.797419,40.53903]}},{"properties":{"city":"CARLISLE BARRACKS","name":null,"latitude":40.20118,"weight":1.0,"longitude":-77.18911,"id":"a6f53bgjedeb","state":"PA"},"type":"Feature","geometry":{"type":"Point","coordinates":[-77.18911,40.20118]}},{"properties":{"city":"GREENSBURG","name":null,"latitude":40.299245,"weight":23.0,"longitude":-79.543159,"id":"a6f53bac7rlc","state":"PA"},"type":"Feature","geometry":{"type":"Point","coordinates":[-79.543159,40.299245]}},{"properties":{"city":"CANONSBURG","name":null,"latitude":40.259034,"weight":2.0,"longitude":-80.185547,"id":"a6f53b4sk6b3","state":"PA"},"type":"Feature","geometry":{"type":"Point","coordinates":[-80.185547,40.259034]}},{"properties":{"city":"ALTOONA","name":null,"latitude":40.50719,"weight":4.0,"longitude":-78.398904,"id":"a6f53beqtkgq","state":"PA"},"type":"Feature","geometry":{"type":"Point","coordinates":[-78.398904,40.50719]}},{"properties":{"city":"EPHRATA","name":null,"latitude":40.17855,"weight":1.0,"longitude":-76.177139,"id":"a6f53b5zjbtf","state":"PA"},"type":"Feature","geometry":{"type":"Point","coordinates":[-76.177139,40.17855]}},{"properties":{"city":"BURNHAM","name":null,"latitude":40.630483,"weight":8.0,"longitude":-77.567016,"id":"a6f53bf40o8b","state":"PA"},"type":"Feature","geometry":{"type":"Point","coordinates":[-77.567016,40.630483]}},{"properties":{"city":"LANDISVILLE","name":null,"latitude":40.095471,"weight":4.0,"longitude":-76.410805,"id":"a6f53b4a0ay0","state":"PA"},"type":"Feature","geometry":{"type":"Point","coordinates":[-76.410805,40.095471]}},{"properties":{"city":"ERIE","name":null,"latitude":42.129445,"weight":2.0,"longitude":-80.085239,"id":"a6f53bb06vek","state":"PA"},"type":"Feature","geometry":{"type":"Point","coordinates":[-80.085239,42.129445]}},{"properties":{"city":"CONNELLSVILLE","name":null,"latitude":40.01779,"weight":1.0,"longitude":-79.588779,"id":"a6f53bccwws2","state":"PA"},"type":"Feature","geometry":{"type":"Point","coordinates":[-79.588779,40.01779]}},{"properties":{"city":"COPLAY","name":null,"latitude":40.667835,"weight":1.0,"longitude":-75.489234,"id":"a6f53b95fkv6","state":"PA"},"type":"Feature","geometry":{"type":"Point","coordinates":[-75.489234,40.667835]}},{"properties":{"city":"BROWNSVILLE","name":null,"latitude":40.0203,"weight":2.0,"longitude":-79.890459,"id":"a6f53b9uy53h","state":"PA"},"type":"Feature","geometry":{"type":"Point","coordinates":[-79.890459,40.0203]}},{"properties":{"city":"ALLENTOWN","name":null,"latitude":40.60257,"weight":2.0,"longitude":-75.470204,"id":"a6f53b3ex1j0","state":"PA"},"type":"Feature","geometry":{"type":"Point","coordinates":[-75.470204,40.60257]}},{"properties":{"city":"LEVITTOWN","name":null,"latitude":40.160665,"weight":1.0,"longitude":-74.887204,"id":"a6f53bcsjf2t","state":"PA"},"type":"Feature","geometry":{"type":"Point","coordinates":[-74.887204,40.160665]}},{"properties":{"city":"MACUNGIE","name":null,"latitude":40.51554,"weight":1.0,"longitude":-75.555204,"id":"a6f53b5k93s2","state":"PA"},"type":"Feature","geometry":{"type":"Point","coordinates":[-75.555204,40.51554]}},{"properties":{"city":"FINLEYVILLE","name":null,"latitude":40.2529,"weight":1.0,"longitude":-80.002499,"id":"a6f53b9r4byg","state":"PA"},"type":"Feature","geometry":{"type":"Point","coordinates":[-80.002499,40.2529]}},{"properties":{"city":"BRONSVILLE","name":null,"latitude":40.0203,"weight":1.0,"longitude":-79.890459,"id":"a6f53b0gsg2i","state":"PA"},"type":"Feature","geometry":{"type":"Point","coordinates":[-79.890459,40.0203]}},{"properties":{"city":"LONGHORNE","name":null,"latitude":40.176396,"weight":1.0,"longitude":-74.918884,"id":"a6f53barenae","state":"PA"},"type":"Feature","geometry":{"type":"Point","coordinates":[-74.918884,40.176396]}},{"properties":{"city":"BREINGSVILLE","name":null,"latitude":40.542745,"weight":1.0,"longitude":-75.656909,"id":"a6f53b1k0x3r","state":"PA"},"type":"Feature","geometry":{"type":"Point","coordinates":[-75.656909,40.542745]}},{"properties":{"city":"HARLEYSVILLE","name":null,"latitude":40.281201,"weight":1.0,"longitude":-75.393534,"id":"a6f53bepwljh","state":"PA"},"type":"Feature","geometry":{"type":"Point","coordinates":[-75.393534,40.281201]}},{"properties":{"city":"LANDENBERG","name":null,"latitude":39.780179,"weight":1.0,"longitude":-75.768447,"id":"a6f53bds14nn","state":"PA"},"type":"Feature","geometry":{"type":"Point","coordinates":[-75.768447,39.780179]}},{"properties":{"city":"DILLSBURG","name":null,"latitude":40.109305,"weight":1.0,"longitude":-77.035249,"id":"a6f53b92bz6y","state":"PA"},"type":"Feature","geometry":{"type":"Point","coordinates":[-77.035249,40.109305]}},{"properties":{"city":"BRADFORD","name":null,"latitude":41.95586,"weight":5.0,"longitude":-78.650479,"id":"a6f53b7qjy0p","state":"PA"},"type":"Feature","geometry":{"type":"Point","coordinates":[-78.650479,41.95586]}},{"properties":{"city":"ASKAM","name":null,"latitude":41.198163,"weight":1.0,"longitude":-75.95632,"id":"a6f53b39k7a7","state":"PA"},"type":"Feature","geometry":{"type":"Point","coordinates":[-75.95632,41.198163]}},{"properties":{"city":"DUNCANSVILLE","name":null,"latitude":40.423355,"weight":5.0,"longitude":-78.433624,"id":"a6f53b43liuz","state":"PA"},"type":"Feature","geometry":{"type":"Point","coordinates":[-78.433624,40.423355]}},{"properties":{"city":"DONORA","name":null,"latitude":40.178475,"weight":1.0,"longitude":-79.855149,"id":"a6f53b52on0p","state":"PA"},"type":"Feature","geometry":{"type":"Point","coordinates":[-79.855149,40.178475]}},{"properties":{"city":"DORMONT","name":null,"latitude":40.39346,"weight":1.0,"longitude":-80.036409,"id":"a6f53bg97mnh","state":"PA"},"type":"Feature","geometry":{"type":"Point","coordinates":[-80.036409,40.39346]}},{"properties":{"city":"DOYLESTOWN","name":null,"latitude":40.310035,"weight":1.0,"longitude":-75.131654,"id":"a6f53b73h6gw","state":"PA"},"type":"Feature","geometry":{"type":"Point","coordinates":[-75.131654,40.310035]}},{"properties":{"city":"JEANNETTE","name":null,"latitude":40.326745,"weight":1.0,"longitude":-79.615929,"id":"a6f53beo608j","state":"PA"},"type":"Feature","geometry":{"type":"Point","coordinates":[-79.615929,40.326745]}},{"properties":{"city":"BETHLEHEM","name":null,"latitude":40.630985,"weight":1.0,"longitude":-75.377784,"id":"a6f53b4cnr3f","state":"PA"},"type":"Feature","geometry":{"type":"Point","coordinates":[-75.377784,40.630985]}},{"properties":{"city":"BEDFORD","name":null,"latitude":40.02403,"weight":3.0,"longitude":-78.502314,"id":"a6f53b97am1w","state":"PA"},"type":"Feature","geometry":{"type":"Point","coordinates":[-78.502314,40.02403]}},{"properties":{"city":"JOHNSTOWN","name":null,"latitude":40.32726,"weight":1.0,"longitude":-78.918354,"id":"a6f53b3brtks","state":"PA"},"type":"Feature","geometry":{"type":"Point","coordinates":[-78.918354,40.32726]}},{"properties":{"city":"CHAMBERSBURG","name":null,"latitude":39.93743,"weight":1.0,"longitude":-77.660754,"id":"a6f53baxa4t8","state":"PA"},"type":"Feature","geometry":{"type":"Point","coordinates":[-77.660754,39.93743]}},{"properties":{"city":"GETTYSBURG","name":null,"latitude":39.83023,"weight":1.0,"longitude":-77.231114,"id":"a6f53bco36vd","state":"PA"},"type":"Feature","geometry":{"type":"Point","coordinates":[-77.231114,39.83023]}},{"properties":{"city":"EAST GREENWICH","name":null,"latitude":41.66053,"weight":1.0,"longitude":-71.449969,"id":"a6f53bdyncxo","state":"RI"},"type":"Feature","geometry":{"type":"Point","coordinates":[-71.449969,41.66053]}},{"properties":{"city":"GOOSE CREEK","name":null,"latitude":32.997587,"weight":1.0,"longitude":-80.03961,"id":"a6f53b4du5oa","state":"SC"},"type":"Feature","geometry":{"type":"Point","coordinates":[-80.03961,32.997587]}},{"properties":{"city":"FORT MILLS","name":null,"latitude":35.006675,"weight":1.0,"longitude":-80.943162,"id":"a6f53b33x66w","state":"SC"},"type":"Feature","geometry":{"type":"Point","coordinates":[-80.943162,35.006675]}},{"properties":{"city":"DORCHESTER","name":null,"latitude":33.13902,"weight":1.0,"longitude":-80.395789,"id":"a6f53b2huihb","state":"SC"},"type":"Feature","geometry":{"type":"Point","coordinates":[-80.395789,33.13902]}},{"properties":{"city":"GREENVILLE","name":null,"latitude":34.84802,"weight":3.0,"longitude":-82.400219,"id":"a6f53b8hiwx3","state":"SC"},"type":"Feature","geometry":{"type":"Point","coordinates":[-82.400219,34.84802]}},{"properties":{"city":"BLUFFTON","name":null,"latitude":32.237215,"weight":1.0,"longitude":-80.861334,"id":"a6f53b5l40y8","state":"SC"},"type":"Feature","geometry":{"type":"Point","coordinates":[-80.861334,32.237215]}},{"properties":{"city":"GREER","name":null,"latitude":34.938214,"weight":1.0,"longitude":-82.227705,"id":"a6f53bej8bhj","state":"SC"},"type":"Feature","geometry":{"type":"Point","coordinates":[-82.227705,34.938214]}},{"properties":{"city":"FORT MILL","name":null,"latitude":35.006675,"weight":3.0,"longitude":-80.943162,"id":"a6f53bfh2m0p","state":"SC"},"type":"Feature","geometry":{"type":"Point","coordinates":[-80.943162,35.006675]}},{"properties":{"city":"GREENWOOD","name":null,"latitude":34.191046,"weight":2.0,"longitude":-82.160744,"id":"a6f53bby4non","state":"SC"},"type":"Feature","geometry":{"type":"Point","coordinates":[-82.160744,34.191046]}},{"properties":{"city":"COLUMBIA","name":null,"latitude":33.99855,"weight":7.0,"longitude":-81.045249,"id":"a6f53b9bd1oy","state":"SC"},"type":"Feature","geometry":{"type":"Point","coordinates":[-81.045249,33.99855]}},{"properties":{"city":"ANDREWS","name":null,"latitude":33.451415,"weight":1.0,"longitude":-79.561754,"id":"a6f53b3umqyn","state":"SC"},"type":"Feature","geometry":{"type":"Point","coordinates":[-79.561754,33.451415]}},{"properties":{"city":"CHARLESTON","name":null,"latitude":32.78115,"weight":1.0,"longitude":-79.931604,"id":"a6f53b9zegl3","state":"SC"},"type":"Feature","geometry":{"type":"Point","coordinates":[-79.931604,32.78115]}},{"properties":{"city":"GEORGETOWN","name":null,"latitude":33.368312,"weight":3.0,"longitude":-79.280757,"id":"a6f53b5k4bd1","state":"SC"},"type":"Feature","geometry":{"type":"Point","coordinates":[-79.280757,33.368312]}},{"properties":{"city":"BROOKINGS","name":null,"latitude":44.310955,"weight":1.0,"longitude":-96.798549,"id":"a6f53b09bwpk","state":"SD"},"type":"Feature","geometry":{"type":"Point","coordinates":[-96.798549,44.310955]}},{"properties":{"city":"GREGORY","name":null,"latitude":43.226792,"weight":1.0,"longitude":-99.433168,"id":"a6f53b6spxzi","state":"SD"},"type":"Feature","geometry":{"type":"Point","coordinates":[-99.433168,43.226792]}},{"properties":{"city":"BRANDON","name":null,"latitude":43.594415,"weight":2.0,"longitude":-96.572354,"id":"a6f53bcir32y","state":"SD"},"type":"Feature","geometry":{"type":"Point","coordinates":[-96.572354,43.594415]}},{"properties":{"city":"GOODLETTSVILLE","name":null,"latitude":36.321695,"weight":1.0,"longitude":-86.713289,"id":"a6f53b66iovc","state":"TN"},"type":"Feature","geometry":{"type":"Point","coordinates":[-86.713289,36.321695]}},{"properties":{"city":"ARLINGTON","name":null,"latitude":35.291145,"weight":1.0,"longitude":-89.674309,"id":"a6f53bd1d0jh","state":"TN"},"type":"Feature","geometry":{"type":"Point","coordinates":[-89.674309,35.291145]}},{"properties":{"city":"COLLIERVILLE","name":null,"latitude":35.04259,"weight":2.0,"longitude":-89.666619,"id":"a6f53b6h2z82","state":"TN"},"type":"Feature","geometry":{"type":"Point","coordinates":[-89.666619,35.04259]}},{"properties":{"city":"KNOXVILLE","name":null,"latitude":35.960495,"weight":4.0,"longitude":-83.920914,"id":"a6f53be5ghsu","state":"TN"},"type":"Feature","geometry":{"type":"Point","coordinates":[-83.920914,35.960495]}},{"properties":{"city":"CHATTANOOGA","name":null,"latitude":35.04644,"weight":4.0,"longitude":-85.309464,"id":"a6f53b6zgqi7","state":"TN"},"type":"Feature","geometry":{"type":"Point","coordinates":[-85.309464,35.04644]}},{"properties":{"city":"BARTLETT","name":null,"latitude":35.204774,"weight":3.0,"longitude":-89.849414,"id":"a6f53bfotikf","state":"TN"},"type":"Feature","geometry":{"type":"Point","coordinates":[-89.849414,35.204774]}},{"properties":{"city":"JOHNSON CITY","name":null,"latitude":36.320088,"weight":2.0,"longitude":-82.345284,"id":"a6f53b2uwi5a","state":"TN"},"type":"Feature","geometry":{"type":"Point","coordinates":[-82.345284,36.320088]}},{"properties":{"city":"ABILENE","name":null,"latitude":32.449175,"weight":9.0,"longitude":-99.741424,"id":"a6f53bapi9za","state":"TX"},"type":"Feature","geometry":{"type":"Point","coordinates":[-99.741424,32.449175]}},{"properties":{"city":"GRAND PRAIRIE","name":null,"latitude":32.7477,"weight":3.0,"longitude":-97.007199,"id":"a6f53b1xfx1n","state":"TX"},"type":"Feature","geometry":{"type":"Point","coordinates":[-97.007199,32.7477]}},{"properties":{"city":"KELLER","name":null,"latitude":32.930862,"weight":6.0,"longitude":-97.22511,"id":"a6f53bctnvb2","state":"TX"},"type":"Feature","geometry":{"type":"Point","coordinates":[-97.22511,32.930862]}},{"properties":{"city":"BRIDGE CITY","name":null,"latitude":30.02137,"weight":3.0,"longitude":-93.845774,"id":"a6f53bbiw7f7","state":"TX"},"type":"Feature","geometry":{"type":"Point","coordinates":[-93.845774,30.02137]}},{"properties":{"city":"KATY","name":null,"latitude":29.787725,"weight":1.0,"longitude":-95.823329,"id":"a6f53b664jik","state":"TX"},"type":"Feature","geometry":{"type":"Point","coordinates":[-95.823329,29.787725]}},{"properties":{"city":"JOSHUA","name":null,"latitude":32.46295,"weight":1.0,"longitude":-97.388509,"id":"a6f53besm46n","state":"TX"},"type":"Feature","geometry":{"type":"Point","coordinates":[-97.388509,32.46295]}},{"properties":{"city":"COPPELL","name":null,"latitude":32.976736,"weight":1.0,"longitude":-96.990083,"id":"a6f53bagayvi","state":"TX"},"type":"Feature","geometry":{"type":"Point","coordinates":[-96.990083,32.976736]}},{"properties":{"city":"CORPUS CHRISTI","name":null,"latitude":27.79641,"weight":3.0,"longitude":-97.403564,"id":"a6f53bcgiy3n","state":"TX"},"type":"Feature","geometry":{"type":"Point","coordinates":[-97.403564,27.79641]}},{"properties":{"city":"AMARILLO","name":null,"latitude":35.207255,"weight":2.0,"longitude":-101.833894,"id":"a6f53bbb7579","state":"TX"},"type":"Feature","geometry":{"type":"Point","coordinates":[-101.833894,35.207255]}},{"properties":{"city":"CORSICANA","name":null,"latitude":32.09162,"weight":2.0,"longitude":-96.463264,"id":"a6f53bf8r1w5","state":"TX"},"type":"Feature","geometry":{"type":"Point","coordinates":[-96.463264,32.09162]}},{"properties":{"city":"CARROLLTON","name":null,"latitude":32.975555,"weight":1.0,"longitude":-96.890229,"id":"a6f53bc7wmw8","state":"TX"},"type":"Feature","geometry":{"type":"Point","coordinates":[-96.890229,32.975555]}},{"properties":{"city":"BASTROP","name":null,"latitude":30.110575,"weight":1.0,"longitude":-97.319384,"id":"a6f53be2ibt8","state":"TX"},"type":"Feature","geometry":{"type":"Point","coordinates":[-97.319384,30.110575]}},{"properties":{"city":"HUMBLE","name":null,"latitude":30.000185,"weight":1.0,"longitude":-95.268624,"id":"a6f53b15nnr7","state":"TX"},"type":"Feature","geometry":{"type":"Point","coordinates":[-95.268624,30.000185]}},{"properties":{"city":"HOUSTON","name":null,"latitude":29.76045,"weight":34.0,"longitude":-95.369784,"id":"a6f53bb4koo7","state":"TX"},"type":"Feature","geometry":{"type":"Point","coordinates":[-95.369784,29.76045]}},{"properties":{"city":"ARLINGTON","name":null,"latitude":32.7356,"weight":7.0,"longitude":-97.107719,"id":"a6f53be4kke9","state":"TX"},"type":"Feature","geometry":{"type":"Point","coordinates":[-97.107719,32.7356]}},{"properties":{"city":"DALLAS","name":null,"latitude":32.778155,"weight":6.0,"longitude":-96.795404,"id":"a6f53b08m7x4","state":"TX"},"type":"Feature","geometry":{"type":"Point","coordinates":[-96.795404,32.778155]}},{"properties":{"city":"GRAPEVINE","name":null,"latitude":32.939435,"weight":2.0,"longitude":-97.078389,"id":"a6f53bbj2ypg","state":"TX"},"type":"Feature","geometry":{"type":"Point","coordinates":[-97.078389,32.939435]}},{"properties":{"city":"CONVERSE","name":null,"latitude":29.515025,"weight":1.0,"longitude":-98.311954,"id":"a6f53bd3fhy7","state":"TX"},"type":"Feature","geometry":{"type":"Point","coordinates":[-98.311954,29.515025]}},{"properties":{"city":"BELTON","name":null,"latitude":31.0569,"weight":3.0,"longitude":-97.463609,"id":"a6f53b9zxjrj","state":"TX"},"type":"Feature","geometry":{"type":"Point","coordinates":[-97.463609,31.0569]}},{"properties":{"city":"ATHENS","name":null,"latitude":32.20431,"weight":1.0,"longitude":-95.855594,"id":"a6f53b8ua1u1","state":"TX"},"type":"Feature","geometry":{"type":"Point","coordinates":[-95.855594,32.20431]}},{"properties":{"city":"GEORGETOWN","name":null,"latitude":30.63791,"weight":1.0,"longitude":-97.677014,"id":"a6f53bf7pdtt","state":"TX"},"type":"Feature","geometry":{"type":"Point","coordinates":[-97.677014,30.63791]}},{"properties":{"city":"KILGORE","name":null,"latitude":32.38028,"weight":7.0,"longitude":-94.869044,"id":"a6f53b22542d","state":"TX"},"type":"Feature","geometry":{"type":"Point","coordinates":[-94.869044,32.38028]}},{"properties":{"city":"GARLAND","name":null,"latitude":32.913865,"weight":1.0,"longitude":-96.636554,"id":"a6f53b48uymt","state":"TX"},"type":"Feature","geometry":{"type":"Point","coordinates":[-96.636554,32.913865]}},{"properties":{"city":"CARROLTON","name":null,"latitude":32.975555,"weight":1.0,"longitude":-96.890229,"id":"a6f53b04fk2f","state":"TX"},"type":"Feature","geometry":{"type":"Point","coordinates":[-96.890229,32.975555]}},{"properties":{"city":"AUSTIN","name":null,"latitude":30.267605,"weight":1.0,"longitude":-97.742984,"id":"a6f53bfqfbqj","state":"TX"},"type":"Feature","geometry":{"type":"Point","coordinates":[-97.742984,30.267605]}},{"properties":{"city":"FRIENDSWOOD","name":null,"latitude":29.53001,"weight":1.0,"longitude":-95.200239,"id":"a6f53bdz7c4h","state":"TX"},"type":"Feature","geometry":{"type":"Point","coordinates":[-95.200239,29.53001]}},{"properties":{"city":"FREER","name":null,"latitude":27.882715,"weight":1.0,"longitude":-98.617394,"id":"a6f53b1otw2g","state":"TX"},"type":"Feature","geometry":{"type":"Point","coordinates":[-98.617394,27.882715]}},{"properties":{"city":"DEVINE","name":null,"latitude":29.14072,"weight":2.0,"longitude":-98.905369,"id":"a6f53b6oue4c","state":"TX"},"type":"Feature","geometry":{"type":"Point","coordinates":[-98.905369,29.14072]}},{"properties":{"city":"BRENHAM","name":null,"latitude":30.16602,"weight":1.0,"longitude":-96.399983,"id":"a6f53bd8wawa","state":"TX"},"type":"Feature","geometry":{"type":"Point","coordinates":[-96.399983,30.16602]}},{"properties":{"city":"FORT WORTH","name":null,"latitude":32.74863,"weight":3.0,"longitude":-97.329249,"id":"a6f53b4mziky","state":"TX"},"type":"Feature","geometry":{"type":"Point","coordinates":[-97.329249,32.74863]}},{"properties":{"city":"DFW AIRPORT","name":null,"latitude":32.87494,"weight":1.0,"longitude":-97.043475,"id":"a6f53bel4blb","state":"TX"},"type":"Feature","geometry":{"type":"Point","coordinates":[-97.043475,32.87494]}},{"properties":{"city":"FLOWER MOUND","name":null,"latitude":33.034227,"weight":1.0,"longitude":-97.059596,"id":"a6f53ba85efq","state":"TX"},"type":"Feature","geometry":{"type":"Point","coordinates":[-97.059596,33.034227]}},{"properties":{"city":"EL PASO","name":null,"latitude":31.759165,"weight":5.0,"longitude":-106.487494,"id":"a6f53b4u5j9t","state":"TX"},"type":"Feature","geometry":{"type":"Point","coordinates":[-106.487494,31.759165]}},{"properties":{"city":"FT WORTH","name":null,"latitude":32.74863,"weight":29.0,"longitude":-97.329249,"id":"a6f53bfee71p","state":"TX"},"type":"Feature","geometry":{"type":"Point","coordinates":[-97.329249,32.74863]}},{"properties":{"city":"HURRICANE","name":null,"latitude":37.177003,"weight":7.0,"longitude":-113.284862,"id":"a6f53b1xpedq","state":"UT"},"type":"Feature","geometry":{"type":"Point","coordinates":[-113.284862,37.177003]}},{"properties":{"city":"GLEN ALLEN","name":null,"latitude":37.665319,"weight":1.0,"longitude":-77.504149,"id":"a6f53bb218wz","state":"VA"},"type":"Feature","geometry":{"type":"Point","coordinates":[-77.504149,37.665319]}},{"properties":{"city":"CHANTILLY","name":null,"latitude":38.883607,"weight":10.0,"longitude":-77.439755,"id":"a6f53b5xza8i","state":"VA"},"type":"Feature","geometry":{"type":"Point","coordinates":[-77.439755,38.883607]}},{"properties":{"city":"DULLES","name":null,"latitude":39.02784,"weight":1.0,"longitude":-77.397184,"id":"a6f53b3usur9","state":"VA"},"type":"Feature","geometry":{"type":"Point","coordinates":[-77.397184,39.02784]}},{"properties":{"city":"FOREST","name":null,"latitude":37.362861,"weight":5.0,"longitude":-79.288435,"id":"a6f53b9ah043","state":"VA"},"type":"Feature","geometry":{"type":"Point","coordinates":[-79.288435,37.362861]}},{"properties":{"city":"FREDERICKSBURG","name":null,"latitude":38.30089,"weight":1.0,"longitude":-77.459144,"id":"a6f53b7urybk","state":"VA"},"type":"Feature","geometry":{"type":"Point","coordinates":[-77.459144,38.30089]}},{"properties":{"city":"LEESBURG","name":null,"latitude":39.11567,"weight":1.0,"longitude":-77.565299,"id":"a6f53b4vtjwk","state":"VA"},"type":"Feature","geometry":{"type":"Point","coordinates":[-77.565299,39.11567]}},{"properties":{"city":"BLACKSBURG","name":null,"latitude":37.226263,"weight":1.0,"longitude":-80.410584,"id":"a6f53bg9wnj5","state":"VA"},"type":"Feature","geometry":{"type":"Point","coordinates":[-80.410584,37.226263]}},{"properties":{"city":"BARBOURSVILLE","name":null,"latitude":38.170005,"weight":1.0,"longitude":-78.280619,"id":"a6f53b56l436","state":"VA"},"type":"Feature","geometry":{"type":"Point","coordinates":[-78.280619,38.170005]}},{"properties":{"city":"ASHLAND","name":null,"latitude":37.758852,"weight":1.0,"longitude":-77.479343,"id":"a6f53bdmuqty","state":"VA"},"type":"Feature","geometry":{"type":"Point","coordinates":[-77.479343,37.758852]}},{"properties":{"city":"ANNANDALE","name":null,"latitude":38.831796,"weight":1.0,"longitude":-77.195306,"id":"a6f53b890dgg","state":"VA"},"type":"Feature","geometry":{"type":"Point","coordinates":[-77.195306,38.831796]}},{"properties":{"city":"FAIRFAX","name":null,"latitude":38.841574,"weight":2.0,"longitude":-77.308132,"id":"a6f53bbap0uv","state":"VA"},"type":"Feature","geometry":{"type":"Point","coordinates":[-77.308132,38.841574]}},{"properties":{"city":"CAINESVILLE","name":null,"latitude":38.003349,"weight":1.0,"longitude":-79.771446,"id":"a6f53begc50p","state":"VA"},"type":"Feature","geometry":{"type":"Point","coordinates":[-79.771446,38.003349]}},{"properties":{"city":"ALEXANDRIA","name":null,"latitude":38.804565,"weight":1.0,"longitude":-77.043079,"id":"a6f53b6qtm64","state":"VA"},"type":"Feature","geometry":{"type":"Point","coordinates":[-77.043079,38.804565]}},{"properties":{"city":"BRISTOL","name":null,"latitude":36.598545,"weight":1.0,"longitude":-82.180794,"id":"a6f53b8rk2nk","state":"VA"},"type":"Feature","geometry":{"type":"Point","coordinates":[-82.180794,36.598545]}},{"properties":{"city":"ENOSBURG FALLS","name":null,"latitude":44.90588,"weight":1.0,"longitude":-72.805794,"id":"a6f53b87kg3f","state":"VT"},"type":"Feature","geometry":{"type":"Point","coordinates":[-72.805794,44.90588]}},{"properties":{"city":"LONDONERRY","name":null,"latitude":43.229302,"weight":1.0,"longitude":-72.814866,"id":"a6f53b4ky4i2","state":"VT"},"type":"Feature","geometry":{"type":"Point","coordinates":[-72.814866,43.229302]}},{"properties":{"city":"ANDOVER","name":null,"latitude":43.277577,"weight":1.0,"longitude":-72.697487,"id":"a6f53b5v31am","state":"VT"},"type":"Feature","geometry":{"type":"Point","coordinates":[-72.697487,43.277577]}},{"properties":{"city":"LAKEWOOD","name":null,"latitude":47.161771,"weight":2.0,"longitude":-122.514402,"id":"a6f53b2k0kn8","state":"WA"},"type":"Feature","geometry":{"type":"Point","coordinates":[-122.514402,47.161771]}},{"properties":{"city":"CHEWELAH","name":null,"latitude":48.28136,"weight":1.0,"longitude":-117.715549,"id":"a6f53b74iao4","state":"WA"},"type":"Feature","geometry":{"type":"Point","coordinates":[-117.715549,48.28136]}},{"properties":{"city":"BOTHELL","name":null,"latitude":47.76137,"weight":2.0,"longitude":-122.205624,"id":"a6f53bamoxus","state":"WA"},"type":"Feature","geometry":{"type":"Point","coordinates":[-122.205624,47.76137]}},{"properties":{"city":"FERNDALE","name":null,"latitude":48.847563,"weight":1.0,"longitude":-122.593513,"id":"a6f53bbn37b0","state":"WA"},"type":"Feature","geometry":{"type":"Point","coordinates":[-122.593513,48.847563]}},{"properties":{"city":"LANGLEY","name":null,"latitude":48.039965,"weight":1.0,"longitude":-122.406214,"id":"a6f53bfyg7aa","state":"WA"},"type":"Feature","geometry":{"type":"Point","coordinates":[-122.406214,48.039965]}},{"properties":{"city":"COLVILLE","name":null,"latitude":48.54657,"weight":1.0,"longitude":-117.904754,"id":"a6f53bf235oh","state":"WA"},"type":"Feature","geometry":{"type":"Point","coordinates":[-117.904754,48.54657]}},{"properties":{"city":"DEER PARK","name":null,"latitude":47.954315,"weight":1.0,"longitude":-117.471979,"id":"a6f53bafp8dh","state":"WA"},"type":"Feature","geometry":{"type":"Point","coordinates":[-117.471979,47.954315]}},{"properties":{"city":"BELLEVUE","name":null,"latitude":47.61002,"weight":3.0,"longitude":-122.187549,"id":"a6f53b8dh48s","state":"WA"},"type":"Feature","geometry":{"type":"Point","coordinates":[-122.187549,47.61002]}},{"properties":{"city":"CARNATION","name":null,"latitude":47.649005,"weight":1.0,"longitude":-121.913514,"id":"a6f53b3id3vf","state":"WA"},"type":"Feature","geometry":{"type":"Point","coordinates":[-121.913514,47.649005]}},{"properties":{"city":"ISSAQUAH","name":null,"latitude":47.530095,"weight":7.0,"longitude":-122.033799,"id":"a6f53bga7i4k","state":"WA"},"type":"Feature","geometry":{"type":"Point","coordinates":[-122.033799,47.530095]}},{"properties":{"city":"BURLINGTON","name":null,"latitude":48.475545,"weight":3.0,"longitude":-122.331534,"id":"a6f53bbqm88n","state":"WA"},"type":"Feature","geometry":{"type":"Point","coordinates":[-122.331534,48.475545]}},{"properties":{"city":"KIRKLAND","name":null,"latitude":47.678855,"weight":3.0,"longitude":-122.207244,"id":"a6f53b3ntbhw","state":"WA"},"type":"Feature","geometry":{"type":"Point","coordinates":[-122.207244,47.678855]}},{"properties":{"city":"KENT","name":null,"latitude":47.380285,"weight":6.0,"longitude":-122.237419,"id":"a6f53bbgsx3a","state":"WA"},"type":"Feature","geometry":{"type":"Point","coordinates":[-122.237419,47.380285]}},{"properties":{"city":"BRIER","name":null,"latitude":47.792019,"weight":1.0,"longitude":-122.273082,"id":"a6f53b5vdze8","state":"WA"},"type":"Feature","geometry":{"type":"Point","coordinates":[-122.273082,47.792019]}},{"properties":{"city":"BROWNSVILLE","name":null,"latitude":43.616325,"weight":1.0,"longitude":-88.490174,"id":"a6f53b1zmmp2","state":"WI"},"type":"Feature","geometry":{"type":"Point","coordinates":[-88.490174,43.616325]}},{"properties":{"city":"LODI","name":null,"latitude":43.31321,"weight":1.0,"longitude":-89.526119,"id":"a6f53b3rfmpd","state":"WI"},"type":"Feature","geometry":{"type":"Point","coordinates":[-89.526119,43.31321]}},{"properties":{"city":"MALONE","name":null,"latitude":43.85914,"weight":1.0,"longitude":-88.282216,"id":"a6f53b6qkao2","state":"WI"},"type":"Feature","geometry":{"type":"Point","coordinates":[-88.282216,43.85914]}},{"properties":{"city":"JANESVILLE","name":null,"latitude":42.687892,"weight":1.0,"longitude":-89.018214,"id":"a6f53b1hmz9s","state":"WI"},"type":"Feature","geometry":{"type":"Point","coordinates":[-89.018214,42.687892]}},{"properties":{"city":"LACROSSE","name":null,"latitude":43.812625,"weight":6.0,"longitude":-91.251919,"id":"a6f53b9b0iuw","state":"WI"},"type":"Feature","geometry":{"type":"Point","coordinates":[-91.251919,43.812625]}},{"properties":{"city":"COLGATE","name":null,"latitude":43.1962,"weight":1.0,"longitude":-88.202024,"id":"a6f53baded2e","state":"WI"},"type":"Feature","geometry":{"type":"Point","coordinates":[-88.202024,43.1962]}},{"properties":{"city":"APPLETON","name":null,"latitude":44.26178,"weight":1.0,"longitude":-88.416564,"id":"a6f53ba60r9s","state":"WI"},"type":"Feature","geometry":{"type":"Point","coordinates":[-88.416564,44.26178]}},{"properties":{"city":"BEAVER DAM","name":null,"latitude":43.456331,"weight":27.0,"longitude":-88.830239,"id":"a6f53bajixtp","state":"WI"},"type":"Feature","geometry":{"type":"Point","coordinates":[-88.830239,43.456331]}},{"properties":{"city":"GREEN BAY","name":null,"latitude":0.0,"weight":4.0,"longitude":0.0,"id":"a6f53b8tg64h","state":"WI"},"type":"Feature","geometry":{"type":"Point","coordinates":[0.0,0.0]}},{"properties":{"city":"CUDAHY","name":null,"latitude":42.953275,"weight":1.0,"longitude":-87.850089,"id":"a6f53b7yjd2t","state":"WI"},"type":"Feature","geometry":{"type":"Point","coordinates":[-87.850089,42.953275]}},{"properties":{"city":"GERMANTOWN","name":null,"latitude":43.220985,"weight":1.0,"longitude":-88.118584,"id":"a6f53b6vafjh","state":"WI"},"type":"Feature","geometry":{"type":"Point","coordinates":[-88.118584,43.220985]}},{"properties":{"city":"DANE","name":null,"latitude":43.25044,"weight":1.0,"longitude":-89.500544,"id":"a6f53b9mscpd","state":"WI"},"type":"Feature","geometry":{"type":"Point","coordinates":[-89.500544,43.25044]}},{"properties":{"city":"FAIRMONT","name":null,"latitude":39.48161,"weight":6.0,"longitude":-80.147154,"id":"a6f53b50jra5","state":"WV"},"type":"Feature","geometry":{"type":"Point","coordinates":[-80.147154,39.48161]}},{"properties":{"city":"BEAVER","name":null,"latitude":37.768286,"weight":1.0,"longitude":-81.071073,"id":"a6f53b1fai6b","state":"WV"},"type":"Feature","geometry":{"type":"Point","coordinates":[-81.071073,37.768286]}},{"properties":{"city":"CHARLESTON","name":null,"latitude":38.350195,"weight":10.0,"longitude":-81.638989,"id":"a6f53b5iuvs3","state":"WV"},"type":"Feature","geometry":{"type":"Point","coordinates":[-81.638989,38.350195]}},{"properties":{"city":"BECKLEY","name":null,"latitude":37.777592,"weight":1.0,"longitude":-81.187637,"id":"a6f53bembaky","state":"WV"},"type":"Feature","geometry":{"type":"Point","coordinates":[-81.187637,37.777592]}},{"properties":{"city":"CLARKSBURG","name":null,"latitude":39.27942,"weight":1.0,"longitude":-80.340119,"id":"a6f53b7uaarm","state":"WV"},"type":"Feature","geometry":{"type":"Point","coordinates":[-80.340119,39.27942]}},{"properties":{"city":"HUNTINGTON","name":null,"latitude":38.419825,"weight":2.0,"longitude":-82.445369,"id":"a6f53b8908ef","state":"WV"},"type":"Feature","geometry":{"type":"Point","coordinates":[-82.445369,38.419825]}},{"properties":{"city":"INWOOD","name":null,"latitude":39.36196,"weight":8.0,"longitude":-78.041844,"id":"a6f53bbxanyj","state":"WV"},"type":"Feature","geometry":{"type":"Point","coordinates":[-78.041844,39.36196]}},{"properties":{"city":"LINDSIDE","name":null,"latitude":37.453388,"weight":1.0,"longitude":-80.670176,"id":"a6f53b4bcwal","state":"WV"},"type":"Feature","geometry":{"type":"Point","coordinates":[-80.670176,37.453388]}},{"properties":{"city":"GREEN RIVER","name":null,"latitude":0.0,"weight":6.0,"longitude":0.0,"id":"a6f53be8mm9u","state":"WY"},"type":"Feature","geometry":{"type":"Point","coordinates":[0.0,0.0]}}],"is_temporal":false,"author":{"url":"","metadata":"","contact_name":"","contact_address":"","source":"","contact_phone":""},"source":"","pagination":{"sort":null,"start":0,"total":599,"limit":1000000},"state":"complete","tags":"","published":"2014-08-10T21:49:08-04:00","id":16533}