{"type":"FeatureCollection","data_type":"Dataset","url_type":null,"permissions":[{"permissions":{"download":true,"view":true},"group_id":"everyone"}],"classification":null,"title":"First Test","count":30,"stream_id":16555,"contributor":{"url":"http://geocommons.com/users/8774","name":"YESMapMaker"},"data_attributes":null,"calculation_params":null,"icon_link":null,"link":"http://geocommons.com/overlays/16555.json","extent":[-84.7743,25.8601,-73.8117,41.0946],"geometry_types":["point"],"unique_name":null,"name":"First Test","feature_count":30,"description":"","next_feature":null,"is_raster":false,"short_classification":"Y","stats":{},"features":[{"properties":{"city":null,"id":"a6wibiuzyt9i","address":null,"state":null},"type":"Feature","geometry":null},{"properties":{"city":null,"id":"a6wibiq54uhv","address":null,"state":null},"type":"Feature","geometry":null},{"properties":{"city":null,"id":"a6wibin6iosn","address":null,"state":null},"type":"Feature","geometry":null},{"properties":{"city":null,"id":"a6wibiogz6io","address":null,"state":null},"type":"Feature","geometry":null},{"properties":{"city":null,"id":"a6wibijkwed3","address":null,"state":null},"type":"Feature","geometry":null},{"properties":{"city":null,"id":"a6wibivhoyly","address":null,"state":null},"type":"Feature","geometry":null},{"properties":{"city":null,"id":"a6wibirfhbiv","address":null,"state":null},"type":"Feature","geometry":null},{"properties":{"city":null,"id":"a6wibipelz8w","address":null,"state":null},"type":"Feature","geometry":null},{"properties":{"city":null,"id":"a6wibioade83","address":null,"state":null},"type":"Feature","geometry":null},{"properties":{"city":"MOOREVILLE","geo_score":0.0,"id":"a6wibiv7sabq","geo_precision":"unmatched","address":"105 WILDCAT LANE","state":"NC"},"type":"Feature","geometry":null},{"properties":{"city":"BEAUFORT","geo_score":0.805,"id":"a6wibiwrqbw2","geo_precision":"range","address":"116-118 PARRIS ISLAND GATEWAY","state":"SC"},"type":"Feature","geometry":{"type":"Point","coordinates":[-80.724346,32.431722]}},{"properties":{"city":"YONKERS","geo_score":0.902,"id":"a6wibimv4jmq","geo_precision":"range","address":"12 BRIGHT PLACE","state":"NY"},"type":"Feature","geometry":{"type":"Point","coordinates":[-73.894837,40.92612]}},{"properties":{"city":"HAWTHORNE","geo_score":0.861,"id":"a6wibiko0zi8","geo_precision":"range","address":"16 SAW MILL RIVER ROAD","state":"NY"},"type":"Feature","geometry":{"type":"Point","coordinates":[-73.811673,41.094606]}},{"properties":{"city":"SOUTH PORT","geo_score":0.457,"id":"a6wibijosr85","geo_precision":"street","address":"1620 GOLEY HEWET ROAD","state":"NC"},"type":"Feature","geometry":{"type":"Point","coordinates":[-78.06797,34.056419]}},{"properties":{"city":"HARTSVILLE","geo_score":0.805,"id":"a6wibiz0axyl","geo_precision":"range","address":"1635 SOUTH FIFTH STREET","state":"SC"},"type":"Feature","geometry":{"type":"Point","coordinates":[-80.077584,34.334089]}},{"properties":{"city":"PLANTATION","geo_score":0.837,"id":"a6wibilpcl17","geo_precision":"range","address":"201 NW 70TH AVENUE","state":"FL"},"type":"Feature","geometry":{"type":"Point","coordinates":[-80.241351,26.123638]}},{"properties":{"city":"GREENSBORO","geo_score":0.902,"id":"a6wibiv5y9t8","geo_precision":"range","address":"2100 FAIRFAX ROAD","state":"NC"},"type":"Feature","geometry":{"type":"Point","coordinates":[-79.874597,36.036701]}},{"properties":{"city":"PALM BAY","geo_score":0.829,"id":"a6wibil5s40h","geo_precision":"range","address":"2301 NE COMMERCE PARK DR","state":"FL"},"type":"Feature","geometry":{"type":"Point","coordinates":[-80.605021,28.051192]}},{"properties":{"city":"SAVANNAH","geo_score":0.71,"id":"a6wibiqz2rm9","geo_precision":"street","address":"2323 DOWNING AVENUE","state":"GA"},"type":"Feature","geometry":{"type":"Point","coordinates":[-81.05591,32.039484]}},{"properties":{"city":"CLEARWATER","geo_score":0.902,"id":"a6wibinhemhq","geo_precision":"range","address":"2451 ENTERPRISE ROAD","state":"FL"},"type":"Feature","geometry":{"type":"Point","coordinates":[-82.739173,28.013732]}},{"properties":{"city":"SUMTER","geo_score":0.78,"id":"a6wibivjeb0e","geo_precision":"range","address":"2735 BROAD ST","state":"SC"},"type":"Feature","geometry":{"type":"Point","coordinates":[-80.403536,33.963598]}},{"properties":{"city":"SARASOTA","geo_score":0.902,"id":"a6wibis9h5m8","geo_precision":"range","address":"311 SARASOTA CENTER BLVD","state":"FL"},"type":"Feature","geometry":{"type":"Point","coordinates":[-82.404842,27.345058]}},{"properties":{"city":"HILTON HEAD","geo_score":0.866,"id":"a6wibix9743g","geo_precision":"range","address":"380 SOUTHWOOD PARK DRIVE","state":"SC"},"type":"Feature","geometry":{"type":"Point","coordinates":[-80.711493,32.213023]}},{"properties":{"city":"HIALEAH","geo_score":0.829,"id":"a6wibikuo6gm","geo_precision":"range","address":"4101 E 11TH AVENUE","state":"FL"},"type":"Feature","geometry":{"type":"Point","coordinates":[-80.260505,25.860125]}},{"properties":{"city":"NAPLES","geo_score":0.902,"id":"a6wibinx889y","geo_precision":"range","address":"4500 TAMIAMI TRAIL NORTH","state":"FL"},"type":"Feature","geometry":{"type":"Point","coordinates":[-81.800255,26.201714]}},{"properties":{"city":"SUMTER","geo_score":0.902,"id":"a6wibiou6ico","geo_precision":"range","address":"530 SOUTH PIKE EAST","state":"SC"},"type":"Feature","geometry":{"type":"Point","coordinates":[-80.325135,33.940703]}},{"properties":{"city":"GASTONIA","geo_score":0.835,"id":"a6wibiykzlq3","geo_precision":"range","address":"709 &amp; 715 SOUTH OAKLAND STREET","state":"NC"},"type":"Feature","geometry":{"type":"Point","coordinates":[-81.179976,35.254976]}},{"properties":{"city":"MOOREVILLE","geo_score":0.0,"id":"a6wibirmayg9","geo_precision":"unmatched","address":"ALCOVE RD &amp; CARDIGAN WAY","state":"NC"},"type":"Feature","geometry":null},{"properties":{"city":"SURFSIDE BEACH","geo_score":0.556,"id":"a6wibiwortwl","geo_precision":"street","address":"GULF COLONY RESORT AT DEER TRACK","state":"SC"},"type":"Feature","geometry":{"type":"Point","coordinates":[-78.97943,33.62618]}},{"properties":{"city":"CARTERSVILLE","geo_score":0.437,"id":"a6wibisfkif8","geo_precision":"street","address":"LOT 6 WINCHESTER FARMS","state":"GA"},"type":"Feature","geometry":{"type":"Point","coordinates":[-84.774289,34.77012]}}],"is_temporal":false,"author":{"url":"","metadata":"","contact_name":"","contact_address":"","source":"","contact_phone":""},"source":"","pagination":{"sort":null,"start":0,"total":30,"limit":1000000},"state":"complete","tags":"","published":"2014-08-10T21:52:58-04:00","id":16555}