{"type":"FeatureCollection","data_type":"Dataset","url_type":null,"permissions":[{"permissions":{"download":true,"view":true},"group_id":"everyone"}],"classification":null,"title":"ashleigh 3","count":486,"stream_id":16692,"contributor":{"url":"http://geocommons.com/users/8877","name":"ashleigh"},"data_attributes":null,"calculation_params":null,"icon_link":null,"link":"http://geocommons.com/overlays/16692.json","extent":[-123.074,29.8806,-71.1576,46.1077],"geometry_types":["point"],"unique_name":null,"name":"ashleigh 3","feature_count":486,"description":"","next_feature":null,"is_raster":false,"short_classification":"Y","stats":{"geo_score":{"max":0.791,"mean":0.591265432098767,"variance":0.0195314902252768,"stdev":0.139755108047172,"min":0.309,"median":0.629}},"features":[{"properties":{"city":"ABBOTSFORD","geo_score":0.786,"country":"Australia","id":"a624zjpz96nf","geo_precision":"street","state":"Victoria"},"type":"Feature","geometry":{"type":"Point","coordinates":[-84.946299,33.641179]}},{"properties":{"city":"APPLECROSS","geo_score":0.679,"country":"Australia","id":"a624zk3l8sda","geo_precision":"street","state":"Western Australia"},"type":"Feature","geometry":{"type":"Point","coordinates":[-75.323984,43.08809]}},{"properties":{"city":"APPLECROSS","geo_score":0.679,"country":"Australia","id":"a624zjovbzy2","geo_precision":"street","state":"Western Australia"},"type":"Feature","geometry":{"type":"Point","coordinates":[-75.323984,43.08809]}},{"properties":{"city":"ASHFIELD","geo_score":0.771,"country":"Australia","id":"a624zk1lifg8","geo_precision":"street","state":"Western Australia"},"type":"Feature","geometry":{"type":"Point","coordinates":[-88.112046,41.76347]}},{"properties":{"city":"ATTADALE","geo_score":0.631,"country":"Australia","id":"a624zk0nhdqm","geo_precision":"city","state":"Western Australia"},"type":"Feature","geometry":{"type":"Point","coordinates":[-81.687905,41.02561]}},{"properties":{"city":"BALCATTA","geo_score":0.631,"country":"Australia","id":"a624zjp4bvsi","geo_precision":"city","state":"Western Australia"},"type":"Feature","geometry":{"type":"Point","coordinates":[-81.687905,41.02561]}},{"properties":{"city":"BALGA","geo_score":0.31,"country":"Australia","id":"a624zjw60kyw","geo_precision":"street","state":"Western Australia"},"type":"Feature","geometry":{"type":"Point","coordinates":[-73.129497,41.790927]}},{"properties":{"city":"BASSENDEAN","geo_score":0.551,"country":"Australia","id":"a624zk29a6rq","geo_precision":"street","state":"Western Australia"},"type":"Feature","geometry":{"type":"Point","coordinates":[-71.207041,42.034636]}},{"properties":{"city":"BAYSWATER","geo_score":0.629,"country":"Australia","id":"a624zjuiv3m3","geo_precision":"city","state":"Western Australia"},"type":"Feature","geometry":{"type":"Point","coordinates":[-81.410666,41.264223]}},{"properties":{"city":"BAYSWATER","geo_score":0.629,"country":"Australia","id":"a624zk26mhvb","geo_precision":"city","state":"Western Australia"},"type":"Feature","geometry":{"type":"Point","coordinates":[-81.410666,41.264223]}},{"properties":{"city":"BAYSWATER","geo_score":0.629,"country":"Australia","id":"a624zjpw2f1w","geo_precision":"city","state":"Western Australia"},"type":"Feature","geometry":{"type":"Point","coordinates":[-81.410666,41.264223]}},{"properties":{"city":"BAYSWATER","geo_score":0.629,"country":"Australia","id":"a624zk2c9fop","geo_precision":"city","state":"Western Australia"},"type":"Feature","geometry":{"type":"Point","coordinates":[-81.410666,41.264223]}},{"properties":{"city":"BEACONSFIELD","geo_score":0.771,"country":"Australia","id":"a624zk3lknap","geo_precision":"street","state":"Western Australia"},"type":"Feature","geometry":{"type":"Point","coordinates":[-88.161388,41.725024]}},{"properties":{"city":"BECKENHAM","geo_score":0.74,"country":"Australia","id":"a624zjwjp6p8","geo_precision":"street","state":"Western Australia"},"type":"Feature","geometry":{"type":"Point","coordinates":[-86.85856,41.736135]}},{"properties":{"city":"BEDFORDALE","geo_score":0.496,"country":"Australia","id":"a624zju37aks","geo_precision":"street","state":"Western Australia"},"type":"Feature","geometry":{"type":"Point","coordinates":[-74.839146,40.279105]}},{"properties":{"city":"BENTLEY DC","geo_score":0.557,"country":"Australia","id":"a624zjpm0cqu","geo_precision":"street","state":"Western Australia"},"type":"Feature","geometry":{"type":"Point","coordinates":[-87.033413,41.586282]}},{"properties":{"city":"BOORAGOON","geo_score":0.557,"country":"Australia","id":"a624zk060603","geo_precision":"street","state":"Western Australia"},"type":"Feature","geometry":{"type":"Point","coordinates":[-73.727133,42.84383]}},{"properties":{"city":"BOYA","geo_score":0.612,"country":"Australia","id":"a624zk0csr31","geo_precision":"street","state":"Western Australia"},"type":"Feature","geometry":{"type":"Point","coordinates":[-75.700805,43.028113]}},{"properties":{"city":"BUNBURY","geo_score":0.714,"country":"Australia","id":"a624zk0c5gpd","geo_precision":"street","state":"Western Australia"},"type":"Feature","geometry":{"type":"Point","coordinates":[-74.656672,40.22191]}},{"properties":{"city":"BUSSELTON","geo_score":0.629,"country":"Australia","id":"a624zjotq1et","geo_precision":"city","state":"Western Australia"},"type":"Feature","geometry":{"type":"Point","coordinates":[-81.410666,41.264223]}},{"properties":{"city":"CANBERRA","geo_score":0.605,"country":"Australia","id":"a624zjqqq8lm","geo_precision":"city","state":"Australian Capital Territory"},"type":"Feature","geometry":{"type":"Point","coordinates":[-84.216874,38.090633]}},{"properties":{"city":"CANNING VALE","geo_score":0.349,"country":"Australia","id":"a624zjub1zbr","geo_precision":"street","state":"Western Australia"},"type":"Feature","geometry":{"type":"Point","coordinates":[-81.6335,41.005539]}},{"properties":{"city":"CANNING VALE","geo_score":0.349,"country":"Australia","id":"a624zk2o3pnm","geo_precision":"street","state":"Western Australia"},"type":"Feature","geometry":{"type":"Point","coordinates":[-81.6335,41.005539]}},{"properties":{"city":"CANNING VALE","geo_score":0.349,"country":"Australia","id":"a624zjzhe5xa","geo_precision":"street","state":"Western Australia"},"type":"Feature","geometry":{"type":"Point","coordinates":[-81.6335,41.005539]}},{"properties":{"city":"CARLISLE","geo_score":0.771,"country":"Australia","id":"a624zju167fk","geo_precision":"street","state":"Western Australia"},"type":"Feature","geometry":{"type":"Point","coordinates":[-74.400477,40.593737]}},{"properties":{"city":"CARLISLE","geo_score":0.771,"country":"Australia","id":"a624zjp92j8f","geo_precision":"street","state":"Western Australia"},"type":"Feature","geometry":{"type":"Point","coordinates":[-74.400477,40.593737]}},{"properties":{"city":"CHIDLOW","geo_score":0.619,"country":"Australia","id":"a624zk3tjvpb","geo_precision":"street","state":"Western Australia"},"type":"Feature","geometry":{"type":"Point","coordinates":[-76.960225,41.22888]}},{"properties":{"city":"CHURCHLANDS","geo_score":0.624,"country":"Australia","id":"a624zjxnmyzf","geo_precision":"city","state":"Western Australia"},"type":"Feature","geometry":{"type":"Point","coordinates":[-81.687905,41.02561]}},{"properties":{"city":"CITY BEACH","geo_score":0.366,"country":"Australia","id":"a624zjphg3kn","geo_precision":"street","state":"Western Australia"},"type":"Feature","geometry":{"type":"Point","coordinates":[-87.082591,41.656396]}},{"properties":{"city":"CITY BEACH","geo_score":0.366,"country":"Australia","id":"a624zk39ikwm","geo_precision":"street","state":"Western Australia"},"type":"Feature","geometry":{"type":"Point","coordinates":[-87.082591,41.656396]}},{"properties":{"city":"CLAREMONT","geo_score":0.469,"country":"Australia","id":"a624zjq577z4","geo_precision":"street","state":"Western Australia"},"type":"Feature","geometry":{"type":"Point","coordinates":[-93.743918,30.114773]}},{"properties":{"city":"CLAREMONT","geo_score":0.469,"country":"Australia","id":"a624zk2gs9i7","geo_precision":"street","state":"Western Australia"},"type":"Feature","geometry":{"type":"Point","coordinates":[-93.743918,30.114773]}},{"properties":{"city":"CLAREMONT","geo_score":0.469,"country":"Australia","id":"a624zk2clzy7","geo_precision":"street","state":"Western Australia"},"type":"Feature","geometry":{"type":"Point","coordinates":[-93.743918,30.114773]}},{"properties":{"city":"CLAREMONT","geo_score":0.469,"country":"Australia","id":"a624zk2g651c","geo_precision":"street","state":"Western Australia"},"type":"Feature","geometry":{"type":"Point","coordinates":[-93.743918,30.114773]}},{"properties":{"city":"CLAREMONT","geo_score":0.469,"country":"Australia","id":"a624zk02h9f1","geo_precision":"street","state":"Western Australia"},"type":"Feature","geometry":{"type":"Point","coordinates":[-93.743918,30.114773]}},{"properties":{"city":"CLAREMONT","geo_score":0.469,"country":"Australia","id":"a624zk0t1a35","geo_precision":"street","state":"Western Australia"},"type":"Feature","geometry":{"type":"Point","coordinates":[-93.743918,30.114773]}},{"properties":{"city":"CLAREMONT","geo_score":0.469,"country":"Australia","id":"a624zjxwg512","geo_precision":"street","state":"Western Australia"},"type":"Feature","geometry":{"type":"Point","coordinates":[-93.743918,30.114773]}},{"properties":{"city":"CLAREMONT","geo_score":0.469,"country":"Australia","id":"a624zjwwegto","geo_precision":"street","state":"Western Australia"},"type":"Feature","geometry":{"type":"Point","coordinates":[-93.743918,30.114773]}},{"properties":{"city":"CLOISTERS SQUARE, PERTH","geo_score":0.735,"country":"Australia","id":"a624zjwwlzxm","geo_precision":"street","state":"Western Australia"},"type":"Feature","geometry":{"type":"Point","coordinates":[-74.094038,43.011979]}},{"properties":{"city":"CLOISTERS SQUARE, PERTH","geo_score":0.735,"country":"Australia","id":"a624zjvmhr35","geo_precision":"street","state":"Western Australia"},"type":"Feature","geometry":{"type":"Point","coordinates":[-74.094038,43.011979]}},{"properties":{"city":"CLOISTERS SQUARE, PERTH","geo_score":0.735,"country":"Australia","id":"a624zk3ost0n","geo_precision":"street","state":"Western Australia"},"type":"Feature","geometry":{"type":"Point","coordinates":[-74.094038,43.011979]}},{"properties":{"city":"COMO","geo_score":0.318,"country":"Australia","id":"a624zju2nttq","geo_precision":"street","state":"Western Australia"},"type":"Feature","geometry":{"type":"Point","coordinates":[-81.594361,41.023545]}},{"properties":{"city":"CORRIGIN","geo_score":0.619,"country":"Australia","id":"a624zjwomx1d","geo_precision":"street","state":"Western Australia"},"type":"Feature","geometry":{"type":"Point","coordinates":[-94.257002,29.88065]}},{"properties":{"city":"COTTESLOE","geo_score":0.557,"country":"Australia","id":"a624zk0xm3rx","geo_precision":"street","state":"Western Australia"},"type":"Feature","geometry":{"type":"Point","coordinates":[-74.894314,43.735566]}},{"properties":{"city":"COTTESLOE","geo_score":0.557,"country":"Australia","id":"a624zk0nn12v","geo_precision":"street","state":"Western Australia"},"type":"Feature","geometry":{"type":"Point","coordinates":[-74.894314,43.735566]}},{"properties":{"city":"COTTESLOE","geo_score":0.557,"country":"Australia","id":"a624zjv6ykj5","geo_precision":"street","state":"Western Australia"},"type":"Feature","geometry":{"type":"Point","coordinates":[-74.894314,43.735566]}},{"properties":{"city":"COTTESLOE","geo_score":0.557,"country":"Australia","id":"a624zjywvfe5","geo_precision":"street","state":"Western Australia"},"type":"Feature","geometry":{"type":"Point","coordinates":[-74.894314,43.735566]}},{"properties":{"city":"COTTESLOE","geo_score":0.557,"country":"Australia","id":"a624zjww465j","geo_precision":"street","state":"Western Australia"},"type":"Feature","geometry":{"type":"Point","coordinates":[-74.894314,43.735566]}},{"properties":{"city":"COTTESLOE","geo_score":0.557,"country":"Australia","id":"a624zjxl9rvx","geo_precision":"street","state":"Western Australia"},"type":"Feature","geometry":{"type":"Point","coordinates":[-74.894314,43.735566]}},{"properties":{"city":"COTTESLOE","geo_score":0.557,"country":"Australia","id":"a624zjtp6012","geo_precision":"street","state":"Western Australia"},"type":"Feature","geometry":{"type":"Point","coordinates":[-74.894314,43.735566]}},{"properties":{"city":"COTTESLOE","geo_score":0.557,"country":"Australia","id":"a624zjy3tulj","geo_precision":"street","state":"Western Australia"},"type":"Feature","geometry":{"type":"Point","coordinates":[-74.894314,43.735566]}},{"properties":{"city":"COTTESLOE","geo_score":0.557,"country":"Australia","id":"a624zjtue0zr","geo_precision":"street","state":"Western Australia"},"type":"Feature","geometry":{"type":"Point","coordinates":[-74.894314,43.735566]}},{"properties":{"city":"COTTESLOE","geo_score":0.557,"country":"Australia","id":"a624zjorqbmc","geo_precision":"street","state":"Western Australia"},"type":"Feature","geometry":{"type":"Point","coordinates":[-74.894314,43.735566]}},{"properties":{"city":"COTTESLOE","geo_score":0.557,"country":"Australia","id":"a624zjug7hx7","geo_precision":"street","state":"Western Australia"},"type":"Feature","geometry":{"type":"Point","coordinates":[-74.894314,43.735566]}},{"properties":{"city":"CRAWLEY","geo_score":0.416,"country":"Australia","id":"a624zjxafu4n","geo_precision":"street","state":"Western Australia"},"type":"Feature","geometry":{"type":"Point","coordinates":[-81.639794,41.05475]}},{"properties":{"city":"CROWS NEST","geo_score":0.319,"country":"Australia","id":"a624zk0bc53i","geo_precision":"street","state":"New South Wales"},"type":"Feature","geometry":{"type":"Point","coordinates":[-120.912247,38.204566]}},{"properties":{"city":"DALKEITH","geo_score":0.631,"country":"Australia","id":"a624zjr74uhf","geo_precision":"city","state":"Western Australia"},"type":"Feature","geometry":{"type":"Point","coordinates":[-81.687905,41.02561]}},{"properties":{"city":"DALKEITH","geo_score":0.631,"country":"Australia","id":"a624zjptpoba","geo_precision":"city","state":"Western Australia"},"type":"Feature","geometry":{"type":"Point","coordinates":[-81.687905,41.02561]}},{"properties":{"city":"DALKEITH","geo_score":0.631,"country":"Australia","id":"a624zjw0wvhw","geo_precision":"city","state":"Western Australia"},"type":"Feature","geometry":{"type":"Point","coordinates":[-81.687905,41.02561]}},{"properties":{"city":"DANDARAGAN","geo_score":0.626,"country":"Australia","id":"a624zjzi6ct6","geo_precision":"city","state":"Western Australia"},"type":"Feature","geometry":{"type":"Point","coordinates":[-81.687905,41.02561]}},{"properties":{"city":"DANDARAGAN","geo_score":0.626,"country":"Australia","id":"a624zjowccp7","geo_precision":"city","state":"Western Australia"},"type":"Feature","geometry":{"type":"Point","coordinates":[-81.687905,41.02561]}},{"properties":{"city":"DARDANUP","geo_score":0.631,"country":"Australia","id":"a624zk0ixaeq","geo_precision":"city","state":"Western Australia"},"type":"Feature","geometry":{"type":"Point","coordinates":[-81.687905,41.02561]}},{"properties":{"city":"DARLINGTON","geo_score":0.487,"country":"Australia","id":"a624zjtk4x9b","geo_precision":"street","state":"Western Australia"},"type":"Feature","geometry":{"type":"Point","coordinates":[-73.105947,41.801096]}},{"properties":{"city":"DARLINGTON","geo_score":0.487,"country":"Australia","id":"a624zk0n3yox","geo_precision":"street","state":"Western Australia"},"type":"Feature","geometry":{"type":"Point","coordinates":[-73.105947,41.801096]}},{"properties":{"city":"DENMARK","geo_score":0.762,"country":"Australia","id":"a624zjr8wx6v","geo_precision":"street","state":"Western Australia"},"type":"Feature","geometry":{"type":"Point","coordinates":[-71.15764,42.250139]}},{"properties":{"city":"DUNSBOROUGH","geo_score":0.607,"country":"Australia","id":"a624zjpog2dz","geo_precision":"street","state":"Western Australia"},"type":"Feature","geometry":{"type":"Point","coordinates":[-74.129953,42.762363]}},{"properties":{"city":"DUNSBOROUGH","geo_score":0.607,"country":"Australia","id":"a624zjyhdosz","geo_precision":"street","state":"Western Australia"},"type":"Feature","geometry":{"type":"Point","coordinates":[-74.129953,42.762363]}},{"properties":{"city":"EAST PERTH","geo_score":0.673,"country":"Australia","id":"a624zjxhbfmx","geo_precision":"street","state":"Western Australia"},"type":"Feature","geometry":{"type":"Point","coordinates":[-74.094038,43.011979]}},{"properties":{"city":"EAST PERTH","geo_score":0.673,"country":"Australia","id":"a624zk4mdn1z","geo_precision":"street","state":"Western Australia"},"type":"Feature","geometry":{"type":"Point","coordinates":[-74.094038,43.011979]}},{"properties":{"city":"EAST PERTH","geo_score":0.673,"country":"Australia","id":"a624zjxs7ekq","geo_precision":"street","state":"Western Australia"},"type":"Feature","geometry":{"type":"Point","coordinates":[-74.094038,43.011979]}},{"properties":{"city":"EAST PERTH","geo_score":0.673,"country":"Australia","id":"a624zjqnoybc","geo_precision":"street","state":"Western Australia"},"type":"Feature","geometry":{"type":"Point","coordinates":[-74.094038,43.011979]}},{"properties":{"city":"EAST PERTH","geo_score":0.673,"country":"Australia","id":"a624zjy3bp9l","geo_precision":"street","state":"Western Australia"},"type":"Feature","geometry":{"type":"Point","coordinates":[-74.094038,43.011979]}},{"properties":{"city":"EAST PERTH","geo_score":0.673,"country":"Australia","id":"a624zk095ynd","geo_precision":"street","state":"Western Australia"},"type":"Feature","geometry":{"type":"Point","coordinates":[-74.094038,43.011979]}},{"properties":{"city":"EAST PERTH","geo_score":0.673,"country":"Australia","id":"a624zjv9mmrj","geo_precision":"street","state":"Western Australia"},"type":"Feature","geometry":{"type":"Point","coordinates":[-74.094038,43.011979]}},{"properties":{"city":"EAST PERTH","geo_score":0.673,"country":"Australia","id":"a624zk3d9ko8","geo_precision":"street","state":"Western Australia"},"type":"Feature","geometry":{"type":"Point","coordinates":[-74.094038,43.011979]}},{"properties":{"city":"EAST PERTH","geo_score":0.673,"country":"Australia","id":"a624zk4j1bck","geo_precision":"street","state":"Western Australia"},"type":"Feature","geometry":{"type":"Point","coordinates":[-74.094038,43.011979]}},{"properties":{"city":"EAST PERTH","geo_score":0.673,"country":"Australia","id":"a624zjvjmsh7","geo_precision":"street","state":"Western Australia"},"type":"Feature","geometry":{"type":"Point","coordinates":[-74.094038,43.011979]}},{"properties":{"city":"EAST PINGELLY","geo_score":0.622,"country":"Australia","id":"a624zk4ud4qv","geo_precision":"city","state":"Western Australia"},"type":"Feature","geometry":{"type":"Point","coordinates":[-81.410666,41.264223]}},{"properties":{"city":"EDGECLIFF","geo_score":0.319,"country":"Australia","id":"a624zjxckb74","geo_precision":"street","state":"New South Wales"},"type":"Feature","geometry":{"type":"Point","coordinates":[-120.912247,38.204566]}},{"properties":{"city":"ELLENBROOK","geo_score":0.626,"country":"Australia","id":"a624zjxqh4e4","geo_precision":"city","state":"Western Australia"},"type":"Feature","geometry":{"type":"Point","coordinates":[-81.687905,41.02561]}},{"properties":{"city":"ESPERANCE","geo_score":0.779,"country":"Australia","id":"a624zjva96ip","geo_precision":"street","state":"Western Australia"},"type":"Feature","geometry":{"type":"Point","coordinates":[-74.371078,42.800094]}},{"properties":{"city":"FERNDALE","geo_score":0.771,"country":"Australia","id":"a624zjoubnmu","geo_precision":"street","state":"Western Australia"},"type":"Feature","geometry":{"type":"Point","coordinates":[-82.102663,40.97246]}},{"properties":{"city":"FITZROY","geo_score":0.634,"country":"Australia","id":"a624zjyoxh6v","geo_precision":"city","state":"Western Australia"},"type":"Feature","geometry":{"type":"Point","coordinates":[-81.687905,41.02561]}},{"properties":{"city":"FLOREAT","geo_score":0.482,"country":"Australia","id":"a624zjw9nuul","geo_precision":"street","state":"Western Australia"},"type":"Feature","geometry":{"type":"Point","coordinates":[-93.734009,30.074303]}},{"properties":{"city":"FLOREAT","geo_score":0.482,"country":"Australia","id":"a624zjy3t7lj","geo_precision":"street","state":"Western Australia"},"type":"Feature","geometry":{"type":"Point","coordinates":[-93.734009,30.074303]}},{"properties":{"city":"FLOREAT","geo_score":0.482,"country":"Australia","id":"a624zk4gane1","geo_precision":"street","state":"Western Australia"},"type":"Feature","geometry":{"type":"Point","coordinates":[-93.734009,30.074303]}},{"properties":{"city":"FORRESTFIELD","geo_score":0.482,"country":"Australia","id":"a624zk1ele10","geo_precision":"street","state":"Western Australia"},"type":"Feature","geometry":{"type":"Point","coordinates":[-123.031835,46.009796]}},{"properties":{"city":"FREMANTLE","geo_score":0.482,"country":"Australia","id":"a624zk3igo46","geo_precision":"street","state":"Western Australia"},"type":"Feature","geometry":{"type":"Point","coordinates":[-74.226272,40.793107]}},{"properties":{"city":"FREMANTLE","geo_score":0.482,"country":"Australia","id":"a624zjrqh9va","geo_precision":"street","state":"Western Australia"},"type":"Feature","geometry":{"type":"Point","coordinates":[-74.226272,40.793107]}},{"properties":{"city":"FREMANTLE","geo_score":0.482,"country":"Australia","id":"a624zjvn6mjv","geo_precision":"street","state":"Western Australia"},"type":"Feature","geometry":{"type":"Point","coordinates":[-74.226272,40.793107]}},{"properties":{"city":"FREMANTLE","geo_score":0.482,"country":"Australia","id":"a624zjq86kcz","geo_precision":"street","state":"Western Australia"},"type":"Feature","geometry":{"type":"Point","coordinates":[-74.226272,40.793107]}},{"properties":{"city":"FREMANTLE","geo_score":0.482,"country":"Australia","id":"a624zjwcfb1x","geo_precision":"street","state":"Western Australia"},"type":"Feature","geometry":{"type":"Point","coordinates":[-74.226272,40.793107]}},{"properties":{"city":"FREMANTLE","geo_score":0.482,"country":"Australia","id":"a624zju4mu5p","geo_precision":"street","state":"Western Australia"},"type":"Feature","geometry":{"type":"Point","coordinates":[-74.226272,40.793107]}},{"properties":{"city":"FREMANTLE","geo_score":0.482,"country":"Australia","id":"a624zk2pmnam","geo_precision":"street","state":"Western Australia"},"type":"Feature","geometry":{"type":"Point","coordinates":[-74.226272,40.793107]}},{"properties":{"city":"GERALDTON","geo_score":0.629,"country":"Australia","id":"a624zjs8872j","geo_precision":"city","state":"Western Australia"},"type":"Feature","geometry":{"type":"Point","coordinates":[-81.687905,41.02561]}},{"properties":{"city":"GERALDTON","geo_score":0.629,"country":"Australia","id":"a624zjwy8h0a","geo_precision":"city","state":"Western Australia"},"type":"Feature","geometry":{"type":"Point","coordinates":[-81.687905,41.02561]}},{"properties":{"city":"GERALDTON","geo_score":0.629,"country":"Australia","id":"a624zk1l50mg","geo_precision":"city","state":"Western Australia"},"type":"Feature","geometry":{"type":"Point","coordinates":[-81.687905,41.02561]}},{"properties":{"city":"GERALDTON","geo_score":0.629,"country":"Australia","id":"a624zk336z2f","geo_precision":"city","state":"Western Australia"},"type":"Feature","geometry":{"type":"Point","coordinates":[-81.687905,41.02561]}},{"properties":{"city":"GERALDTON","geo_score":0.629,"country":"Australia","id":"a624zk3br103","geo_precision":"city","state":"Western Australia"},"type":"Feature","geometry":{"type":"Point","coordinates":[-81.687905,41.02561]}},{"properties":{"city":"GERALDTON","geo_score":0.629,"country":"Australia","id":"a624zk466fwv","geo_precision":"city","state":"Western Australia"},"type":"Feature","geometry":{"type":"Point","coordinates":[-81.687905,41.02561]}},{"properties":{"city":"GLADESVILLE","geo_score":0.319,"country":"Australia","id":"a624zjqp0f11","geo_precision":"street","state":"New South Wales"},"type":"Feature","geometry":{"type":"Point","coordinates":[-120.912247,38.204566]}},{"properties":{"city":"GLENDALOUGH","geo_score":0.714,"country":"Australia","id":"a624zk0dxy60","geo_precision":"street","state":"Western Australia"},"type":"Feature","geometry":{"type":"Point","coordinates":[-79.346212,39.532505]}},{"properties":{"city":"GOSNELLS","geo_score":0.631,"country":"Australia","id":"a624zjweftl1","geo_precision":"city","state":"Western Australia"},"type":"Feature","geometry":{"type":"Point","coordinates":[-81.687905,41.02561]}},{"properties":{"city":"GREENMOUNT","geo_score":0.758,"country":"Australia","id":"a624zjr7fh6o","geo_precision":"street","state":"Western Australia"},"type":"Feature","geometry":{"type":"Point","coordinates":[-73.046262,41.537406]}},{"properties":{"city":"GREENWOOD","geo_score":0.574,"country":"Australia","id":"a624zjvkdrnb","geo_precision":"street","state":"Western Australia"},"type":"Feature","geometry":{"type":"Point","coordinates":[-87.058441,41.603511]}},{"properties":{"city":"HAMILTON HILL","geo_score":0.339,"country":"Australia","id":"a624zk0ejxvr","geo_precision":"street","state":"Western Australia"},"type":"Feature","geometry":{"type":"Point","coordinates":[-81.62028,41.021167]}},{"properties":{"city":"HAMILTON HILL","geo_score":0.339,"country":"Australia","id":"a624zjpnacbi","geo_precision":"street","state":"Western Australia"},"type":"Feature","geometry":{"type":"Point","coordinates":[-81.62028,41.021167]}},{"properties":{"city":"HIGHGATE","geo_score":0.554,"country":"Australia","id":"a624zk1bitid","geo_precision":"street","state":"Western Australia"},"type":"Feature","geometry":{"type":"Point","coordinates":[-81.436444,41.260594]}},{"properties":{"city":"HIGHGATE","geo_score":0.554,"country":"Australia","id":"a624zjrhd14p","geo_precision":"street","state":"Western Australia"},"type":"Feature","geometry":{"type":"Point","coordinates":[-81.436444,41.260594]}},{"properties":{"city":"HIGHGATE","geo_score":0.554,"country":"Australia","id":"a624zk0s1dev","geo_precision":"street","state":"Western Australia"},"type":"Feature","geometry":{"type":"Point","coordinates":[-81.436444,41.260594]}},{"properties":{"city":"HIGHGATE","geo_score":0.554,"country":"Australia","id":"a624zjyqa8ff","geo_precision":"street","state":"Western Australia"},"type":"Feature","geometry":{"type":"Point","coordinates":[-81.436444,41.260594]}},{"properties":{"city":"HIGHGATE","geo_score":0.554,"country":"Australia","id":"a624zjsf2fai","geo_precision":"street","state":"Western Australia"},"type":"Feature","geometry":{"type":"Point","coordinates":[-81.436444,41.260594]}},{"properties":{"city":"HILTON","geo_score":0.482,"country":"Australia","id":"a624zjsowdur","geo_precision":"street","state":"Western Australia"},"type":"Feature","geometry":{"type":"Point","coordinates":[-93.755904,30.08638]}},{"properties":{"city":"HORNSBY HEIGHTS","geo_score":0.319,"country":"Australia","id":"a624zjpfhp4a","geo_precision":"street","state":"New South Wales"},"type":"Feature","geometry":{"type":"Point","coordinates":[-120.912247,38.204566]}},{"properties":{"city":"INGLEWOOD","geo_score":0.779,"country":"Australia","id":"a624zjxwiky5","geo_precision":"street","state":"Western Australia"},"type":"Feature","geometry":{"type":"Point","coordinates":[-81.388812,41.020697]}},{"properties":{"city":"INGLEWOOD","geo_score":0.779,"country":"Australia","id":"a624zjq47e1s","geo_precision":"street","state":"Western Australia"},"type":"Feature","geometry":{"type":"Point","coordinates":[-81.388812,41.020697]}},{"properties":{"city":"INGLEWOOD","geo_score":0.779,"country":"Australia","id":"a624zjpm88x2","geo_precision":"street","state":"Western Australia"},"type":"Feature","geometry":{"type":"Point","coordinates":[-81.388812,41.020697]}},{"properties":{"city":"INNALOO","geo_score":0.634,"country":"Australia","id":"a624zjw9plbk","geo_precision":"city","state":"Western Australia"},"type":"Feature","geometry":{"type":"Point","coordinates":[-81.687905,41.02561]}},{"properties":{"city":"JOONDANNA","geo_score":0.686,"country":"Australia","id":"a624zjq03t8l","geo_precision":"street","state":"Western Australia"},"type":"Feature","geometry":{"type":"Point","coordinates":[-83.957596,38.31274]}},{"properties":{"city":"KALLAROO","geo_score":0.464,"country":"Australia","id":"a624zjvkzlsz","geo_precision":"street","state":"Western Australia"},"type":"Feature","geometry":{"type":"Point","coordinates":[-123.074487,46.107654]}},{"properties":{"city":"KALLAROO","geo_score":0.464,"country":"Australia","id":"a624zjqkm2kq","geo_precision":"street","state":"Western Australia"},"type":"Feature","geometry":{"type":"Point","coordinates":[-123.074487,46.107654]}},{"properties":{"city":"KALLAROO","geo_score":0.464,"country":"Australia","id":"a624zjxs10u1","geo_precision":"street","state":"Western Australia"},"type":"Feature","geometry":{"type":"Point","coordinates":[-123.074487,46.107654]}},{"properties":{"city":"KARDINYA","geo_score":0.631,"country":"Australia","id":"a624zjzfevvr","geo_precision":"city","state":"Western Australia"},"type":"Feature","geometry":{"type":"Point","coordinates":[-81.687905,41.02561]}},{"properties":{"city":"KARDINYA","geo_score":0.631,"country":"Australia","id":"a624zjsxgm82","geo_precision":"city","state":"Western Australia"},"type":"Feature","geometry":{"type":"Point","coordinates":[-81.687905,41.02561]}},{"properties":{"city":"KENSINGTON","geo_score":0.661,"country":"Australia","id":"a624zjr37xw4","geo_precision":"street","state":"Western Australia"},"type":"Feature","geometry":{"type":"Point","coordinates":[-81.627772,41.028191]}},{"properties":{"city":"KINGSLEY","geo_score":0.539,"country":"Australia","id":"a624zk28696g","geo_precision":"street","state":"Western Australia"},"type":"Feature","geometry":{"type":"Point","coordinates":[-74.242573,40.774032]}},{"properties":{"city":"KINROSS","geo_score":0.619,"country":"Australia","id":"a624zjq83bqj","geo_precision":"street","state":"Western Australia"},"type":"Feature","geometry":{"type":"Point","coordinates":[-71.18558,42.22477]}},{"properties":{"city":"LAKE GRACE","geo_score":0.47,"country":"Australia","id":"a624zjt4x4o1","geo_precision":"street","state":"Western Australia"},"type":"Feature","geometry":{"type":"Point","coordinates":[-81.596577,41.016348]}},{"properties":{"city":"LANE COVE","geo_score":0.319,"country":"Australia","id":"a624zjptfrq4","geo_precision":"street","state":"New South Wales"},"type":"Feature","geometry":{"type":"Point","coordinates":[-120.912247,38.204566]}},{"properties":{"city":"LEEDERVILLE","geo_score":0.624,"country":"Australia","id":"a624zk01qaid","geo_precision":"city","state":"Western Australia"},"type":"Feature","geometry":{"type":"Point","coordinates":[-81.410666,41.264223]}},{"properties":{"city":"LEEDERVILLE","geo_score":0.624,"country":"Australia","id":"a624zjpgvxep","geo_precision":"city","state":"Western Australia"},"type":"Feature","geometry":{"type":"Point","coordinates":[-81.410666,41.264223]}},{"properties":{"city":"LEEDERVILLE","geo_score":0.624,"country":"Australia","id":"a624zjv1t348","geo_precision":"city","state":"Western Australia"},"type":"Feature","geometry":{"type":"Point","coordinates":[-81.410666,41.264223]}},{"properties":{"city":"LEEDERVILLE","geo_score":0.624,"country":"Australia","id":"a624zk00edvb","geo_precision":"city","state":"Western Australia"},"type":"Feature","geometry":{"type":"Point","coordinates":[-81.410666,41.264223]}},{"properties":{"city":"LEEDERVILLE","geo_score":0.624,"country":"Australia","id":"a624zk0pumxl","geo_precision":"city","state":"Western Australia"},"type":"Feature","geometry":{"type":"Point","coordinates":[-81.410666,41.264223]}},{"properties":{"city":"LEEDERVILLE","geo_score":0.624,"country":"Australia","id":"a624zk3mioj7","geo_precision":"city","state":"Western Australia"},"type":"Feature","geometry":{"type":"Point","coordinates":[-81.410666,41.264223]}},{"properties":{"city":"LESMURDIE","geo_score":0.629,"country":"Australia","id":"a624zjzhq7n4","geo_precision":"city","state":"Western Australia"},"type":"Feature","geometry":{"type":"Point","coordinates":[-81.410666,41.264223]}},{"properties":{"city":"LOCKRIDGE","geo_score":0.779,"country":"Australia","id":"a624zjq3e9ug","geo_precision":"street","state":"Western Australia"},"type":"Feature","geometry":{"type":"Point","coordinates":[-97.680058,40.887127]}},{"properties":{"city":"LYNWOOD","geo_score":0.496,"country":"Australia","id":"a624zk3uyuex","geo_precision":"street","state":"Western Australia"},"type":"Feature","geometry":{"type":"Point","coordinates":[-74.240665,40.793001]}},{"properties":{"city":"LYNWOOD","geo_score":0.496,"country":"Australia","id":"a624zjwkowtz","geo_precision":"street","state":"Western Australia"},"type":"Feature","geometry":{"type":"Point","coordinates":[-74.240665,40.793001]}},{"properties":{"city":"MANDURAH","geo_score":0.426,"country":"Australia","id":"a624zjzb8yus","geo_precision":"street","state":"Western Australia"},"type":"Feature","geometry":{"type":"Point","coordinates":[-79.778448,40.660244]}},{"properties":{"city":"MANDURAH","geo_score":0.426,"country":"Australia","id":"a624zk05d1qe","geo_precision":"street","state":"Western Australia"},"type":"Feature","geometry":{"type":"Point","coordinates":[-79.778448,40.660244]}},{"properties":{"city":"MANDURAH","geo_score":0.426,"country":"Australia","id":"a624zk1mdlrq","geo_precision":"street","state":"Western Australia"},"type":"Feature","geometry":{"type":"Point","coordinates":[-79.778448,40.660244]}},{"properties":{"city":"MANDURAH NORTH","geo_score":0.426,"country":"Australia","id":"a624zjvvn01z","geo_precision":"street","state":"Western Australia"},"type":"Feature","geometry":{"type":"Point","coordinates":[-79.778448,40.660244]}},{"properties":{"city":"MANJIMUP","geo_score":0.631,"country":"Australia","id":"a624zjus2k7h","geo_precision":"city","state":"Western Australia"},"type":"Feature","geometry":{"type":"Point","coordinates":[-81.687905,41.02561]}},{"properties":{"city":"MARGARET RIVER","geo_score":0.418,"country":"Australia","id":"a624zjpzyrmr","geo_precision":"street","state":"Western Australia"},"type":"Feature","geometry":{"type":"Point","coordinates":[-87.061956,41.624632]}},{"properties":{"city":"MARYBROOK","geo_score":0.75,"country":"Australia","id":"a624zk11pddw","geo_precision":"street","state":"Western Australia"},"type":"Feature","geometry":{"type":"Point","coordinates":[-88.207792,41.629048]}},{"properties":{"city":"MAYLANDS","geo_score":0.631,"country":"Australia","id":"a624zjw508hp","geo_precision":"city","state":"Western Australia"},"type":"Feature","geometry":{"type":"Point","coordinates":[-81.687905,41.02561]}},{"properties":{"city":"MELBOURNE","geo_score":0.779,"country":"Australia","id":"a624zjz7ldre","geo_precision":"street","state":"Victoria"},"type":"Feature","geometry":{"type":"Point","coordinates":[-73.582511,43.306661]}},{"properties":{"city":"MENORA","geo_score":0.468,"country":"Australia","id":"a624zk29kcwb","geo_precision":"street","state":"Western Australia"},"type":"Feature","geometry":{"type":"Point","coordinates":[-87.057273,41.595273]}},{"properties":{"city":"MIDLAND","geo_score":0.532,"country":"Australia","id":"a624zju63nh6","geo_precision":"street","state":"Western Australia"},"type":"Feature","geometry":{"type":"Point","coordinates":[-81.561456,40.980635]}},{"properties":{"city":"MIDLAND","geo_score":0.532,"country":"Australia","id":"a624zjxtsdzk","geo_precision":"street","state":"Western Australia"},"type":"Feature","geometry":{"type":"Point","coordinates":[-81.561456,40.980635]}},{"properties":{"city":"MIDLAND","geo_score":0.532,"country":"Australia","id":"a624zjojz3fc","geo_precision":"street","state":"Western Australia"},"type":"Feature","geometry":{"type":"Point","coordinates":[-81.561456,40.980635]}},{"properties":{"city":"MIDLAND","geo_score":0.532,"country":"Australia","id":"a624zk4hrdv1","geo_precision":"street","state":"Western Australia"},"type":"Feature","geometry":{"type":"Point","coordinates":[-81.561456,40.980635]}},{"properties":{"city":"MIDLAND","geo_score":0.532,"country":"Australia","id":"a624zjqh4fkk","geo_precision":"street","state":"Western Australia"},"type":"Feature","geometry":{"type":"Point","coordinates":[-81.561456,40.980635]}},{"properties":{"city":"MIDLAND","geo_score":0.532,"country":"Australia","id":"a624zk3e2ube","geo_precision":"street","state":"Western Australia"},"type":"Feature","geometry":{"type":"Point","coordinates":[-81.561456,40.980635]}},{"properties":{"city":"MIDLAND","geo_score":0.532,"country":"Australia","id":"a624zjr9mhsi","geo_precision":"street","state":"Western Australia"},"type":"Feature","geometry":{"type":"Point","coordinates":[-81.561456,40.980635]}},{"properties":{"city":"MIDLAND","geo_score":0.532,"country":"Australia","id":"a624zjpt9v9z","geo_precision":"street","state":"Western Australia"},"type":"Feature","geometry":{"type":"Point","coordinates":[-81.561456,40.980635]}},{"properties":{"city":"MIDLAND","geo_score":0.532,"country":"Australia","id":"a624zjsx0mwk","geo_precision":"street","state":"Western Australia"},"type":"Feature","geometry":{"type":"Point","coordinates":[-81.561456,40.980635]}},{"properties":{"city":"MIRRABOOKA","geo_score":0.626,"country":"Australia","id":"a624zjxmpw8a","geo_precision":"city","state":"Western Australia"},"type":"Feature","geometry":{"type":"Point","coordinates":[-81.687905,41.02561]}},{"properties":{"city":"MITCHAM","geo_score":0.714,"country":"Australia","id":"a624zjz58otq","geo_precision":"street","state":"Victoria"},"type":"Feature","geometry":{"type":"Point","coordinates":[-90.55861,35.266519]}},{"properties":{"city":"MORLEY","geo_score":0.352,"country":"Australia","id":"a624zjxwdv48","geo_precision":"street","state":"Western Australia"},"type":"Feature","geometry":{"type":"Point","coordinates":[-93.728859,30.107571]}},{"properties":{"city":"MOSMAN PARK","geo_score":0.352,"country":"Australia","id":"a624zk229vvl","geo_precision":"street","state":"Western Australia"},"type":"Feature","geometry":{"type":"Point","coordinates":[-87.06266,41.651324]}},{"properties":{"city":"MOSMAN PARK","geo_score":0.352,"country":"Australia","id":"a624zjxs5thk","geo_precision":"street","state":"Western Australia"},"type":"Feature","geometry":{"type":"Point","coordinates":[-87.06266,41.651324]}},{"properties":{"city":"MOSMAN PARK","geo_score":0.352,"country":"Australia","id":"a624zjw2ytrd","geo_precision":"street","state":"Western Australia"},"type":"Feature","geometry":{"type":"Point","coordinates":[-87.06266,41.651324]}},{"properties":{"city":"MOSMAN PARK","geo_score":0.352,"country":"Australia","id":"a624zjr7t6yd","geo_precision":"street","state":"Western Australia"},"type":"Feature","geometry":{"type":"Point","coordinates":[-87.06266,41.651324]}},{"properties":{"city":"MOUNT CLAREMONT","geo_score":0.349,"country":"Australia","id":"a624zjppaivf","geo_precision":"street","state":"Western Australia"},"type":"Feature","geometry":{"type":"Point","coordinates":[-93.743918,30.114773]}},{"properties":{"city":"MOUNT HAWTHORN","geo_score":0.397,"country":"Australia","id":"a624zjyxom5n","geo_precision":"street","state":"Western Australia"},"type":"Feature","geometry":{"type":"Point","coordinates":[-81.636249,41.023939]}},{"properties":{"city":"MOUNT HAWTHORN","geo_score":0.397,"country":"Australia","id":"a624zjypr8no","geo_precision":"street","state":"Western Australia"},"type":"Feature","geometry":{"type":"Point","coordinates":[-81.636249,41.023939]}},{"properties":{"city":"MOUNT LAWLEY","geo_score":0.313,"country":"Australia","id":"a624zk3d499c","geo_precision":"street","state":"Western Australia"},"type":"Feature","geometry":{"type":"Point","coordinates":[-93.840347,30.104642]}},{"properties":{"city":"MOUNT LAWLEY","geo_score":0.313,"country":"Australia","id":"a624zjydlfvn","geo_precision":"street","state":"Western Australia"},"type":"Feature","geometry":{"type":"Point","coordinates":[-93.840347,30.104642]}},{"properties":{"city":"MOUNT LAWLEY","geo_score":0.313,"country":"Australia","id":"a624zk0tzpxs","geo_precision":"street","state":"Western Australia"},"type":"Feature","geometry":{"type":"Point","coordinates":[-93.840347,30.104642]}},{"properties":{"city":"MOUNT LAWLEY","geo_score":0.313,"country":"Australia","id":"a624zjpm0bxb","geo_precision":"street","state":"Western Australia"},"type":"Feature","geometry":{"type":"Point","coordinates":[-93.840347,30.104642]}},{"properties":{"city":"MOUNT PLEASANT","geo_score":0.568,"country":"Australia","id":"a624zjtmicmv","geo_precision":"street","state":"Western Australia"},"type":"Feature","geometry":{"type":"Point","coordinates":[-74.268084,40.793759]}},{"properties":{"city":"MOUNT PLEASANT","geo_score":0.568,"country":"Australia","id":"a624zjv685m7","geo_precision":"street","state":"Western Australia"},"type":"Feature","geometry":{"type":"Point","coordinates":[-74.268084,40.793759]}},{"properties":{"city":"MOUNT PLEASANT","geo_score":0.568,"country":"Australia","id":"a624zjqcavy0","geo_precision":"street","state":"Western Australia"},"type":"Feature","geometry":{"type":"Point","coordinates":[-74.268084,40.793759]}},{"properties":{"city":"MT CLAREMONT","geo_score":0.391,"country":"Australia","id":"a624zk3vkyfi","geo_precision":"street","state":"Western Australia"},"type":"Feature","geometry":{"type":"Point","coordinates":[-93.743918,30.114773]}},{"properties":{"city":"MT LAWLEY","geo_score":0.348,"country":"Australia","id":"a624zk4nm8m0","geo_precision":"street","state":"Western Australia"},"type":"Feature","geometry":{"type":"Point","coordinates":[-84.335689,38.290467]}},{"properties":{"city":"MT LAWLEY","geo_score":0.348,"country":"Australia","id":"a624zjzv32t2","geo_precision":"street","state":"Western Australia"},"type":"Feature","geometry":{"type":"Point","coordinates":[-84.335689,38.290467]}},{"properties":{"city":"MT LAWLEY","geo_score":0.348,"country":"Australia","id":"a624zk2ly1av","geo_precision":"street","state":"Western Australia"},"type":"Feature","geometry":{"type":"Point","coordinates":[-84.335689,38.290467]}},{"properties":{"city":"MT LAWLEY","geo_score":0.348,"country":"Australia","id":"a624zjxymj38","geo_precision":"street","state":"Western Australia"},"type":"Feature","geometry":{"type":"Point","coordinates":[-84.335689,38.290467]}},{"properties":{"city":"MULLUMBIMBY","geo_score":0.319,"country":"Australia","id":"a624zjqtlfow","geo_precision":"street","state":"New South Wales"},"type":"Feature","geometry":{"type":"Point","coordinates":[-120.912247,38.204566]}},{"properties":{"city":"MURDOCH","geo_score":0.571,"country":"Australia","id":"a624zjpjm5hm","geo_precision":"street","state":"Western Australia"},"type":"Feature","geometry":{"type":"Point","coordinates":[-74.468071,43.048487]}},{"properties":{"city":"MURDOCH","geo_score":0.571,"country":"Australia","id":"a624zjusmymo","geo_precision":"street","state":"Western Australia"},"type":"Feature","geometry":{"type":"Point","coordinates":[-74.468071,43.048487]}},{"properties":{"city":"NEDLANDS","geo_score":0.607,"country":"Australia","id":"a624zk4ctk74","geo_precision":"street","state":"Western Australia"},"type":"Feature","geometry":{"type":"Point","coordinates":[-71.930775,42.993286]}},{"properties":{"city":"NEDLANDS","geo_score":0.607,"country":"Australia","id":"a624zk01tqxu","geo_precision":"street","state":"Western Australia"},"type":"Feature","geometry":{"type":"Point","coordinates":[-71.930775,42.993286]}},{"properties":{"city":"NEDLANDS","geo_score":0.607,"country":"Australia","id":"a624zjxh1m7e","geo_precision":"street","state":"Western Australia"},"type":"Feature","geometry":{"type":"Point","coordinates":[-71.930775,42.993286]}},{"properties":{"city":"NEDLANDS","geo_score":0.607,"country":"Australia","id":"a624zjx4hfal","geo_precision":"street","state":"Western Australia"},"type":"Feature","geometry":{"type":"Point","coordinates":[-71.930775,42.993286]}},{"properties":{"city":"NEDLANDS","geo_score":0.607,"country":"Australia","id":"a624zk135plr","geo_precision":"street","state":"Western Australia"},"type":"Feature","geometry":{"type":"Point","coordinates":[-71.930775,42.993286]}},{"properties":{"city":"NEDLANDS","geo_score":0.607,"country":"Australia","id":"a624zjovuac2","geo_precision":"street","state":"Western Australia"},"type":"Feature","geometry":{"type":"Point","coordinates":[-71.930775,42.993286]}},{"properties":{"city":"NEDLANDS","geo_score":0.607,"country":"Australia","id":"a624zjrdth82","geo_precision":"street","state":"Western Australia"},"type":"Feature","geometry":{"type":"Point","coordinates":[-71.930775,42.993286]}},{"properties":{"city":"NEDLANDS","geo_score":0.607,"country":"Australia","id":"a624zjqkzygw","geo_precision":"street","state":"Western Australia"},"type":"Feature","geometry":{"type":"Point","coordinates":[-71.930775,42.993286]}},{"properties":{"city":"NOLLAMARA","geo_score":0.629,"country":"Australia","id":"a624zjuei4ni","geo_precision":"city","state":"Western Australia"},"type":"Feature","geometry":{"type":"Point","coordinates":[-81.687905,41.02561]}},{"properties":{"city":"NOLLAMARA","geo_score":0.629,"country":"Australia","id":"a624zjy0mv00","geo_precision":"city","state":"Western Australia"},"type":"Feature","geometry":{"type":"Point","coordinates":[-81.687905,41.02561]}},{"properties":{"city":"NORTH BEACH","geo_score":0.468,"country":"Australia","id":"a624zk0xhfpz","geo_precision":"street","state":"Western Australia"},"type":"Feature","geometry":{"type":"Point","coordinates":[-87.082591,41.656396]}},{"properties":{"city":"NORTH FREMANTLE","geo_score":0.454,"country":"Australia","id":"a624zjzoujff","geo_precision":"street","state":"Western Australia"},"type":"Feature","geometry":{"type":"Point","coordinates":[-74.226272,40.793107]}},{"properties":{"city":"NORTH FREMANTLE","geo_score":0.454,"country":"Australia","id":"a624zjr8v8x7","geo_precision":"street","state":"Western Australia"},"type":"Feature","geometry":{"type":"Point","coordinates":[-74.226272,40.793107]}},{"properties":{"city":"NORTH PERTH","geo_score":0.673,"country":"Australia","id":"a624zjp9t4sg","geo_precision":"street","state":"Western Australia"},"type":"Feature","geometry":{"type":"Point","coordinates":[-74.094038,43.011979]}},{"properties":{"city":"NORTH PERTH","geo_score":0.673,"country":"Australia","id":"a624zjqbphse","geo_precision":"street","state":"Western Australia"},"type":"Feature","geometry":{"type":"Point","coordinates":[-74.094038,43.011979]}},{"properties":{"city":"NORTH PERTH","geo_score":0.673,"country":"Australia","id":"a624zjtn13x2","geo_precision":"street","state":"Western Australia"},"type":"Feature","geometry":{"type":"Point","coordinates":[-74.094038,43.011979]}},{"properties":{"city":"NORTH PERTH","geo_score":0.673,"country":"Australia","id":"a624zk1em7p6","geo_precision":"street","state":"Western Australia"},"type":"Feature","geometry":{"type":"Point","coordinates":[-74.094038,43.011979]}},{"properties":{"city":"NORTH PERTH","geo_score":0.673,"country":"Australia","id":"a624zjyqw5lk","geo_precision":"street","state":"Western Australia"},"type":"Feature","geometry":{"type":"Point","coordinates":[-74.094038,43.011979]}},{"properties":{"city":"NORTHBRIDGE","geo_score":0.791,"country":"Australia","id":"a624zjqhtw1s","geo_precision":"street","state":"Western Australia"},"type":"Feature","geometry":{"type":"Point","coordinates":[-88.027716,41.76148]}},{"properties":{"city":"NORTHBRIDGE","geo_score":0.791,"country":"Australia","id":"a624zk1uqjmi","geo_precision":"street","state":"Western Australia"},"type":"Feature","geometry":{"type":"Point","coordinates":[-88.027716,41.76148]}},{"properties":{"city":"NORTHBRIDGE","geo_score":0.791,"country":"Australia","id":"a624zk4c9f4p","geo_precision":"street","state":"Western Australia"},"type":"Feature","geometry":{"type":"Point","coordinates":[-88.027716,41.76148]}},{"properties":{"city":"O'CONNOR","geo_score":0.33,"country":"Australia","id":"a624zjrfpl2e","geo_precision":"street","state":"Western Australia"},"type":"Feature","geometry":{"type":"Point","coordinates":[-79.758819,40.600782]}},{"properties":{"city":"OSBORNE PARK","geo_score":0.508,"country":"Australia","id":"a624zju04p72","geo_precision":"street","state":"Western Australia"},"type":"Feature","geometry":{"type":"Point","coordinates":[-74.244781,40.770708]}},{"properties":{"city":"OSBORNE PARK","geo_score":0.508,"country":"Australia","id":"a624zk0rbkh0","geo_precision":"street","state":"Western Australia"},"type":"Feature","geometry":{"type":"Point","coordinates":[-74.244781,40.770708]}},{"properties":{"city":"PADBURY","geo_score":0.634,"country":"Australia","id":"a624zjvbj2oy","geo_precision":"city","state":"Western Australia"},"type":"Feature","geometry":{"type":"Point","coordinates":[-81.687905,41.02561]}},{"properties":{"city":"PALMYRA","geo_score":0.518,"country":"Australia","id":"a624zjr740aw","geo_precision":"street","state":"Western Australia"},"type":"Feature","geometry":{"type":"Point","coordinates":[-81.608784,41.005838]}},{"properties":{"city":"PEARSALL","geo_score":0.619,"country":"Australia","id":"a624zjufhs5q","geo_precision":"street","state":"Western Australia"},"type":"Feature","geometry":{"type":"Point","coordinates":[-84.502208,38.201633]}},{"properties":{"city":"PEPPERMINT GROVE","geo_score":0.318,"country":"Australia","id":"a624zk39zzxf","geo_precision":"street","state":"Western Australia"},"type":"Feature","geometry":{"type":"Point","coordinates":[-81.651767,40.999355]}},{"properties":{"city":"PERTH","geo_score":0.735,"country":"Australia","id":"a624zjzp4nml","geo_precision":"street","state":"Western Australia"},"type":"Feature","geometry":{"type":"Point","coordinates":[-74.094038,43.011979]}},{"properties":{"city":"PERTH","geo_score":0.735,"country":"Australia","id":"a624zk33l5ka","geo_precision":"street","state":"Western Australia"},"type":"Feature","geometry":{"type":"Point","coordinates":[-74.094038,43.011979]}},{"properties":{"city":"PERTH","geo_score":0.735,"country":"Australia","id":"a624zjuszkow","geo_precision":"street","state":"Western Australia"},"type":"Feature","geometry":{"type":"Point","coordinates":[-74.094038,43.011979]}},{"properties":{"city":"PERTH","geo_score":0.735,"country":"Australia","id":"a624zk37ad22","geo_precision":"street","state":"Western Australia"},"type":"Feature","geometry":{"type":"Point","coordinates":[-74.094038,43.011979]}},{"properties":{"city":"PERTH","geo_score":0.735,"country":"Australia","id":"a624zjzrdf7i","geo_precision":"street","state":"Western Australia"},"type":"Feature","geometry":{"type":"Point","coordinates":[-74.094038,43.011979]}},{"properties":{"city":"PERTH","geo_score":0.735,"country":"Australia","id":"a624zk1zpcej","geo_precision":"street","state":"Western Australia"},"type":"Feature","geometry":{"type":"Point","coordinates":[-74.094038,43.011979]}},{"properties":{"city":"PERTH","geo_score":0.735,"country":"Australia","id":"a624zk0tq8fs","geo_precision":"street","state":"Western Australia"},"type":"Feature","geometry":{"type":"Point","coordinates":[-74.094038,43.011979]}},{"properties":{"city":"PERTH","geo_score":0.735,"country":"Australia","id":"a624zjqoe43j","geo_precision":"street","state":"Western Australia"},"type":"Feature","geometry":{"type":"Point","coordinates":[-74.094038,43.011979]}},{"properties":{"city":"PERTH","geo_score":0.735,"country":"Australia","id":"a624zjpx2lmd","geo_precision":"street","state":"Western Australia"},"type":"Feature","geometry":{"type":"Point","coordinates":[-74.094038,43.011979]}},{"properties":{"city":"PERTH","geo_score":0.735,"country":"Australia","id":"a624zjy71h52","geo_precision":"street","state":"Western Australia"},"type":"Feature","geometry":{"type":"Point","coordinates":[-74.094038,43.011979]}},{"properties":{"city":"PERTH","geo_score":0.735,"country":"Australia","id":"a624zjwcfu0n","geo_precision":"street","state":"Western Australia"},"type":"Feature","geometry":{"type":"Point","coordinates":[-74.094038,43.011979]}},{"properties":{"city":"PERTH","geo_score":0.735,"country":"Australia","id":"a624zjxbfh5g","geo_precision":"street","state":"Western Australia"},"type":"Feature","geometry":{"type":"Point","coordinates":[-74.094038,43.011979]}},{"properties":{"city":"PERTH","geo_score":0.735,"country":"Australia","id":"a624zjr11v04","geo_precision":"street","state":"Western Australia"},"type":"Feature","geometry":{"type":"Point","coordinates":[-74.094038,43.011979]}},{"properties":{"city":"PERTH","geo_score":0.735,"country":"Australia","id":"a624zjrfzc34","geo_precision":"street","state":"Western Australia"},"type":"Feature","geometry":{"type":"Point","coordinates":[-74.094038,43.011979]}},{"properties":{"city":"PERTH","geo_score":0.735,"country":"Australia","id":"a624zjyoj0y3","geo_precision":"street","state":"Western Australia"},"type":"Feature","geometry":{"type":"Point","coordinates":[-74.094038,43.011979]}},{"properties":{"city":"PERTH","geo_score":0.735,"country":"Australia","id":"a624zk3rnddj","geo_precision":"street","state":"Western Australia"},"type":"Feature","geometry":{"type":"Point","coordinates":[-74.094038,43.011979]}},{"properties":{"city":"PERTH","geo_score":0.735,"country":"Australia","id":"a624zjt6ae56","geo_precision":"street","state":"Western Australia"},"type":"Feature","geometry":{"type":"Point","coordinates":[-74.094038,43.011979]}},{"properties":{"city":"PERTH","geo_score":0.735,"country":"Australia","id":"a624zk4j58mi","geo_precision":"street","state":"Western Australia"},"type":"Feature","geometry":{"type":"Point","coordinates":[-74.094038,43.011979]}},{"properties":{"city":"PERTH","geo_score":0.735,"country":"Australia","id":"a624zjozyltk","geo_precision":"street","state":"Western Australia"},"type":"Feature","geometry":{"type":"Point","coordinates":[-74.094038,43.011979]}},{"properties":{"city":"PERTH","geo_score":0.735,"country":"Australia","id":"a624zjrdzcm5","geo_precision":"street","state":"Western Australia"},"type":"Feature","geometry":{"type":"Point","coordinates":[-74.094038,43.011979]}},{"properties":{"city":"PERTH","geo_score":0.735,"country":"Australia","id":"a624zjun74uz","geo_precision":"street","state":"Western Australia"},"type":"Feature","geometry":{"type":"Point","coordinates":[-74.094038,43.011979]}},{"properties":{"city":"PERTH","geo_score":0.735,"country":"Australia","id":"a624zjvf9j2a","geo_precision":"street","state":"Western Australia"},"type":"Feature","geometry":{"type":"Point","coordinates":[-74.094038,43.011979]}},{"properties":{"city":"PERTH","geo_score":0.735,"country":"Australia","id":"a624zk332p81","geo_precision":"street","state":"Western Australia"},"type":"Feature","geometry":{"type":"Point","coordinates":[-74.094038,43.011979]}},{"properties":{"city":"PERTH","geo_score":0.735,"country":"Australia","id":"a624zjxhia5m","geo_precision":"street","state":"Western Australia"},"type":"Feature","geometry":{"type":"Point","coordinates":[-74.094038,43.011979]}},{"properties":{"city":"PERTH","geo_score":0.735,"country":"Australia","id":"a624zjr0m00f","geo_precision":"street","state":"Western Australia"},"type":"Feature","geometry":{"type":"Point","coordinates":[-74.094038,43.011979]}},{"properties":{"city":"PERTH","geo_score":0.735,"country":"Australia","id":"a624zjplnnk2","geo_precision":"street","state":"Western Australia"},"type":"Feature","geometry":{"type":"Point","coordinates":[-74.094038,43.011979]}},{"properties":{"city":"PERTH","geo_score":0.735,"country":"Australia","id":"a624zjz69vut","geo_precision":"street","state":"Western Australia"},"type":"Feature","geometry":{"type":"Point","coordinates":[-74.094038,43.011979]}},{"properties":{"city":"PERTH","geo_score":0.735,"country":"Australia","id":"a624zjz1rxjt","geo_precision":"street","state":"Western Australia"},"type":"Feature","geometry":{"type":"Point","coordinates":[-74.094038,43.011979]}},{"properties":{"city":"PERTH","geo_score":0.735,"country":"Australia","id":"a624zjrbxeha","geo_precision":"street","state":"Western Australia"},"type":"Feature","geometry":{"type":"Point","coordinates":[-74.094038,43.011979]}},{"properties":{"city":"PERTH","geo_score":0.735,"country":"Australia","id":"a624zjz7qmid","geo_precision":"street","state":"Western Australia"},"type":"Feature","geometry":{"type":"Point","coordinates":[-74.094038,43.011979]}},{"properties":{"city":"PERTH","geo_score":0.735,"country":"Australia","id":"a624zk40hnbs","geo_precision":"street","state":"Western Australia"},"type":"Feature","geometry":{"type":"Point","coordinates":[-74.094038,43.011979]}},{"properties":{"city":"PERTH","geo_score":0.735,"country":"Australia","id":"a624zk3vkkib","geo_precision":"street","state":"Western Australia"},"type":"Feature","geometry":{"type":"Point","coordinates":[-74.094038,43.011979]}},{"properties":{"city":"PERTH","geo_score":0.735,"country":"Australia","id":"a624zjr9lfk4","geo_precision":"street","state":"Western Australia"},"type":"Feature","geometry":{"type":"Point","coordinates":[-74.094038,43.011979]}},{"properties":{"city":"PERTH","geo_score":0.735,"country":"Australia","id":"a624zk1skxz8","geo_precision":"street","state":"Western Australia"},"type":"Feature","geometry":{"type":"Point","coordinates":[-74.094038,43.011979]}},{"properties":{"city":"PERTH","geo_score":0.735,"country":"Australia","id":"a624zjpubxlt","geo_precision":"street","state":"Western Australia"},"type":"Feature","geometry":{"type":"Point","coordinates":[-74.094038,43.011979]}},{"properties":{"city":"PERTH","geo_score":0.735,"country":"Australia","id":"a624zk042ymp","geo_precision":"street","state":"Western Australia"},"type":"Feature","geometry":{"type":"Point","coordinates":[-74.094038,43.011979]}},{"properties":{"city":"PERTH","geo_score":0.735,"country":"Australia","id":"a624zk0ztw8a","geo_precision":"street","state":"Western Australia"},"type":"Feature","geometry":{"type":"Point","coordinates":[-74.094038,43.011979]}},{"properties":{"city":"PERTH","geo_score":0.735,"country":"Australia","id":"a624zjzueqn1","geo_precision":"street","state":"Western Australia"},"type":"Feature","geometry":{"type":"Point","coordinates":[-74.094038,43.011979]}},{"properties":{"city":"PERTH","geo_score":0.735,"country":"Australia","id":"a624zjxivmau","geo_precision":"street","state":"Western Australia"},"type":"Feature","geometry":{"type":"Point","coordinates":[-74.094038,43.011979]}},{"properties":{"city":"PERTH","geo_score":0.735,"country":"Australia","id":"a624zk2f8j6c","geo_precision":"street","state":"Western Australia"},"type":"Feature","geometry":{"type":"Point","coordinates":[-74.094038,43.011979]}},{"properties":{"city":"PERTH","geo_score":0.735,"country":"Australia","id":"a624zjua2dyd","geo_precision":"street","state":"Western Australia"},"type":"Feature","geometry":{"type":"Point","coordinates":[-74.094038,43.011979]}},{"properties":{"city":"PERTH","geo_score":0.735,"country":"Australia","id":"a624zk00elts","geo_precision":"street","state":"Western Australia"},"type":"Feature","geometry":{"type":"Point","coordinates":[-74.094038,43.011979]}},{"properties":{"city":"PERTH","geo_score":0.735,"country":"Australia","id":"a624zjzsmw9l","geo_precision":"street","state":"Western Australia"},"type":"Feature","geometry":{"type":"Point","coordinates":[-74.094038,43.011979]}},{"properties":{"city":"PERTH","geo_score":0.735,"country":"Australia","id":"a624zk111400","geo_precision":"street","state":"Western Australia"},"type":"Feature","geometry":{"type":"Point","coordinates":[-74.094038,43.011979]}},{"properties":{"city":"PERTH","geo_score":0.735,"country":"Australia","id":"a624zk30n2qu","geo_precision":"street","state":"Western Australia"},"type":"Feature","geometry":{"type":"Point","coordinates":[-74.094038,43.011979]}},{"properties":{"city":"PERTH","geo_score":0.735,"country":"Australia","id":"a624zjw0pnxh","geo_precision":"street","state":"Western Australia"},"type":"Feature","geometry":{"type":"Point","coordinates":[-74.094038,43.011979]}},{"properties":{"city":"PERTH","geo_score":0.735,"country":"Australia","id":"a624zjwetmn6","geo_precision":"street","state":"Western Australia"},"type":"Feature","geometry":{"type":"Point","coordinates":[-74.094038,43.011979]}},{"properties":{"city":"PERTH","geo_score":0.735,"country":"Australia","id":"a624zjuhygw0","geo_precision":"street","state":"Western Australia"},"type":"Feature","geometry":{"type":"Point","coordinates":[-74.094038,43.011979]}},{"properties":{"city":"PERTH","geo_score":0.735,"country":"Australia","id":"a624zju3ewyd","geo_precision":"street","state":"Western Australia"},"type":"Feature","geometry":{"type":"Point","coordinates":[-74.094038,43.011979]}},{"properties":{"city":"PERTH","geo_score":0.735,"country":"Australia","id":"a624zjqaoa7v","geo_precision":"street","state":"Western Australia"},"type":"Feature","geometry":{"type":"Point","coordinates":[-74.094038,43.011979]}},{"properties":{"city":"PERTH","geo_score":0.735,"country":"Australia","id":"a624zjx8a0fa","geo_precision":"street","state":"Western Australia"},"type":"Feature","geometry":{"type":"Point","coordinates":[-74.094038,43.011979]}},{"properties":{"city":"PERTH","geo_score":0.735,"country":"Australia","id":"a624zjvbjfqs","geo_precision":"street","state":"Western Australia"},"type":"Feature","geometry":{"type":"Point","coordinates":[-74.094038,43.011979]}},{"properties":{"city":"PERTH","geo_score":0.735,"country":"Australia","id":"a624zjqru0u2","geo_precision":"street","state":"Western Australia"},"type":"Feature","geometry":{"type":"Point","coordinates":[-74.094038,43.011979]}},{"properties":{"city":"PERTH","geo_score":0.735,"country":"Australia","id":"a624zjzzlhyh","geo_precision":"street","state":"Western Australia"},"type":"Feature","geometry":{"type":"Point","coordinates":[-74.094038,43.011979]}},{"properties":{"city":"PERTH","geo_score":0.735,"country":"Australia","id":"a624zk2o71jj","geo_precision":"street","state":"Western Australia"},"type":"Feature","geometry":{"type":"Point","coordinates":[-74.094038,43.011979]}},{"properties":{"city":"PERTH","geo_score":0.735,"country":"Australia","id":"a624zjtto2r5","geo_precision":"street","state":"Western Australia"},"type":"Feature","geometry":{"type":"Point","coordinates":[-74.094038,43.011979]}},{"properties":{"city":"PERTH","geo_score":0.735,"country":"Australia","id":"a624zjuka2h0","geo_precision":"street","state":"Western Australia"},"type":"Feature","geometry":{"type":"Point","coordinates":[-74.094038,43.011979]}},{"properties":{"city":"PERTH","geo_score":0.735,"country":"Australia","id":"a624zk1pkjp2","geo_precision":"street","state":"Western Australia"},"type":"Feature","geometry":{"type":"Point","coordinates":[-74.094038,43.011979]}},{"properties":{"city":"PERTH","geo_score":0.735,"country":"Australia","id":"a624zjummrxw","geo_precision":"street","state":"Western Australia"},"type":"Feature","geometry":{"type":"Point","coordinates":[-74.094038,43.011979]}},{"properties":{"city":"PERTH","geo_score":0.735,"country":"Australia","id":"a624zjyme7jl","geo_precision":"street","state":"Western Australia"},"type":"Feature","geometry":{"type":"Point","coordinates":[-74.094038,43.011979]}},{"properties":{"city":"PERTH","geo_score":0.735,"country":"Australia","id":"a624zjq0ah7w","geo_precision":"street","state":"Western Australia"},"type":"Feature","geometry":{"type":"Point","coordinates":[-74.094038,43.011979]}},{"properties":{"city":"PERTH","geo_score":0.735,"country":"Australia","id":"a624zjxeh1y6","geo_precision":"street","state":"Western Australia"},"type":"Feature","geometry":{"type":"Point","coordinates":[-74.094038,43.011979]}},{"properties":{"city":"PERTH","geo_score":0.735,"country":"Australia","id":"a624zk0p233z","geo_precision":"street","state":"Western Australia"},"type":"Feature","geometry":{"type":"Point","coordinates":[-74.094038,43.011979]}},{"properties":{"city":"PERTH","geo_score":0.735,"country":"Australia","id":"a624zk0tahvn","geo_precision":"street","state":"Western Australia"},"type":"Feature","geometry":{"type":"Point","coordinates":[-74.094038,43.011979]}},{"properties":{"city":"PERTH","geo_score":0.735,"country":"Australia","id":"a624zjq3yfhe","geo_precision":"street","state":"Western Australia"},"type":"Feature","geometry":{"type":"Point","coordinates":[-74.094038,43.011979]}},{"properties":{"city":"PERTH","geo_score":0.735,"country":"Australia","id":"a624zjwh5cjo","geo_precision":"street","state":"Western Australia"},"type":"Feature","geometry":{"type":"Point","coordinates":[-74.094038,43.011979]}},{"properties":{"city":"PERTH","geo_score":0.735,"country":"Australia","id":"a624zjyn9h00","geo_precision":"street","state":"Western Australia"},"type":"Feature","geometry":{"type":"Point","coordinates":[-74.094038,43.011979]}},{"properties":{"city":"PERTH","geo_score":0.735,"country":"Australia","id":"a624zk27udac","geo_precision":"street","state":"Western Australia"},"type":"Feature","geometry":{"type":"Point","coordinates":[-74.094038,43.011979]}},{"properties":{"city":"PERTH","geo_score":0.735,"country":"Australia","id":"a624zk06cdav","geo_precision":"street","state":"Western Australia"},"type":"Feature","geometry":{"type":"Point","coordinates":[-74.094038,43.011979]}},{"properties":{"city":"PERTH","geo_score":0.735,"country":"Australia","id":"a624zk4notqd","geo_precision":"street","state":"Western Australia"},"type":"Feature","geometry":{"type":"Point","coordinates":[-74.094038,43.011979]}},{"properties":{"city":"PERTH","geo_score":0.735,"country":"Australia","id":"a624zk4q05zt","geo_precision":"street","state":"Western Australia"},"type":"Feature","geometry":{"type":"Point","coordinates":[-74.094038,43.011979]}},{"properties":{"city":"PERTH","geo_score":0.735,"country":"Australia","id":"a624zjpf57rg","geo_precision":"street","state":"Western Australia"},"type":"Feature","geometry":{"type":"Point","coordinates":[-74.094038,43.011979]}},{"properties":{"city":"PERTH","geo_score":0.735,"country":"Australia","id":"a624zk3pnqi7","geo_precision":"street","state":"Western Australia"},"type":"Feature","geometry":{"type":"Point","coordinates":[-74.094038,43.011979]}},{"properties":{"city":"PERTH","geo_score":0.735,"country":"Australia","id":"a624zk16f4h0","geo_precision":"street","state":"Western Australia"},"type":"Feature","geometry":{"type":"Point","coordinates":[-74.094038,43.011979]}},{"properties":{"city":"PERTH","geo_score":0.735,"country":"Australia","id":"a624zjveu1ma","geo_precision":"street","state":"Western Australia"},"type":"Feature","geometry":{"type":"Point","coordinates":[-74.094038,43.011979]}},{"properties":{"city":"PERTH","geo_score":0.735,"country":"Australia","id":"a624zjtgxj5u","geo_precision":"street","state":"Western Australia"},"type":"Feature","geometry":{"type":"Point","coordinates":[-74.094038,43.011979]}},{"properties":{"city":"PERTH","geo_score":0.735,"country":"Australia","id":"a624zk2t8qzr","geo_precision":"street","state":"Western Australia"},"type":"Feature","geometry":{"type":"Point","coordinates":[-74.094038,43.011979]}},{"properties":{"city":"PERTH","geo_score":0.735,"country":"Australia","id":"a624zjpu9z6o","geo_precision":"street","state":"Western Australia"},"type":"Feature","geometry":{"type":"Point","coordinates":[-74.094038,43.011979]}},{"properties":{"city":"PERTH","geo_score":0.735,"country":"Australia","id":"a624zjvscdkb","geo_precision":"street","state":"Western Australia"},"type":"Feature","geometry":{"type":"Point","coordinates":[-74.094038,43.011979]}},{"properties":{"city":"PERTH","geo_score":0.735,"country":"Australia","id":"a624zk1tjal6","geo_precision":"street","state":"Western Australia"},"type":"Feature","geometry":{"type":"Point","coordinates":[-74.094038,43.011979]}},{"properties":{"city":"PERTH","geo_score":0.735,"country":"Australia","id":"a624zjywurh1","geo_precision":"street","state":"Western Australia"},"type":"Feature","geometry":{"type":"Point","coordinates":[-74.094038,43.011979]}},{"properties":{"city":"PERTH","geo_score":0.735,"country":"Australia","id":"a624zk1yovr2","geo_precision":"street","state":"Western Australia"},"type":"Feature","geometry":{"type":"Point","coordinates":[-74.094038,43.011979]}},{"properties":{"city":"PERTH","geo_score":0.735,"country":"Australia","id":"a624zjzur549","geo_precision":"street","state":"Western Australia"},"type":"Feature","geometry":{"type":"Point","coordinates":[-74.094038,43.011979]}},{"properties":{"city":"PERTH","geo_score":0.735,"country":"Australia","id":"a624zjyluiq6","geo_precision":"street","state":"Western Australia"},"type":"Feature","geometry":{"type":"Point","coordinates":[-74.094038,43.011979]}},{"properties":{"city":"PERTH","geo_score":0.735,"country":"Australia","id":"a624zjujvqhn","geo_precision":"street","state":"Western Australia"},"type":"Feature","geometry":{"type":"Point","coordinates":[-74.094038,43.011979]}},{"properties":{"city":"PERTH","geo_score":0.735,"country":"Australia","id":"a624zjvg6bkg","geo_precision":"street","state":"Western Australia"},"type":"Feature","geometry":{"type":"Point","coordinates":[-74.094038,43.011979]}},{"properties":{"city":"PINJARRA","geo_score":0.631,"country":"Australia","id":"a624zk3h2ve5","geo_precision":"city","state":"Western Australia"},"type":"Feature","geometry":{"type":"Point","coordinates":[-81.687905,41.02561]}},{"properties":{"city":"PORT HEDLAND","geo_score":0.352,"country":"Australia","id":"a624zjohkgef","geo_precision":"street","state":"Western Australia"},"type":"Feature","geometry":{"type":"Point","coordinates":[-74.84362,40.273162]}},{"properties":{"city":"PORT HEDLAND","geo_score":0.352,"country":"Australia","id":"a624zk1dtcek","geo_precision":"street","state":"Western Australia"},"type":"Feature","geometry":{"type":"Point","coordinates":[-74.84362,40.273162]}},{"properties":{"city":"PORT HEDLAND","geo_score":0.352,"country":"Australia","id":"a624zjtzk1qv","geo_precision":"street","state":"Western Australia"},"type":"Feature","geometry":{"type":"Point","coordinates":[-74.84362,40.273162]}},{"properties":{"city":"PORT HEDLAND","geo_score":0.352,"country":"Australia","id":"a624zjyzuxyw","geo_precision":"street","state":"Western Australia"},"type":"Feature","geometry":{"type":"Point","coordinates":[-74.84362,40.273162]}},{"properties":{"city":"PORT HEDLAND","geo_score":0.352,"country":"Australia","id":"a624zk3as6b7","geo_precision":"street","state":"Western Australia"},"type":"Feature","geometry":{"type":"Point","coordinates":[-74.84362,40.273162]}},{"properties":{"city":"PORT HEDLAND","geo_score":0.352,"country":"Australia","id":"a624zjpncmg0","geo_precision":"street","state":"Western Australia"},"type":"Feature","geometry":{"type":"Point","coordinates":[-74.84362,40.273162]}},{"properties":{"city":"PORT HEDLAND","geo_score":0.352,"country":"Australia","id":"a624zjrbc9fw","geo_precision":"street","state":"Western Australia"},"type":"Feature","geometry":{"type":"Point","coordinates":[-74.84362,40.273162]}},{"properties":{"city":"PORT HEDLAND","geo_score":0.352,"country":"Australia","id":"a624zk3vov01","geo_precision":"street","state":"Western Australia"},"type":"Feature","geometry":{"type":"Point","coordinates":[-74.84362,40.273162]}},{"properties":{"city":"PORT HEDLAND","geo_score":0.352,"country":"Australia","id":"a624zjsl3e13","geo_precision":"street","state":"Western Australia"},"type":"Feature","geometry":{"type":"Point","coordinates":[-74.84362,40.273162]}},{"properties":{"city":"PORT HEDLAND","geo_score":0.352,"country":"Australia","id":"a624zjq3ibpo","geo_precision":"street","state":"Western Australia"},"type":"Feature","geometry":{"type":"Point","coordinates":[-74.84362,40.273162]}},{"properties":{"city":"PORT HEDLAND","geo_score":0.352,"country":"Australia","id":"a624zk2oga9j","geo_precision":"street","state":"Western Australia"},"type":"Feature","geometry":{"type":"Point","coordinates":[-74.84362,40.273162]}},{"properties":{"city":"PORT HEDLAND","geo_score":0.352,"country":"Australia","id":"a624zjqxea8w","geo_precision":"street","state":"Western Australia"},"type":"Feature","geometry":{"type":"Point","coordinates":[-74.84362,40.273162]}},{"properties":{"city":"PORT HEDLAND","geo_score":0.352,"country":"Australia","id":"a624zjvh390d","geo_precision":"street","state":"Western Australia"},"type":"Feature","geometry":{"type":"Point","coordinates":[-74.84362,40.273162]}},{"properties":{"city":"PORT HEDLAND","geo_score":0.352,"country":"Australia","id":"a624zjq1dwfk","geo_precision":"street","state":"Western Australia"},"type":"Feature","geometry":{"type":"Point","coordinates":[-74.84362,40.273162]}},{"properties":{"city":"PORT HEDLAND","geo_score":0.352,"country":"Australia","id":"a624zjrg44io","geo_precision":"street","state":"Western Australia"},"type":"Feature","geometry":{"type":"Point","coordinates":[-74.84362,40.273162]}},{"properties":{"city":"PORT HEDLAND","geo_score":0.352,"country":"Australia","id":"a624zjxwau4r","geo_precision":"street","state":"Western Australia"},"type":"Feature","geometry":{"type":"Point","coordinates":[-74.84362,40.273162]}},{"properties":{"city":"PORT HEDLAND","geo_score":0.352,"country":"Australia","id":"a624zk2mp4ij","geo_precision":"street","state":"Western Australia"},"type":"Feature","geometry":{"type":"Point","coordinates":[-74.84362,40.273162]}},{"properties":{"city":"PORT HEDLAND","geo_score":0.352,"country":"Australia","id":"a624zk03usn4","geo_precision":"street","state":"Western Australia"},"type":"Feature","geometry":{"type":"Point","coordinates":[-74.84362,40.273162]}},{"properties":{"city":"PORT HEDLAND","geo_score":0.352,"country":"Australia","id":"a624zjp04lnq","geo_precision":"street","state":"Western Australia"},"type":"Feature","geometry":{"type":"Point","coordinates":[-74.84362,40.273162]}},{"properties":{"city":"PORT HEDLAND","geo_score":0.352,"country":"Australia","id":"a624zk2wcl51","geo_precision":"street","state":"Western Australia"},"type":"Feature","geometry":{"type":"Point","coordinates":[-74.84362,40.273162]}},{"properties":{"city":"PORT HEDLAND","geo_score":0.352,"country":"Australia","id":"a624zk2hk39i","geo_precision":"street","state":"Western Australia"},"type":"Feature","geometry":{"type":"Point","coordinates":[-74.84362,40.273162]}},{"properties":{"city":"PORT HEDLAND","geo_score":0.352,"country":"Australia","id":"a624zjwgh7z0","geo_precision":"street","state":"Western Australia"},"type":"Feature","geometry":{"type":"Point","coordinates":[-74.84362,40.273162]}},{"properties":{"city":"PORT HEDLAND","geo_score":0.352,"country":"Australia","id":"a624zjs8xsrt","geo_precision":"street","state":"Western Australia"},"type":"Feature","geometry":{"type":"Point","coordinates":[-74.84362,40.273162]}},{"properties":{"city":"PORT HEDLAND","geo_score":0.352,"country":"Australia","id":"a624zjyjkcek","geo_precision":"street","state":"Western Australia"},"type":"Feature","geometry":{"type":"Point","coordinates":[-74.84362,40.273162]}},{"properties":{"city":"PORT HEDLAND","geo_score":0.352,"country":"Australia","id":"a624zjpq2k58","geo_precision":"street","state":"Western Australia"},"type":"Feature","geometry":{"type":"Point","coordinates":[-74.84362,40.273162]}},{"properties":{"city":"PORT HEDLAND","geo_score":0.352,"country":"Australia","id":"a624zjshu1s7","geo_precision":"street","state":"Western Australia"},"type":"Feature","geometry":{"type":"Point","coordinates":[-74.84362,40.273162]}},{"properties":{"city":"PORT HEDLAND","geo_score":0.352,"country":"Australia","id":"a624zjwyi3aj","geo_precision":"street","state":"Western Australia"},"type":"Feature","geometry":{"type":"Point","coordinates":[-74.84362,40.273162]}},{"properties":{"city":"PORT HEDLAND","geo_score":0.352,"country":"Australia","id":"a624zjxnxnfh","geo_precision":"street","state":"Western Australia"},"type":"Feature","geometry":{"type":"Point","coordinates":[-74.84362,40.273162]}},{"properties":{"city":"PORT HEDLAND","geo_score":0.352,"country":"Australia","id":"a624zk4ufwcp","geo_precision":"street","state":"Western Australia"},"type":"Feature","geometry":{"type":"Point","coordinates":[-74.84362,40.273162]}},{"properties":{"city":"PORT HEDLAND","geo_score":0.352,"country":"Australia","id":"a624zjr3c1xa","geo_precision":"street","state":"Western Australia"},"type":"Feature","geometry":{"type":"Point","coordinates":[-74.84362,40.273162]}},{"properties":{"city":"PORT HEDLAND","geo_score":0.352,"country":"Australia","id":"a624zk4m9xen","geo_precision":"street","state":"Western Australia"},"type":"Feature","geometry":{"type":"Point","coordinates":[-74.84362,40.273162]}},{"properties":{"city":"PORT HEDLAND","geo_score":0.352,"country":"Australia","id":"a624zju8lpo1","geo_precision":"street","state":"Western Australia"},"type":"Feature","geometry":{"type":"Point","coordinates":[-74.84362,40.273162]}},{"properties":{"city":"PORT HEDLAND","geo_score":0.352,"country":"Australia","id":"a624zjv5hm5q","geo_precision":"street","state":"Western Australia"},"type":"Feature","geometry":{"type":"Point","coordinates":[-74.84362,40.273162]}},{"properties":{"city":"PORT HEDLAND","geo_score":0.352,"country":"Australia","id":"a624zjwcxtsc","geo_precision":"street","state":"Western Australia"},"type":"Feature","geometry":{"type":"Point","coordinates":[-74.84362,40.273162]}},{"properties":{"city":"PORT HEDLAND","geo_score":0.352,"country":"Australia","id":"a624zjvyeesg","geo_precision":"street","state":"Western Australia"},"type":"Feature","geometry":{"type":"Point","coordinates":[-74.84362,40.273162]}},{"properties":{"city":"PORT HEDLAND","geo_score":0.352,"country":"Australia","id":"a624zjrptnip","geo_precision":"street","state":"Western Australia"},"type":"Feature","geometry":{"type":"Point","coordinates":[-74.84362,40.273162]}},{"properties":{"city":"PORT HEDLAND","geo_score":0.352,"country":"Australia","id":"a624zjynbpjg","geo_precision":"street","state":"Western Australia"},"type":"Feature","geometry":{"type":"Point","coordinates":[-74.84362,40.273162]}},{"properties":{"city":"PORT HEDLAND","geo_score":0.352,"country":"Australia","id":"a624zjzutzre","geo_precision":"street","state":"Western Australia"},"type":"Feature","geometry":{"type":"Point","coordinates":[-74.84362,40.273162]}},{"properties":{"city":"PRAHRAN","geo_score":0.648,"country":"Australia","id":"a624zjzhxb0y","geo_precision":"city","state":"Victoria"},"type":"Feature","geometry":{"type":"Point","coordinates":[-90.525958,38.177832]}},{"properties":{"city":"ROCKINGHAM BEACH","geo_score":0.309,"country":"Australia","id":"a624zk1ef9ya","geo_precision":"street","state":"Western Australia"},"type":"Feature","geometry":{"type":"Point","coordinates":[-87.082591,41.656396]}},{"properties":{"city":"SAFETY BAY","geo_score":0.339,"country":"Australia","id":"a624zjubx3u1","geo_precision":"street","state":"Western Australia"},"type":"Feature","geometry":{"type":"Point","coordinates":[-93.834407,30.116314]}},{"properties":{"city":"SCARBOROUGH","geo_score":0.586,"country":"Australia","id":"a624zk4dcmnd","geo_precision":"street","state":"Western Australia"},"type":"Feature","geometry":{"type":"Point","coordinates":[-87.048656,41.600369]}},{"properties":{"city":"SCARBOROUGH","geo_score":0.586,"country":"Australia","id":"a624zjqdys3e","geo_precision":"street","state":"Western Australia"},"type":"Feature","geometry":{"type":"Point","coordinates":[-87.048656,41.600369]}},{"properties":{"city":"SCARBOROUGH","geo_score":0.586,"country":"Australia","id":"a624zk48kboj","geo_precision":"street","state":"Western Australia"},"type":"Feature","geometry":{"type":"Point","coordinates":[-87.048656,41.600369]}},{"properties":{"city":"SCARBOROUGH","geo_score":0.586,"country":"Australia","id":"a624zjsa7u4r","geo_precision":"street","state":"Western Australia"},"type":"Feature","geometry":{"type":"Point","coordinates":[-87.048656,41.600369]}},{"properties":{"city":"SCARBOROUGH","geo_score":0.586,"country":"Australia","id":"a624zjz7ovhk","geo_precision":"street","state":"Western Australia"},"type":"Feature","geometry":{"type":"Point","coordinates":[-87.048656,41.600369]}},{"properties":{"city":"SHENTON PARK","geo_score":0.34,"country":"Australia","id":"a624zk2volrs","geo_precision":"street","state":"Western Australia"},"type":"Feature","geometry":{"type":"Point","coordinates":[-87.06266,41.651324]}},{"properties":{"city":"SHENTON PARK","geo_score":0.34,"country":"Australia","id":"a624zjxdv0v5","geo_precision":"street","state":"Western Australia"},"type":"Feature","geometry":{"type":"Point","coordinates":[-87.06266,41.651324]}},{"properties":{"city":"SHENTON PARK","geo_score":0.34,"country":"Australia","id":"a624zk12c2fy","geo_precision":"street","state":"Western Australia"},"type":"Feature","geometry":{"type":"Point","coordinates":[-87.06266,41.651324]}},{"properties":{"city":"SHENTON PARK","geo_score":0.34,"country":"Australia","id":"a624zjucjqde","geo_precision":"street","state":"Western Australia"},"type":"Feature","geometry":{"type":"Point","coordinates":[-87.06266,41.651324]}},{"properties":{"city":"SORRENTO","geo_score":0.771,"country":"Australia","id":"a624zjt75t58","geo_precision":"street","state":"Western Australia"},"type":"Feature","geometry":{"type":"Point","coordinates":[-88.612447,41.640569]}},{"properties":{"city":"SOUTH FREMANTLE","geo_score":0.454,"country":"Australia","id":"a624zjqcga2b","geo_precision":"street","state":"Western Australia"},"type":"Feature","geometry":{"type":"Point","coordinates":[-74.226272,40.793107]}},{"properties":{"city":"SOUTH FREMANTLE","geo_score":0.454,"country":"Australia","id":"a624zjtgbik0","geo_precision":"street","state":"Western Australia"},"type":"Feature","geometry":{"type":"Point","coordinates":[-74.226272,40.793107]}},{"properties":{"city":"SOUTH FREMANTLE","geo_score":0.454,"country":"Australia","id":"a624zjv66vwn","geo_precision":"street","state":"Western Australia"},"type":"Feature","geometry":{"type":"Point","coordinates":[-74.226272,40.793107]}},{"properties":{"city":"SOUTH HEDLAND","geo_score":0.701,"country":"Australia","id":"a624zk09f1tk","geo_precision":"street","state":"Western Australia"},"type":"Feature","geometry":{"type":"Point","coordinates":[-122.8308,45.444075]}},{"properties":{"city":"SOUTH HEDLAND","geo_score":0.701,"country":"Australia","id":"a624zk3mbid4","geo_precision":"street","state":"Western Australia"},"type":"Feature","geometry":{"type":"Point","coordinates":[-122.8308,45.444075]}},{"properties":{"city":"SOUTH HEDLAND","geo_score":0.701,"country":"Australia","id":"a624zjwfehji","geo_precision":"street","state":"Western Australia"},"type":"Feature","geometry":{"type":"Point","coordinates":[-122.8308,45.444075]}},{"properties":{"city":"SOUTH HEDLAND","geo_score":0.701,"country":"Australia","id":"a624zjr7z9rq","geo_precision":"street","state":"Western Australia"},"type":"Feature","geometry":{"type":"Point","coordinates":[-122.8308,45.444075]}},{"properties":{"city":"SOUTH HEDLAND","geo_score":0.701,"country":"Australia","id":"a624zjwzrpx2","geo_precision":"street","state":"Western Australia"},"type":"Feature","geometry":{"type":"Point","coordinates":[-122.8308,45.444075]}},{"properties":{"city":"SOUTH HEDLAND","geo_score":0.701,"country":"Australia","id":"a624zjq414zv","geo_precision":"street","state":"Western Australia"},"type":"Feature","geometry":{"type":"Point","coordinates":[-122.8308,45.444075]}},{"properties":{"city":"SOUTH HEDLAND","geo_score":0.701,"country":"Australia","id":"a624zjq8r8nc","geo_precision":"street","state":"Western Australia"},"type":"Feature","geometry":{"type":"Point","coordinates":[-122.8308,45.444075]}},{"properties":{"city":"SOUTH HEDLAND","geo_score":0.701,"country":"Australia","id":"a624zjt3ze51","geo_precision":"street","state":"Western Australia"},"type":"Feature","geometry":{"type":"Point","coordinates":[-122.8308,45.444075]}},{"properties":{"city":"SOUTH HEDLAND","geo_score":0.701,"country":"Australia","id":"a624zjosj1jf","geo_precision":"street","state":"Western Australia"},"type":"Feature","geometry":{"type":"Point","coordinates":[-122.8308,45.444075]}},{"properties":{"city":"SOUTH HEDLAND","geo_score":0.701,"country":"Australia","id":"a624zjsqep6h","geo_precision":"street","state":"Western Australia"},"type":"Feature","geometry":{"type":"Point","coordinates":[-122.8308,45.444075]}},{"properties":{"city":"SOUTH HEDLAND","geo_score":0.701,"country":"Australia","id":"a624zjqx138p","geo_precision":"street","state":"Western Australia"},"type":"Feature","geometry":{"type":"Point","coordinates":[-122.8308,45.444075]}},{"properties":{"city":"SOUTH HEDLAND","geo_score":0.701,"country":"Australia","id":"a624zjyuldvk","geo_precision":"street","state":"Western Australia"},"type":"Feature","geometry":{"type":"Point","coordinates":[-122.8308,45.444075]}},{"properties":{"city":"SOUTH HEDLAND","geo_score":0.701,"country":"Australia","id":"a624zk3s8xu6","geo_precision":"street","state":"Western Australia"},"type":"Feature","geometry":{"type":"Point","coordinates":[-122.8308,45.444075]}},{"properties":{"city":"SOUTH HEDLAND","geo_score":0.701,"country":"Australia","id":"a624zjwqi1xp","geo_precision":"street","state":"Western Australia"},"type":"Feature","geometry":{"type":"Point","coordinates":[-122.8308,45.444075]}},{"properties":{"city":"SOUTH HEDLAND","geo_score":0.701,"country":"Australia","id":"a624zjsw1xse","geo_precision":"street","state":"Western Australia"},"type":"Feature","geometry":{"type":"Point","coordinates":[-122.8308,45.444075]}},{"properties":{"city":"SOUTH HEDLAND","geo_score":0.701,"country":"Australia","id":"a624zjzanked","geo_precision":"street","state":"Western Australia"},"type":"Feature","geometry":{"type":"Point","coordinates":[-122.8308,45.444075]}},{"properties":{"city":"SOUTH HEDLAND","geo_score":0.701,"country":"Australia","id":"a624zjqicfzx","geo_precision":"street","state":"Western Australia"},"type":"Feature","geometry":{"type":"Point","coordinates":[-122.8308,45.444075]}},{"properties":{"city":"SOUTH HEDLAND","geo_score":0.701,"country":"Australia","id":"a624zk3ml9er","geo_precision":"street","state":"Western Australia"},"type":"Feature","geometry":{"type":"Point","coordinates":[-122.8308,45.444075]}},{"properties":{"city":"SOUTH HEDLAND","geo_score":0.701,"country":"Australia","id":"a624zjzlyqc9","geo_precision":"street","state":"Western Australia"},"type":"Feature","geometry":{"type":"Point","coordinates":[-122.8308,45.444075]}},{"properties":{"city":"SOUTH HEDLAND","geo_score":0.701,"country":"Australia","id":"a624zk30w4et","geo_precision":"street","state":"Western Australia"},"type":"Feature","geometry":{"type":"Point","coordinates":[-122.8308,45.444075]}},{"properties":{"city":"SOUTH HEDLAND","geo_score":0.701,"country":"Australia","id":"a624zjux03vr","geo_precision":"street","state":"Western Australia"},"type":"Feature","geometry":{"type":"Point","coordinates":[-122.8308,45.444075]}},{"properties":{"city":"SOUTH HEDLAND","geo_score":0.701,"country":"Australia","id":"a624zjy1iw74","geo_precision":"street","state":"Western Australia"},"type":"Feature","geometry":{"type":"Point","coordinates":[-122.8308,45.444075]}},{"properties":{"city":"SOUTH HEDLAND","geo_score":0.701,"country":"Australia","id":"a624zjswm91j","geo_precision":"street","state":"Western Australia"},"type":"Feature","geometry":{"type":"Point","coordinates":[-122.8308,45.444075]}},{"properties":{"city":"SOUTH HEDLAND","geo_score":0.701,"country":"Australia","id":"a624zjr9r9w2","geo_precision":"street","state":"Western Australia"},"type":"Feature","geometry":{"type":"Point","coordinates":[-122.8308,45.444075]}},{"properties":{"city":"SOUTH HEDLAND","geo_score":0.701,"country":"Australia","id":"a624zjr5xaqz","geo_precision":"street","state":"Western Australia"},"type":"Feature","geometry":{"type":"Point","coordinates":[-122.8308,45.444075]}},{"properties":{"city":"SOUTH HEDLAND","geo_score":0.701,"country":"Australia","id":"a624zju24cwr","geo_precision":"street","state":"Western Australia"},"type":"Feature","geometry":{"type":"Point","coordinates":[-122.8308,45.444075]}},{"properties":{"city":"SOUTH HEDLAND","geo_score":0.701,"country":"Australia","id":"a624zjwevuae","geo_precision":"street","state":"Western Australia"},"type":"Feature","geometry":{"type":"Point","coordinates":[-122.8308,45.444075]}},{"properties":{"city":"SOUTH HEDLAND","geo_score":0.701,"country":"Australia","id":"a624zjs7sp5f","geo_precision":"street","state":"Western Australia"},"type":"Feature","geometry":{"type":"Point","coordinates":[-122.8308,45.444075]}},{"properties":{"city":"SOUTH HEDLAND","geo_score":0.701,"country":"Australia","id":"a624zk291u3u","geo_precision":"street","state":"Western Australia"},"type":"Feature","geometry":{"type":"Point","coordinates":[-122.8308,45.444075]}},{"properties":{"city":"SOUTH HEDLAND","geo_score":0.701,"country":"Australia","id":"a624zjw8lnek","geo_precision":"street","state":"Western Australia"},"type":"Feature","geometry":{"type":"Point","coordinates":[-122.8308,45.444075]}},{"properties":{"city":"SOUTH HEDLAND","geo_score":0.701,"country":"Australia","id":"a624zjxer6w6","geo_precision":"street","state":"Western Australia"},"type":"Feature","geometry":{"type":"Point","coordinates":[-122.8308,45.444075]}},{"properties":{"city":"SOUTH HEDLAND","geo_score":0.701,"country":"Australia","id":"a624zk3lxux0","geo_precision":"street","state":"Western Australia"},"type":"Feature","geometry":{"type":"Point","coordinates":[-122.8308,45.444075]}},{"properties":{"city":"SOUTH HEDLAND","geo_score":0.701,"country":"Australia","id":"a624zjoqtl8s","geo_precision":"street","state":"Western Australia"},"type":"Feature","geometry":{"type":"Point","coordinates":[-122.8308,45.444075]}},{"properties":{"city":"SOUTH HEDLAND","geo_score":0.701,"country":"Australia","id":"a624zk28iq5j","geo_precision":"street","state":"Western Australia"},"type":"Feature","geometry":{"type":"Point","coordinates":[-122.8308,45.444075]}},{"properties":{"city":"SOUTH PERTH","geo_score":0.673,"country":"Australia","id":"a624zk1cy5bw","geo_precision":"street","state":"Western Australia"},"type":"Feature","geometry":{"type":"Point","coordinates":[-74.094038,43.011979]}},{"properties":{"city":"SOUTH PERTH","geo_score":0.673,"country":"Australia","id":"a624zk3b4gsk","geo_precision":"street","state":"Western Australia"},"type":"Feature","geometry":{"type":"Point","coordinates":[-74.094038,43.011979]}},{"properties":{"city":"SOUTH PERTH","geo_score":0.673,"country":"Australia","id":"a624zjp6odcp","geo_precision":"street","state":"Western Australia"},"type":"Feature","geometry":{"type":"Point","coordinates":[-74.094038,43.011979]}},{"properties":{"city":"SOUTH PERTH","geo_score":0.673,"country":"Australia","id":"a624zjuklnsr","geo_precision":"street","state":"Western Australia"},"type":"Feature","geometry":{"type":"Point","coordinates":[-74.094038,43.011979]}},{"properties":{"city":"SPEARWOOD","geo_score":0.629,"country":"Australia","id":"a624zjv8z6nz","geo_precision":"city","state":"Western Australia"},"type":"Feature","geometry":{"type":"Point","coordinates":[-81.687905,41.02561]}},{"properties":{"city":"SPEARWOOD","geo_score":0.629,"country":"Australia","id":"a624zjzub3x8","geo_precision":"city","state":"Western Australia"},"type":"Feature","geometry":{"type":"Point","coordinates":[-81.687905,41.02561]}},{"properties":{"city":"STIRLING","geo_score":0.544,"country":"Australia","id":"a624zk2set50","geo_precision":"street","state":"Western Australia"},"type":"Feature","geometry":{"type":"Point","coordinates":[-81.608252,41.007732]}},{"properties":{"city":"STONEVILLE","geo_score":0.714,"country":"Australia","id":"a624zjsfxlic","geo_precision":"street","state":"Western Australia"},"type":"Feature","geometry":{"type":"Point","coordinates":[-78.848981,39.580494]}},{"properties":{"city":"SUBIACO","geo_score":0.589,"country":"Australia","id":"a624zjxjzo5v","geo_precision":"street","state":"Western Australia"},"type":"Feature","geometry":{"type":"Point","coordinates":[-74.730342,40.221481]}},{"properties":{"city":"SUBIACO","geo_score":0.589,"country":"Australia","id":"a624zjvzl5pv","geo_precision":"street","state":"Western Australia"},"type":"Feature","geometry":{"type":"Point","coordinates":[-74.730342,40.221481]}},{"properties":{"city":"SUBIACO","geo_score":0.589,"country":"Australia","id":"a624zk3gc8rs","geo_precision":"street","state":"Western Australia"},"type":"Feature","geometry":{"type":"Point","coordinates":[-74.730342,40.221481]}},{"properties":{"city":"SUBIACO","geo_score":0.589,"country":"Australia","id":"a624zjvb6fsu","geo_precision":"street","state":"Western Australia"},"type":"Feature","geometry":{"type":"Point","coordinates":[-74.730342,40.221481]}},{"properties":{"city":"SUBIACO","geo_score":0.589,"country":"Australia","id":"a624zk17vx4g","geo_precision":"street","state":"Western Australia"},"type":"Feature","geometry":{"type":"Point","coordinates":[-74.730342,40.221481]}},{"properties":{"city":"SUBIACO","geo_score":0.589,"country":"Australia","id":"a624zjs0mbyc","geo_precision":"street","state":"Western Australia"},"type":"Feature","geometry":{"type":"Point","coordinates":[-74.730342,40.221481]}},{"properties":{"city":"SUBIACO","geo_score":0.589,"country":"Australia","id":"a624zk2ljmxy","geo_precision":"street","state":"Western Australia"},"type":"Feature","geometry":{"type":"Point","coordinates":[-74.730342,40.221481]}},{"properties":{"city":"SUBIACO","geo_score":0.589,"country":"Australia","id":"a624zk1a6kw8","geo_precision":"street","state":"Western Australia"},"type":"Feature","geometry":{"type":"Point","coordinates":[-74.730342,40.221481]}},{"properties":{"city":"SUBIACO","geo_score":0.589,"country":"Australia","id":"a624zk4at882","geo_precision":"street","state":"Western Australia"},"type":"Feature","geometry":{"type":"Point","coordinates":[-74.730342,40.221481]}},{"properties":{"city":"SUBIACO","geo_score":0.589,"country":"Australia","id":"a624zjumyv1d","geo_precision":"street","state":"Western Australia"},"type":"Feature","geometry":{"type":"Point","coordinates":[-74.730342,40.221481]}},{"properties":{"city":"SUBIACO","geo_score":0.589,"country":"Australia","id":"a624zk4us4wd","geo_precision":"street","state":"Western Australia"},"type":"Feature","geometry":{"type":"Point","coordinates":[-74.730342,40.221481]}},{"properties":{"city":"SUBIACO","geo_score":0.589,"country":"Australia","id":"a624zjtgrn9q","geo_precision":"street","state":"Western Australia"},"type":"Feature","geometry":{"type":"Point","coordinates":[-74.730342,40.221481]}},{"properties":{"city":"SUBIACO","geo_score":0.589,"country":"Australia","id":"a624zjwc12cm","geo_precision":"street","state":"Western Australia"},"type":"Feature","geometry":{"type":"Point","coordinates":[-74.730342,40.221481]}},{"properties":{"city":"SUBIACO","geo_score":0.589,"country":"Australia","id":"a624zjxgtq7g","geo_precision":"street","state":"Western Australia"},"type":"Feature","geometry":{"type":"Point","coordinates":[-74.730342,40.221481]}},{"properties":{"city":"SUBIACO","geo_score":0.589,"country":"Australia","id":"a624zjul8hhn","geo_precision":"street","state":"Western Australia"},"type":"Feature","geometry":{"type":"Point","coordinates":[-74.730342,40.221481]}},{"properties":{"city":"SUBIACO","geo_score":0.589,"country":"Australia","id":"a624zk0rybom","geo_precision":"street","state":"Western Australia"},"type":"Feature","geometry":{"type":"Point","coordinates":[-74.730342,40.221481]}},{"properties":{"city":"SUBIACO","geo_score":0.589,"country":"Australia","id":"a624zjw52yun","geo_precision":"street","state":"Western Australia"},"type":"Feature","geometry":{"type":"Point","coordinates":[-74.730342,40.221481]}},{"properties":{"city":"SUBIACO","geo_score":0.589,"country":"Australia","id":"a624zjw7k0nl","geo_precision":"street","state":"Western Australia"},"type":"Feature","geometry":{"type":"Point","coordinates":[-74.730342,40.221481]}},{"properties":{"city":"SUBIACO","geo_score":0.589,"country":"Australia","id":"a624zk4jhjoj","geo_precision":"street","state":"Western Australia"},"type":"Feature","geometry":{"type":"Point","coordinates":[-74.730342,40.221481]}},{"properties":{"city":"SUBIACO","geo_score":0.589,"country":"Australia","id":"a624zjtbrqks","geo_precision":"street","state":"Western Australia"},"type":"Feature","geometry":{"type":"Point","coordinates":[-74.730342,40.221481]}},{"properties":{"city":"SUBIACO","geo_score":0.589,"country":"Australia","id":"a624zjxhz879","geo_precision":"street","state":"Western Australia"},"type":"Feature","geometry":{"type":"Point","coordinates":[-74.730342,40.221481]}},{"properties":{"city":"SUBIACO","geo_score":0.589,"country":"Australia","id":"a624zjxdzves","geo_precision":"street","state":"Western Australia"},"type":"Feature","geometry":{"type":"Point","coordinates":[-74.730342,40.221481]}},{"properties":{"city":"SUBIACO","geo_score":0.589,"country":"Australia","id":"a624zjyjegdc","geo_precision":"street","state":"Western Australia"},"type":"Feature","geometry":{"type":"Point","coordinates":[-74.730342,40.221481]}},{"properties":{"city":"SUBIACO","geo_score":0.589,"country":"Australia","id":"a624zk4wku3i","geo_precision":"street","state":"Western Australia"},"type":"Feature","geometry":{"type":"Point","coordinates":[-74.730342,40.221481]}},{"properties":{"city":"SUBIACO","geo_score":0.589,"country":"Australia","id":"a624zjp9wzlq","geo_precision":"street","state":"Western Australia"},"type":"Feature","geometry":{"type":"Point","coordinates":[-74.730342,40.221481]}},{"properties":{"city":"SUBIACO","geo_score":0.589,"country":"Australia","id":"a624zk3zxai5","geo_precision":"street","state":"Western Australia"},"type":"Feature","geometry":{"type":"Point","coordinates":[-74.730342,40.221481]}},{"properties":{"city":"SUBIACO","geo_score":0.589,"country":"Australia","id":"a624zjv6zm2m","geo_precision":"street","state":"Western Australia"},"type":"Feature","geometry":{"type":"Point","coordinates":[-74.730342,40.221481]}},{"properties":{"city":"SUBIACO","geo_score":0.589,"country":"Australia","id":"a624zjs4s5vc","geo_precision":"street","state":"Western Australia"},"type":"Feature","geometry":{"type":"Point","coordinates":[-74.730342,40.221481]}},{"properties":{"city":"SUBIACO","geo_score":0.589,"country":"Australia","id":"a624zk39h98o","geo_precision":"street","state":"Western Australia"},"type":"Feature","geometry":{"type":"Point","coordinates":[-74.730342,40.221481]}},{"properties":{"city":"SUBIACO","geo_score":0.589,"country":"Australia","id":"a624zjscseqe","geo_precision":"street","state":"Western Australia"},"type":"Feature","geometry":{"type":"Point","coordinates":[-74.730342,40.221481]}},{"properties":{"city":"SUBIACO","geo_score":0.589,"country":"Australia","id":"a624zjusas8i","geo_precision":"street","state":"Western Australia"},"type":"Feature","geometry":{"type":"Point","coordinates":[-74.730342,40.221481]}},{"properties":{"city":"SUBIACO","geo_score":0.589,"country":"Australia","id":"a624zjz8z8le","geo_precision":"street","state":"Western Australia"},"type":"Feature","geometry":{"type":"Point","coordinates":[-74.730342,40.221481]}},{"properties":{"city":"SUBIACO EAST","geo_score":0.589,"country":"Australia","id":"a624zjs98z5l","geo_precision":"street","state":"Western Australia"},"type":"Feature","geometry":{"type":"Point","coordinates":[-74.155555,40.864259]}},{"properties":{"city":"SURRY HILLS","geo_score":0.319,"country":"Australia","id":"a624zjz65c7m","geo_precision":"street","state":"New South Wales"},"type":"Feature","geometry":{"type":"Point","coordinates":[-120.912247,38.204566]}},{"properties":{"city":"SWANBOURNE","geo_score":0.626,"country":"Australia","id":"a624zjwusjih","geo_precision":"city","state":"Western Australia"},"type":"Feature","geometry":{"type":"Point","coordinates":[-81.410666,41.264223]}},{"properties":{"city":"SWANBOURNE","geo_score":0.626,"country":"Australia","id":"a624zjpjcwy0","geo_precision":"city","state":"Western Australia"},"type":"Feature","geometry":{"type":"Point","coordinates":[-81.410666,41.264223]}},{"properties":{"city":"SWANBOURNE","geo_score":0.626,"country":"Australia","id":"a624zjrapw8g","geo_precision":"city","state":"Western Australia"},"type":"Feature","geometry":{"type":"Point","coordinates":[-81.410666,41.264223]}},{"properties":{"city":"SWANBOURNE","geo_score":0.626,"country":"Australia","id":"a624zk08kkzd","geo_precision":"city","state":"Western Australia"},"type":"Feature","geometry":{"type":"Point","coordinates":[-81.410666,41.264223]}},{"properties":{"city":"SWANBOURNE","geo_score":0.626,"country":"Australia","id":"a624zk1bbknb","geo_precision":"city","state":"Western Australia"},"type":"Feature","geometry":{"type":"Point","coordinates":[-81.410666,41.264223]}},{"properties":{"city":"TOM PRICE","geo_score":0.357,"country":"Australia","id":"a624zjt2l01o","geo_precision":"street","state":"Western Australia"},"type":"Feature","geometry":{"type":"Point","coordinates":[-123.053505,46.088041]}},{"properties":{"city":"TOM PRICE","geo_score":0.357,"country":"Australia","id":"a624zk47fmi7","geo_precision":"street","state":"Western Australia"},"type":"Feature","geometry":{"type":"Point","coordinates":[-123.053505,46.088041]}},{"properties":{"city":"TOODYAY","geo_score":0.634,"country":"Australia","id":"a624zjw9j6jr","geo_precision":"city","state":"Western Australia"},"type":"Feature","geometry":{"type":"Point","coordinates":[-81.687905,41.02561]}},{"properties":{"city":"VICTORIA PARK","geo_score":0.532,"country":"Australia","id":"a624zjp0hmy9","geo_precision":"street","state":"Western Australia"},"type":"Feature","geometry":{"type":"Point","coordinates":[-81.418042,41.246794]}},{"properties":{"city":"VICTORIA PARK","geo_score":0.532,"country":"Australia","id":"a624zk1p3c02","geo_precision":"street","state":"Western Australia"},"type":"Feature","geometry":{"type":"Point","coordinates":[-81.418042,41.246794]}},{"properties":{"city":"VICTORIA PARK","geo_score":0.532,"country":"Australia","id":"a624zjrmmdi6","geo_precision":"street","state":"Western Australia"},"type":"Feature","geometry":{"type":"Point","coordinates":[-81.418042,41.246794]}},{"properties":{"city":"VICTORIA PARK","geo_score":0.532,"country":"Australia","id":"a624zk3c0oft","geo_precision":"street","state":"Western Australia"},"type":"Feature","geometry":{"type":"Point","coordinates":[-81.418042,41.246794]}},{"properties":{"city":"WATERMANS BAY","geo_score":0.312,"country":"Australia","id":"a624zk3ek3b0","geo_precision":"street","state":"Western Australia"},"type":"Feature","geometry":{"type":"Point","coordinates":[-91.671235,41.980067]}},{"properties":{"city":"WEMBLEY","geo_score":0.762,"country":"Australia","id":"a624zjtbg49q","geo_precision":"street","state":"Western Australia"},"type":"Feature","geometry":{"type":"Point","coordinates":[-122.699078,45.421881]}},{"properties":{"city":"WEMBLEY","geo_score":0.762,"country":"Australia","id":"a624zjs370s6","geo_precision":"street","state":"Western Australia"},"type":"Feature","geometry":{"type":"Point","coordinates":[-122.699078,45.421881]}},{"properties":{"city":"WEMBLEY","geo_score":0.762,"country":"Australia","id":"a624zk0793m8","geo_precision":"street","state":"Western Australia"},"type":"Feature","geometry":{"type":"Point","coordinates":[-122.699078,45.421881]}},{"properties":{"city":"WEMBLEY","geo_score":0.762,"country":"Australia","id":"a624zjumcocx","geo_precision":"street","state":"Western Australia"},"type":"Feature","geometry":{"type":"Point","coordinates":[-122.699078,45.421881]}},{"properties":{"city":"WEMBLEY","geo_score":0.762,"country":"Australia","id":"a624zjuot22q","geo_precision":"street","state":"Western Australia"},"type":"Feature","geometry":{"type":"Point","coordinates":[-122.699078,45.421881]}},{"properties":{"city":"WEMBLEY DOWNS","geo_score":0.371,"country":"Australia","id":"a624zjwsgsbg","geo_precision":"street","state":"Western Australia"},"type":"Feature","geometry":{"type":"Point","coordinates":[-73.161262,41.801424]}},{"properties":{"city":"WEST LEEDERVILLE","geo_score":0.631,"country":"Australia","id":"a624zjop5u6e","geo_precision":"city","state":"Western Australia"},"type":"Feature","geometry":{"type":"Point","coordinates":[-81.410666,41.264223]}},{"properties":{"city":"WEST LEEDERVILLE","geo_score":0.631,"country":"Australia","id":"a624zjy7gf0o","geo_precision":"city","state":"Western Australia"},"type":"Feature","geometry":{"type":"Point","coordinates":[-81.410666,41.264223]}},{"properties":{"city":"WEST LEEDERVILLE","geo_score":0.631,"country":"Australia","id":"a624zjynjces","geo_precision":"city","state":"Western Australia"},"type":"Feature","geometry":{"type":"Point","coordinates":[-81.410666,41.264223]}},{"properties":{"city":"WEST LEEDERVILLE","geo_score":0.631,"country":"Australia","id":"a624zk285qhg","geo_precision":"city","state":"Western Australia"},"type":"Feature","geometry":{"type":"Point","coordinates":[-81.410666,41.264223]}},{"properties":{"city":"WEST LEEDERVILLE","geo_score":0.631,"country":"Australia","id":"a624zjzb7k0m","geo_precision":"city","state":"Western Australia"},"type":"Feature","geometry":{"type":"Point","coordinates":[-81.410666,41.264223]}},{"properties":{"city":"WEST LEEDERVILLE","geo_score":0.631,"country":"Australia","id":"a624zjv4jgox","geo_precision":"city","state":"Western Australia"},"type":"Feature","geometry":{"type":"Point","coordinates":[-81.410666,41.264223]}},{"properties":{"city":"WEST PERTH","geo_score":0.673,"country":"Australia","id":"a624zjr2wqrl","geo_precision":"street","state":"Western Australia"},"type":"Feature","geometry":{"type":"Point","coordinates":[-74.094038,43.011979]}},{"properties":{"city":"WEST PERTH","geo_score":0.673,"country":"Australia","id":"a624zk2hip3o","geo_precision":"street","state":"Western Australia"},"type":"Feature","geometry":{"type":"Point","coordinates":[-74.094038,43.011979]}},{"properties":{"city":"WEST PERTH","geo_score":0.673,"country":"Australia","id":"a624zk2xkx4z","geo_precision":"street","state":"Western Australia"},"type":"Feature","geometry":{"type":"Point","coordinates":[-74.094038,43.011979]}},{"properties":{"city":"WEST PERTH","geo_score":0.673,"country":"Australia","id":"a624zjx8te29","geo_precision":"street","state":"Western Australia"},"type":"Feature","geometry":{"type":"Point","coordinates":[-74.094038,43.011979]}},{"properties":{"city":"WEST PERTH","geo_score":0.673,"country":"Australia","id":"a624zjybbovu","geo_precision":"street","state":"Western Australia"},"type":"Feature","geometry":{"type":"Point","coordinates":[-74.094038,43.011979]}},{"properties":{"city":"WEST PERTH","geo_score":0.673,"country":"Australia","id":"a624zjvr7az8","geo_precision":"street","state":"Western Australia"},"type":"Feature","geometry":{"type":"Point","coordinates":[-74.094038,43.011979]}},{"properties":{"city":"WEST PERTH","geo_score":0.673,"country":"Australia","id":"a624zjx1lj1y","geo_precision":"street","state":"Western Australia"},"type":"Feature","geometry":{"type":"Point","coordinates":[-74.094038,43.011979]}},{"properties":{"city":"WEST PERTH","geo_score":0.673,"country":"Australia","id":"a624zk3nizsa","geo_precision":"street","state":"Western Australia"},"type":"Feature","geometry":{"type":"Point","coordinates":[-74.094038,43.011979]}},{"properties":{"city":"WEST PERTH","geo_score":0.673,"country":"Australia","id":"a624zjztm8p7","geo_precision":"street","state":"Western Australia"},"type":"Feature","geometry":{"type":"Point","coordinates":[-74.094038,43.011979]}},{"properties":{"city":"WEST PERTH","geo_score":0.673,"country":"Australia","id":"a624zjwfkh8m","geo_precision":"street","state":"Western Australia"},"type":"Feature","geometry":{"type":"Point","coordinates":[-74.094038,43.011979]}},{"properties":{"city":"WEST PERTH","geo_score":0.673,"country":"Australia","id":"a624zjtxvbow","geo_precision":"street","state":"Western Australia"},"type":"Feature","geometry":{"type":"Point","coordinates":[-74.094038,43.011979]}},{"properties":{"city":"WEST PERTH","geo_score":0.673,"country":"Australia","id":"a624zk35n6bg","geo_precision":"street","state":"Western Australia"},"type":"Feature","geometry":{"type":"Point","coordinates":[-74.094038,43.011979]}},{"properties":{"city":"WEST PERTH","geo_score":0.673,"country":"Australia","id":"a624zk1bhpg8","geo_precision":"street","state":"Western Australia"},"type":"Feature","geometry":{"type":"Point","coordinates":[-74.094038,43.011979]}},{"properties":{"city":"WEST PERTH","geo_score":0.673,"country":"Australia","id":"a624zjxfnfzs","geo_precision":"street","state":"Western Australia"},"type":"Feature","geometry":{"type":"Point","coordinates":[-74.094038,43.011979]}},{"properties":{"city":"WEST PERTH","geo_score":0.673,"country":"Australia","id":"a624zjygn70v","geo_precision":"street","state":"Western Australia"},"type":"Feature","geometry":{"type":"Point","coordinates":[-74.094038,43.011979]}},{"properties":{"city":"WEST PERTH","geo_score":0.673,"country":"Australia","id":"a624zjrfxoue","geo_precision":"street","state":"Western Australia"},"type":"Feature","geometry":{"type":"Point","coordinates":[-74.094038,43.011979]}},{"properties":{"city":"WEST PERTH","geo_score":0.673,"country":"Australia","id":"a624zjt7ywze","geo_precision":"street","state":"Western Australia"},"type":"Feature","geometry":{"type":"Point","coordinates":[-74.094038,43.011979]}},{"properties":{"city":"WEST PERTH","geo_score":0.673,"country":"Australia","id":"a624zjs5qljc","geo_precision":"street","state":"Western Australia"},"type":"Feature","geometry":{"type":"Point","coordinates":[-74.094038,43.011979]}},{"properties":{"city":"WEST PERTH","geo_score":0.673,"country":"Australia","id":"a624zjxrjv9s","geo_precision":"street","state":"Western Australia"},"type":"Feature","geometry":{"type":"Point","coordinates":[-74.094038,43.011979]}},{"properties":{"city":"WEST PERTH","geo_score":0.673,"country":"Australia","id":"a624zk2p8uwc","geo_precision":"street","state":"Western Australia"},"type":"Feature","geometry":{"type":"Point","coordinates":[-74.094038,43.011979]}},{"properties":{"city":"WEST PERTH","geo_score":0.673,"country":"Australia","id":"a624zjwl3b1v","geo_precision":"street","state":"Western Australia"},"type":"Feature","geometry":{"type":"Point","coordinates":[-74.094038,43.011979]}},{"properties":{"city":"WEST PERTH","geo_score":0.673,"country":"Australia","id":"a624zk0kwvjr","geo_precision":"street","state":"Western Australia"},"type":"Feature","geometry":{"type":"Point","coordinates":[-74.094038,43.011979]}},{"properties":{"city":"WEST PERTH","geo_score":0.673,"country":"Australia","id":"a624zjwdxgyb","geo_precision":"street","state":"Western Australia"},"type":"Feature","geometry":{"type":"Point","coordinates":[-74.094038,43.011979]}},{"properties":{"city":"WEST PERTH","geo_score":0.673,"country":"Australia","id":"a624zjul381n","geo_precision":"street","state":"Western Australia"},"type":"Feature","geometry":{"type":"Point","coordinates":[-74.094038,43.011979]}},{"properties":{"city":"WEST PERTH","geo_score":0.673,"country":"Australia","id":"a624zjvgjcv0","geo_precision":"street","state":"Western Australia"},"type":"Feature","geometry":{"type":"Point","coordinates":[-74.094038,43.011979]}},{"properties":{"city":"WEST PERTH","geo_score":0.673,"country":"Australia","id":"a624zk4bv17i","geo_precision":"street","state":"Western Australia"},"type":"Feature","geometry":{"type":"Point","coordinates":[-74.094038,43.011979]}},{"properties":{"city":"WEST PERTH","geo_score":0.673,"country":"Australia","id":"a624zjtm9j0z","geo_precision":"street","state":"Western Australia"},"type":"Feature","geometry":{"type":"Point","coordinates":[-74.094038,43.011979]}},{"properties":{"city":"WILLAGEE","geo_score":0.631,"country":"Australia","id":"a624zjstijoj","geo_precision":"city","state":"Western Australia"},"type":"Feature","geometry":{"type":"Point","coordinates":[-81.687905,41.02561]}},{"properties":{"city":"WILLETON","geo_score":0.357,"country":"Australia","id":"a624zjumq6ul","geo_precision":"street","state":"Western Australia"},"type":"Feature","geometry":{"type":"Point","coordinates":[-123.031156,46.053425]}},{"properties":{"city":"WILLETTON","geo_score":0.339,"country":"Australia","id":"a624zjv98gl3","geo_precision":"street","state":"Western Australia"},"type":"Feature","geometry":{"type":"Point","coordinates":[-123.031156,46.053425]}},{"properties":{"city":"WILLUNA","geo_score":0.643,"country":"Australia","id":"a624zjv1ddyg","geo_precision":"street","state":"Western Australia"},"type":"Feature","geometry":{"type":"Point","coordinates":[-74.182198,42.946161]}},{"properties":{"city":"WILSON","geo_score":0.545,"country":"Australia","id":"a624zk1u7wuf","geo_precision":"street","state":"Western Australia"},"type":"Feature","geometry":{"type":"Point","coordinates":[-87.098292,41.567465]}},{"properties":{"city":"YALLINGUP","geo_score":0.629,"country":"Australia","id":"a624zk4z3z03","geo_precision":"city","state":"Western Australia"},"type":"Feature","geometry":{"type":"Point","coordinates":[-81.687905,41.02561]}}],"is_temporal":false,"author":{"url":"","metadata":"","contact_name":"","contact_address":"","source":"","contact_phone":""},"source":"","pagination":{"sort":null,"start":0,"total":486,"limit":1000000},"state":"complete","tags":"","published":"2014-08-10T21:59:03-04:00","id":16692}