{"type":"FeatureCollection","data_type":"Dataset","url_type":null,"permissions":[{"permissions":{"download":true,"view":true},"group_id":"everyone"}],"classification":null,"title":"Montana Grocery Stores","count":225,"stream_id":167070,"contributor":{"url":"http://geocommons.com/users/34613","name":"msl_nris"},"data_attributes":null,"calculation_params":null,"icon_link":null,"link":"http://geocommons.com/overlays/167070.json","extent":[-115.893,44.6605,-104.051,48.8882],"geometry_types":["point"],"unique_name":null,"name":"Montana Grocery Stores","feature_count":225,"description":"Locations of Montana's Grocery stores, received by the State Library as a DNR-Garmin formatted text file.  Provided by the Montana State University Sustainable Foods program.","next_feature":null,"is_raster":false,"short_classification":"Y","stats":{"Lon":{"max":-104.051170265,"mean":-111.255770396836,"variance":8.3051271988738,"stdev":2.88186175915393,"min":-115.893149721,"median":-111.310300827},"Entered":{"max":null,"min":null,"median":null},"OBJECTID":{"max":225,"mean":113.0,"variance":4237.5,"stdev":65.0960828314577,"min":1,"median":113},"Lat":{"max":48.8882276695,"mean":46.8448658347111,"variance":1.22063368741344,"stdev":1.10482292129256,"min":44.6604967117,"median":46.6673898697}},"features":[{"properties":{"City":"Westby","Lon":-104.051170265,"Name":"Al's Meats","ZIP":59275,"Phone":"406-385-2349","Outlet_Typ":"GrocStore","Entered":"2010/07/12 00:00:00 +0000","State":"MT","Street":"Main St","OBJECTID":1,"id":"a64thdx7hm0b","Address":212,"Lat":48.8712645415},"type":"Feature","geometry":{"type":"Point","coordinates":[-104.051170264835,48.8712645403191]}},{"properties":{"City":"Malta","Lon":-107.873825887,"Name":"Albertson's Malta","ZIP":59538,"Phone":"406-654-2041","Outlet_Typ":"GrocStore","Entered":"2010/08/02 00:00:00 +0000","State":"MT","Street":"S 3rd St E","OBJECTID":2,"id":"a64the3n8i8i","Address":30,"Lat":48.3573586587},"type":"Feature","geometry":{"type":"Point","coordinates":[-107.873825886616,48.3573586581152]}},{"properties":{"City":"Anaconda","Lon":-112.93507576,"Name":"Albertsons Anaconda","ZIP":59711,"Phone":"406-563-5238","Outlet_Typ":"GrocStore","Entered":"2010/07/12 00:00:00 +0000","State":"MT","Street":"E Park Ave","OBJECTID":3,"id":"a64thdqo0xeb","Address":1300,"Lat":46.1262702942},"type":"Feature","geometry":{"type":"Point","coordinates":[-112.935075760071,46.1262702928493]}},{"properties":{"City":"Belgrade","Lon":-111.185116768,"Name":"Albertsons Belgrade","ZIP":59714,"Phone":"406-388-0901","Outlet_Typ":"GrocStore","Entered":"2010/07/12 00:00:00 +0000","State":"MT","Street":"Jackrabbit Ln","OBJECTID":4,"id":"a64thdv7t715","Address":6999,"Lat":45.7723045349},"type":"Feature","geometry":{"type":"Point","coordinates":[-111.185116767928,45.7723045342712]}},{"properties":{"City":"Billings","Lon":-108.592815399,"Name":"Albertsons Billings 1","ZIP":59102,"Phone":"406-652-8370","Outlet_Typ":"GrocStore","Entered":"2010/07/12 00:00:00 +0000","State":"MT","Street":"Grand Ave","OBJECTID":5,"id":"a64thdrmnejl","Address":3137,"Lat":45.7841920853},"type":"Feature","geometry":{"type":"Point","coordinates":[-108.592815398576,45.7841920839764]}},{"properties":{"City":"Billings","Lon":-108.574662209,"Name":"Albertsons Billings 2","ZIP":59102,"Phone":"406-656-8160","Outlet_Typ":"GrocStore","Entered":"2010/07/12 00:00:00 +0000","State":"MT","Street":"Central Ave","OBJECTID":6,"id":"a64thdvhp9rz","Address":2334,"Lat":45.7697296143},"type":"Feature","geometry":{"type":"Point","coordinates":[-108.574662208712,45.7697296135049]}},{"properties":{"City":"Billings","Lon":-108.50938797,"Name":"Albertsons Billings 3","ZIP":59101,"Phone":"406-248-7474","Outlet_Typ":"GrocStore","Entered":"2010/07/12 00:00:00 +0000","State":"MT","Street":"N 27th St","OBJECTID":7,"id":"a64the2yc30f","Address":611,"Lat":45.7876682281},"type":"Feature","geometry":{"type":"Point","coordinates":[-108.509387970474,45.7876682268245]}},{"properties":{"City":"Billings","Lon":-108.547282219,"Name":"Albertsons Billings 4","ZIP":59102,"Phone":"406-245-4118","Outlet_Typ":"GrocStore","Entered":"2010/07/12 00:00:00 +0000","State":"MT","Street":"Grand Ave","OBJECTID":8,"id":"a64thdrvtxx7","Address":1212,"Lat":45.7841063384},"type":"Feature","geometry":{"type":"Point","coordinates":[-108.547282218963,45.7841063378381]}},{"properties":{"City":"Billings","Lon":-108.529129028,"Name":"Albertsons Billings 5","ZIP":59102,"Phone":"406-245-0115","Outlet_Typ":"GrocStore","Entered":"2010/07/12 00:00:00 +0000","State":"MT","Street":"Central Ave","OBJECTID":9,"id":"a64thdv2srq0","Address":511,"Lat":45.7698583603},"type":"Feature","geometry":{"type":"Point","coordinates":[-108.5291290282,45.7698583592093]}},{"properties":{"City":"Bozeman","Lon":-111.066884995,"Name":"Albertsons Bozeman","ZIP":59718,"Phone":"406-586-4785","Outlet_Typ":"GrocStore","Entered":"2010/07/12 00:00:00 +0000","State":"MT","Street":"S 23rd Ave","OBJECTID":10,"id":"a64thdwatluu","Address":200,"Lat":45.6772899628},"type":"Feature","geometry":{"type":"Point","coordinates":[-111.066884994715,45.677289961479]}},{"properties":{"City":"Butte","Lon":-112.520599365,"Name":"Albertsons Butte","ZIP":59701,"Phone":"406-723-7944","Outlet_Typ":"GrocStore","Entered":"2010/07/12 00:00:00 +0000","State":"MT","Street":"Harrison Ave","OBJECTID":11,"id":"a64thdntlb51","Address":1301,"Lat":46.0015583038},"type":"Feature","geometry":{"type":"Point","coordinates":[-112.520599365419,46.0015583029796]}},{"properties":{"City":"Cut Bank","Lon":-112.338337898,"Name":"Albertsons Cut Bank","ZIP":59427,"Phone":"406-873-5035","Outlet_Typ":"GrocStore","Entered":"2010/07/12 00:00:00 +0000","State":"MT","Street":"W Main St","OBJECTID":12,"id":"a64the3y57ca","Address":501,"Lat":48.6395645142},"type":"Feature","geometry":{"type":"Point","coordinates":[-112.338337898192,48.6395645133873]}},{"properties":{"City":"Glasgow","Lon":-106.637592316,"Name":"Albertsons Glasgow","ZIP":59230,"Phone":"406-228-8252","Outlet_Typ":"GrocStore","Entered":"2010/07/12 00:00:00 +0000","State":"MT","Street":"1st Ave N","OBJECTID":13,"id":"a64thdqwe62b","Address":620,"Lat":48.1973648071},"type":"Feature","geometry":{"type":"Point","coordinates":[-106.637592315419,48.1973648063797]}},{"properties":{"City":"Glendive","Lon":-104.727687836,"Name":"Albertsons Glendive","ZIP":59330,"Phone":"406-365-3325","Outlet_Typ":"GrocStore","Entered":"2010/07/12 00:00:00 +0000","State":"MT","Street":"Harmon St","OBJECTID":14,"id":"a64the1ke1qx","Address":307,"Lat":47.1071004868},"type":"Feature","geometry":{"type":"Point","coordinates":[-104.727687835899,47.107100485723]}},{"properties":{"City":"Great Falls","Lon":-111.309828758,"Name":"Albertsons Great Falls 1","ZIP":59404,"Phone":"406-761-6800","Outlet_Typ":"GrocStore","Entered":"2010/07/12 00:00:00 +0000","State":"MT","Street":"3rd St NW","OBJECTID":15,"id":"a64the2qbkd9","Address":1414,"Lat":47.5193452835},"type":"Feature","geometry":{"type":"Point","coordinates":[-111.309828758866,47.5193452828913]}},{"properties":{"City":"Great Falls","Lon":-111.268930435,"Name":"Albertsons Great Falls 2","ZIP":59405,"Phone":"406-727-3700","Outlet_Typ":"GrocStore","Entered":"2010/07/12 00:00:00 +0000","State":"MT","Street":"10th Ave S","OBJECTID":16,"id":"a64thdzqgjvs","Address":2250,"Lat":47.4940252304},"type":"Feature","geometry":{"type":"Point","coordinates":[-111.268930434888,47.4940252293148]}},{"properties":{"City":"Hamilton","Lon":-114.157304764,"Name":"Albertsons Hamilton","ZIP":59840,"Phone":"406-363-4555","Outlet_Typ":"GrocStore","Entered":"2010/07/12 00:00:00 +0000","State":"MT","Street":"N 1st St","OBJECTID":17,"id":"a64thdyl33y0","Address":1313,"Lat":46.2582349777},"type":"Feature","geometry":{"type":"Point","coordinates":[-114.15730476385,46.25823497711]}},{"properties":{"City":"Harlem","Lon":-108.784947395,"Name":"Albertsons Harlem","ZIP":59526,"Phone":"406-353-2225","Outlet_Typ":"GrocStore","Entered":"2010/07/12 00:00:00 +0000","State":"MT","Street":"S Main St","OBJECTID":18,"id":"a64the1rg6os","Address":117,"Lat":48.5321903229},"type":"Feature","geometry":{"type":"Point","coordinates":[-108.78494739473,48.5321903221799]}},{"properties":{"City":"Havre","Lon":-109.671492577,"Name":"Albertsons Havre","ZIP":59501,"Phone":"406-265-6717","Outlet_Typ":"GrocStore","Entered":"2010/07/12 00:00:00 +0000","State":"MT","Street":"1st St","OBJECTID":19,"id":"a64thdssvjvy","Address":730,"Lat":48.5529612657},"type":"Feature","geometry":{"type":"Point","coordinates":[-109.671492577207,48.5529612647305]}},{"properties":{"City":"Helena","Lon":-112.005443573,"Name":"Albertsons Helena 1","ZIP":59601,"Phone":"406-442-1052","Outlet_Typ":"GrocStore","Entered":"2010/07/12 00:00:00 +0000","State":"MT","Street":"N Fee St","OBJECTID":20,"id":"a64thdtk23bk","Address":600,"Lat":46.5904855728},"type":"Feature","geometry":{"type":"Point","coordinates":[-112.005443572793,46.5904855717292]}},{"properties":{"City":"Helena","Lon":-112.020850182,"Name":"Albertsons Helena 2","ZIP":59602,"Phone":"406-443-8557","Outlet_Typ":"GrocStore","Entered":"2010/07/12 00:00:00 +0000","State":"MT","Street":"N Montana Ave","OBJECTID":21,"id":"a64thdoq711g","Address":3151,"Lat":46.6181659698},"type":"Feature","geometry":{"type":"Point","coordinates":[-112.020850182105,46.618165968682]}},{"properties":{"City":"Kalispell","Lon":-114.329609871,"Name":"Albertsons Kalispell","ZIP":59901,"Phone":"406-257-7127","Outlet_Typ":"GrocStore","Entered":"2010/07/12 00:00:00 +0000","State":"MT","Street":"W Idaho St","OBJECTID":22,"id":"a64the48w7oy","Address":900,"Lat":48.2004976273},"type":"Feature","geometry":{"type":"Point","coordinates":[-114.329609871099,48.2004976259937]}},{"properties":{"City":"Lewistown","Lon":-109.42335614,"Name":"Albertsons Lewistown","ZIP":59457,"Phone":"406-538-5454","Outlet_Typ":"GrocStore","Entered":"2010/07/12 00:00:00 +0000","State":"MT","Street":"W Janeaux St","OBJECTID":23,"id":"a64thdqg0468","Address":117,"Lat":47.0661591645},"type":"Feature","geometry":{"type":"Point","coordinates":[-109.423356140678,47.0661591637523]}},{"properties":{"City":"Livingston","Lon":-110.574045181,"Name":"Albertsons Livingston","ZIP":59047,"Phone":"406-222-1177","Outlet_Typ":"GrocStore","Entered":"2010/07/12 00:00:00 +0000","State":"MT","Street":"Park St S","OBJECTID":24,"id":"a64thdosdeyl","Address":2120,"Lat":45.6422281265},"type":"Feature","geometry":{"type":"Point","coordinates":[-110.574045181401,45.6422281256086]}},{"properties":{"City":"Miles City","Lon":-105.82267276,"Name":"Albertsons Miles City","ZIP":59301,"Phone":"406-232-2580","Outlet_Typ":"GrocStore","Entered":"2010/07/12 00:00:00 +0000","State":"MT","Street":"S Haynes Ave","OBJECTID":25,"id":"a64thdoua4km","Address":519,"Lat":46.4032888412},"type":"Feature","geometry":{"type":"Point","coordinates":[-105.822672759523,46.4032888402121]}},{"properties":{"City":"Missoula","Lon":-113.98045063,"Name":"Albertsons Missoula 1","ZIP":59802,"Phone":"406-549-2351","Outlet_Typ":"GrocStore","Entered":"2010/07/12 00:00:00 +0000","State":"MT","Street":"E Broadway St","OBJECTID":26,"id":"a64thdy8kd71","Address":1003,"Lat":46.868019104},"type":"Feature","geometry":{"type":"Point","coordinates":[-113.98045063007,46.8680191026418]}},{"properties":{"City":"Missoula","Lon":-114.039373398,"Name":"Albertsons Missoula 2","ZIP":59808,"Phone":"406-728-1116","Outlet_Typ":"GrocStore","Entered":"2010/07/12 00:00:00 +0000","State":"MT","Street":"N Reserve St","OBJECTID":27,"id":"a64thdx3sxyf","Address":2230,"Lat":46.8860006332},"type":"Feature","geometry":{"type":"Point","coordinates":[-114.039373397435,46.8860006324273]}},{"properties":{"City":"Missoula","Lon":-114.016585434,"Name":"Albertsons Missoula 3","ZIP":59801,"Phone":"406-549-5105","Outlet_Typ":"GrocStore","Entered":"2010/07/12 00:00:00 +0000","State":"MT","Street":"Oxford St","OBJECTID":28,"id":"a64the0nmojm","Address":2205,"Lat":46.8505954742},"type":"Feature","geometry":{"type":"Point","coordinates":[-114.016585434496,46.8505954731568]}},{"properties":{"City":"Missoula","Lon":-114.018216133,"Name":"Albertsons Missoula 4","ZIP":59801,"Phone":"406-549-1547","Outlet_Typ":"GrocStore","Entered":"2010/07/12 00:00:00 +0000","State":"MT","Street":"S Russell St","OBJECTID":29,"id":"a64thdnuaawg","Address":3800,"Lat":46.8359184265},"type":"Feature","geometry":{"type":"Point","coordinates":[-114.018216132757,46.8359184254658]}},{"properties":{"City":"Shelby","Lon":-111.861162186,"Name":"Albertsons Shelby","ZIP":59474,"Phone":"406-434-5581","Outlet_Typ":"GrocStore","Entered":"2010/07/12 00:00:00 +0000","State":"MT","Street":"5th Ave N","OBJECTID":30,"id":"a64thdra2cue","Address":130,"Lat":48.5074281693},"type":"Feature","geometry":{"type":"Point","coordinates":[-111.861162186234,48.5074281681744]}},{"properties":{"City":"Wolf Point","Lon":-105.643544197,"Name":"Albertsons Wolf Point","ZIP":59201,"Phone":"406-653-1700","Outlet_Typ":"GrocStore","Entered":"2010/07/12 00:00:00 +0000","State":"MT","Street":"Blaine St","OBJECTID":31,"id":"a64thdu4xl7b","Address":415,"Lat":48.0926513672},"type":"Feature","geometry":{"type":"Point","coordinates":[-105.643544196486,48.0926513664383]}},{"properties":{"City":"Whitefish","Lon":-114.341025436,"Name":"Alpine Village Market","ZIP":59937,"Phone":"406-862-5025","Outlet_Typ":"GrocStore","Entered":"2010/07/12 00:00:00 +0000","State":"MT","Street":"Wisconsin Ave","OBJECTID":32,"id":"a64thdo15xxe","Address":721,"Lat":48.4225845337},"type":"Feature","geometry":{"type":"Point","coordinates":[-114.34102543649,48.4225845330754]}},{"properties":{"City":"Amsterdam","Lon":-111.32004261,"Name":"Amsterdam General Store","ZIP":59741,"Phone":"406-282-7223","Outlet_Typ":"GrocStore","Entered":"2010/07/26 00:00:00 +0000","State":"MT","Street":"Amsterdam Rd","OBJECTID":33,"id":"a64the0gnw8z","Address":6680,"Lat":45.7581853867},"type":"Feature","geometry":{"type":"Point","coordinates":[-111.320042610324,45.7581853855581]}},{"properties":{"City":"Nashua","Lon":-106.35696888,"Name":"B&amp;B Foods","ZIP":59248,"Phone":"406-746-3471","Outlet_Typ":"GrocStore","Entered":"2010/07/12 00:00:00 +0000","State":"MT","Street":"Front St","OBJECTID":34,"id":"a64thdy74ccc","Address":719,"Lat":48.1324338913},"type":"Feature","geometry":{"type":"Point","coordinates":[-106.356968879337,48.1324338900726]}},{"properties":{"City":"Helena","Lon":-112.034583092,"Name":"B&amp;B Quality Market","ZIP":59601,"Phone":"406-442-0654","Outlet_Typ":"GrocStore","Entered":"2010/07/12 00:00:00 +0000","State":"MT","Street":"N Rodney St","OBJECTID":35,"id":"a64thdskjt2s","Address":100,"Lat":46.5859364625},"type":"Feature","geometry":{"type":"Point","coordinates":[-112.034583091829,46.5859364615211]}},{"properties":{"City":"Chester","Lon":-110.966033936,"Name":"B-N-W Food Farn","ZIP":59522,"Phone":"406-759-5435","Outlet_Typ":"GrocStore","Entered":"2010/07/12 00:00:00 +0000","State":"MT","Street":"Main St","OBJECTID":36,"id":"a64the2kmot7","Address":100,"Lat":48.5124921799},"type":"Feature","geometry":{"type":"Point","coordinates":[-110.966033934921,48.5124921791429]}},{"properties":{"City":"Belt","Lon":-110.937151909,"Name":"Belt Valley Grocery","ZIP":59412,"Phone":"406-277-3523","Outlet_Typ":"GrocStore","Entered":"2010/07/12 00:00:00 +0000","State":"MT","Street":"Castner St","OBJECTID":37,"id":"a64thdx7c5g4","Address":65,"Lat":47.3846340179},"type":"Feature","geometry":{"type":"Point","coordinates":[-110.937151908818,47.3846340167604]}},{"properties":{"City":"Lewistown","Lon":-109.420289621,"Name":"Big Spring Co-op","ZIP":59457,"Phone":"406-535-6886","Outlet_Typ":"GrocStore","Entered":"2010/07/23 00:00:00 +0000","State":"MT","Street":"1st Ave S","OBJECTID":38,"id":"a64the3z2wrj","Address":13,"Lat":47.0644122921},"type":"Feature","geometry":{"type":"Point","coordinates":[-109.420289620843,47.0644122911076]}},{"properties":{"City":"Stevensville","Lon":-114.093232239,"Name":"Bitterroot Community Market","ZIP":59870,"Phone":"406-777-5742","Outlet_Typ":"GrocStore","Entered":"2010/07/27 00:00:00 +0000","State":"MT","Street":"Main St","OBJECTID":39,"id":"a64thdp9yd1i","Address":601,"Lat":46.5055990219},"type":"Feature","geometry":{"type":"Point","coordinates":[-114.093232238515,46.5055990209311]}},{"properties":{"City":"Hamilton","Lon":-114.15623188,"Name":"Bitterroot Grocery Emporium","ZIP":59840,"Phone":"406-363-2366","Outlet_Typ":"GrocStore","Entered":"2010/07/12 00:00:00 +0000","State":"MT","Street":"N 1st St","OBJECTID":40,"id":"a64thdu3metp","Address":518,"Lat":46.2515830994},"type":"Feature","geometry":{"type":"Point","coordinates":[-114.156231879975,46.2515830981184]}},{"properties":{"City":"Lakeside","Lon":-114.224939262,"Name":"Blacktail Grocery","ZIP":59922,"Phone":"406-844-2606","Outlet_Typ":"GrocStore","Entered":"2010/07/12 00:00:00 +0000","State":"MT","Street":"Stoner Creek Rd","OBJECTID":41,"id":"a64thdu6c8h4","Address":105,"Lat":48.0181074142},"type":"Feature","geometry":{"type":"Point","coordinates":[-114.224939262838,48.0181074136211]}},{"properties":{"City":"Bozeman","Lon":-111.048817635,"Name":"Bozeman Deli","ZIP":59715,"Phone":"406-587-2693","Outlet_Typ":"GrocStore","Entered":"2010/07/12 00:00:00 +0000","State":"MT","Street":"W College St","OBJECTID":42,"id":"a64the204kd5","Address":815,"Lat":45.6712388992},"type":"Feature","geometry":{"type":"Point","coordinates":[-111.048817634741,45.6712388978971]}},{"properties":{"City":"Frenchtown","Lon":-114.228630066,"Name":"Broncs Groceries","ZIP":59834,"Phone":"406-626-4402","Outlet_Typ":"GrocStore","Entered":"2010/07/12 00:00:00 +0000","State":"MT","Street":"Beckwith St","OBJECTID":43,"id":"a64thdvb46j1","Address":16600,"Lat":47.0143175125},"type":"Feature","geometry":{"type":"Point","coordinates":[-114.228630066109,47.0143175112504]}},{"properties":{"City":"Kalispell","Lon":-114.307336807,"Name":"Broncs Grocery","ZIP":59901,"Phone":"406-626-4402","Outlet_Typ":"GrocStore","Entered":"2010/07/12 00:00:00 +0000","State":"MT","Street":"1st Ave E","OBJECTID":44,"id":"a64thdruzjrc","Address":1420,"Lat":48.1856489182},"type":"Feature","geometry":{"type":"Point","coordinates":[-114.307336807367,48.1856489171665]}},{"properties":{"City":"Hot Springs","Lon":-114.670143127,"Name":"Buck's Grocery","ZIP":59845,"Phone":"406-741-2125","Outlet_Typ":"GrocStore","Entered":"2010/07/12 00:00:00 +0000","State":"MT","Street":"Main St","OBJECTID":45,"id":"a64thdos1ynj","Address":221,"Lat":47.6083946228},"type":"Feature","geometry":{"type":"Point","coordinates":[-114.670143127386,47.6083946216647]}},{"properties":{"City":"Big Sky","Lon":-111.334576495,"Name":"C &amp; P Grocery","ZIP":59716,"Phone":"406-995-437","Outlet_Typ":"GrocStore","Entered":"2010/07/27 00:00:00 +0000","State":"MT","Street":"Mountain Mall","OBJECTID":46,"id":"a64thdr5lq33","Address":61,"Lat":45.2833086625},"type":"Feature","geometry":{"type":"Point","coordinates":[-111.334576494676,45.2833086611818]}},{"properties":{"City":"Dillon","Lon":-112.457816564,"Name":"Centennial Foods Inc","ZIP":59725,"Phone":"406-683-5175","Outlet_Typ":"GrocStore","Entered":"2010/08/04 00:00:00 +0000","State":"MT","Street":"E Bench Rd","OBJECTID":47,"id":"a64thdxkpp2s","Address":3512,"Lat":45.2773814835},"type":"Feature","geometry":{"type":"Point","coordinates":[-112.457816564075,45.2773814828181]}},{"properties":{"City":"Belgrade","Lon":-111.185159683,"Name":"Chalet Markets of Montana","ZIP":59714,"Phone":"406-388-4687","Outlet_Typ":"GrocStore","Entered":"2010/07/12 00:00:00 +0000","State":"MT","Street":"Jackrabbit Ln","OBJECTID":48,"id":"a64thdt1n1or","Address":6410,"Lat":45.7635498047},"type":"Feature","geometry":{"type":"Point","coordinates":[-111.185159683296,45.7635498036265]}},{"properties":{"City":"Clinton","Lon":-113.712058067,"Name":"Clinton Market","ZIP":59825,"Phone":"406-825-9920","Outlet_Typ":"GrocStore","Entered":"2010/07/12 00:00:00 +0000","State":"MT","Street":"US 10 W","OBJECTID":49,"id":"a64thdornzl5","Address":20500,"Lat":46.7811583634},"type":"Feature","geometry":{"type":"Point","coordinates":[-113.712058067836,46.7811583625806]}},{"properties":{"City":"Bozeman","Lon":-111.049804688,"Name":"Community Food Co-Op","ZIP":59715,"Phone":"406-587-4039","Outlet_Typ":"GrocStore","Entered":"2010/07/12 00:00:00 +0000","State":"MT","Street":"W Main St","OBJECTID":50,"id":"a64the2w32o6","Address":908,"Lat":45.6793069839},"type":"Feature","geometry":{"type":"Point","coordinates":[-111.049804687648,45.6793069827279]}},{"properties":{"City":"Billings","Lon":-108.581056595,"Name":"Cono-Mart Super Store","ZIP":59102,"Phone":"406-651-5101","Outlet_Typ":"GrocStore","Entered":"2010/07/12 00:00:00 +0000","State":"MT","Street":"Gabel Rd","OBJECTID":51,"id":"a64thdt07kap","Address":2550,"Lat":45.7468128204},"type":"Feature","geometry":{"type":"Point","coordinates":[-108.581056594872,45.7468128195524]}},{"properties":{"City":"Billings","Lon":-108.572516441,"Name":"Costco Billings","ZIP":59102,"Phone":"406-652-8765","Outlet_Typ":"GrocStore","Entered":"2010/07/21 00:00:00 +0000","State":"MT","Street":"King Ave W","OBJECTID":52,"id":"a64thdoilexd","Address":2290,"Lat":45.7550525665},"type":"Feature","geometry":{"type":"Point","coordinates":[-108.572516440782,45.755052565188]}},{"properties":{"City":"Helena","Lon":-111.99785376,"Name":"Costco Helena","ZIP":59602,"Phone":"406-495-7040","Outlet_Typ":"GrocStore","Entered":"2010/07/21 00:00:00 +0000","State":"MT","Street":"E Custer Ave","OBJECTID":53,"id":"a64the31tofq","Address":2195,"Lat":46.6166775953},"type":"Feature","geometry":{"type":"Point","coordinates":[-111.99785375974,46.6166775946759]}},{"properties":{"City":"Kalispell","Lon":-114.330554008,"Name":"Costco Kalispell","ZIP":59901,"Phone":"406-758-2500","Outlet_Typ":"GrocStore","Entered":"2010/07/12 00:00:00 +0000","State":"MT","Street":"US 93 N","OBJECTID":54,"id":"a64the3mmhxg","Address":2330,"Lat":48.2344865799},"type":"Feature","geometry":{"type":"Point","coordinates":[-114.330554008195,48.2344865788308]}},{"properties":{"City":"Missoula","Lon":-114.038043022,"Name":"Costco Missoula","ZIP":59808,"Phone":"406-543-6445","Outlet_Typ":"GrocStore","Entered":"2010/07/12 00:00:00 +0000","State":"MT","Street":"Northern Pacific St","OBJECTID":55,"id":"a64thdy7sujv","Address":3220,"Lat":46.8939828873},"type":"Feature","geometry":{"type":"Point","coordinates":[-114.038043022319,46.8939828867712]}},{"properties":{"City":"Bozeman","Lon":-111.070833206,"Name":"Costco Wholesale Bozeman","ZIP":59718,"Phone":"406-585-0383","Outlet_Typ":"GrocStore","Entered":"2010/07/21 00:00:00 +0000","State":"MT","Street":"Catron Rd","OBJECTID":56,"id":"a64thdse6tsr","Address":2505,"Lat":45.7121801376},"type":"Feature","geometry":{"type":"Point","coordinates":[-111.07083320632,45.7121801368769]}},{"properties":{"City":"Big Sky","Lon":-111.301253987,"Name":"Country Market","ZIP":59716,"Phone":"406-995-4636","Outlet_Typ":"GrocStore","Entered":"2010/07/27 00:00:00 +0000","State":"MT","Street":"Meadow Village","OBJECTID":57,"id":"a64thdqzhwd1","Address":0,"Lat":45.2684285212},"type":"Feature","geometry":{"type":"Point","coordinates":[-111.301253988093,45.2684285204674]}},{"properties":{"City":"Helena","Lon":-112.020893097,"Name":"County Market","ZIP":59601,"Phone":"406-443-0635","Outlet_Typ":"GrocStore","Entered":"2010/07/12 00:00:00 +0000","State":"MT","Street":"N Montana Ave","OBJECTID":58,"id":"a64thdqu5jl6","Address":3050,"Lat":46.6155481339},"type":"Feature","geometry":{"type":"Point","coordinates":[-112.020893097229,46.6155481324866]}},{"properties":{"City":"Crow Agency","Lon":-107.461576816,"Name":"Crow Mercantile","ZIP":59022,"Phone":"406-638-2269","Outlet_Typ":"GrocStore","Entered":"2010/08/04 00:00:00 +0000","State":"MT","Street":"E Makawasha Ave","OBJECTID":59,"id":"a64thdurzgx3","Address":6990,"Lat":45.6015002914},"type":"Feature","geometry":{"type":"Point","coordinates":[-107.461576816141,45.6015002901768]}},{"properties":{"City":"Denton","Lon":-109.949081177,"Name":"Denton Foods","ZIP":59430,"Phone":"406-567-2331","Outlet_Typ":"GrocStore","Entered":"2010/07/23 00:00:00 +0000","State":"MT","Street":"Broadway Ave","OBJECTID":60,"id":"a64thdrs44hf","Address":523,"Lat":47.319483161},"type":"Feature","geometry":{"type":"Point","coordinates":[-109.949081176538,47.3194831603935]}},{"properties":{"City":"Butte","Lon":-112.502746582,"Name":"Eastgate IGA","ZIP":59701,"Phone":"406-723-5994","Outlet_Typ":"GrocStore","Entered":"2010/08/04 00:00:00 +0000","State":"MT","Street":"Farragut Ave","OBJECTID":61,"id":"a64thdz1c1o5","Address":2005,"Lat":45.9938632976},"type":"Feature","geometry":{"type":"Point","coordinates":[-112.502746582154,45.993863297118]}},{"properties":{"City":"Moore","Lon":-109.745306969,"Name":"Eddie's Corner","ZIP":59464,"Phone":"406-374-2471","Outlet_Typ":"GrocStore","Entered":"2010/07/23 00:00:00 +0000","State":"MT","Street":"US 87","OBJECTID":62,"id":"a64thdwla4lc","Address":6500,"Lat":46.9830751419},"type":"Feature","geometry":{"type":"Point","coordinates":[-109.745306968429,46.9830751410884]}},{"properties":{"City":"White Sulphur Springs","Lon":-110.734393336,"Name":"Edward's Grocery","ZIP":59645,"Phone":"406-547-3710","Outlet_Typ":"GrocStore","Entered":"2010/07/23 00:00:00 +0000","State":"MT","Street":"US 12","OBJECTID":63,"id":"a64the3aidd6","Address":4261,"Lat":46.6206132341},"type":"Feature","geometry":{"type":"Point","coordinates":[-110.734393335374,46.6206132329522]}},{"properties":{"City":"Libby","Lon":-115.49780854,"Name":"Farm to Market Store &amp; Bakery","ZIP":59923,"Phone":"406-293-9775","Outlet_Typ":"GrocStore","Entered":"2010/07/12 00:00:00 +0000","State":"MT","Street":"Farm to Market Rd","OBJECTID":64,"id":"a64the3qfrrm","Address":5213,"Lat":48.3110046387},"type":"Feature","geometry":{"type":"Point","coordinates":[-115.49780854036,48.3110046377741]}},{"properties":{"City":"Bigfork","Lon":-113.984742165,"Name":"Ferndale Market","ZIP":59911,"Phone":"406-837-5597","Outlet_Typ":"GrocStore","Entered":"2010/07/12 00:00:00 +0000","State":"MT","Street":"MT 209","OBJECTID":65,"id":"a64thds4qqqr","Address":1845,"Lat":48.0516672134},"type":"Feature","geometry":{"type":"Point","coordinates":[-113.984742165134,48.0516672128835]}},{"properties":{"City":"West Yellowstone","Lon":-111.101946831,"Name":"Food Roundup Supermarket 1","ZIP":59758,"Phone":"406-646-7501","Outlet_Typ":"GrocStore","Entered":"2010/07/27 00:00:00 +0000","State":"MT","Street":"Dunraven St","OBJECTID":66,"id":"a64the2gru38","Address":107,"Lat":44.6608257014},"type":"Feature","geometry":{"type":"Point","coordinates":[-111.101946831282,44.660825700267]}},{"properties":{"City":"West Yellowstone","Lon":-111.113190735,"Name":"Food Roundup Supermarket 2","ZIP":59758,"Phone":"406-646-7517","Outlet_Typ":"GrocStore","Entered":"2010/07/27 00:00:00 +0000","State":"MT","Street":"Iris St","OBJECTID":67,"id":"a64the1j6t6p","Address":133,"Lat":44.6614407655},"type":"Feature","geometry":{"type":"Point","coordinates":[-111.113190734966,44.6614407646289]}},{"properties":{"City":"Livingston","Lon":-110.557531659,"Name":"Foodworks Natural","ZIP":59047,"Phone":"406-222-8223","Outlet_Typ":"GrocStore","Entered":"2010/07/26 00:00:00 +0000","State":"MT","Street":"E Park St","OBJECTID":68,"id":"a64the298meg","Address":412,"Lat":45.6643262599},"type":"Feature","geometry":{"type":"Point","coordinates":[-110.557531658143,45.6643262590839]}},{"properties":{"City":"Butte","Lon":-112.533946037,"Name":"Front Street Market","ZIP":59701,"Phone":"406-782-2614","Outlet_Typ":"GrocStore","Entered":"2010/07/12 00:00:00 +0000","State":"MT","Street":"W Front St","OBJECTID":69,"id":"a64thdxmn67o","Address":8,"Lat":45.9982967377},"type":"Feature","geometry":{"type":"Point","coordinates":[-112.533946037019,45.9982967369462]}},{"properties":{"City":"Drummond","Lon":-113.146734238,"Name":"Front Street Market Drummond","ZIP":59832,"Phone":"406-288-3571","Outlet_Typ":"GrocStore","Entered":"2010/07/12 00:00:00 +0000","State":"MT","Street":"E Front St","OBJECTID":70,"id":"a64thdoy9fz9","Address":50,"Lat":46.6673898697},"type":"Feature","geometry":{"type":"Point","coordinates":[-113.146734237789,46.6673898689194]}},{"properties":{"City":"Florence","Lon":-114.074993134,"Name":"Gary &amp; Leo's Fresh Foods","ZIP":59833,"Phone":"406-273-2791","Outlet_Typ":"GrocStore","Entered":"2010/07/12 00:00:00 +0000","State":"MT","Street":"US 93","OBJECTID":71,"id":"a64thdnxp1pd","Address":5537,"Lat":46.6363620758},"type":"Feature","geometry":{"type":"Point","coordinates":[-114.074993133668,46.636362075175]}},{"properties":{"City":"Scobey","Lon":-105.422401428,"Name":"Getschel's Super Value","ZIP":59263,"Phone":"406-487-2831","Outlet_Typ":"GrocStore","Entered":"2010/07/12 00:00:00 +0000","State":"MT","Street":"Daniels St","OBJECTID":72,"id":"a64thdyydigi","Address":7,"Lat":48.7923861388},"type":"Feature","geometry":{"type":"Point","coordinates":[-105.422401428204,48.7923861383044]}},{"properties":{"City":"Gildford","Lon":-110.30277729,"Name":"Gildford Merc","ZIP":59525,"Phone":"406-376-3113","Outlet_Typ":"GrocStore","Entered":"2010/08/02 00:00:00 +0000","State":"MT","Street":"1st Ave","OBJECTID":73,"id":"a64thdyuwfwn","Address":420,"Lat":48.5674238205},"type":"Feature","geometry":{"type":"Point","coordinates":[-110.302777290101,48.5674238193841]}},{"properties":{"City":"Clyde Park","Lon":-110.602712631,"Name":"Glenn's Shopping","ZIP":59018,"Phone":"406-686-4421","Outlet_Typ":"GrocStore","Entered":"2010/07/26 00:00:00 +0000","State":"MT","Street":"Miles Ave","OBJECTID":74,"id":"a64thdyqldet","Address":504,"Lat":45.8853436355},"type":"Feature","geometry":{"type":"Point","coordinates":[-110.602712631373,45.8853436347658]}},{"properties":{"City":"Billings","Lon":-108.509345138,"Name":"Good Earth Market","ZIP":59101,"Phone":"406-259-2622","Outlet_Typ":"GrocStore","Entered":"2010/07/12 00:00:00 +0000","State":"MT","Street":"2nd Ave N","OBJECTID":75,"id":"a64the2eyxzp","Address":3024,"Lat":45.7815741654},"type":"Feature","geometry":{"type":"Point","coordinates":[-108.509345138648,45.7815741645908]}},{"properties":{"City":"Missoula","Lon":-114.0203619,"Name":"Good Food Store","ZIP":59801,"Phone":"406-541-3663","Outlet_Typ":"GrocStore","Entered":"2010/07/12 00:00:00 +0000","State":"MT","Street":"S 3rd St W","OBJECTID":76,"id":"a64thdvuylo2","Address":1600,"Lat":46.8670321349},"type":"Feature","geometry":{"type":"Point","coordinates":[-114.020361900841,46.8670321335757]}},{"properties":{"City":"Glasgow","Lon":-106.63179866,"Name":"Gordon's Food's","ZIP":59230,"Phone":"406-228-2633","Outlet_Typ":"GrocStore","Entered":"2010/07/12 00:00:00 +0000","State":"MT","Street":"Klein Ave","OBJECTID":77,"id":"a64thdx7cenw","Address":213,"Lat":48.1953477859},"type":"Feature","geometry":{"type":"Point","coordinates":[-106.631798660926,48.1953477845802]}},{"properties":{"City":"Grass Range","Lon":-108.805245264,"Name":"Grass Range Mercantile","ZIP":59032,"Phone":"406-428-2269","Outlet_Typ":"GrocStore","Entered":"2010/07/23 00:00:00 +0000","State":"MT","Street":"Main St","OBJECTID":78,"id":"a64the2404xq","Address":504,"Lat":47.0229101367},"type":"Feature","geometry":{"type":"Point","coordinates":[-108.805245263842,47.02291013553]}},{"properties":{"City":"Bozeman","Lon":-111.046500206,"Name":"Great Harvest Bread","ZIP":59715,"Phone":"406-582-8369","Outlet_Typ":"GrocStore","Entered":"2010/07/26 00:00:00 +0000","State":"MT","Street":"W Main St","OBJECTID":79,"id":"a64the42vrd0","Address":701,"Lat":45.6793498993},"type":"Feature","geometry":{"type":"Point","coordinates":[-111.04650020639,45.6793498981344]}},{"properties":{"City":"Bigfork","Lon":-114.075035965,"Name":"Great Northern Foods","ZIP":59911,"Phone":"406-837-2715","Outlet_Typ":"GrocStore","Entered":"2010/07/12 00:00:00 +0000","State":"MT","Street":"Grand Dr","OBJECTID":80,"id":"a64thdwllwsw","Address":425,"Lat":48.0628681183},"type":"Feature","geometry":{"type":"Point","coordinates":[-114.075035965239,48.0628681170732]}},{"properties":{"City":"Ashland","Lon":-106.263397168,"Name":"Green's","ZIP":59003,"Phone":"406-784-2276","Outlet_Typ":"GrocStore","Entered":"2010/08/04 00:00:00 +0000","State":"MT","Street":"Main St","OBJECTID":81,"id":"a64the2qy3k1","Address":201,"Lat":45.589966625},"type":"Feature","geometry":{"type":"Point","coordinates":[-106.263397168831,45.5899666240723]}},{"properties":{"City":"Great Falls","Lon":-111.280260086,"Name":"Grocery Outlet","ZIP":59401,"Phone":"406-452-9159","Outlet_Typ":"GrocStore","Entered":"2010/07/12 00:00:00 +0000","State":"MT","Street":"12th Ave N","OBJECTID":82,"id":"a64thdyipvh5","Address":1609,"Lat":47.5180578232},"type":"Feature","geometry":{"type":"Point","coordinates":[-111.280260085614,47.5180578226029]}},{"properties":{"City":"Hamilton","Lon":-114.155673981,"Name":"Grocery Saver","ZIP":59840,"Phone":"406-375-9957","Outlet_Typ":"GrocStore","Entered":"2010/07/12 00:00:00 +0000","State":"MT","Street":"N 1st St","OBJECTID":83,"id":"a64thdx7xsiu","Address":114,"Lat":46.2475061417},"type":"Feature","geometry":{"type":"Point","coordinates":[-114.155673981052,46.247506140779]}},{"properties":{"City":"Trout Creek","Lon":-115.564155579,"Name":"Grocery Surplus Store","ZIP":59874,"Phone":"406-827-6373","Outlet_Typ":"GrocStore","Entered":"2010/07/12 00:00:00 +0000","State":"MT","Street":"White Pine Creek Rd","OBJECTID":84,"id":"a64thdr15guq","Address":120,"Lat":47.7537059784},"type":"Feature","geometry":{"type":"Point","coordinates":[-115.564155578692,47.7537059771512]}},{"properties":{"City":"Ronan","Lon":-114.097008705,"Name":"Harvest Foods","ZIP":59864,"Phone":"406-676-3301","Outlet_Typ":"GrocStore","Entered":"2010/07/12 00:00:00 +0000","State":"MT","Street":"US 93","OBJECTID":85,"id":"a64the1b7h3k","Address":63802,"Lat":47.5203753356},"type":"Feature","geometry":{"type":"Point","coordinates":[-114.097008705243,47.5203753344219]}},{"properties":{"City":"Eureka","Lon":-115.053377571,"Name":"Heaven's Peak Health Food","ZIP":59917,"Phone":"406-297-3504","Outlet_Typ":"GrocStore","Entered":"2010/07/27 00:00:00 +0000","State":"MT","Street":"Dewey Ave","OBJECTID":86,"id":"a64thdwt7tzj","Address":312,"Lat":48.8809123635},"type":"Feature","geometry":{"type":"Point","coordinates":[-115.05337757098,48.8809123625361]}},{"properties":{"City":"Bozeman","Lon":-111.029205322,"Name":"Heebs East Main Grocery","ZIP":59715,"Phone":"406-586-5464","Outlet_Typ":"GrocStore","Entered":"2010/07/12 00:00:00 +0000","State":"MT","Street":"E Main St","OBJECTID":87,"id":"a64thdugkgx6","Address":544,"Lat":45.6793498993},"type":"Feature","geometry":{"type":"Point","coordinates":[-111.029205321923,45.6793498980361]}},{"properties":{"City":"Lincoln","Lon":-112.73191452,"Name":"Hi Country Trading Post and Museum","ZIP":59639,"Phone":"406-362-4780","Outlet_Typ":"GrocStore","Entered":"2010/07/12 00:00:00 +0000","State":"MT","Street":"N Lincoln Gulch Rd","OBJECTID":88,"id":"a64thdzjjzqt","Address":1,"Lat":46.951918602},"type":"Feature","geometry":{"type":"Point","coordinates":[-112.731914519643,46.9519186006501]}},{"properties":{"City":"Big Sky","Lon":-111.310300827,"Name":"Hungry Moose Market","ZIP":59716,"Phone":"406-995-3045","Outlet_Typ":"GrocStore","Entered":"2010/07/27 00:00:00 +0000","State":"MT","Street":"Aspen Leaf Dr","OBJECTID":89,"id":"a64the25uafp","Address":209,"Lat":45.2587366104},"type":"Feature","geometry":{"type":"Point","coordinates":[-111.310300826456,45.2587366099138]}},{"properties":{"City":"Broadus","Lon":-105.40828228,"Name":"IGA - Broadus","ZIP":59317,"Phone":"406-436-2288","Outlet_Typ":"GrocStore","Entered":"2010/08/30 00:00:00 +0000","State":"MT","Street":"S Park Ave","OBJECTID":90,"id":"a64thdszxxkn","Address":120,"Lat":45.4432253167},"type":"Feature","geometry":{"type":"Point","coordinates":[-105.408282280405,45.4432253160676]}},{"properties":{"City":"Belgrade","Lon":-111.184945107,"Name":"IGA Belgrade","ZIP":59714,"Phone":"406-388-4116","Outlet_Typ":"GrocStore","Entered":"2010/07/12 00:00:00 +0000","State":"MT","Street":"Jackrabbit Ln","OBJECTID":91,"id":"a64thdzaqtm8","Address":205,"Lat":45.7739782333},"type":"Feature","geometry":{"type":"Point","coordinates":[-111.184945106161,45.7739782327922]}},{"properties":{"City":"Billings","Lon":-108.54865551,"Name":"IGA Billings 1","ZIP":59102,"Phone":"406-245-5138","Outlet_Typ":"GrocStore","Entered":"2010/07/12 00:00:00 +0000","State":"MT","Street":"13th St W","OBJECTID":92,"id":"a64thdq82kqg","Address":1540,"Lat":45.7853078842},"type":"Feature","geometry":{"type":"Point","coordinates":[-108.548655510272,45.7853078836009]}},{"properties":{"City":"Billings","Lon":-108.52106086,"Name":"IGA Billings 2","ZIP":59101,"Phone":"406-252-0904","Outlet_Typ":"GrocStore","Entered":"2010/07/12 00:00:00 +0000","State":"MT","Street":"State Ave","OBJECTID":93,"id":"a64the39zepb","Address":4220,"Lat":45.7698153611},"type":"Feature","geometry":{"type":"Point","coordinates":[-108.521060859193,45.7698153603166]}},{"properties":{"City":"Billings","Lon":-108.435058594,"Name":"IGA Billings 3","ZIP":59101,"Phone":"406-252-4798","Outlet_Typ":"GrocStore","Entered":"2010/07/12 00:00:00 +0000","State":"MT","Street":"Old Hardin Rd","OBJECTID":94,"id":"a64thdocazo4","Address":1960,"Lat":45.8038043976},"type":"Feature","geometry":{"type":"Point","coordinates":[-108.435058593611,45.803804396901]}},{"properties":{"City":"Bozeman","Lon":-111.046156883,"Name":"IGA Bozeman","ZIP":59715,"Phone":"406-587-1890","Outlet_Typ":"GrocStore","Entered":"2010/07/12 00:00:00 +0000","State":"MT","Street":"N 7th Ave","OBJECTID":95,"id":"a64thdwd9fgs","Address":912,"Lat":45.688791275},"type":"Feature","geometry":{"type":"Point","coordinates":[-111.04615688301,45.6887912737483]}},{"properties":{"City":"Butte","Lon":-112.502746582,"Name":"IGA Butte","ZIP":59701,"Phone":"406-723-5994","Outlet_Typ":"GrocStore","Entered":"2010/07/12 00:00:00 +0000","State":"MT","Street":"Farragut Ave","OBJECTID":96,"id":"a64thdsj9rl2","Address":2005,"Lat":45.9937906265},"type":"Feature","geometry":{"type":"Point","coordinates":[-112.502746581499,45.9937906251879]}},{"properties":{"City":"Columbus","Lon":-109.253239632,"Name":"IGA Columbus","ZIP":59019,"Phone":"406-322-5718","Outlet_Typ":"GrocStore","Entered":"2010/07/12 00:00:00 +0000","State":"MT","Street":"N 5th St","OBJECTID":97,"id":"a64thdrqfy2b","Address":133,"Lat":45.6384515762},"type":"Feature","geometry":{"type":"Point","coordinates":[-109.253239631215,45.6384515750887]}},{"properties":{"City":"Conrad","Lon":-111.948451996,"Name":"IGA Conrad","ZIP":59425,"Phone":"406-278-7843","Outlet_Typ":"GrocStore","Entered":"2010/07/12 00:00:00 +0000","State":"MT","Street":"S Main St","OBJECTID":98,"id":"a64thdovxq46","Address":600,"Lat":48.1663799286},"type":"Feature","geometry":{"type":"Point","coordinates":[-111.948451995994,48.1663799273249]}},{"properties":{"City":"Dillon","Lon":-112.638530731,"Name":"IGA Dillon","ZIP":59725,"Phone":"406-683-2357","Outlet_Typ":"GrocStore","Entered":"2010/07/12 00:00:00 +0000","State":"MT","Street":"S Idaho St","OBJECTID":99,"id":"a64thdq7x35a","Address":201,"Lat":45.2154778596},"type":"Feature","geometry":{"type":"Point","coordinates":[-112.638530730868,45.2154778590916]}},{"properties":{"City":"Forsyth","Lon":-106.677503586,"Name":"IGA Forsyth","ZIP":59327,"Phone":"406-346-7531","Outlet_Typ":"GrocStore","Entered":"2010/07/12 00:00:00 +0000","State":"MT","Street":"Main St","OBJECTID":100,"id":"a64the2bv019","Address":1026,"Lat":46.2661743164},"type":"Feature","geometry":{"type":"Point","coordinates":[-106.677503585788,46.2661743152733]}},{"properties":{"City":"Great Falls","Lon":-111.264081001,"Name":"IGA Great Falls 1","ZIP":59401,"Phone":"406-761-7506","Outlet_Typ":"GrocStore","Entered":"2010/07/12 00:00:00 +0000","State":"MT","Street":"6th Ave N","OBJECTID":101,"id":"a64thdwbtv3w","Address":2500,"Lat":47.5117064361},"type":"Feature","geometry":{"type":"Point","coordinates":[-111.264081001956,47.5117064355249]}},{"properties":{"City":"Great Falls","Lon":-111.252751434,"Name":"IGA Great Falls 2","ZIP":59405,"Phone":"406-761-6794","Outlet_Typ":"GrocStore","Entered":"2010/07/12 00:00:00 +0000","State":"MT","Street":"10th Ave S","OBJECTID":102,"id":"a64thduatzrm","Address":3160,"Lat":47.4939393997},"type":"Feature","geometry":{"type":"Point","coordinates":[-111.25275143399,47.4939393991702]}},{"properties":{"City":"Hamilton","Lon":-114.154815674,"Name":"IGA Hamilton","ZIP":59840,"Phone":"406-363-5720","Outlet_Typ":"GrocStore","Entered":"2010/07/12 00:00:00 +0000","State":"MT","Street":"S 1st St","OBJECTID":103,"id":"a64thdug14v8","Address":600,"Lat":46.2410259247},"type":"Feature","geometry":{"type":"Point","coordinates":[-114.154815673443,46.2410259234649]}},{"properties":{"City":"Hardin","Lon":-107.606019974,"Name":"IGA Hardin","ZIP":59034,"Phone":"406-665-1682","Outlet_Typ":"GrocStore","Entered":"2010/07/12 00:00:00 +0000","State":"MT","Street":"N Center Ave","OBJECTID":104,"id":"a64thdnzt0ht","Address":901,"Lat":45.7384443283},"type":"Feature","geometry":{"type":"Point","coordinates":[-107.606019973781,45.7384443271271]}},{"properties":{"City":"Laurel","Lon":-108.771471977,"Name":"IGA Laurel","ZIP":59044,"Phone":"406-628-2315","Outlet_Typ":"GrocStore","Entered":"2010/07/12 00:00:00 +0000","State":"MT","Street":"S 1st Ave","OBJECTID":105,"id":"a64thdsu8302","Address":205,"Lat":45.666475296},"type":"Feature","geometry":{"type":"Point","coordinates":[-108.771471977642,45.666475294818]}},{"properties":{"City":"Lewistown","Lon":-109.427175522,"Name":"IGA Lewistown","ZIP":59457,"Phone":"406-538-7652","Outlet_Typ":"GrocStore","Entered":"2010/07/23 00:00:00 +0000","State":"MT","Street":"W Broadway St","OBJECTID":106,"id":"a64thdyw4x0f","Address":315,"Lat":47.0656442642},"type":"Feature","geometry":{"type":"Point","coordinates":[-109.427175522244,47.0656442630019]}},{"properties":{"City":"Red Lodge","Lon":-109.247746468,"Name":"IGA Red Lodge","ZIP":59068,"Phone":"406-446-2684","Outlet_Typ":"GrocStore","Entered":"2010/07/12 00:00:00 +0000","State":"MT","Street":"N Oakes Ave","OBJECTID":107,"id":"a64thdvvpvgu","Address":201,"Lat":45.1889132615},"type":"Feature","geometry":{"type":"Point","coordinates":[-109.247746467524,45.1889132608919]}},{"properties":{"City":"Ronan","Lon":-114.097266197,"Name":"IGA Ronan","ZIP":59864,"Phone":"406-676-5400","Outlet_Typ":"GrocStore","Entered":"2010/07/12 00:00:00 +0000","State":"MT","Street":"Dayton St SW","OBJECTID":108,"id":"a64thdss78t4","Address":8,"Lat":47.5250959396},"type":"Feature","geometry":{"type":"Point","coordinates":[-114.097266197682,47.525095938473]}},{"properties":{"City":"Roundup","Lon":-108.542132378,"Name":"IGA Roundup","ZIP":59072,"Phone":"406-323-2410","Outlet_Typ":"GrocStore","Entered":"2010/07/12 00:00:00 +0000","State":"MT","Street":"9th Ave W","OBJECTID":109,"id":"a64thdtl9c83","Address":10,"Lat":46.4497231599},"type":"Feature","geometry":{"type":"Point","coordinates":[-108.542132377827,46.4497231586706]}},{"properties":{"City":"Shelby","Lon":-111.855669022,"Name":"IGA Shelby","ZIP":59474,"Phone":"406-434-5472","Outlet_Typ":"GrocStore","Entered":"2010/07/12 00:00:00 +0000","State":"MT","Street":"Oilfield Ave","OBJECTID":110,"id":"a64thdzvhn02","Address":745,"Lat":48.5129213333},"type":"Feature","geometry":{"type":"Point","coordinates":[-111.85566902135,48.5129213327203]}},{"properties":{"City":"Sheridan","Lon":-112.197489738,"Name":"IGA Sheridan","ZIP":59749,"Phone":"406-842-5413","Outlet_Typ":"GrocStore","Entered":"2010/07/12 00:00:00 +0000","State":"MT","Street":"S Main St","OBJECTID":111,"id":"a64thdwqiu8h","Address":102,"Lat":45.4564905167},"type":"Feature","geometry":{"type":"Point","coordinates":[-112.197489738011,45.4564905158767]}},{"properties":{"City":"Sheridan","Lon":-112.197403908,"Name":"Jensen's Family Market","ZIP":59749,"Phone":"406-842-5414","Outlet_Typ":"GrocStore","Entered":"2010/07/12 00:00:00 +0000","State":"MT","Street":"S Main St","OBJECTID":112,"id":"a64thdqn5v5b","Address":115,"Lat":45.4564476013},"type":"Feature","geometry":{"type":"Point","coordinates":[-112.197403907642,45.4564476001345]}},{"properties":{"City":"Bozeman","Lon":-111.049590111,"Name":"Joe's Parkway Supermarket","ZIP":59715,"Phone":"406-586-2005","Outlet_Typ":"GrocStore","Entered":"2010/07/12 00:00:00 +0000","State":"MT","Street":"W College St","OBJECTID":113,"id":"a64thdpshksi","Address":903,"Lat":45.6712388992},"type":"Feature","geometry":{"type":"Point","coordinates":[-111.049590110529,45.6712388983149]}},{"properties":{"City":"Judith Gap","Lon":-109.752388,"Name":"Judith Gap Mercantile","ZIP":59453,"Phone":"406-473-2221","Outlet_Typ":"GrocStore","Entered":"2010/07/12 00:00:00 +0000","State":"MT","Street":"High St","OBJECTID":114,"id":"a64thdrvs2xb","Address":109,"Lat":46.6763591766},"type":"Feature","geometry":{"type":"Point","coordinates":[-109.752388000033,46.6763591757449]}},{"properties":{"City":"Great Falls","Lon":-111.282963837,"Name":"Kim's Oriental Market","ZIP":59405,"Phone":"406-771-0403","Outlet_Typ":"GrocStore","Entered":"2010/07/12 00:00:00 +0000","State":"MT","Street":"10th Ave S","OBJECTID":115,"id":"a64thdoc041y","Address":1426,"Lat":47.4941110611},"type":"Feature","geometry":{"type":"Point","coordinates":[-111.282963836502,47.4941110598035]}},{"properties":{"City":"Hardin","Lon":-107.613773569,"Name":"L &amp; B's","ZIP":59034,"Phone":"406-665-3414","Outlet_Typ":"GrocStore","Entered":"2010/08/04 00:00:00 +0000","State":"MT","Street":"W Railroad St","OBJECTID":116,"id":"a64thdxsbvez","Address":531,"Lat":45.7271113247},"type":"Feature","geometry":{"type":"Point","coordinates":[-107.613773569962,45.7271113233391]}},{"properties":{"City":"Manhattan","Lon":-111.332955603,"Name":"L &amp; F Food Farm","ZIP":59741,"Phone":"406-284-3221","Outlet_Typ":"GrocStore","Entered":"2010/07/26 00:00:00 +0000","State":"MT","Street":"E Main St","OBJECTID":117,"id":"a64the0jpcwu","Address":106,"Lat":45.856345268},"type":"Feature","geometry":{"type":"Point","coordinates":[-111.332955602678,45.856345266839]}},{"properties":{"City":"Belgrade","Lon":-111.183657562,"Name":"Lee &amp; Dad's IGA","ZIP":59714,"Phone":"406-388-4111","Outlet_Typ":"GrocStore","Entered":"2010/07/26 00:00:00 +0000","State":"MT","Street":"W Madison Ave","OBJECTID":118,"id":"a64the3chtao","Address":205,"Lat":45.7729482651},"type":"Feature","geometry":{"type":"Point","coordinates":[-111.183657562878,45.772948264036]}},{"properties":{"City":"Libby","Lon":-115.548319817,"Name":"Libby Empire Foods","ZIP":59923,"Phone":"406-293-8162","Outlet_Typ":"GrocStore","Entered":"2010/07/12 00:00:00 +0000","State":"MT","Street":"Minnesota Ave","OBJECTID":119,"id":"a64thdz7jsl2","Address":1406,"Lat":48.3828878403},"type":"Feature","geometry":{"type":"Point","coordinates":[-115.548319816739,48.3828878397481]}},{"properties":{"City":"Livingston","Lon":-110.569968224,"Name":"Livingston Meats","ZIP":59047,"Phone":"406-222-0760","Outlet_Typ":"GrocStore","Entered":"2010/07/26 00:00:00 +0000","State":"MT","Street":"S 11th St","OBJECTID":120,"id":"a64the12uskx","Address":206,"Lat":45.6539869308},"type":"Feature","geometry":{"type":"Point","coordinates":[-110.569968223597,45.6539869301197]}},{"properties":{"City":"Columbia Falls","Lon":-114.181165695,"Name":"Mabuhay Oriental Market","ZIP":59912,"Phone":"406-892-4663","Outlet_Typ":"GrocStore","Entered":"2010/07/12 00:00:00 +0000","State":"MT","Street":"Nucleus Ave","OBJECTID":121,"id":"a64thdxsb61f","Address":418,"Lat":48.3745622635},"type":"Feature","geometry":{"type":"Point","coordinates":[-114.181165695679,48.3745622624027]}},{"properties":{"City":"Ekalaka","Lon":-104.547631061,"Name":"Main St Market","ZIP":59324,"Phone":"406-775-6780","Outlet_Typ":"GrocStore","Entered":"2010/07/20 00:00:00 +0000","State":"MT","Street":"Main St","OBJECTID":122,"id":"a64the2qnqy4","Address":215,"Lat":45.8906544093},"type":"Feature","geometry":{"type":"Point","coordinates":[-104.547631061249,45.8906544087582]}},{"properties":{"City":"Malta","Lon":-107.882523537,"Name":"Malta Bestway Foods","ZIP":59538,"Phone":"406-654-5243","Outlet_Typ":"GrocStore","Entered":"2010/08/02 00:00:00 +0000","State":"MT","Street":"S 5th Ave W","OBJECTID":123,"id":"a64thdxizxdy","Address":411,"Lat":48.3567760326},"type":"Feature","geometry":{"type":"Point","coordinates":[-107.882523537323,48.3567760316753]}},{"properties":{"City":"West Yellowstone","Lon":-111.098556519,"Name":"Market Place","ZIP":59758,"Phone":"406-646-9600","Outlet_Typ":"GrocStore","Entered":"2010/07/12 00:00:00 +0000","State":"MT","Street":"Madison Ave","OBJECTID":124,"id":"a64thdybwjyh","Address":22,"Lat":44.6604967117},"type":"Feature","geometry":{"type":"Point","coordinates":[-111.098556518693,44.6604967111123]}},{"properties":{"City":"Whitefish","Lon":-114.338150024,"Name":"Markus Foods","ZIP":59937,"Phone":"406-862-7258","Outlet_Typ":"GrocStore","Entered":"2010/07/12 00:00:00 +0000","State":"MT","Street":"Baker Ave","OBJECTID":125,"id":"a64thdzu5gqs","Address":9,"Lat":48.4123277664},"type":"Feature","geometry":{"type":"Point","coordinates":[-114.338150024687,48.412327765489]}},{"properties":{"City":"White Sulphur Springs","Lon":-110.90524544,"Name":"Mathis Food Farm","ZIP":59645,"Phone":"406-547-3512","Outlet_Typ":"GrocStore","Entered":"2010/07/23 00:00:00 +0000","State":"MT","Street":"W Main St","OBJECTID":126,"id":"a64thdvoo4cw","Address":106,"Lat":46.548185125},"type":"Feature","geometry":{"type":"Point","coordinates":[-110.905245440573,46.54818512407]}},{"properties":{"City":"Havre","Lon":-109.674968719,"Name":"Mclean's Grocery &amp; Grain","ZIP":59501,"Phone":"406-265-7233","Outlet_Typ":"GrocStore","Entered":"2010/07/12 00:00:00 +0000","State":"MT","Street":"2nd St","OBJECTID":127,"id":"a64thdvy1zvn","Address":500,"Lat":48.5521888733},"type":"Feature","geometry":{"type":"Point","coordinates":[-109.674968719916,48.5521888720525]}},{"properties":{"City":"Corvallis","Lon":-114.115462303,"Name":"Merc Fresh Market","ZIP":59828,"Phone":"406-961-4830","Outlet_Typ":"GrocStore","Entered":"2010/07/12 00:00:00 +0000","State":"MT","Street":"Main St","OBJECTID":128,"id":"a64thdqxadr4","Address":1000,"Lat":46.3130807877},"type":"Feature","geometry":{"type":"Point","coordinates":[-114.115462303479,46.3130807863945]}},{"properties":{"City":"Harlowton","Lon":-109.829940386,"Name":"Midtown Market","ZIP":59036,"Phone":"406-632-5570","Outlet_Typ":"GrocStore","Entered":"2010/08/02 00:00:00 +0000","State":"MT","Street":"3rd St NE","OBJECTID":129,"id":"a64thdr5wx5x","Address":207,"Lat":46.4385724626},"type":"Feature","geometry":{"type":"Point","coordinates":[-109.829940385635,46.4385724616241]}},{"properties":{"City":"Absarokee","Lon":-109.442322459,"Name":"Milligan's IGA","ZIP":59001,"Phone":"406-328-4314","Outlet_Typ":"GrocStore","Entered":"2010/07/20 00:00:00 +0000","State":"MT","Street":"Grove and Woodward","OBJECTID":130,"id":"a64thdukjmum","Address":0,"Lat":45.5205328669},"type":"Feature","geometry":{"type":"Point","coordinates":[-109.442322458725,45.5205328663235]}},{"properties":{"City":"Kalispell","Lon":-114.423165321,"Name":"Montana Bounty Foods","ZIP":59901,"Phone":"406-756-1811","Outlet_Typ":"GrocStore","Entered":"2010/07/12 00:00:00 +0000","State":"MT","Street":"Haywire Gulch","OBJECTID":131,"id":"a64thdtyb1lz","Address":1805,"Lat":48.1383562088},"type":"Feature","geometry":{"type":"Point","coordinates":[-114.423165321813,48.1383562076859]}},{"properties":{"City":"Hamilton","Lon":-114.155895766,"Name":"Montana Farm to Market","ZIP":59840,"Phone":"406-363-2569","Outlet_Typ":"GrocStore","Entered":"2010/07/27 00:00:00 +0000","State":"MT","Street":"N 1st St","OBJECTID":132,"id":"a64thdu4k59t","Address":304,"Lat":46.2493126094},"type":"Feature","geometry":{"type":"Point","coordinates":[-114.155895765736,46.2493126081231]}},{"properties":{"City":"Eureka","Lon":-115.053720474,"Name":"Montana Market","ZIP":59917,"Phone":"406-297-2113","Outlet_Typ":"GrocStore","Entered":"2010/07/12 00:00:00 +0000","State":"MT","Street":"Dewey Ave","OBJECTID":133,"id":"a64thdw60bss","Address":400,"Lat":48.881778717},"type":"Feature","geometry":{"type":"Point","coordinates":[-115.053720474501,48.8817787160744]}},{"properties":{"City":"Choteau","Lon":-112.188808266,"Name":"Mountain Front Market","ZIP":59422,"Phone":"406-466-2995","Outlet_Typ":"GrocStore","Entered":"2010/09/13 00:00:00 +0000","State":"MT","Street":"Main Ave N","OBJECTID":134,"id":"a64thdpnpebg","Address":824,"Lat":47.8193077818},"type":"Feature","geometry":{"type":"Point","coordinates":[-112.18880826577,47.8193077809433]}},{"properties":{"City":"Billings","Lon":-108.48938942,"Name":"Mr Thrifty Foods","ZIP":59101,"Phone":"406-252-1052","Outlet_Typ":"GrocStore","Entered":"2010/07/12 00:00:00 +0000","State":"MT","Street":"N 14th St","OBJECTID":135,"id":"a64the1z6avb","Address":201,"Lat":45.7912731171},"type":"Feature","geometry":{"type":"Point","coordinates":[-108.489389419559,45.7912731161763]}},{"properties":{"City":"Libby","Lon":-115.552396774,"Name":"Naturally Good Things","ZIP":59923,"Phone":"406-293-6771","Outlet_Typ":"GrocStore","Entered":"2010/07/12 00:00:00 +0000","State":"MT","Street":"California Ave","OBJECTID":136,"id":"a64thdplgk47","Address":313,"Lat":48.3931446075},"type":"Feature","geometry":{"type":"Point","coordinates":[-115.552396774714,48.3931446063709]}},{"properties":{"City":"Trout Creek","Lon":-115.591492737,"Name":"Nin's Local Store","ZIP":59874,"Phone":"406-827-4507","Outlet_Typ":"GrocStore","Entered":"2010/07/12 00:00:00 +0000","State":"MT","Street":"MT 200","OBJECTID":137,"id":"a64thdtfh3ct","Address":2954,"Lat":47.8380774613},"type":"Feature","geometry":{"type":"Point","coordinates":[-115.591492736425,47.8380774605909]}},{"properties":{"City":"Wilsall","Lon":-110.660821935,"Name":"Nordies Store","ZIP":59806,"Phone":"406-578-2533","Outlet_Typ":"GrocStore","Entered":"2010/07/26 00:00:00 +0000","State":"MT","Street":"Clark St","OBJECTID":138,"id":"a64thdvqbmdd","Address":0,"Lat":45.9957745392},"type":"Feature","geometry":{"type":"Point","coordinates":[-110.66082193526,45.9957745384885]}},{"properties":{"City":"Gardiner","Lon":-110.710403239,"Name":"North Entrance Shopping Center","ZIP":59030,"Phone":"406-848-7524","Outlet_Typ":"GrocStore","Entered":"2010/07/22 00:00:00 +0000","State":"MT","Street":"Gardiner St","OBJECTID":139,"id":"a64thdoeq0m4","Address":701,"Lat":45.0347216148},"type":"Feature","geometry":{"type":"Point","coordinates":[-110.710403239417,45.0347216135855]}},{"properties":{"City":"Bozeman","Lon":-111.05044934,"Name":"Oak Street Market","ZIP":59718,"Phone":"406-582-5400","Outlet_Typ":"GrocStore","Entered":"2010/07/26 00:00:00 +0000","State":"MT","Street":"Oak St","OBJECTID":140,"id":"a64thdoc71bc","Address":1735,"Lat":45.6930398941},"type":"Feature","geometry":{"type":"Point","coordinates":[-111.050449339339,45.6930398935213]}},{"properties":{"City":"Missoula","Lon":-114.003539085,"Name":"Orange Street Food Farm","ZIP":59801,"Phone":"406-543-3188","Outlet_Typ":"GrocStore","Entered":"2010/07/12 00:00:00 +0000","State":"MT","Street":"S Orange St","OBJECTID":141,"id":"a64thdsj822a","Address":701,"Lat":46.8643283844},"type":"Feature","geometry":{"type":"Point","coordinates":[-114.003539084777,46.8643283838014]}},{"properties":{"City":"Saco","Lon":-107.345008934,"Name":"Pay-N-Save","ZIP":59261,"Phone":"406-527-3361","Outlet_Typ":"GrocStore","Entered":"2010/08/02 00:00:00 +0000","State":"MT","Street":"Taylor St","OBJECTID":142,"id":"a64thdugn7hr","Address":113,"Lat":48.4568434674},"type":"Feature","geometry":{"type":"Point","coordinates":[-107.345008933521,48.4568434667629]}},{"properties":{"City":"Darby","Lon":-114.177689636,"Name":"People's Market","ZIP":59829,"Phone":"406-821-3612","Outlet_Typ":"GrocStore","Entered":"2010/07/12 00:00:00 +0000","State":"MT","Street":"N Main St","OBJECTID":143,"id":"a64the24153v","Address":801,"Lat":46.0280799866},"type":"Feature","geometry":{"type":"Point","coordinates":[-114.177689636727,46.0280799856405]}},{"properties":{"City":"Great Falls","Lon":-111.260433197,"Name":"Pere's Food Basket","ZIP":59401,"Phone":"406-727-2049","Outlet_Typ":"GrocStore","Entered":"2010/07/12 00:00:00 +0000","State":"MT","Street":"2nd Ave N","OBJECTID":144,"id":"a64thdt7htcq","Address":2700,"Lat":47.5072860718},"type":"Feature","geometry":{"type":"Point","coordinates":[-111.260433196659,47.5072860705292]}},{"properties":{"City":"Fort Benton","Lon":-110.667171478,"Name":"Price Rite Food Farm","ZIP":59442,"Phone":"406-622-3341","Outlet_Typ":"GrocStore","Entered":"2010/07/12 00:00:00 +0000","State":"MT","Street":"Front St","OBJECTID":145,"id":"a64thdwl0xas","Address":1520,"Lat":47.8176928405},"type":"Feature","geometry":{"type":"Point","coordinates":[-110.66717147776,47.8176928396087]}},{"properties":{"City":"Ulm","Lon":-111.504063606,"Name":"Quigley's Quick Stop","ZIP":59485,"Phone":"406-866-2030","Outlet_Typ":"GrocStore","Entered":"2010/07/21 00:00:00 +0000","State":"MT","Street":"Millegan Road","OBJECTID":146,"id":"a64thdq9mjup","Address":2,"Lat":47.4315834045},"type":"Feature","geometry":{"type":"Point","coordinates":[-111.504063605868,47.4315834039222]}},{"properties":{"City":"Sidney","Lon":-104.148588181,"Name":"Quillings Market","ZIP":59270,"Phone":"406-433-3410","Outlet_Typ":"GrocStore","Entered":"2010/07/12 00:00:00 +0000","State":"MT","Street":"E Main St","OBJECTID":147,"id":"a64the1lcjdv","Address":703,"Lat":47.7127218246},"type":"Feature","geometry":{"type":"Point","coordinates":[-104.148588180259,47.7127218239828]}},{"properties":{"City":"Hamilton","Lon":-114.156759437,"Name":"Rainbow's End","ZIP":59840,"Phone":"406-363-1626","Outlet_Typ":"GrocStore","Entered":"2010/07/27 00:00:00 +0000","State":"MT","Street":"N 1st St","OBJECTID":148,"id":"a64thdsji26h","Address":910,"Lat":46.2551802769},"type":"Feature","geometry":{"type":"Point","coordinates":[-114.156759436547,46.2551802758339]}},{"properties":{"City":"Choteau","Lon":-112.182383537,"Name":"Rex's Food Farm Market","ZIP":59422,"Phone":"406-466-2927","Outlet_Typ":"GrocStore","Entered":"2010/07/12 00:00:00 +0000","State":"MT","Street":"1st St NE","OBJECTID":149,"id":"a64thdvsby4u","Address":29,"Lat":47.8127574921},"type":"Feature","geometry":{"type":"Point","coordinates":[-112.182383536843,47.8127574907233]}},{"properties":{"City":"Baker","Lon":-104.27628262,"Name":"Reynold's Grocery Store","ZIP":59313,"Phone":"406-778-3816","Outlet_Typ":"GrocStore","Entered":"2010/07/21 00:00:00 +0000","State":"MT","Street":"Lake City Shopping Center","OBJECTID":150,"id":"a64thdtw3r04","Address":0,"Lat":46.3686662167},"type":"Feature","geometry":{"type":"Point","coordinates":[-104.276282619998,46.3686662159728]}},{"properties":{"City":"Miles City","Lon":-105.808339119,"Name":"Reynolds Grocery Store - Miles City","ZIP":59301,"Phone":"406-234-5385","Outlet_Typ":"GrocStore","Entered":"2010/07/12 00:00:00 +0000","State":"MT","Street":"Valley Dr E","OBJECTID":151,"id":"a64thdpb7xw1","Address":2106,"Lat":46.4346600417},"type":"Feature","geometry":{"type":"Point","coordinates":[-105.808339118621,46.4346600404183]}},{"properties":{"City":"Glendive","Lon":-104.722366333,"Name":"Reynolds Warehouse Grocery Glendive","ZIP":59330,"Phone":"406-377-4923","Outlet_Typ":"GrocStore","Entered":"2010/07/12 00:00:00 +0000","State":"MT","Street":"W Bell St","OBJECTID":152,"id":"a64thdsx41ty","Address":1014,"Lat":47.1056413651},"type":"Feature","geometry":{"type":"Point","coordinates":[-104.722366333269,47.1056413640808]}},{"properties":{"City":"Sidney","Lon":-104.164981758,"Name":"Reynolds Warehouse Grocery Sidney","ZIP":59270,"Phone":"406-433-5181","Outlet_Typ":"GrocStore","Entered":"2010/07/12 00:00:00 +0000","State":"MT","Street":"S Central Ave","OBJECTID":153,"id":"a64thdzpy6o5","Address":1151,"Lat":47.7043533325},"type":"Feature","geometry":{"type":"Point","coordinates":[-104.164981758643,47.7043533317796]}},{"properties":{"City":"Arlee","Lon":-114.083834365,"Name":"Rick's Kustom Kut","ZIP":59821,"Phone":"406-726-4170","Outlet_Typ":"GrocStore","Entered":"2010/07/21 00:00:00 +0000","State":"MT","Street":"US 93","OBJECTID":154,"id":"a64the2zla3e","Address":92637,"Lat":47.1611316595},"type":"Feature","geometry":{"type":"Point","coordinates":[-114.083834365602,47.1611316588408]}},{"properties":{"City":"Libby","Lon":-115.562310219,"Name":"Rosauer's Food &amp; Drug Libby","ZIP":59923,"Phone":"406-293-2743","Outlet_Typ":"GrocStore","Entered":"2010/07/12 00:00:00 +0000","State":"MT","Street":"W 9th St","OBJECTID":155,"id":"a64thdr7vk7s","Address":703,"Lat":48.3919429779},"type":"Feature","geometry":{"type":"Point","coordinates":[-115.562310218289,48.391942977205]}},{"properties":{"City":"Missoula","Lon":-114.039587975,"Name":"Rosauers Missoula","ZIP":59801,"Phone":"406-721-5430","Outlet_Typ":"GrocStore","Entered":"2010/07/12 00:00:00 +0000","State":"MT","Street":"S Reserve St","OBJECTID":156,"id":"a64thdwovpwh","Address":2350,"Lat":46.8494367599},"type":"Feature","geometry":{"type":"Point","coordinates":[-114.039587974132,46.8494367592982]}},{"properties":{"City":"Bozeman","Lon":-111.081098607,"Name":"Rosaur's Bozeman","ZIP":59718,"Phone":null,"Outlet_Typ":"GrocStore","Entered":"2010/07/23 00:00:00 +0000","State":"MT","Street":"Technology Blvd","OBJECTID":157,"id":"a64thdvjdttb","Address":3255,"Lat":45.6704505812},"type":"Feature","geometry":{"type":"Point","coordinates":[-111.081098606552,45.6704505800471]}},{"properties":{"City":"Kalispell","Lon":-114.302479075,"Name":"Rosaur's Kalispell","ZIP":59901,"Phone":"406-755-5088","Outlet_Typ":"GrocStore","Entered":"2010/07/23 00:00:00 +0000","State":"MT","Street":"US 93 S","OBJECTID":158,"id":"a64the0jjn1n","Address":2150,"Lat":48.1794872135},"type":"Feature","geometry":{"type":"Point","coordinates":[-114.302479075587,48.1794872125396]}},{"properties":{"City":"Colstrip","Lon":-106.624374306,"Name":"Rosebud IGA","ZIP":59323,"Phone":"406-748-3377","Outlet_Typ":"GrocStore","Entered":"2010/08/04 00:00:00 +0000","State":"MT","Street":"Cherry St","OBJECTID":159,"id":"a64thdp40xq0","Address":3,"Lat":45.8772107586},"type":"Feature","geometry":{"type":"Point","coordinates":[-106.624374305914,45.8772107573912]}},{"properties":{"City":"Roy","Lon":-108.958600312,"Name":"Roy Grocery Store","ZIP":59471,"Phone":"406-464-2431","Outlet_Typ":"GrocStore","Entered":"2010/07/23 00:00:00 +0000","State":"MT","Street":"Main St","OBJECTID":160,"id":"a64thdzq4z2k","Address":184,"Lat":47.3375397921},"type":"Feature","geometry":{"type":"Point","coordinates":[-108.958600312673,47.3375397910628]}},{"properties":{"City":"Plentywood","Lon":-104.559931839,"Name":"Rueb's Supervalu","ZIP":59254,"Phone":"406-765-1092","Outlet_Typ":"GrocStore","Entered":"2010/07/12 00:00:00 +0000","State":"MT","Street":"W 1st Ave","OBJECTID":161,"id":"a64the0bh95f","Address":116,"Lat":48.7747049332},"type":"Feature","geometry":{"type":"Point","coordinates":[-104.559931838548,48.7747049319981]}},{"properties":{"City":"Jordan","Lon":-106.906542778,"Name":"Ryan Grocery","ZIP":59337,"Phone":"406-557-2744","Outlet_Typ":"GrocStore","Entered":"2010/07/12 00:00:00 +0000","State":"MT","Street":"Main St","OBJECTID":162,"id":"a64thdxoy5qg","Address":101,"Lat":47.3208189011},"type":"Feature","geometry":{"type":"Point","coordinates":[-106.906542777515,47.3208188998228]}},{"properties":{"City":"Anaconda","Lon":-112.972927094,"Name":"Safeway Anaconda","ZIP":59711,"Phone":"406-563-5383","Outlet_Typ":"GrocStore","Entered":"2010/07/12 00:00:00 +0000","State":"MT","Street":"W Park Ave","OBJECTID":163,"id":"a64thdyeued9","Address":1525,"Lat":46.1329650879},"type":"Feature","geometry":{"type":"Point","coordinates":[-112.972927094038,46.1329650872793]}},{"properties":{"City":"Bozeman","Lon":-111.049332619,"Name":"Safeway Bozeman","ZIP":59715,"Phone":"406-587-9017","Outlet_Typ":"GrocStore","Entered":"2010/07/12 00:00:00 +0000","State":"MT","Street":"W Main St","OBJECTID":164,"id":"a64thdwi1c9k","Address":901,"Lat":45.6793498993},"type":"Feature","geometry":{"type":"Point","coordinates":[-111.049332619001,45.6793498984752]}},{"properties":{"City":"Butte","Lon":-112.508025169,"Name":"Safeway Butte 1","ZIP":59701,"Phone":"406-494-7046","Outlet_Typ":"GrocStore","Entered":"2010/07/12 00:00:00 +0000","State":"MT","Street":"Massachusetts Ave","OBJECTID":165,"id":"a64thdtv6d1z","Address":2500,"Lat":45.9876537323},"type":"Feature","geometry":{"type":"Point","coordinates":[-112.50802516922,45.9876537315628]}},{"properties":{"City":"Butte","Lon":-112.537851334,"Name":"Safeway Butte 2","ZIP":59701,"Phone":"406-723-5808","Outlet_Typ":"GrocStore","Entered":"2010/07/12 00:00:00 +0000","State":"MT","Street":"W Front St","OBJECTID":166,"id":"a64the2h20vc","Address":310,"Lat":45.9981250763},"type":"Feature","geometry":{"type":"Point","coordinates":[-112.537851333228,45.9981250754561]}},{"properties":{"City":"Deer Lodge","Lon":-112.734918594,"Name":"Safeway Deer Lodge","ZIP":59722,"Phone":"406-846-1550","Outlet_Typ":"GrocStore","Entered":"2010/07/12 00:00:00 +0000","State":"MT","Street":"N Main St","OBJECTID":167,"id":"a64thdy3e9z4","Address":201,"Lat":46.4032030106},"type":"Feature","geometry":{"type":"Point","coordinates":[-112.734918593731,46.4032030094933]}},{"properties":{"City":"Dillon","Lon":-112.630119324,"Name":"Safeway Dillon","ZIP":59725,"Phone":"406-683-5002","Outlet_Typ":"GrocStore","Entered":"2010/07/12 00:00:00 +0000","State":"MT","Street":"N Montana St","OBJECTID":168,"id":"a64thdxpqdkm","Address":570,"Lat":45.224404335},"type":"Feature","geometry":{"type":"Point","coordinates":[-112.63011932398,45.2244043341699]}},{"properties":{"City":"Hamilton","Lon":-114.162840759,"Name":"Safeway Hamilton","ZIP":59840,"Phone":"406-363-2270","Outlet_Typ":"GrocStore","Entered":"2010/07/12 00:00:00 +0000","State":"MT","Street":"E Main St","OBJECTID":169,"id":"a64thdure6g7","Address":101,"Lat":46.2811517715},"type":"Feature","geometry":{"type":"Point","coordinates":[-114.162840759304,46.281151770262]}},{"properties":{"City":"Helena","Lon":-112.020335197,"Name":"Safeway Helena","ZIP":59601,"Phone":"406-443-4724","Outlet_Typ":"GrocStore","Entered":"2010/07/12 00:00:00 +0000","State":"MT","Street":"N Montana Ave","OBJECTID":170,"id":"a64thdzahpfq","Address":611,"Lat":46.5905284882},"type":"Feature","geometry":{"type":"Point","coordinates":[-112.020335197654,46.5905284868172]}},{"properties":{"City":"Missoula","Lon":-114.03950206,"Name":"Safeway Missoula 1","ZIP":59801,"Phone":"406-251-3311","Outlet_Typ":"GrocStore","Entered":"2010/07/12 00:00:00 +0000","State":"MT","Street":"S Reserve St","OBJECTID":171,"id":"a64thdv4vzr8","Address":3801,"Lat":46.8352746964},"type":"Feature","geometry":{"type":"Point","coordinates":[-114.039502059825,46.8352746950987]}},{"properties":{"City":"Missoula","Lon":-114.00233754,"Name":"Safeway Missoula 2","ZIP":59802,"Phone":"406-549-5429","Outlet_Typ":"GrocStore","Entered":"2010/07/12 00:00:00 +0000","State":"MT","Street":"W Broadway St","OBJECTID":172,"id":"a64thdnzfkbe","Address":610,"Lat":46.874628067},"type":"Feature","geometry":{"type":"Point","coordinates":[-114.002337540049,46.8746280662076]}},{"properties":{"City":"Polson","Lon":-114.122157097,"Name":"Safeway Polson","ZIP":59860,"Phone":"406-883-2340","Outlet_Typ":"GrocStore","Entered":"2010/07/12 00:00:00 +0000","State":"MT","Street":"S Shore Rd","OBJECTID":173,"id":"a64thdzowqmv","Address":146,"Lat":47.6891613007},"type":"Feature","geometry":{"type":"Point","coordinates":[-114.122157097365,47.6891612994382]}},{"properties":{"City":"Whitefish","Lon":-114.335360527,"Name":"Safeway Whitefish","ZIP":59937,"Phone":"406-862-3006","Outlet_Typ":"GrocStore","Entered":"2010/07/12 00:00:00 +0000","State":"MT","Street":"US 93 S","OBJECTID":174,"id":"a64thdyzak03","Address":6580,"Lat":48.3987236023},"type":"Feature","geometry":{"type":"Point","coordinates":[-114.335360527394,48.3987236011683]}},{"properties":{"City":"Libby","Lon":-115.545653282,"Name":"Saverite South","ZIP":59923,"Phone":"406-293-7331","Outlet_Typ":"GrocStore","Entered":"2010/07/27 00:00:00 +0000","State":"MT","Street":"US 2 S","OBJECTID":175,"id":"a64thdqbgrwm","Address":1210,"Lat":48.3744899277},"type":"Feature","geometry":{"type":"Point","coordinates":[-115.545653281758,48.3744899269311]}},{"properties":{"City":"Shepherd","Lon":-108.345451439,"Name":"Shepherd Store","ZIP":59079,"Phone":"406-373-5659","Outlet_Typ":"GrocStore","Entered":"2010/07/12 00:00:00 +0000","State":"MT","Street":"Carey Ave","OBJECTID":176,"id":"a64thduolmv3","Address":5449,"Lat":45.9437084198},"type":"Feature","geometry":{"type":"Point","coordinates":[-108.345451438722,45.9437084189174]}},{"properties":{"City":"Sidney","Lon":-104.158115387,"Name":"Sidney County Market","ZIP":59270,"Phone":"406-482-3737","Outlet_Typ":"GrocStore","Entered":"2010/07/12 00:00:00 +0000","State":"MT","Street":"2nd St NW","OBJECTID":177,"id":"a64the1buznk","Address":203,"Lat":47.7167130355},"type":"Feature","geometry":{"type":"Point","coordinates":[-104.158115386393,47.7167130341656]}},{"properties":{"City":"Billings","Lon":-108.558225632,"Name":"Smith's Billings","ZIP":59102,"Phone":"406-252-5644","Outlet_Typ":"GrocStore","Entered":"2010/07/12 00:00:00 +0000","State":"MT","Street":"Grand Ave","OBJECTID":178,"id":"a64thdr6mz5b","Address":1633,"Lat":45.7841491699},"type":"Feature","geometry":{"type":"Point","coordinates":[-108.558225632065,45.7841491686826]}},{"properties":{"City":"Bozeman","Lon":-111.062421799,"Name":"Smith's Bozeman","ZIP":59718,"Phone":"406-586-3550","Outlet_Typ":"GrocStore","Entered":"2010/07/26 00:00:00 +0000","State":"MT","Street":"N 19th Ave","OBJECTID":179,"id":"a64thdwga9ph","Address":1400,"Lat":45.6933403015},"type":"Feature","geometry":{"type":"Point","coordinates":[-111.062421798239,45.6933403003933]}},{"properties":{"City":"Columbia Falls","Lon":-114.18112278,"Name":"Smith's Columbia Falls","ZIP":59912,"Phone":"406-892-9080","Outlet_Typ":"GrocStore","Entered":"2010/07/12 00:00:00 +0000","State":"MT","Street":"Nucleus Ave","OBJECTID":180,"id":"a64thdyrjcni","Address":419,"Lat":48.3741760254},"type":"Feature","geometry":{"type":"Point","coordinates":[-114.181122779835,48.3741760246859]}},{"properties":{"City":"Great Falls","Lon":-111.339737484,"Name":"Smith's Great Falls","ZIP":59404,"Phone":"406-771-0423","Outlet_Typ":"GrocStore","Entered":"2010/07/23 00:00:00 +0000","State":"MT","Street":"Market Place Dr","OBJECTID":181,"id":"a64thdtetywu","Address":1601,"Lat":47.4827457871},"type":"Feature","geometry":{"type":"Point","coordinates":[-111.339737483915,47.4827457858157]}},{"properties":{"City":"Kalispell","Lon":-114.310541041,"Name":"Smith's Kalispell","ZIP":59901,"Phone":"406-752-5037","Outlet_Typ":"GrocStore","Entered":"2010/07/27 00:00:00 +0000","State":"MT","Street":"3rd Ave EN","OBJECTID":182,"id":"a64thdz7py3r","Address":195,"Lat":48.2028284669},"type":"Feature","geometry":{"type":"Point","coordinates":[-114.31054104059,48.2028284655581]}},{"properties":{"City":"Anaconda","Lon":-112.827959061,"Name":"Solan's Grocery","ZIP":59711,"Phone":"406-797-3409","Outlet_Typ":"GrocStore","Entered":"2010/07/12 00:00:00 +0000","State":"MT","Street":"Stewart St","OBJECTID":183,"id":"a64thdpxd9t6","Address":808,"Lat":46.1072587967},"type":"Feature","geometry":{"type":"Point","coordinates":[-112.827959060453,46.1072587956691]}},{"properties":{"City":"Saint Regis","Lon":-115.09535674,"Name":"Stang's Food Center","ZIP":59866,"Phone":"406-649-2414","Outlet_Typ":"GrocStore","Entered":"2010/07/20 00:00:00 +0000","State":"MT","Street":"Old US 10","OBJECTID":184,"id":"a64the0ymzt7","Address":0,"Lat":47.2956323717},"type":"Feature","geometry":{"type":"Point","coordinates":[-115.095356740529,47.2956323709199]}},{"properties":{"City":"Eureka","Lon":-115.055658622,"Name":"Stein's Market Eureka","ZIP":59917,"Phone":"406-297-3151","Outlet_Typ":"GrocStore","Entered":"2010/07/27 00:00:00 +0000","State":"MT","Street":"US 93","OBJECTID":185,"id":"a64thdx1bmrd","Address":791,"Lat":48.8882276695},"type":"Feature","geometry":{"type":"Point","coordinates":[-115.055658621969,48.888227668693]}},{"properties":{"City":"Troy","Lon":-115.893149721,"Name":"Stein's Market Troy","ZIP":59935,"Phone":"406-295-4177","Outlet_Typ":"GrocStore","Entered":"2010/07/27 00:00:00 +0000","State":"MT","Street":"E Missoula Ave","OBJECTID":186,"id":"a64thdrrdwe0","Address":607,"Lat":48.4588416293},"type":"Feature","geometry":{"type":"Point","coordinates":[-115.893149720505,48.4588416288333]}},{"properties":{"City":"Lodge Grass","Lon":-107.365938798,"Name":"Stevenson's IGA","ZIP":59050,"Phone":"406-639-2312","Outlet_Typ":"GrocStore","Entered":"2010/08/04 00:00:00 +0000","State":"MT","Street":"Main St","OBJECTID":187,"id":"a64thdvp0770","Address":100,"Lat":45.3201156948},"type":"Feature","geometry":{"type":"Point","coordinates":[-107.365938797861,45.3201156937746]}},{"properties":{"City":"Sun River","Lon":-111.721585728,"Name":"Sun River Grocery","ZIP":59483,"Phone":"406-264-5304","Outlet_Typ":"GrocStore","Entered":"2010/07/21 00:00:00 +0000","State":"MT","Street":"MT 200","OBJECTID":188,"id":"a64thdt6mjj5","Address":0,"Lat":47.5330916047},"type":"Feature","geometry":{"type":"Point","coordinates":[-111.721585727661,47.5330916035133]}},{"properties":{"City":"Turner","Lon":-108.405447006,"Name":"Sunford Grocery","ZIP":59542,"Phone":"406-379-2225","Outlet_Typ":"GrocStore","Entered":"2010/07/12 00:00:00 +0000","State":"MT","Street":"Main St","OBJECTID":189,"id":"a64thduep0ms","Address":115,"Lat":48.846244812},"type":"Feature","geometry":{"type":"Point","coordinates":[-108.405447006393,48.8462448109967]}},{"properties":{"City":"Columbia Falls","Lon":-114.20987606,"Name":"Super 1 Foods Columbia Falls","ZIP":59912,"Phone":"406-892-9996","Outlet_Typ":"GrocStore","Entered":"2010/07/12 00:00:00 +0000","State":"MT","Street":"9th St W","OBJECTID":190,"id":"a64thdx6h3kz","Address":2100,"Lat":48.3706141356},"type":"Feature","geometry":{"type":"Point","coordinates":[-114.20987606053,48.3706141345075]}},{"properties":{"City":"Hamilton","Lon":-114.157090187,"Name":"Super 1 Foods Hamilton1","ZIP":59840,"Phone":"406-363-6200","Outlet_Typ":"GrocStore","Entered":"2010/07/12 00:00:00 +0000","State":"MT","Street":"N 1st St","OBJECTID":191,"id":"a64the19xj8q","Address":1131,"Lat":46.2566900253},"type":"Feature","geometry":{"type":"Point","coordinates":[-114.157090186434,46.2566900244447]}},{"properties":{"City":"Kalispell","Lon":-114.280643463,"Name":"Super 1 Foods Kalispell","ZIP":59901,"Phone":"406-752-3631","Outlet_Typ":"GrocStore","Entered":"2010/07/12 00:00:00 +0000","State":"MT","Street":"US 2 E","OBJECTID":192,"id":"a64thdplpg4c","Address":1346,"Lat":48.2128571626},"type":"Feature","geometry":{"type":"Point","coordinates":[-114.280643463027,48.2128571613027]}},{"properties":{"City":"Polson","Lon":-114.161810875,"Name":"Super 1 Foods Polson","ZIP":59860,"Phone":"406-883-2498","Outlet_Typ":"GrocStore","Entered":"2010/07/23 00:00:00 +0000","State":"MT","Street":"US 93","OBJECTID":193,"id":"a64thdqy7ixp","Address":50331,"Lat":47.6943969727},"type":"Feature","geometry":{"type":"Point","coordinates":[-114.161810875261,47.6943969714303]}},{"properties":{"City":"Stevensville","Lon":-114.092231775,"Name":"Super 1 Foods Stevensville","ZIP":59870,"Phone":"406-777-7300","Outlet_Typ":"GrocStore","Entered":"2010/07/23 00:00:00 +0000","State":"MT","Street":"Stevensville Cutoff Rd","OBJECTID":194,"id":"a64the3fhaze","Address":39,"Lat":46.5123541653},"type":"Feature","geometry":{"type":"Point","coordinates":[-114.09223177446,46.512354164044]}},{"properties":{"City":"Whitefish","Lon":-114.335575104,"Name":"Super 1 Foods Whitefish","ZIP":59937,"Phone":"406-862-2222","Outlet_Typ":"GrocStore","Entered":"2010/07/12 00:00:00 +0000","State":"MT","Street":"US 93 S","OBJECTID":195,"id":"a64thdzyrb3o","Address":6475,"Lat":48.3949041367},"type":"Feature","geometry":{"type":"Point","coordinates":[-114.335575103693,48.3949041361731]}},{"properties":{"City":"Condon","Lon":-113.710684776,"Name":"Swan Valley Center","ZIP":59826,"Phone":"406-754-2397","Outlet_Typ":"GrocStore","Entered":"2010/07/12 00:00:00 +0000","State":"MT","Street":"MT 83","OBJECTID":196,"id":"a64thdrlawi6","Address":6799,"Lat":47.5281429291},"type":"Feature","geometry":{"type":"Point","coordinates":[-113.710684776284,47.5281429280055]}},{"properties":{"City":"Kalispell","Lon":-114.315919876,"Name":"Sykes Grocery &amp; Market","ZIP":59901,"Phone":"406-257-4304","Outlet_Typ":"GrocStore","Entered":"2010/07/12 00:00:00 +0000","State":"MT","Street":"2nd Ave W","OBJECTID":197,"id":"a64thdwduyn4","Address":202,"Lat":48.1958199386},"type":"Feature","geometry":{"type":"Point","coordinates":[-114.315919875816,48.1958199378399]}},{"properties":{"City":"Scobey","Lon":-105.420470238,"Name":"Tande Grocery","ZIP":59263,"Phone":"406-487-2259","Outlet_Typ":"GrocStore","Entered":"2010/07/12 00:00:00 +0000","State":"MT","Street":"Main St","OBJECTID":198,"id":"a64thdtmsx6r","Address":118,"Lat":48.7916994095},"type":"Feature","geometry":{"type":"Point","coordinates":[-105.420470237405,48.7916994084094]}},{"properties":{"City":"Big Sandy","Lon":-110.110602379,"Name":"The Grocery Store","ZIP":59520,"Phone":"406-378-2305","Outlet_Typ":"GrocStore","Entered":"2010/07/12 00:00:00 +0000","State":"MT","Street":"Johannes Ave","OBJECTID":199,"id":"a64thdoeb8ui","Address":135,"Lat":48.1777954102},"type":"Feature","geometry":{"type":"Point","coordinates":[-110.110602378777,48.177795409485]}},{"properties":{"City":"Augusta","Lon":-112.389541017,"Name":"The Traiding Post","ZIP":59410,"Phone":"406-562-3333","Outlet_Typ":"GrocStore","Entered":"2010/07/21 00:00:00 +0000","State":"MT","Street":"Main St","OBJECTID":200,"id":"a64thdt3uylw","Address":10,"Lat":47.4944270588},"type":"Feature","geometry":{"type":"Point","coordinates":[-112.389541017079,47.494427057604]}},{"properties":{"City":"Whitefish","Lon":-114.335317612,"Name":"Third Street Market","ZIP":59937,"Phone":"406-862-5054","Outlet_Typ":"GrocStore","Entered":"2010/07/12 00:00:00 +0000","State":"MT","Street":"Spokane Ave","OBJECTID":201,"id":"a64thdzikbuy","Address":244,"Lat":48.4097099304},"type":"Feature","geometry":{"type":"Point","coordinates":[-114.33531761186,48.4097099294269]}},{"properties":{"City":"Butte","Lon":-112.477748059,"Name":"Three Bears Grocery","ZIP":59701,"Phone":"406-494-7547","Outlet_Typ":"GrocStore","Entered":"2010/08/26 00:00:00 +0000","State":"MT","Street":"Three Bears Drive","OBJECTID":202,"id":"a64thdsnc8on","Address":45,"Lat":45.9614391625},"type":"Feature","geometry":{"type":"Point","coordinates":[-112.47774805893,45.961439161328]}},{"properties":{"City":"Three Forks","Lon":-111.642192174,"Name":"Three Forks Market","ZIP":59752,"Phone":"406-285-3010","Outlet_Typ":"GrocStore","Entered":"2010/07/26 00:00:00 +0000","State":"MT","Street":"MT 2","OBJECTID":203,"id":"a64thdylbqae","Address":510,"Lat":45.8268701378},"type":"Feature","geometry":{"type":"Point","coordinates":[-111.64219217422,45.8268701366859]}},{"properties":{"City":"Babb","Lon":-113.436069489,"Name":"Thronson's General Store","ZIP":59411,"Phone":"406-732-5530","Outlet_Typ":"GrocStore","Entered":"2010/07/21 00:00:00 +0000","State":"MT","Street":"US 89 and Many Glacier Rd","OBJECTID":204,"id":"a64thdyz0ykv","Address":0,"Lat":48.8571453094},"type":"Feature","geometry":{"type":"Point","coordinates":[-113.436069488703,48.8571453086053]}},{"properties":{"City":"Bozeman","Lon":-111.062250137,"Name":"Town &amp; Country Bozeman 2","ZIP":59718,"Phone":"406-587-5541","Outlet_Typ":"GrocStore","Entered":"2010/07/12 00:00:00 +0000","State":"MT","Street":"N 19th Ave","OBJECTID":205,"id":"a64thdocuqns","Address":219,"Lat":45.6823968887},"type":"Feature","geometry":{"type":"Point","coordinates":[-111.062250137126,45.6823968880415]}},{"properties":{"City":"Livingston","Lon":-110.561369061,"Name":"Town &amp; Country Livingston","ZIP":59047,"Phone":"406-222-0559","Outlet_Typ":"GrocStore","Entered":"2010/07/26 00:00:00 +0000","State":"MT","Street":"W Park St","OBJECTID":206,"id":"a64thdsggojy","Address":1217,"Lat":45.6618857011},"type":"Feature","geometry":{"type":"Point","coordinates":[-110.5613690612,45.6618856997382]}},{"properties":{"City":"Clinton","Lon":-113.808488762,"Name":"Turah Store","ZIP":59825,"Phone":"406-258-9773","Outlet_Typ":"GrocStore","Entered":"2010/07/12 00:00:00 +0000","State":"MT","Street":"Turah Rd","OBJECTID":207,"id":"a64the0g4ff4","Address":13555,"Lat":46.8211984634},"type":"Feature","geometry":{"type":"Point","coordinates":[-113.808488762664,46.8211984627328]}},{"properties":{"City":"Bridger","Lon":-108.914122581,"Name":"Valley Foods Bridger","ZIP":59014,"Phone":"406-662-3591","Outlet_Typ":"GrocStore","Entered":"2010/07/12 00:00:00 +0000","State":"MT","Street":"N Main St","OBJECTID":208,"id":"a64thdoygsxi","Address":105,"Lat":45.2957726363},"type":"Feature","geometry":{"type":"Point","coordinates":[-108.914122581813,45.2957726355315]}},{"properties":{"City":"Deer Lodge","Lon":-112.735433578,"Name":"Valley Foods Deer Lodge","ZIP":59722,"Phone":"406-846-2684","Outlet_Typ":"GrocStore","Entered":"2010/07/12 00:00:00 +0000","State":"MT","Street":"Main St","OBJECTID":209,"id":"a64thdvjy9t7","Address":711,"Lat":46.3956069946},"type":"Feature","geometry":{"type":"Point","coordinates":[-112.73543357784,46.3956069935538]}},{"properties":{"City":"Alberton","Lon":-114.469475672,"Name":"Valley Grocery","ZIP":59820,"Phone":"406-722-4946","Outlet_Typ":"GrocStore","Entered":"2010/07/20 00:00:00 +0000","State":"MT","Street":"Railroad Ave","OBJECTID":210,"id":"a64thdr7swcq","Address":406,"Lat":47.0014806278},"type":"Feature","geometry":{"type":"Point","coordinates":[-114.469475671237,47.0014806269391]}},{"properties":{"City":"Roundup","Lon":-108.541960716,"Name":"Van Dyke's Super Market","ZIP":59072,"Phone":"406-323-2802","Outlet_Typ":"GrocStore","Entered":"2010/07/12 00:00:00 +0000","State":"MT","Street":"Main St","OBJECTID":211,"id":"a64thdvxvtn8","Address":1215,"Lat":46.4527273178},"type":"Feature","geometry":{"type":"Point","coordinates":[-108.54196071564,46.4527273172109]}},{"properties":{"City":"Victor","Lon":-114.145932198,"Name":"Victor Merc","ZIP":59875,"Phone":"406-642-3421","Outlet_Typ":"GrocStore","Entered":"2010/07/27 00:00:00 +0000","State":"MT","Street":"Meridian Rd","OBJECTID":212,"id":"a64thdz0cevx","Address":2424,"Lat":46.4182988182},"type":"Feature","geometry":{"type":"Point","coordinates":[-114.14593219793,46.4182988173123]}},{"properties":{"City":"Box Elder","Lon":-109.9378708,"Name":"Village Grocery","ZIP":59521,"Phone":"406-395-4300","Outlet_Typ":"GrocStore","Entered":"2010/08/02 00:00:00 +0000","State":"MT","Street":"Curve Dr","OBJECTID":213,"id":"a64thdr4oumo","Address":51,"Lat":48.3781364746},"type":"Feature","geometry":{"type":"Point","coordinates":[-109.937870800692,48.3781364739724]}},{"properties":{"City":"Billings","Lon":-108.579211235,"Name":"Wal-Mart Supercenter Billings 2","ZIP":59102,"Phone":"406-652-9692","Outlet_Typ":"GrocStore","Entered":"2010/07/12 00:00:00 +0000","State":"MT","Street":"King Ave W","OBJECTID":214,"id":"a64the1i1gyl","Address":2525,"Lat":45.7551813126},"type":"Feature","geometry":{"type":"Point","coordinates":[-108.579211235113,45.7551813120169]}},{"properties":{"City":"Butte","Lon":-112.508068085,"Name":"Wal-Mart Supercenter Butte","ZIP":59701,"Phone":"406-494-1420","Outlet_Typ":"GrocStore","Entered":"2010/07/12 00:00:00 +0000","State":"MT","Street":"Harrison Ave","OBJECTID":215,"id":"a64thdrrqc3g","Address":3901,"Lat":45.9643936157},"type":"Feature","geometry":{"type":"Point","coordinates":[-112.50806808478,45.9643936146424]}},{"properties":{"City":"Great Falls","Lon":-111.296610832,"Name":"Wal-Mart Supercenter Great Falls","ZIP":59404,"Phone":"406-761-5426","Outlet_Typ":"GrocStore","Entered":"2010/07/12 00:00:00 +0000","State":"MT","Street":"Smelter Ave NE","OBJECTID":216,"id":"a64thdy0674g","Address":701,"Lat":47.5247097015},"type":"Feature","geometry":{"type":"Point","coordinates":[-111.29661083204,47.5247097003087]}},{"properties":{"City":"Helena","Lon":-111.99192524,"Name":"Wal-Mart Supercenter Helena","ZIP":59601,"Phone":"406-443-3220","Outlet_Typ":"GrocStore","Entered":"2010/07/12 00:00:00 +0000","State":"MT","Street":"Prospect Ave","OBJECTID":217,"id":"a64thdz48dm8","Address":2750,"Lat":46.5913009644},"type":"Feature","geometry":{"type":"Point","coordinates":[-111.991925239048,46.5913009632802]}},{"properties":{"City":"Miles City","Lon":-105.822458267,"Name":"Wal-Mart Supercenter Miles City","ZIP":59301,"Phone":"406-232-0022","Outlet_Typ":"GrocStore","Entered":"2010/07/12 00:00:00 +0000","State":"MT","Street":"Tower St","OBJECTID":218,"id":"a64the0hy8ox","Address":3205,"Lat":46.4028167725},"type":"Feature","geometry":{"type":"Point","coordinates":[-105.822458267464,46.4028167711463]}},{"properties":{"City":"Missoula","Lon":-114.050574303,"Name":"Wal-Mart Supercenter Missoula","ZIP":59808,"Phone":"406-829-8489","Outlet_Typ":"GrocStore","Entered":"2010/07/12 00:00:00 +0000","State":"MT","Street":"Mullan Rd","OBJECTID":219,"id":"a64the3rbia1","Address":3555,"Lat":46.8861722946},"type":"Feature","geometry":{"type":"Point","coordinates":[-114.050574302839,46.8861722938929]}},{"properties":{"City":"Billings","Lon":-108.470892906,"Name":"Wal-Mart Supercenter Billings 1","ZIP":59105,"Phone":"406-254-2842","Outlet_Typ":"GrocStore","Entered":"2010/07/12 00:00:00 +0000","State":"MT","Street":"Main St","OBJECTID":220,"id":"a64the2f9b6a","Address":1649,"Lat":45.8283519745},"type":"Feature","geometry":{"type":"Point","coordinates":[-108.470892906325,45.8283519736457]}},{"properties":{"City":"Bozeman","Lon":-111.046113968,"Name":"Wal-Mart Supercenter Bozeman","ZIP":59715,"Phone":"406-585-8788","Outlet_Typ":"GrocStore","Entered":"2010/07/12 00:00:00 +0000","State":"MT","Street":"N 7th Ave","OBJECTID":221,"id":"a64thdzw79cf","Address":1500,"Lat":45.6947135925},"type":"Feature","geometry":{"type":"Point","coordinates":[-111.046113967679,45.694713591558]}},{"properties":{"City":"Arlee","Lon":-114.084582618,"Name":"Wilson Foods","ZIP":59821,"Phone":"406-726-7777","Outlet_Typ":"GrocStore","Entered":"2010/07/21 00:00:00 +0000","State":"MT","Street":"US 93","OBJECTID":222,"id":"a64thdpgyxly","Address":92345,"Lat":47.161879912},"type":"Feature","geometry":{"type":"Point","coordinates":[-114.084582617167,47.1618799112858]}},{"properties":{"City":"Winifred","Lon":-109.375477787,"Name":"Winifred Grocery","ZIP":59849,"Phone":"406-462-5444","Outlet_Typ":"GrocStore","Entered":"2010/07/23 00:00:00 +0000","State":"MT","Street":"Main St","OBJECTID":223,"id":"a64the0knoi1","Address":201,"Lat":47.5593852997},"type":"Feature","geometry":{"type":"Point","coordinates":[-109.375477787187,47.5593852985193]}},{"properties":{"City":"Seeley Lake","Lon":-113.472890938,"Name":"Wolds Valley Market","ZIP":59868,"Phone":"406-677-2121","Outlet_Typ":"GrocStore","Entered":"2010/07/12 00:00:00 +0000","State":"MT","Street":"MT 83","OBJECTID":224,"id":"a64the0yisll","Address":0,"Lat":47.1593284607},"type":"Feature","geometry":{"type":"Point","coordinates":[-113.472890937311,47.1593284601363]}},{"properties":{"City":"Missoula","Lon":-113.992938995,"Name":"Worden's Market","ZIP":59802,"Phone":"406-549-1293","Outlet_Typ":"GrocStore","Entered":"2010/07/12 00:00:00 +0000","State":"MT","Street":"N Higgins Ave","OBJECTID":225,"id":"a64thdwvcqhv","Address":451,"Lat":46.8738985062},"type":"Feature","geometry":{"type":"Point","coordinates":[-113.992938995658,46.8738985053721]}}],"is_temporal":true,"author":{"url":"","metadata":"","contact_name":"Gerry Daumiller","contact_address":"Montana State Library\r\nPO Box 201800\r\nHelena, MT  59620-1800","source":"","contact_phone":"406-444-5358"},"source":"","pagination":{"sort":null,"start":0,"total":225,"limit":1000000},"state":"complete","tags":"food,groceries,grocery,market,montana,store,stores","published":"2011-10-19T16:00:00Z","id":167070}