{"type":"FeatureCollection","data_type":"Dataset","url_type":null,"permissions":[{"permissions":{"download":true,"view":true},"group_id":"everyone"}],"classification":null,"title":"Alabama_RedCrossHQs","count":22,"stream_id":167174,"contributor":{"url":"http://geocommons.com/users/1842","name":"geomatt1"},"data_attributes":null,"calculation_params":[{"input":{"atr":"STATE","equals":"AL"},"calculation":"filter"}],"icon_link":null,"link":"http://geocommons.com/overlays/167174.json","extent":[-88.2762,25.7689,-68.8253,44.7876],"geometry_types":["point"],"unique_name":null,"name":"Alabama_RedCrossHQs","feature_count":22,"description":"Alabama derived from East Coast Red Cross HQs ","next_feature":null,"is_raster":false,"short_classification":"Y","stats":{"X":{"max":-85.0008649376,"mean":-86.4795923171,"variance":0.796115027658804,"stdev":0.892252782376611,"min":-88.276205,"median":-86.258431},"Y":{"max":34.7982030463,"mean":32.9963283213545,"variance":1.87771219769043,"stdev":1.3702963904537,"min":30.6880252569,"median":33.197145595},"DATE_CHANG":{"max":null,"min":null,"median":null},"OBJECTID":{"max":22,"mean":11.5,"variance":42.1666666666667,"stdev":6.49358657959272,"min":1,"median":12}},"features":[{"properties":{"CITY":"Birmingham","ECODE":"01019","ZIP":"35203","PRT_NAME":"Birmingham Area Chapter","X":-86.8091246079,"PHONE":"205-458-8282","CSREG_TYPE":"R","DIV_NAME":"Division 5 Southeast","ENTITY":"C","Y":33.5249292292,"DATE_CHANG":"2009/07/01 00:00:00 +0000","DIV_CODE":"D05","EMAIL":"baxterb@birminghamredcross.org","TITLE":"Executive Director","STATE":"AL","CSREG_NAME":"Mid Alabama Region","FAX":"205-458-8284","EXECUTIVE":"Billy Baxter","CSREG_CODE":"01R04","OBJECTID":1,"id":"0","ADDRESS":"950 22nd Street N","VALID":"MASTER10"},"type":"Feature","geometry":{"type":"Point","coordinates":[-86.8091247879999,33.524929139]}},{"properties":{"CITY":"Centre","ECODE":"01044","ZIP":"35960","PRT_NAME":"Cherokee County Chapter","X":-85.6976133724,"PHONE":"256-927-3797","CSREG_TYPE":"C","DIV_NAME":"Division 5 Southeast","ENTITY":"C","Y":34.156480508,"DATE_CHANG":"2009/07/01 00:00:00 +0000","DIV_CODE":"D05","EMAIL":"arccher@tds.net","TITLE":"Executive Director","STATE":"AL","CSREG_NAME":"Mid Alabama Region","FAX":"256-927-3798","EXECUTIVE":"Roger Griffeth","CSREG_CODE":"01R04","OBJECTID":2,"id":"1","ADDRESS":"1470 W Main St Ste I","VALID":"MASTER10"},"type":"Feature","geometry":{"type":"Point","coordinates":[-85.6976167189999,34.1564780350001]}},{"properties":{"CITY":"Enterprise","ECODE":"01070","ZIP":"36330","PRT_NAME":"Coffee County Chapter","X":-85.848144,"PHONE":"334-347-2461","CSREG_TYPE":"C","DIV_NAME":"Division 5 Southeast","ENTITY":"C","Y":31.341344,"DATE_CHANG":"2009/07/01 00:00:00 +0000","DIV_CODE":"D05","EMAIL":"ccrc@roadrunner.com","TITLE":"Executive Director","STATE":"AL","CSREG_NAME":"Dothan Region","FAX":"334-393-6632","EXECUTIVE":"Bobbie Sue Beckman","CSREG_CODE":"01R08","OBJECTID":3,"id":"2","ADDRESS":"PO Box 310375","VALID":"MASTER10"},"type":"Feature","geometry":{"type":"Point","coordinates":[-85.8481439999999,31.341344]}},{"properties":{"CITY":"Andalusia","ECODE":"01084","ZIP":"36420","PRT_NAME":"Covington County Chapter","X":-86.5020558607,"PHONE":"334-428-2680","CSREG_TYPE":"C","DIV_NAME":"Division 5 Southeast","ENTITY":"C","Y":31.3140051473,"DATE_CHANG":"2009/07/01 00:00:00 +0000","DIV_CODE":"D05","EMAIL":"redcross2@alaweb.com","TITLE":"Interim Executive Director","STATE":"AL","CSREG_NAME":"Dothan Region","FAX":"334-428-2691","EXECUTIVE":"Don Johnson","CSREG_CODE":"01R08","OBJECTID":4,"id":"3","ADDRESS":"234 Hillcrest Drive","VALID":"MASTER10"},"type":"Feature","geometry":{"type":"Point","coordinates":[-86.5020602749999,31.314008883]}},{"properties":{"CITY":"Cullman","ECODE":"01092","ZIP":"35055","PRT_NAME":"Cullman County Chapter","X":-86.8389670458,"PHONE":"256-734-0921","CSREG_TYPE":"C","DIV_NAME":"Division 5 Southeast","ENTITY":"C","Y":34.1751439678,"DATE_CHANG":"2009/07/01 00:00:00 +0000","DIV_CODE":"D05","EMAIL":"redcross0921@bellsouth.net","TITLE":"Executive Director","STATE":"AL","CSREG_NAME":"Mid Alabama Region","FAX":"256-734-6185","EXECUTIVE":"Kenneth Kilgo","CSREG_CODE":"01R04","OBJECTID":5,"id":"4","ADDRESS":"424 3rd Avenue SE","VALID":"MASTER10"},"type":"Feature","geometry":{"type":"Point","coordinates":[-86.8389642929999,34.1751479590001]}},{"properties":{"CITY":"Fort Payne","ECODE":"01104","ZIP":"35968","PRT_NAME":"DeKalb County Chapter","X":-85.771726,"PHONE":"256-845-0202","CSREG_TYPE":"C","DIV_NAME":"Division 5 Southeast","ENTITY":"C","Y":34.480789,"DATE_CHANG":"2009/07/01 00:00:00 +0000","DIV_CODE":"D05","EMAIL":"redcrossdekalbco@bellsouth.net","TITLE":"Executive Director","STATE":"AL","CSREG_NAME":"Huntsville Region","FAX":"256-845-0226","EXECUTIVE":"Linda Clark","CSREG_CODE":"01R12","OBJECTID":6,"id":"5","ADDRESS":"111 Grand Avenue","VALID":"MASTER10"},"type":"Feature","geometry":{"type":"Point","coordinates":[-85.7717259999999,34.4807890000001]}},{"properties":{"CITY":"Brewton","ECODE":"01107","ZIP":"36426","PRT_NAME":"East Escambia County Chapter","X":-87.0687857675,"PHONE":"251-867-3426","CSREG_TYPE":"C","DIV_NAME":"Division 5 Southeast","ENTITY":"C","Y":31.1211913619,"DATE_CHANG":"2009/07/01 00:00:00 +0000","DIV_CODE":"D05","EMAIL":"arc36427@bellsouth.net","TITLE":"Executive Director","STATE":"AL","CSREG_NAME":"Mobile Region","FAX":"251-867-5889","EXECUTIVE":"Rogene Martin","CSREG_CODE":"01R16","OBJECTID":7,"id":"6","ADDRESS":"1014 Douglas Avenue","VALID":"MASTER10"},"type":"Feature","geometry":{"type":"Point","coordinates":[-87.0687860379999,31.1211942400001]}},{"properties":{"CITY":"Gadsden","ECODE":"01120","ZIP":"35901","PRT_NAME":"Etowah County Chapter","X":-86.0026112117,"PHONE":"256-547-8667","CSREG_TYPE":"C","DIV_NAME":"Division 5 Southeast","ENTITY":"C","Y":34.0070630151,"DATE_CHANG":"2009/07/01 00:00:00 +0000","DIV_CODE":"D05","EMAIL":"hbrothers@etowahredcross.com","TITLE":"Executive Director","STATE":"AL","CSREG_NAME":"Mid Alabama Region","FAX":"256-547-0450","EXECUTIVE":"Heather Brothers","CSREG_CODE":"01R04","OBJECTID":8,"id":"7","ADDRESS":"405 South 1st Street","VALID":"MASTER10"},"type":"Feature","geometry":{"type":"Point","coordinates":[-86.0026127919999,34.0070646720001]}},{"properties":{"CITY":"Florence","ECODE":"01168","ZIP":"35630","PRT_NAME":"American Red Cross of Northwest Alabama","X":-87.6746344029,"PHONE":"256-764-2911","CSREG_TYPE":"C","DIV_NAME":"Division 5 Southeast","ENTITY":"C","Y":34.7982030463,"DATE_CHANG":"2009/07/01 00:00:00 +0000","DIV_CODE":"D05","EMAIL":"emoore@redcross-nwal.org","TITLE":"Executive Director","STATE":"AL","CSREG_NAME":"Huntsville Region","FAX":"256-760-9507","EXECUTIVE":"Elizabeth Moore","CSREG_CODE":"01R12","OBJECTID":9,"id":"8","ADDRESS":"318 S. Court Street","VALID":"MASTER10"},"type":"Feature","geometry":{"type":"Point","coordinates":[-87.6746323089999,34.7982072540001]}},{"properties":{"CITY":"Opelika","ECODE":"01176","ZIP":"36801","PRT_NAME":"Lee County Chapter","X":-85.4153898187,"PHONE":"334-749-9981","CSREG_TYPE":"C","DIV_NAME":"Division 5 Southeast","ENTITY":"C","Y":32.6340380998,"DATE_CHANG":"2009/07/01 00:00:00 +0000","DIV_CODE":"D05","EMAIL":"jryan@leeredcross.org","TITLE":"Executive Director","STATE":"AL","CSREG_NAME":"Montgomery Region","FAX":"334-749-8299","EXECUTIVE":"Jennifer Ryan","CSREG_CODE":"01R20","OBJECTID":10,"id":"9","ADDRESS":"206 26th Street","VALID":"MASTER10"},"type":"Feature","geometry":{"type":"Point","coordinates":[-85.4153914799999,32.6340337570001]}},{"properties":{"CITY":"Athens","ECODE":"01180","ZIP":"35611","PRT_NAME":"Limestone County Chapter","X":-87.080815,"PHONE":"256-232-6820","CSREG_TYPE":"C","DIV_NAME":"Division 5 Southeast","ENTITY":"C","Y":34.773053,"DATE_CHANG":"2009/07/01 00:00:00 +0000","DIV_CODE":"D05","EMAIL":"redcross@hiwaay.net","TITLE":"Executive Director","STATE":"AL","CSREG_NAME":"Huntsville Region","FAX":"256-232-7938","EXECUTIVE":"Kathy Harland","CSREG_CODE":"01R12","OBJECTID":11,"id":"10","ADDRESS":"1300 Armory Street","VALID":"MASTER10"},"type":"Feature","geometry":{"type":"Point","coordinates":[-87.0808149999999,34.7730530000001]}},{"properties":{"CITY":"Huntsville","ECODE":"01192","ZIP":"35801","PRT_NAME":"Madison - Marshall County Chapter","X":-86.5889151769,"PHONE":"256-536-0084","CSREG_TYPE":"R","DIV_NAME":"Division 5 Southeast","ENTITY":"C","Y":34.7444281572,"DATE_CHANG":"2009/07/01 00:00:00 +0000","DIV_CODE":"D05","EMAIL":"mary@helpcantwait.org","TITLE":"Executive Director","STATE":"AL","CSREG_NAME":"Huntsville Region","FAX":"256-536-9614","EXECUTIVE":"Mary Moreillon","CSREG_CODE":"01R12","OBJECTID":12,"id":"11","ADDRESS":"1101 Washington Street","VALID":"MASTER10"},"type":"Feature","geometry":{"type":"Point","coordinates":[-86.5889167959999,34.7444277980001]}},{"properties":{"CITY":"Mobile","ECODE":"01208","ZIP":"36602","PRT_NAME":"Alabama Gulf Coast Chapter","X":-88.0534995397,"PHONE":"251-438-2571","CSREG_TYPE":"R","DIV_NAME":"Division 5 Southeast","ENTITY":"C","Y":30.6880252569,"DATE_CHANG":"2009/07/01 00:00:00 +0000","DIV_CODE":"D05","EMAIL":"mimsl@redcrossalcoast.org","TITLE":"Executive Director","STATE":"AL","CSREG_NAME":"Mobile Region","FAX":"251-436-7902","EXECUTIVE":"Leisle Mims","CSREG_CODE":"01R16","OBJECTID":13,"id":"12","ADDRESS":"853 Dauphine Street","VALID":"MASTER10"},"type":"Feature","geometry":{"type":"Point","coordinates":[-88.0534986929999,30.6880267910001]}},{"properties":{"CITY":"Montgomery","ECODE":"01216","ZIP":"36106","PRT_NAME":"American Red Cross of Central Alabama","X":-86.258431,"PHONE":"334-260-3980","CSREG_TYPE":"R","DIV_NAME":"Division 5 Southeast","ENTITY":"C","Y":32.352913,"DATE_CHANG":"2009/07/01 00:00:00 +0000","DIV_CODE":"D05","EMAIL":"buckj@montgomeryarc.org","TITLE":"CEO","STATE":"AL","CSREG_NAME":"Montgomery Region","FAX":"334-260-4070","EXECUTIVE":"Jacqueline Buck","CSREG_CODE":"01R20","OBJECTID":14,"id":"13","ADDRESS":"5015 Woods Crossing","VALID":"MASTER10"},"type":"Feature","geometry":{"type":"Point","coordinates":[-86.2584309999999,32.3529130000001]}},{"properties":{"CITY":"Decatur","ECODE":"01220","ZIP":"35601","PRT_NAME":"Morgan - Lawrence County Chapter","X":-86.9821096636,"PHONE":"256-353-4891","CSREG_TYPE":"C","DIV_NAME":"Division 5 Southeast","ENTITY":"C","Y":34.6047419986,"DATE_CHANG":"2009/07/01 00:00:00 +0000","DIV_CODE":"D05","EMAIL":"dheard@morglawredcross.org","TITLE":"Executive Director","STATE":"AL","CSREG_NAME":"Huntsville Region","FAX":"256-353-8844","EXECUTIVE":"Debbie Heard","CSREG_CODE":"01R12","OBJECTID":15,"id":"14","ADDRESS":"431 Holly Street","VALID":"MASTER10"},"type":"Feature","geometry":{"type":"Point","coordinates":[-86.9821093809999,34.6047451000001]}},{"properties":{"CITY":"Talladega","ECODE":"01236","ZIP":"35160-1086","PRT_NAME":"Talladega County Chapter","X":-86.103658453,"PHONE":"256-362-2061","CSREG_TYPE":"C","DIV_NAME":"Division 5 Southeast","ENTITY":"C","Y":33.4362876565,"DATE_CHANG":"2009/07/01 00:00:00 +0000","DIV_CODE":"D05","EMAIL":"pmil13@aol.com","TITLE":"Executive Director","STATE":"AL","CSREG_NAME":"Mid Alabama Region","FAX":"256-362-2061","EXECUTIVE":"Pat Miller","CSREG_CODE":"01R04","OBJECTID":16,"id":"15","ADDRESS":"140 N. Court Street","VALID":"MASTER10"},"type":"Feature","geometry":{"type":"Point","coordinates":[-86.1036606149999,33.4362919600001]}},{"properties":{"CITY":"Phenix City","ECODE":"01248","ZIP":"36867-5921","PRT_NAME":"Russell County Chapter","X":-85.0008649376,"PHONE":"334-298-3631","CSREG_TYPE":"C","DIV_NAME":"Division 5 Southeast","ENTITY":"C","Y":32.4675744784,"DATE_CHANG":"2009/07/01 00:00:00 +0000","DIV_CODE":"D05","EMAIL":"jryan@leeredcross.org","TITLE":"Interim Executive Director","STATE":"AL","CSREG_NAME":"Montgomery Region","FAX":"334-298-8455","EXECUTIVE":"Jennifer Ryan","CSREG_CODE":"01R20","OBJECTID":17,"id":"16","ADDRESS":"1103 Broad Street","VALID":"MASTER10"},"type":"Feature","geometry":{"type":"Point","coordinates":[-85.0008669769999,32.467578243]}},{"properties":{"CITY":"Tuscaloosa","ECODE":"01288","ZIP":"35404","PRT_NAME":"West Alabama Chapter","X":-87.5219723943,"PHONE":"205-758-3608","CSREG_TYPE":"C","DIV_NAME":"Division 5 Southeast","ENTITY":"C","Y":33.197145595,"DATE_CHANG":"2009/07/01 00:00:00 +0000","DIV_CODE":"D05","EMAIL":"obarnes@bamaredcross.org","TITLE":"Executive Director","STATE":"AL","CSREG_NAME":"Mid Alabama Region","FAX":"205-758-4869","EXECUTIVE":"Oscar Barnes","CSREG_CODE":"01R04","OBJECTID":18,"id":"17","ADDRESS":"1100 Veterans Memorial Parkway","VALID":"MASTER10"},"type":"Feature","geometry":{"type":"Point","coordinates":[-87.5219723939999,33.1971442460001]}},{"properties":{"CITY":"Tuskegee","ECODE":"01292","ZIP":"36083","PRT_NAME":"Tuskegee - Macon County Chapter","X":-85.6890912911,"PHONE":"334-727-1300","CSREG_TYPE":"C","DIV_NAME":"Division 5 Southeast","ENTITY":"C","Y":32.4219666908,"DATE_CHANG":"2009/07/01 00:00:00 +0000","DIV_CODE":"D05","EMAIL":"bgrnt@aol.com","TITLE":"Executive Director","STATE":"AL","CSREG_NAME":"Montgomery Region","FAX":"334-727-1013","EXECUTIVE":"Willy Haygoode","CSREG_CODE":"01R20","OBJECTID":19,"id":"18","ADDRESS":"302 South Main St","VALID":"MASTER10"},"type":"Feature","geometry":{"type":"Point","coordinates":[-85.6890911459999,32.42196463]}},{"properties":{"CITY":"Chatom","ECODE":"01300","ZIP":"36518","PRT_NAME":"Washington County Chapter","X":-88.276205,"PHONE":"251-847-2491","CSREG_TYPE":"C","DIV_NAME":"Division 5 Southeast","ENTITY":"C","Y":31.496704,"DATE_CHANG":"2009/07/01 00:00:00 +0000","DIV_CODE":"D05","EMAIL":"wacoarc@millry.net","TITLE":"Executive Director","STATE":"AL","CSREG_NAME":"Mobile Region","FAX":"251-847-6313","EXECUTIVE":"Andrea Powell","CSREG_CODE":"01R16","OBJECTID":20,"id":"19","ADDRESS":"25 Courthouse Square","VALID":"MASTER10"},"type":"Feature","geometry":{"type":"Point","coordinates":[-88.2762049999999,31.4967040000001]}},{"properties":{"CITY":"Alexander City","ECODE":"01304","ZIP":"35010","PRT_NAME":"Tallapoosa County Chapter","X":-85.9532475078,"PHONE":"256-234-3291","CSREG_TYPE":"C","DIV_NAME":"Division 5 Southeast","ENTITY":"C","Y":32.9452033749,"DATE_CHANG":"2009/07/01 00:00:00 +0000","DIV_CODE":"D05","EMAIL":"redcrossac@bellsouth.net","TITLE":"Executive Director","STATE":"AL","CSREG_NAME":"Mid Alabama Region","FAX":"256-234-5114","EXECUTIVE":"Melissa Poe","CSREG_CODE":"01R04","OBJECTID":21,"id":"20","ADDRESS":"17 Main Street","VALID":"MASTER10"},"type":"Feature","geometry":{"type":"Point","coordinates":[-85.9532490059999,32.9451991800001]}},{"properties":{"CITY":"Dothan","ECODE":"01315","ZIP":"36303","PRT_NAME":"Wiregrass Area Chapter","X":-85.4131689246,"PHONE":"334-792-9852","CSREG_TYPE":"R","DIV_NAME":"Division 5 Southeast","ENTITY":"C","Y":31.2379924861,"DATE_CHANG":"2009/07/01 00:00:00 +0000","DIV_CODE":"D05","EMAIL":"susanholmes@graceba.net","TITLE":"Executive Director","STATE":"AL","CSREG_NAME":"Dothan Region","FAX":"334-792-4119","EXECUTIVE":"Susan Holmes","CSREG_CODE":"01R08","OBJECTID":22,"id":"21","ADDRESS":"1004 Montezuma","VALID":"MASTER10"},"type":"Feature","geometry":{"type":"Point","coordinates":[-85.4131701539999,31.2379891910001]}}],"is_temporal":true,"author":{"url":"","metadata":"","contact_name":"Greg Tune","contact_address":"2025 E St. NW, Washington, DC, 20006-5009","source":"American Red Cross","contact_phone":"202-303-8659"},"source":"","pagination":{"sort":null,"start":0,"total":22,"limit":1000000},"state":"complete","tags":"","published":"2010-01-21T17:00:00Z","id":167174}