{"type":"FeatureCollection","data_type":"Dataset","url_type":null,"permissions":[{"permissions":{"download":true,"view":true},"group_id":"everyone"}],"classification":null,"title":"Leads Aug Oct","count":891,"stream_id":167298,"contributor":{"url":"http://geocommons.com/users/34616","name":"spencerallen"},"data_attributes":null,"calculation_params":null,"icon_link":null,"link":"http://geocommons.com/overlays/167298.json","extent":[-163.801,21.2828,-68.3642,63.8887],"geometry_types":["point"],"unique_name":null,"name":"Leads Aug Oct","feature_count":891,"description":"","next_feature":null,"is_raster":false,"short_classification":"Y","stats":{},"features":[{"properties":{"city":"Sierra Vista","geo_score":0.857,"id":"a6crochgzkxk","geo_precision":"city","state":"AZ"},"type":"Feature","geometry":{"type":"Point","coordinates":[-109.997623,31.810649]}},{"properties":{"city":"NEW ROADS","geo_score":0.768,"id":"a6crocmca0g5","geo_precision":"city","state":"LA"},"type":"Feature","geometry":{"type":"Point","coordinates":[-92.893207,30.85436]}},{"properties":{"city":"Raleigh","geo_score":0.857,"id":"a6crocmf9gx3","geo_precision":"city","state":"NC"},"type":"Feature","geometry":{"type":"Point","coordinates":[-78.638615,35.772096]}},{"properties":{"city":"Dunn","geo_score":0.821,"id":"a6crocbh6dn1","geo_precision":"city","state":"NC"},"type":"Feature","geometry":{"type":"Point","coordinates":[-81.212581,35.615133]}},{"properties":{"city":"Dunn","geo_score":0.821,"id":"a6crocbveum7","geo_precision":"city","state":"NC"},"type":"Feature","geometry":{"type":"Point","coordinates":[-81.212581,35.615133]}},{"properties":{"city":"Spearfish","geo_score":0.857,"id":"a6crocobgecs","geo_precision":"city","state":"SD"},"type":"Feature","geometry":{"type":"Point","coordinates":[-103.772331,44.467137]}},{"properties":{"city":"dallas","geo_score":0.857,"id":"a6crocfumn4v","geo_precision":"city","state":"TX"},"type":"Feature","geometry":{"type":"Point","coordinates":[-96.806667,32.783056]}},{"properties":{"city":"port ludlow","geo_score":0.743,"id":"a6crockv5h3l","geo_precision":"city","state":"WA"},"type":"Feature","geometry":{"type":"Point","coordinates":[-123.035409,46.63677]}},{"properties":{"city":"Hurricane","geo_score":0.857,"id":"a6crocex1axi","geo_precision":"city","state":"WV"},"type":"Feature","geometry":{"type":"Point","coordinates":[-81.961657,38.397097]}},{"properties":{"city":"Phoenix","geo_score":0.857,"id":"a6crocjhzvq7","geo_precision":"city","state":"AZ"},"type":"Feature","geometry":{"type":"Point","coordinates":[-112.074037,33.448377]}},{"properties":{"city":"Corona","geo_score":0.857,"id":"a6crocnrt754","geo_precision":"city","state":"CA"},"type":"Feature","geometry":{"type":"Point","coordinates":[-116.055617,33.752886]}},{"properties":{"city":"Venice","geo_score":0.857,"id":"a6crocgpgipo","geo_precision":"city","state":"FL"},"type":"Feature","geometry":{"type":"Point","coordinates":[-82.454263,27.099778]}},{"properties":{"city":"Chatham","geo_score":0.857,"id":"a6crocggwctc","geo_precision":"city","state":"MA"},"type":"Feature","geometry":{"type":"Point","coordinates":[-70.0468,41.859559]}},{"properties":{"city":"GAITHERSBURG","geo_score":0.857,"id":"a6crocfs3h8a","geo_precision":"city","state":"MD"},"type":"Feature","geometry":{"type":"Point","coordinates":[-77.201371,39.143441]}},{"properties":{"city":"Ridgeland","geo_score":0.857,"id":"a6crocdzz9wz","geo_precision":"city","state":"MS"},"type":"Feature","geometry":{"type":"Point","coordinates":[-90.13731,32.436064]}},{"properties":{"city":"Manassas","geo_score":0.857,"id":"a6crocpbtsdf","geo_precision":"city","state":"VA"},"type":"Feature","geometry":{"type":"Point","coordinates":[-77.487162,38.744685]}},{"properties":{"city":"Carlsbad","geo_score":0.857,"id":"a6crocbxoubk","geo_precision":"city","state":"CA"},"type":"Feature","geometry":{"type":"Point","coordinates":[-116.846046,33.016928]}},{"properties":{"city":"Carlsbad","geo_score":0.857,"id":"a6crociq23w1","geo_precision":"city","state":"CA"},"type":"Feature","geometry":{"type":"Point","coordinates":[-116.846046,33.016928]}},{"properties":{"city":"reno","geo_score":0.857,"id":"a6crocfl4ti2","geo_precision":"city","state":"NV"},"type":"Feature","geometry":{"type":"Point","coordinates":[-119.813803,39.529633]}},{"properties":{"city":"Staten Island","geo_score":0.762,"id":"a6crocdneezd","geo_precision":"city","state":"NY"},"type":"Feature","geometry":{"type":"Point","coordinates":[-73.169002,40.804265]}},{"properties":{"city":"Greencastle","geo_score":0.753,"id":"a6crocakd7d3","geo_precision":"city","state":"PA"},"type":"Feature","geometry":{"type":"Point","coordinates":[-78.904191,40.27452]}},{"properties":{"city":"Springdale","geo_score":0.814,"id":"a6croccl1bch","geo_precision":"city","state":"AR"},"type":"Feature","geometry":{"type":"Point","coordinates":[-93.648512,33.58762]}},{"properties":{"city":"Springdale","geo_score":0.814,"id":"a6crocmfhgb8","geo_precision":"city","state":"AR"},"type":"Feature","geometry":{"type":"Point","coordinates":[-93.648512,33.58762]}},{"properties":{"city":"Springdale","geo_score":0.814,"id":"a6croci3ta8b","geo_precision":"city","state":"AR"},"type":"Feature","geometry":{"type":"Point","coordinates":[-93.648512,33.58762]}},{"properties":{"city":"Springdale","geo_score":0.814,"id":"a6crocbd9ow5","geo_precision":"city","state":"AR"},"type":"Feature","geometry":{"type":"Point","coordinates":[-93.648512,33.58762]}},{"properties":{"city":"KINGSFORD","geo_score":0.857,"id":"a6croci06rf5","geo_precision":"city","state":"MI"},"type":"Feature","geometry":{"type":"Point","coordinates":[-88.072071,45.794956]}},{"properties":{"city":"Bismarck","geo_score":0.857,"id":"a6crocofuvnq","geo_precision":"city","state":"ND"},"type":"Feature","geometry":{"type":"Point","coordinates":[-100.769066,46.810594]}},{"properties":{"city":"Brooklyn","geo_score":0.857,"id":"a6crocafu2mm","geo_precision":"city","state":"NY"},"type":"Feature","geometry":{"type":"Point","coordinates":[-78.748363,42.433118]}},{"properties":{"city":"Brooklyn","geo_score":0.857,"id":"a6crocat0xs3","geo_precision":"city","state":"NY"},"type":"Feature","geometry":{"type":"Point","coordinates":[-78.748363,42.433118]}},{"properties":{"city":"Salem","geo_score":0.857,"id":"a6croccwn1z2","geo_precision":"city","state":"OR"},"type":"Feature","geometry":{"type":"Point","coordinates":[-122.921721,44.90472]}},{"properties":{"city":"Houston","geo_score":0.816,"id":"a6crocanhfxg","geo_precision":"city","state":"TX"},"type":"Feature","geometry":{"type":"Point","coordinates":[-96.919704,29.845783]}},{"properties":{"city":"enterprise","geo_score":0.857,"id":"a6crocdfpm8c","geo_precision":"city","state":"AL"},"type":"Feature","geometry":{"type":"Point","coordinates":[-86.618036,32.734851]}},{"properties":{"city":"Buckeye","geo_score":0.857,"id":"a6crocf9aw70","geo_precision":"city","state":"AZ"},"type":"Feature","geometry":{"type":"Point","coordinates":[-112.18717,33.276539]}},{"properties":{"city":"Soperton","geo_score":0.857,"id":"a6crocdyspet","geo_precision":"city","state":"GA"},"type":"Feature","geometry":{"type":"Point","coordinates":[-82.557135,32.383145]}},{"properties":{"city":"Butler","geo_score":0.857,"id":"a6crocp4ihtu","geo_precision":"city","state":"IN"},"type":"Feature","geometry":{"type":"Point","coordinates":[-84.912517,41.426441]}},{"properties":{"city":"Butler","geo_score":0.857,"id":"a6crocaihhor","geo_precision":"city","state":"IN"},"type":"Feature","geometry":{"type":"Point","coordinates":[-84.912517,41.426441]}},{"properties":{"city":"Buffalo","geo_score":0.857,"id":"a6crochk24d9","geo_precision":"city","state":"NY"},"type":"Feature","geometry":{"type":"Point","coordinates":[-78.878369,42.886447]}},{"properties":{"city":"Sabana Sur","geo_score":0.619,"id":"a6crocj93nfv","geo_precision":"city","state":"Other"},"type":"Feature","geometry":{"type":"Point","coordinates":[-82.353736,33.164591]}},{"properties":{"city":"Amarillo","geo_score":0.857,"id":"a6crocckapht","geo_precision":"city","state":"TX"},"type":"Feature","geometry":{"type":"Point","coordinates":[-101.831297,35.221997]}},{"properties":{"city":"Dallas","geo_score":0.857,"id":"a6crocpsw6ut","geo_precision":"city","state":"TX"},"type":"Feature","geometry":{"type":"Point","coordinates":[-96.806667,32.783056]}},{"properties":{"city":"Dallas","geo_score":0.857,"id":"a6crocb7t823","geo_precision":"city","state":"TX"},"type":"Feature","geometry":{"type":"Point","coordinates":[-96.806667,32.783056]}},{"properties":{"city":"Dallas","geo_score":0.857,"id":"a6croch6hoi2","geo_precision":"city","state":"TX"},"type":"Feature","geometry":{"type":"Point","coordinates":[-96.806667,32.783056]}},{"properties":{"city":"Dallas","geo_score":0.857,"id":"a6crocd6o2sp","geo_precision":"city","state":"TX"},"type":"Feature","geometry":{"type":"Point","coordinates":[-96.806667,32.783056]}},{"properties":{"city":"san jose","geo_score":0.857,"id":"a6crociusyyb","geo_precision":"city","state":"CA"},"type":"Feature","geometry":{"type":"Point","coordinates":[-121.894956,37.339386]}},{"properties":{"city":"carlsbad","geo_score":0.857,"id":"a6crocinglcn","geo_precision":"city","state":"CA"},"type":"Feature","geometry":{"type":"Point","coordinates":[-116.846046,33.016928]}},{"properties":{"city":"Panama City Beach","geo_score":0.81,"id":"a6crocej8ybd","geo_precision":"city","state":"FL"},"type":"Feature","geometry":{"type":"Point","coordinates":[-85.660206,30.158813]}},{"properties":{"city":"madeira beach","geo_score":0.857,"id":"a6crocm7s34m","geo_precision":"city","state":"FL"},"type":"Feature","geometry":{"type":"Point","coordinates":[-82.797325,27.798081]}},{"properties":{"city":"madeira beach","geo_score":0.857,"id":"a6crocpv5nee","geo_precision":"city","state":"FL"},"type":"Feature","geometry":{"type":"Point","coordinates":[-82.797325,27.798081]}},{"properties":{"city":"Valdosta","geo_score":0.857,"id":"a6crocfzf3er","geo_precision":"city","state":"GA"},"type":"Feature","geometry":{"type":"Point","coordinates":[-83.332068,30.753904]}},{"properties":{"city":"warroad","geo_score":0.755,"id":"a6crocft4a7y","geo_precision":"city","state":"MN"},"type":"Feature","geometry":{"type":"Point","coordinates":[-93.962961,47.746177]}},{"properties":{"city":"scranton","geo_score":0.857,"id":"a6crocgsxhcz","geo_precision":"city","state":"PA"},"type":"Feature","geometry":{"type":"Point","coordinates":[-75.662412,41.408969]}},{"properties":{"city":"Charleston","geo_score":0.857,"id":"a6crocjuqy01","geo_precision":"city","state":"WV"},"type":"Feature","geometry":{"type":"Point","coordinates":[-81.632624,38.34982]}},{"properties":{"city":"Charleston","geo_score":0.857,"id":"a6crocglmnam","geo_precision":"city","state":"WV"},"type":"Feature","geometry":{"type":"Point","coordinates":[-81.632624,38.34982]}},{"properties":{"city":"Charleston","geo_score":0.857,"id":"a6crocal17b2","geo_precision":"city","state":"WV"},"type":"Feature","geometry":{"type":"Point","coordinates":[-81.632624,38.34982]}},{"properties":{"city":"CHARLESTON","geo_score":0.857,"id":"a6crocb9h00u","geo_precision":"city","state":"WV"},"type":"Feature","geometry":{"type":"Point","coordinates":[-81.632624,38.34982]}},{"properties":{"city":"Wichita","geo_score":0.857,"id":"a6crocjna6fi","geo_precision":"city","state":"KS"},"type":"Feature","geometry":{"type":"Point","coordinates":[-97.337545,37.692236]}},{"properties":{"city":"League city","geo_score":0.743,"id":"a6crocg07se2","geo_precision":"city","state":"TX"},"type":"Feature","geometry":{"type":"Point","coordinates":[-100.152612,34.717558]}},{"properties":{"city":"Flintstone","geo_score":0.814,"id":"a6crochpummm","geo_precision":"city","state":"GA"},"type":"Feature","geometry":{"type":"Point","coordinates":[-83.954344,31.954894]}},{"properties":{"city":"Wheaton","geo_score":0.857,"id":"a6crocmp63ri","geo_precision":"city","state":"IL"},"type":"Feature","geometry":{"type":"Point","coordinates":[-88.088716,41.839679]}},{"properties":{"city":"Sonora","geo_score":0.857,"id":"a6crockos66u","geo_precision":"city","state":"CA"},"type":"Feature","geometry":{"type":"Point","coordinates":[-120.343863,37.96091]}},{"properties":{"city":"Los Angeles","geo_score":0.857,"id":"a6crocbi36o8","geo_precision":"city","state":"CA"},"type":"Feature","geometry":{"type":"Point","coordinates":[-118.243685,34.052234]}},{"properties":{"city":"Los Angeles","geo_score":0.857,"id":"a6crocpv6e9v","geo_precision":"city","state":"CA"},"type":"Feature","geometry":{"type":"Point","coordinates":[-118.243685,34.052234]}},{"properties":{"city":"Santa Rosa","geo_score":0.73,"id":"a6crockazdtq","geo_precision":"city","state":"CA"},"type":"Feature","geometry":{"type":"Point","coordinates":[-114.849692,34.083625]}},{"properties":{"city":"waco","geo_score":0.857,"id":"a6crocqgam9c","geo_precision":"city","state":"KY"},"type":"Feature","geometry":{"type":"Point","coordinates":[-84.14483,37.717603]}},{"properties":{"city":"Gardner","geo_score":0.857,"id":"a6crocqpm60w","geo_precision":"city","state":"MA"},"type":"Feature","geometry":{"type":"Point","coordinates":[-72.025884,42.582529]}},{"properties":{"city":"Centerville","geo_score":0.835,"id":"a6croclzmnpi","geo_precision":"city","state":"OH"},"type":"Feature","geometry":{"type":"Point","coordinates":[-82.807676,40.165341]}},{"properties":{"city":"Guelph Ontario","geo_score":0.648,"id":"a6crockdesjk","geo_precision":"city","state":"Other"},"type":"Feature","geometry":{"type":"Point","coordinates":[-117.650888,34.063344]}},{"properties":{"city":"EL PASO","geo_score":0.857,"id":"a6crocaq0ge9","geo_precision":"city","state":"TX"},"type":"Feature","geometry":{"type":"Point","coordinates":[-106.486931,31.75872]}},{"properties":{"city":"Dallas","geo_score":0.857,"id":"a6crocouuj8o","geo_precision":"city","state":"TX"},"type":"Feature","geometry":{"type":"Point","coordinates":[-96.806667,32.783056]}},{"properties":{"city":"Mequon","geo_score":0.857,"id":"a6crociv2e4y","geo_precision":"city","state":"WI"},"type":"Feature","geometry":{"type":"Point","coordinates":[-87.984534,43.236396]}},{"properties":{"city":"Grantsville","geo_score":0.857,"id":"a6crockkyhqv","geo_precision":"city","state":"WV"},"type":"Feature","geometry":{"type":"Point","coordinates":[-81.093773,38.921782]}},{"properties":{"city":"Long Beach","geo_score":0.857,"id":"a6crock7jjvq","geo_precision":"city","state":"CA"},"type":"Feature","geometry":{"type":"Point","coordinates":[-118.189235,33.766962]}},{"properties":{"city":"DAWSON","geo_score":0.857,"id":"a6crocgmdl4o","geo_precision":"city","state":"MN"},"type":"Feature","geometry":{"type":"Point","coordinates":[-96.056499,44.929289]}},{"properties":{"city":"Marthasville","geo_score":0.857,"id":"a6crocb31wg2","geo_precision":"city","state":"MO"},"type":"Feature","geometry":{"type":"Point","coordinates":[-91.151576,38.651157]}},{"properties":{"city":"Omaha","geo_score":0.857,"id":"a6crocmzxbig","geo_precision":"city","state":"NE"},"type":"Feature","geometry":{"type":"Point","coordinates":[-95.937792,41.25861]}},{"properties":{"city":"Redwood City","geo_score":0.74,"id":"a6crocedsuk9","geo_precision":"city","state":"CA"},"type":"Feature","geometry":{"type":"Point","coordinates":[-115.967051,34.839964]}},{"properties":{"city":"Hamden","geo_score":0.857,"id":"a6crociiipdk","geo_precision":"city","state":"CT"},"type":"Feature","geometry":{"type":"Point","coordinates":[-72.938747,41.372723]}},{"properties":{"city":"Hamilton","geo_score":0.857,"id":"a6crocmd6uli","geo_precision":"city","state":"IN"},"type":"Feature","geometry":{"type":"Point","coordinates":[-85.784978,40.123096]}},{"properties":{"city":"Hamilton","geo_score":0.857,"id":"a6crocoiylgy","geo_precision":"city","state":"IN"},"type":"Feature","geometry":{"type":"Point","coordinates":[-85.784978,40.123096]}},{"properties":{"city":"Dubai","geo_score":0.6,"id":"a6crocd474jm","geo_precision":"city","state":"Other"},"type":"Feature","geometry":{"type":"Point","coordinates":[-103.611616,37.219186]}},{"properties":{"city":"Swan River","geo_score":0.635,"id":"a6crocaiygmc","geo_precision":"city","state":"Other"},"type":"Feature","geometry":{"type":"Point","coordinates":[-93.339902,35.849246]}},{"properties":{"city":"Charlotte","geo_score":0.857,"id":"a6crocg5cint","geo_precision":"city","state":"TX"},"type":"Feature","geometry":{"type":"Point","coordinates":[-98.655756,28.814293]}},{"properties":{"city":"Renton","geo_score":0.857,"id":"a6crocpkt1ko","geo_precision":"city","state":"WA"},"type":"Feature","geometry":{"type":"Point","coordinates":[-122.02967,47.485348]}},{"properties":{"city":"Charleston","geo_score":0.857,"id":"a6crocf4g1uq","geo_precision":"city","state":"WV"},"type":"Feature","geometry":{"type":"Point","coordinates":[-81.632624,38.34982]}},{"properties":{"city":"Troy","geo_score":0.714,"id":"a6crocfqvsx0","geo_precision":"city","state":"AL"},"type":"Feature","geometry":{"type":"Point","coordinates":[-87.054641,33.735709]}},{"properties":{"city":"vallejo","geo_score":0.857,"id":"a6crociuckji","geo_precision":"city","state":"CA"},"type":"Feature","geometry":{"type":"Point","coordinates":[-122.264316,38.107945]}},{"properties":{"city":"Fresno","geo_score":0.857,"id":"a6crocnnr2g1","geo_precision":"city","state":"CA"},"type":"Feature","geometry":{"type":"Point","coordinates":[-119.772366,36.747727]}},{"properties":{"city":"Fresno","geo_score":0.857,"id":"a6crocb8fbqn","geo_precision":"city","state":"CA"},"type":"Feature","geometry":{"type":"Point","coordinates":[-119.772366,36.747727]}},{"properties":{"city":"santa barbara","geo_score":0.857,"id":"a6crocpbph6n","geo_precision":"city","state":"CA"},"type":"Feature","geometry":{"type":"Point","coordinates":[-119.69819,34.420831]}},{"properties":{"city":"Sarasota","geo_score":0.857,"id":"a6croch67y82","geo_precision":"city","state":"FL"},"type":"Feature","geometry":{"type":"Point","coordinates":[-82.530653,27.336435]}},{"properties":{"city":"Metairie","geo_score":0.857,"id":"a6crocppnwfq","geo_precision":"city","state":"LA"},"type":"Feature","geometry":{"type":"Point","coordinates":[-90.152852,29.984092]}},{"properties":{"city":"San Clemente","geo_score":0.805,"id":"a6crocq6q8yj","geo_precision":"city","state":"CA"},"type":"Feature","geometry":{"type":"Point","coordinates":[-121.044252,38.211127]}},{"properties":{"city":"las vegas","geo_score":0.857,"id":"a6crocf93ski","geo_precision":"city","state":"NV"},"type":"Feature","geometry":{"type":"Point","coordinates":[-115.137223,36.174971]}},{"properties":{"city":"Stanardsville","geo_score":0.857,"id":"a6crocm2izm5","geo_precision":"city","state":"VA"},"type":"Feature","geometry":{"type":"Point","coordinates":[-78.482014,38.312057]}},{"properties":{"city":"San Clemente","geo_score":0.805,"id":"a6crockh133s","geo_precision":"city","state":"CA"},"type":"Feature","geometry":{"type":"Point","coordinates":[-121.044252,38.211127]}},{"properties":{"city":"Dubuque","geo_score":0.857,"id":"a6crocdr99ai","geo_precision":"city","state":"IA"},"type":"Feature","geometry":{"type":"Point","coordinates":[-90.877135,42.458876]}},{"properties":{"city":"snow hill","geo_score":0.732,"id":"a6crocl5quo8","geo_precision":"city","state":"MD"},"type":"Feature","geometry":{"type":"Point","coordinates":[-75.964945,39.675667]}},{"properties":{"city":"Moorhead","geo_score":0.857,"id":"a6crocgw8vrh","geo_precision":"city","state":"MN"},"type":"Feature","geometry":{"type":"Point","coordinates":[-96.557389,46.803546]}},{"properties":{"city":"Island Park","geo_score":0.814,"id":"a6crocmaerfj","geo_precision":"city","state":"NY"},"type":"Feature","geometry":{"type":"Point","coordinates":[-73.169002,40.804265]}},{"properties":{"city":"san jose","geo_score":0.714,"id":"a6croch7gjfm","geo_precision":"city","state":"Other"},"type":"Feature","geometry":{"type":"Point","coordinates":[-121.894956,37.339386]}},{"properties":{"city":"San Antonio","geo_score":0.857,"id":"a6crocgmwzir","geo_precision":"city","state":"TX"},"type":"Feature","geometry":{"type":"Point","coordinates":[-98.493628,29.424122]}},{"properties":{"city":"WINCHESTER","geo_score":0.857,"id":"a6crocfm3vu6","geo_precision":"city","state":"VA"},"type":"Feature","geometry":{"type":"Point","coordinates":[-78.16856,39.169668]}},{"properties":{"city":"WINCHESTER","geo_score":0.857,"id":"a6croce79loc","geo_precision":"city","state":"VA"},"type":"Feature","geometry":{"type":"Point","coordinates":[-78.16856,39.169668]}},{"properties":{"city":"Airdrie","geo_score":0.0,"id":"a6crocg6egvj","geo_precision":"unmatched","state":"AR"},"type":"Feature","geometry":null},{"properties":{"city":"Burbank","geo_score":0.857,"id":"a6crocosz6xx","geo_precision":"city","state":"CA"},"type":"Feature","geometry":{"type":"Point","coordinates":[-118.308966,34.180839]}},{"properties":{"city":null,"geo_score":0.0,"id":"a6crocqpoc6i","geo_precision":"unmatched","state":"CA"},"type":"Feature","geometry":null},{"properties":{"city":"San Luis Obispo","geo_score":0.736,"id":"a6crocne96vb","geo_precision":"city","state":"CA"},"type":"Feature","geometry":{"type":"Point","coordinates":[-118.345664,37.400762]}},{"properties":{"city":"Edgewater","geo_score":0.786,"id":"a6crockb8nih","geo_precision":"city","state":"FL"},"type":"Feature","geometry":{"type":"Point","coordinates":[-85.820766,30.186314]}},{"properties":{"city":"Las Vegas","geo_score":0.857,"id":"a6crocn1z121","geo_precision":"city","state":"NV"},"type":"Feature","geometry":{"type":"Point","coordinates":[-115.137223,36.174971]}},{"properties":{"city":"charleston","geo_score":0.857,"id":"a6crocfhxyhc","geo_precision":"city","state":"WV"},"type":"Feature","geometry":{"type":"Point","coordinates":[-81.632624,38.34982]}},{"properties":{"city":"charleston","geo_score":0.857,"id":"a6crocn4825a","geo_precision":"city","state":"WV"},"type":"Feature","geometry":{"type":"Point","coordinates":[-81.632624,38.34982]}},{"properties":{"city":"charleston","geo_score":0.857,"id":"a6crocpgwteb","geo_precision":"city","state":"WV"},"type":"Feature","geometry":{"type":"Point","coordinates":[-81.632624,38.34982]}},{"properties":{"city":"broderick","geo_score":0.857,"id":"a6croci7zzu5","geo_precision":"city","state":"CA"},"type":"Feature","geometry":{"type":"Point","coordinates":[-121.517178,38.591016]}},{"properties":{"city":"Lighthouse Point","geo_score":0.857,"id":"a6crocelb9as","geo_precision":"city","state":"FL"},"type":"Feature","geometry":{"type":"Point","coordinates":[-80.273382,27.20227]}},{"properties":{"city":"St Simons Island","geo_score":0.0,"id":"a6crocqg18m4","geo_precision":"unmatched","state":"GA"},"type":"Feature","geometry":null},{"properties":{"city":"Hamilton","geo_score":0.857,"id":"a6crocd99sca","geo_precision":"city","state":"MO"},"type":"Feature","geometry":{"type":"Point","coordinates":[-94.002251,39.719176]}},{"properties":{"city":"Steilacoom","geo_score":0.857,"id":"a6crocdivz7l","geo_precision":"city","state":"WA"},"type":"Feature","geometry":{"type":"Point","coordinates":[-122.331781,47.132671]}},{"properties":{"city":"Olympia","geo_score":0.857,"id":"a6crocmqt0mj","geo_precision":"city","state":"WA"},"type":"Feature","geometry":{"type":"Point","coordinates":[-122.900695,47.037874]}},{"properties":{"city":"Olympia","geo_score":0.857,"id":"a6crocepklla","geo_precision":"city","state":"WA"},"type":"Feature","geometry":{"type":"Point","coordinates":[-122.900695,47.037874]}},{"properties":{"city":"florence","geo_score":0.857,"id":"a6crocouvjwv","geo_precision":"city","state":"AL"},"type":"Feature","geometry":{"type":"Point","coordinates":[-87.686915,34.869601]}},{"properties":{"city":"Siloam Springs","geo_score":0.747,"id":"a6crocko5oum","geo_precision":"city","state":"AR"},"type":"Feature","geometry":{"type":"Point","coordinates":[-91.567625,33.69733]}},{"properties":{"city":"Visalia","geo_score":0.857,"id":"a6crocl4z9sm","geo_precision":"city","state":"CA"},"type":"Feature","geometry":{"type":"Point","coordinates":[-119.292059,36.330228]}},{"properties":{"city":"Redlands","geo_score":0.79,"id":"a6croceqjgbw","geo_precision":"city","state":"CA"},"type":"Feature","geometry":{"type":"Point","coordinates":[-117.158648,34.033903]}},{"properties":{"city":"Miami","geo_score":0.857,"id":"a6crocmblgae","geo_precision":"city","state":"FL"},"type":"Feature","geometry":{"type":"Point","coordinates":[-80.193659,25.774266]}},{"properties":{"city":"Jasper","geo_score":0.857,"id":"a6crochn7t0t","geo_precision":"city","state":"GA"},"type":"Feature","geometry":{"type":"Point","coordinates":[-84.428243,34.469042]}},{"properties":{"city":"Kailua","geo_score":0.796,"id":"a6crocntnbqx","geo_precision":"city","state":"HI"},"type":"Feature","geometry":{"type":"Point","coordinates":[-157.948056,21.384722]}},{"properties":{"city":"Lake Arthur","geo_score":0.771,"id":"a6crocjg68ht","geo_precision":"city","state":"LA"},"type":"Feature","geometry":{"type":"Point","coordinates":[-90.852875,30.299917]}},{"properties":{"city":"Kalamazoo","geo_score":0.857,"id":"a6crocqqcybo","geo_precision":"city","state":"MI"},"type":"Feature","geometry":{"type":"Point","coordinates":[-85.588195,42.274887]}},{"properties":{"city":"Milaca","geo_score":0.857,"id":"a6crocel4nfj","geo_precision":"city","state":"MN"},"type":"Feature","geometry":{"type":"Point","coordinates":[-93.620355,45.90321]}},{"properties":{"city":"Kansas City","geo_score":0.857,"id":"a6crocb22icp","geo_precision":"city","state":"MO"},"type":"Feature","geometry":{"type":"Point","coordinates":[-94.598583,39.102404]}},{"properties":{"city":"Hernando","geo_score":0.857,"id":"a6crocjkhvr9","geo_precision":"city","state":"MS"},"type":"Feature","geometry":{"type":"Point","coordinates":[-89.994591,34.80684]}},{"properties":{"city":"Highland Park","geo_score":0.774,"id":"a6crocae0ec0","geo_precision":"city","state":"NJ"},"type":"Feature","geometry":{"type":"Point","coordinates":[-75.165452,40.572046]}},{"properties":{"city":"Keyport","geo_score":0.857,"id":"a6crocbpe46f","geo_precision":"city","state":"NJ"},"type":"Feature","geometry":{"type":"Point","coordinates":[-74.188087,40.438398]}},{"properties":{"city":"Dayton","geo_score":0.857,"id":"a6crocq8u0ut","geo_precision":"city","state":"OH"},"type":"Feature","geometry":{"type":"Point","coordinates":[-84.191607,39.758948]}},{"properties":{"city":"Newport","geo_score":0.857,"id":"a6crocejayrh","geo_precision":"city","state":"TN"},"type":"Feature","geometry":{"type":"Point","coordinates":[-83.159605,36.00244]}},{"properties":{"city":"Brentwood","geo_score":0.857,"id":"a6crochl7x96","geo_precision":"city","state":"TN"},"type":"Feature","geometry":{"type":"Point","coordinates":[-86.907565,35.874553]}},{"properties":{"city":"Fort Worth","geo_score":0.746,"id":"a6crocemnucx","geo_precision":"city","state":"TX"},"type":"Feature","geometry":{"type":"Point","coordinates":[-95.262161,31.108239]}},{"properties":{"city":"El Paso","geo_score":0.857,"id":"a6crockfc3e9","geo_precision":"city","state":"TX"},"type":"Feature","geometry":{"type":"Point","coordinates":[-106.486931,31.75872]}},{"properties":{"city":"Madison","geo_score":0.857,"id":"a6crocm9udlu","geo_precision":"city","state":"WI"},"type":"Feature","geometry":{"type":"Point","coordinates":[-89.40123,43.073052]}},{"properties":{"city":"Fort Smith","geo_score":0.0,"id":"a6crockqc53q","geo_precision":"unmatched","state":"AZ"},"type":"Feature","geometry":null},{"properties":{"city":"malibu","geo_score":0.857,"id":"a6crocqrf40q","geo_precision":"city","state":"CA"},"type":"Feature","geometry":{"type":"Point","coordinates":[-118.298662,33.786594]}},{"properties":{"city":"Santa Rosa","geo_score":0.73,"id":"a6crockjv2zh","geo_precision":"city","state":"CA"},"type":"Feature","geometry":{"type":"Point","coordinates":[-114.849692,34.083625]}},{"properties":{"city":"Sacramento","geo_score":0.857,"id":"a6crocnrqsss","geo_precision":"city","state":"CA"},"type":"Feature","geometry":{"type":"Point","coordinates":[-121.4944,38.581572]}},{"properties":{"city":"riverside","geo_score":0.857,"id":"a6crocd9n4y4","geo_precision":"city","state":"CA"},"type":"Feature","geometry":{"type":"Point","coordinates":[-117.396156,33.953349]}},{"properties":{"city":"Brooksville","geo_score":0.857,"id":"a6croco5sugm","geo_precision":"city","state":"FL"},"type":"Feature","geometry":{"type":"Point","coordinates":[-82.389551,28.537948]}},{"properties":{"city":"Morris","geo_score":0.857,"id":"a6crocilri1y","geo_precision":"city","state":"IL"},"type":"Feature","geometry":{"type":"Point","coordinates":[-88.430183,41.337433]}},{"properties":{"city":"Gambrills","geo_score":0.857,"id":"a6crocljsrme","geo_precision":"city","state":"MD"},"type":"Feature","geometry":{"type":"Point","coordinates":[-76.631238,39.048359]}},{"properties":{"city":"Brunswick","geo_score":0.768,"id":"a6crocjdlwu3","geo_precision":"city","state":"ME"},"type":"Feature","geometry":{"type":"Point","coordinates":[-69.932639,43.8867]}},{"properties":{"city":"St. Louis","geo_score":0.0,"id":"a6crocnoleg4","geo_precision":"unmatched","state":"MO"},"type":"Feature","geometry":null},{"properties":{"city":"Crestwood","geo_score":0.857,"id":"a6crocfxbhq4","geo_precision":"city","state":"MO"},"type":"Feature","geometry":{"type":"Point","coordinates":[-90.381785,38.556997]}},{"properties":{"city":"Winston Salem","geo_score":0.857,"id":"a6crockkf4yg","geo_precision":"city","state":"NC"},"type":"Feature","geometry":{"type":"Point","coordinates":[-80.244216,36.09986]}},{"properties":{"city":"Hammonton","geo_score":0.857,"id":"a6crocnwrnhg","geo_precision":"city","state":"NJ"},"type":"Feature","geometry":{"type":"Point","coordinates":[-74.711081,39.563616]}},{"properties":{"city":"Glassboro","geo_score":0.857,"id":"a6crocf9oi38","geo_precision":"city","state":"NJ"},"type":"Feature","geometry":{"type":"Point","coordinates":[-75.127183,39.696661]}},{"properties":{"city":"Silver City","geo_score":0.857,"id":"a6crochirvk6","geo_precision":"city","state":"NM"},"type":"Feature","geometry":{"type":"Point","coordinates":[-108.330764,32.853738]}},{"properties":{"city":"long beach","geo_score":0.857,"id":"a6croci6220t","geo_precision":"city","state":"NY"},"type":"Feature","geometry":{"type":"Point","coordinates":[-73.642323,40.589139]}},{"properties":{"city":"Findlay","geo_score":0.768,"id":"a6crocmnmrph","geo_precision":"city","state":"OH"},"type":"Feature","geometry":{"type":"Point","coordinates":[-84.242243,39.889006]}},{"properties":{"city":"Donora","geo_score":0.762,"id":"a6crocm7oyz3","geo_precision":"city","state":"PA"},"type":"Feature","geometry":{"type":"Point","coordinates":[-75.387681,40.581765]}},{"properties":{"city":"Memphis","geo_score":0.857,"id":"a6crocduvrrl","geo_precision":"city","state":"TN"},"type":"Feature","geometry":{"type":"Point","coordinates":[-90.04898,35.149534]}},{"properties":{"city":"dallas","geo_score":0.857,"id":"a6crocnch0yl","geo_precision":"city","state":"TX"},"type":"Feature","geometry":{"type":"Point","coordinates":[-96.806667,32.783056]}},{"properties":{"city":"Everett","geo_score":0.857,"id":"a6crocib6hl6","geo_precision":"city","state":"WA"},"type":"Feature","geometry":{"type":"Point","coordinates":[-122.202079,47.978985]}},{"properties":{"city":"milwaukee","geo_score":0.857,"id":"a6crocgiy7qa","geo_precision":"city","state":"WI"},"type":"Feature","geometry":{"type":"Point","coordinates":[-87.906474,43.038903]}},{"properties":{"city":"Washington","geo_score":0.857,"id":"a6crocjp6cmq","geo_precision":"city","state":"DC"},"type":"Feature","geometry":{"type":"Point","coordinates":[-77.036366,38.895112]}},{"properties":{"city":"Punta Gorda","geo_score":0.857,"id":"a6crocq4xi61","geo_precision":"city","state":"FL"},"type":"Feature","geometry":{"type":"Point","coordinates":[-82.045366,26.929784]}},{"properties":{"city":"Tucker","geo_score":0.857,"id":"a6crocmlcmfv","geo_precision":"city","state":"GA"},"type":"Feature","geometry":{"type":"Point","coordinates":[-84.215369,33.853945]}},{"properties":{"city":"alma","geo_score":0.8,"id":"a6croccqf00k","geo_precision":"city","state":"GA"},"type":"Feature","geometry":{"type":"Point","coordinates":[-82.82677,32.143021]}},{"properties":{"city":"St Simons Is","geo_score":0.0,"id":"a6crocm3bii8","geo_precision":"unmatched","state":"GA"},"type":"Feature","geometry":null},{"properties":{"city":"De Witt","geo_score":0.738,"id":"a6crocdxtk39","geo_precision":"city","state":"IA"},"type":"Feature","geometry":{"type":"Point","coordinates":[-91.332637,42.657488]}},{"properties":{"city":"Milford","geo_score":0.857,"id":"a6crochxb7nv","geo_precision":"city","state":"IA"},"type":"Feature","geometry":{"type":"Point","coordinates":[-95.208331,43.367677]}},{"properties":{"city":"Peru","geo_score":0.786,"id":"a6crocjsuaww","geo_precision":"city","state":"IL"},"type":"Feature","geometry":{"type":"Point","coordinates":[-89.588986,40.693649]}},{"properties":{"city":"fort scott","geo_score":0.73,"id":"a6crockfatds","geo_precision":"city","state":"KS"},"type":"Feature","geometry":{"type":"Point","coordinates":[-97.503085,38.991666]}},{"properties":{"city":"Waltham","geo_score":0.857,"id":"a6croccahhud","geo_precision":"city","state":"MA"},"type":"Feature","geometry":{"type":"Point","coordinates":[-71.2398,42.388938]}},{"properties":{"city":"Wannaska","geo_score":0.857,"id":"a6crocp78c26","geo_precision":"city","state":"MN"},"type":"Feature","geometry":{"type":"Point","coordinates":[-95.747559,48.769244]}},{"properties":{"city":"frontenac","geo_score":0.857,"id":"a6crocohwep7","geo_precision":"city","state":"MO"},"type":"Feature","geometry":{"type":"Point","coordinates":[-90.415118,38.635608]}},{"properties":{"city":null,"geo_score":0.0,"id":"a6crochazlek","geo_precision":"unmatched","state":"NV"},"type":"Feature","geometry":null},{"properties":{"city":"New Rochelle","geo_score":0.857,"id":"a6croccengz2","geo_precision":"city","state":"NY"},"type":"Feature","geometry":{"type":"Point","coordinates":[-73.801401,41.035123]}},{"properties":{"city":"bronx","geo_score":0.857,"id":"a6crociu9bwn","geo_precision":"city","state":"NY"},"type":"Feature","geometry":{"type":"Point","coordinates":[-73.920355,40.819329]}},{"properties":{"city":"St. John's Newfoundland","geo_score":0.586,"id":"a6crocqx3edq","geo_precision":"city","state":"Other"},"type":"Feature","geometry":{"type":"Point","coordinates":[-120.75384,40.042949]}},{"properties":{"city":"Fort Mill","geo_score":0.857,"id":"a6crocc9z9sq","geo_precision":"city","state":"SC"},"type":"Feature","geometry":{"type":"Point","coordinates":[-80.990828,35.050243]}},{"properties":{"city":"Smithville","geo_score":0.814,"id":"a6crocg572q6","geo_precision":"city","state":"TN"},"type":"Feature","geometry":{"type":"Point","coordinates":[-84.252142,35.279245]}},{"properties":{"city":"Electra","geo_score":0.786,"id":"a6crocnef1ko","geo_precision":"city","state":"TX"},"type":"Feature","geometry":{"type":"Point","coordinates":[-101.412944,35.71032]}},{"properties":{"city":"Electra","geo_score":0.786,"id":"a6crocgxmrz3","geo_precision":"city","state":"TX"},"type":"Feature","geometry":{"type":"Point","coordinates":[-101.412944,35.71032]}},{"properties":{"city":"Brady","geo_score":0.771,"id":"a6crocapodmr","geo_precision":"city","state":"TX"},"type":"Feature","geometry":{"type":"Point","coordinates":[-96.666379,32.210704]}},{"properties":{"city":"Georgetown","geo_score":0.857,"id":"a6crocklhdig","geo_precision":"city","state":"TX"},"type":"Feature","geometry":{"type":"Point","coordinates":[-97.574706,30.668034]}},{"properties":{"city":"mount nebo","geo_score":0.778,"id":"a6crocp8r8kz","geo_precision":"city","state":"WV"},"type":"Feature","geometry":{"type":"Point","coordinates":[-80.084524,38.988434]}},{"properties":{"city":"Logan","geo_score":0.771,"id":"a6crochk4yga","geo_precision":"city","state":"WV"},"type":"Feature","geometry":{"type":"Point","coordinates":[-81.997278,38.752312]}},{"properties":{"city":"Ontario","geo_score":0.857,"id":"a6crocdfuof4","geo_precision":"city","state":"CA"},"type":"Feature","geometry":{"type":"Point","coordinates":[-117.650888,34.063344]}},{"properties":{"city":"ft myers beach","geo_score":0.0,"id":"a6crociizh1c","geo_precision":"unmatched","state":"FL"},"type":"Feature","geometry":null},{"properties":{"city":"LAKE MARY","geo_score":0.857,"id":"a6crocfd4v9e","geo_precision":"city","state":"FL"},"type":"Feature","geometry":{"type":"Point","coordinates":[-81.350772,28.7577]}},{"properties":{"city":"Maxwell","geo_score":0.857,"id":"a6croclqjs9d","geo_precision":"city","state":"IA"},"type":"Feature","geometry":{"type":"Point","coordinates":[-93.395946,41.920999]}},{"properties":{"city":"Lake Charles","geo_score":0.857,"id":"a6crocoppiaq","geo_precision":"city","state":"LA"},"type":"Feature","geometry":{"type":"Point","coordinates":[-93.217376,30.226595]}},{"properties":{"city":"Hart","geo_score":0.857,"id":"a6crocgopyz8","geo_precision":"city","state":"MI"},"type":"Feature","geometry":{"type":"Point","coordinates":[-86.334122,43.700968]}},{"properties":{"city":"Cary","geo_score":0.821,"id":"a6croccklb02","geo_precision":"city","state":"NC"},"type":"Feature","geometry":{"type":"Point","coordinates":[-79.220017,36.211527]}},{"properties":{"city":"Cranbrook","geo_score":0.629,"id":"a6crocjwez1i","geo_precision":"city","state":"Other"},"type":"Feature","geometry":{"type":"Point","coordinates":[-87.647528,34.832587]}},{"properties":{"city":"Charlotte","geo_score":0.857,"id":"a6crocj384nl","geo_precision":"city","state":"TN"},"type":"Feature","geometry":{"type":"Point","coordinates":[-87.278993,36.232191]}},{"properties":{"city":"dallas","geo_score":0.857,"id":"a6crocm6lxcb","geo_precision":"city","state":"TX"},"type":"Feature","geometry":{"type":"Point","coordinates":[-96.806667,32.783056]}},{"properties":{"city":"Mission Viejo","geo_score":0.857,"id":"a6crock3rkhp","geo_precision":"city","state":"CA"},"type":"Feature","geometry":{"type":"Point","coordinates":[-117.769442,33.640302]}},{"properties":{"city":"Arcadia","geo_score":0.816,"id":"a6crocbx579n","geo_precision":"city","state":"CA"},"type":"Feature","geometry":{"type":"Point","coordinates":[-121.383092,38.610452]}},{"properties":{"city":"Holmes Beach","geo_score":0.857,"id":"a6crocjpobbv","geo_precision":"city","state":"FL"},"type":"Feature","geometry":{"type":"Point","coordinates":[-82.709871,27.499515]}},{"properties":{"city":"TV","geo_score":0.743,"id":"a6crocn6mrj6","geo_precision":"city","state":"FL"},"type":"Feature","geometry":{"type":"Point","coordinates":[-80.233104,26.062867]}},{"properties":{"city":"Holmes Beach","geo_score":0.857,"id":"a6crocgz6u9i","geo_precision":"city","state":"FL"},"type":"Feature","geometry":{"type":"Point","coordinates":[-82.709871,27.499515]}},{"properties":{"city":"Lakeville","geo_score":0.857,"id":"a6crocpyq41v","geo_precision":"city","state":"MA"},"type":"Feature","geometry":{"type":"Point","coordinates":[-70.959981,41.843757]}},{"properties":{"city":"Hannawa Falls","geo_score":0.738,"id":"a6croclld5j7","geo_precision":"city","state":"NY"},"type":"Feature","geometry":{"type":"Point","coordinates":[-76.877181,42.534793]}},{"properties":{"city":"Ladera Ranch","geo_score":0.792,"id":"a6crocbyagj7","geo_precision":"city","state":"CA"},"type":"Feature","geometry":{"type":"Point","coordinates":[-122.198299,37.39994]}},{"properties":{"city":"Kerman","geo_score":0.81,"id":"a6crocgq6shp","geo_precision":"city","state":"CA"},"type":"Feature","geometry":{"type":"Point","coordinates":[-118.852596,34.79609]}},{"properties":{"city":"San Diego","geo_score":0.857,"id":"a6crocn2jug5","geo_precision":"city","state":"CA"},"type":"Feature","geometry":{"type":"Point","coordinates":[-117.157255,32.715329]}},{"properties":{"city":"Kissimmee","geo_score":0.857,"id":"a6crocb4vo9c","geo_precision":"city","state":"FL"},"type":"Feature","geometry":{"type":"Point","coordinates":[-81.407571,28.291956]}},{"properties":{"city":"Kissimmee","geo_score":0.857,"id":"a6crocgxhoz0","geo_precision":"city","state":"FL"},"type":"Feature","geometry":{"type":"Point","coordinates":[-81.407571,28.291956]}},{"properties":{"city":"bradenton","geo_score":0.857,"id":"a6crocn6cxmo","geo_precision":"city","state":"FL"},"type":"Feature","geometry":{"type":"Point","coordinates":[-82.574819,27.498928]}},{"properties":{"city":"Winter Have","geo_score":0.844,"id":"a6crocjp97z6","geo_precision":"city","state":"FL"},"type":"Feature","geometry":{"type":"Point","coordinates":[-81.762456,27.987284]}},{"properties":{"city":"Kissimmee","geo_score":0.857,"id":"a6crocgboqit","geo_precision":"city","state":"FL"},"type":"Feature","geometry":{"type":"Point","coordinates":[-81.407571,28.291956]}},{"properties":{"city":"Cheney","geo_score":0.776,"id":"a6crocnkkqvq","geo_precision":"city","state":"KS"},"type":"Feature","geometry":{"type":"Point","coordinates":[-94.720238,39.041672]}},{"properties":{"city":"Portage","geo_score":0.857,"id":"a6crocbpl1aq","geo_precision":"city","state":"MI"},"type":"Feature","geometry":{"type":"Point","coordinates":[-85.563901,42.193793]}},{"properties":{"city":"St. Louis","geo_score":0.0,"id":"a6crocd4vgno","geo_precision":"unmatched","state":"MO"},"type":"Feature","geometry":null},{"properties":{"city":"St. Louis","geo_score":0.0,"id":"a6crocj2d4qr","geo_precision":"unmatched","state":"MO"},"type":"Feature","geometry":null},{"properties":{"city":"Calverton","geo_score":0.746,"id":"a6crocc62xc2","geo_precision":"city","state":"NY"},"type":"Feature","geometry":{"type":"Point","coordinates":[-76.285209,43.381736]}},{"properties":{"city":"Moncton","geo_score":0.649,"id":"a6crocl5c8if","geo_precision":"city","state":"Other"},"type":"Feature","geometry":{"type":"Point","coordinates":[-73.144011,44.237555]}},{"properties":{"city":"Georgetown","geo_score":0.0,"id":"a6crocfts77q","geo_precision":"unmatched","state":"TN"},"type":"Feature","geometry":null},{"properties":{"city":"Janesville","geo_score":0.857,"id":"a6crocnu604z","geo_precision":"city","state":"WI"},"type":"Feature","geometry":{"type":"Point","coordinates":[-89.112201,42.710981]}},{"properties":{"city":"Blythe","geo_score":0.857,"id":"a6crocl5q14n","geo_precision":"city","state":"CA"},"type":"Feature","geometry":{"type":"Point","coordinates":[-115.723001,33.756749]}},{"properties":{"city":"Brentwood","geo_score":0.857,"id":"a6crocdm7583","geo_precision":"city","state":"CA"},"type":"Feature","geometry":{"type":"Point","coordinates":[-118.473969,34.051954]}},{"properties":{"city":"New London","geo_score":0.857,"id":"a6crocgbfs49","geo_precision":"city","state":"CT"},"type":"Feature","geometry":{"type":"Point","coordinates":[-72.10907,41.413998]}},{"properties":{"city":"stratford","geo_score":0.814,"id":"a6crocmt1f2u","geo_precision":"city","state":"CT"},"type":"Feature","geometry":{"type":"Point","coordinates":[-73.235948,41.206763]}},{"properties":{"city":"Juliette","geo_score":0.857,"id":"a6croclmogoi","geo_precision":"city","state":"GA"},"type":"Feature","geometry":{"type":"Point","coordinates":[-83.803166,33.027607]}},{"properties":{"city":"Lewisport","geo_score":0.857,"id":"a6crocf7pe7h","geo_precision":"city","state":"KY"},"type":"Feature","geometry":{"type":"Point","coordinates":[-86.882034,37.911077]}},{"properties":{"city":"Brockton","geo_score":0.857,"id":"a6crocdegaul","geo_precision":"city","state":"MA"},"type":"Feature","geometry":{"type":"Point","coordinates":[-71.018379,42.083434]}},{"properties":{"city":"mooresville","geo_score":0.81,"id":"a6crocarighl","geo_precision":"city","state":"NC"},"type":"Feature","geometry":{"type":"Point","coordinates":[-77.847484,34.295725]}},{"properties":{"city":"Bessemer","geo_score":0.0,"id":"a6crocbkrcew","geo_precision":"unmatched","state":"NC"},"type":"Feature","geometry":null},{"properties":{"city":"Superior","geo_score":0.857,"id":"a6crocer5w1j","geo_precision":"city","state":"NE"},"type":"Feature","geometry":{"type":"Point","coordinates":[-98.069593,40.036673]}},{"properties":{"city":"Dover","geo_score":0.857,"id":"a6crocnnp7z3","geo_precision":"city","state":"NH"},"type":"Feature","geometry":{"type":"Point","coordinates":[-70.992042,43.297309]}},{"properties":{"city":"CARSON CITY","geo_score":0.857,"id":"a6crocgjgzyy","geo_precision":"city","state":"NV"},"type":"Feature","geometry":{"type":"Point","coordinates":[-119.73074,39.154485]}},{"properties":{"city":"Boardman","geo_score":0.857,"id":"a6crocpgsxt4","geo_precision":"city","state":"OH"},"type":"Feature","geometry":{"type":"Point","coordinates":[-80.662853,41.024226]}},{"properties":{"city":"Port Loring","geo_score":0.657,"id":"a6crocp6oiji","geo_precision":"city","state":"Other"},"type":"Feature","geometry":{"type":"Point","coordinates":[-94.908577,39.013893]}},{"properties":{"city":"Praha 5","geo_score":0.69,"id":"a6croceysw0l","geo_precision":"city","state":"Other"},"type":"Feature","geometry":{"type":"Point","coordinates":[-97.067207,29.668289]}},{"properties":{"city":"Brookings","geo_score":0.857,"id":"a6crocjhcp63","geo_precision":"city","state":"SD"},"type":"Feature","geometry":{"type":"Point","coordinates":[-96.762102,44.355091]}},{"properties":{"city":"Ardmore","geo_score":0.857,"id":"a6crocjhpvlz","geo_precision":"city","state":"TN"},"type":"Feature","geometry":{"type":"Point","coordinates":[-86.846669,34.992029]}},{"properties":{"city":"Ardmore","geo_score":0.857,"id":"a6croccja5pd","geo_precision":"city","state":"TN"},"type":"Feature","geometry":{"type":"Point","coordinates":[-86.846669,34.992029]}},{"properties":{"city":"Memphis","geo_score":0.857,"id":"a6crocbizjbq","geo_precision":"city","state":"TN"},"type":"Feature","geometry":{"type":"Point","coordinates":[-90.04898,35.149534]}},{"properties":{"city":"Houston","geo_score":0.816,"id":"a6croccd7dyn","geo_precision":"city","state":"TX"},"type":"Feature","geometry":{"type":"Point","coordinates":[-96.919704,29.845783]}},{"properties":{"city":"Pullman","geo_score":0.857,"id":"a6crocqnq4b8","geo_precision":"city","state":"WA"},"type":"Feature","geometry":{"type":"Point","coordinates":[-117.317741,46.82748]}},{"properties":{"city":"Sacramento","geo_score":0.857,"id":"a6crocp37p3j","geo_precision":"city","state":"CA"},"type":"Feature","geometry":{"type":"Point","coordinates":[-121.4944,38.581572]}},{"properties":{"city":"Olema","geo_score":0.857,"id":"a6crocm0gl8p","geo_precision":"city","state":"CA"},"type":"Feature","geometry":{"type":"Point","coordinates":[-122.769854,38.046703]}},{"properties":{"city":"El Segundo","geo_score":0.857,"id":"a6croclcvwx0","geo_precision":"city","state":"CA"},"type":"Feature","geometry":{"type":"Point","coordinates":[-118.298662,33.786594]}},{"properties":{"city":"Wheat Ridge","geo_score":0.857,"id":"a6croch9mv8x","geo_precision":"city","state":"CO"},"type":"Feature","geometry":{"type":"Point","coordinates":[-105.108182,39.776986]}},{"properties":{"city":"Washington","geo_score":0.714,"id":"a6crocfcnylw","geo_precision":"city","state":"D.C."},"type":"Feature","geometry":{"type":"Point","coordinates":[-77.036366,38.895112]}},{"properties":{"city":"frankford","geo_score":0.857,"id":"a6croco5qug4","geo_precision":"city","state":"DE"},"type":"Feature","geometry":{"type":"Point","coordinates":[-75.157634,38.55144]}},{"properties":{"city":"Lawrence","geo_score":0.857,"id":"a6crocpaaxgr","geo_precision":"city","state":"KS"},"type":"Feature","geometry":{"type":"Point","coordinates":[-95.283982,38.907518]}},{"properties":{"city":"Augusta","geo_score":0.857,"id":"a6crocmazr0r","geo_precision":"city","state":"KS"},"type":"Feature","geometry":{"type":"Point","coordinates":[-96.970128,37.674347]}},{"properties":{"city":"lewisport","geo_score":0.857,"id":"a6crocla4my9","geo_precision":"city","state":"KY"},"type":"Feature","geometry":{"type":"Point","coordinates":[-86.882034,37.911077]}},{"properties":{"city":"Marthasville","geo_score":0.857,"id":"a6crocdbhkgn","geo_precision":"city","state":"MO"},"type":"Feature","geometry":{"type":"Point","coordinates":[-91.151576,38.651157]}},{"properties":{"city":"Hill","geo_score":0.857,"id":"a6crocamkx5y","geo_precision":"city","state":"NH"},"type":"Feature","geometry":{"type":"Point","coordinates":[-71.762631,43.443473]}},{"properties":{"city":"Lexington","geo_score":0.857,"id":"a6croccuubcx","geo_precision":"city","state":"OH"},"type":"Feature","geometry":{"type":"Point","coordinates":[-81.104542,40.962003]}},{"properties":{"city":"Geneva","geo_score":0.857,"id":"a6crocohduag","geo_precision":"city","state":"OH"},"type":"Feature","geometry":{"type":"Point","coordinates":[-82.433489,39.662011]}},{"properties":{"city":"Moon Twp.","geo_score":0.796,"id":"a6crocbtsk4g","geo_precision":"city","state":"PA"},"type":"Feature","geometry":{"type":"Point","coordinates":[-80.239226,40.508957]}},{"properties":{"city":"Memphis","geo_score":0.857,"id":"a6croch7xkx2","geo_precision":"city","state":"TN"},"type":"Feature","geometry":{"type":"Point","coordinates":[-90.04898,35.149534]}},{"properties":{"city":"Middleton","geo_score":0.857,"id":"a6crocbj4zj5","geo_precision":"city","state":"WI"},"type":"Feature","geometry":{"type":"Point","coordinates":[-89.529153,43.114772]}},{"properties":{"city":"Tracy","geo_score":0.755,"id":"a6crocanyiev","geo_precision":"city","state":"CA"},"type":"Feature","geometry":{"type":"Point","coordinates":[-119.253446,36.417728]}},{"properties":{"city":"Tracy","geo_score":0.755,"id":"a6crocm99h3w","geo_precision":"city","state":"CA"},"type":"Feature","geometry":{"type":"Point","coordinates":[-119.253446,36.417728]}},{"properties":{"city":"Sun City","geo_score":0.778,"id":"a6crocga5zpb","geo_precision":"city","state":"CA"},"type":"Feature","geometry":{"type":"Point","coordinates":[-117.016416,32.67422]}},{"properties":{"city":"East Hartford","geo_score":0.81,"id":"a6crocq319bt","geo_precision":"city","state":"CT"},"type":"Feature","geometry":{"type":"Point","coordinates":[-72.685093,41.763711]}},{"properties":{"city":"Homestead","geo_score":0.857,"id":"a6croccn27rz","geo_precision":"city","state":"FL"},"type":"Feature","geometry":{"type":"Point","coordinates":[-80.477557,25.468722]}},{"properties":{"city":"hollywood","geo_score":0.857,"id":"a6croceqcbat","geo_precision":"city","state":"FL"},"type":"Feature","geometry":{"type":"Point","coordinates":[-80.14949,26.011201]}},{"properties":{"city":"South Bend","geo_score":0.857,"id":"a6crocpmrbmp","geo_precision":"city","state":"IN"},"type":"Feature","geometry":{"type":"Point","coordinates":[-86.250007,41.683381]}},{"properties":{"city":"Deridder","geo_score":0.857,"id":"a6crocmun7le","geo_precision":"city","state":"LA"},"type":"Feature","geometry":{"type":"Point","coordinates":[-93.299574,30.651656]}},{"properties":{"city":"Vineland","geo_score":0.857,"id":"a6crocksvx8r","geo_precision":"city","state":"NJ"},"type":"Feature","geometry":{"type":"Point","coordinates":[-75.025676,39.392671]}},{"properties":{"city":"eightyfour","geo_score":0.857,"id":"a6crocgvq35s","geo_precision":"city","state":"PA"},"type":"Feature","geometry":{"type":"Point","coordinates":[-80.099336,40.17557]}},{"properties":{"city":"Donora","geo_score":0.762,"id":"a6crocg5wosr","geo_precision":"city","state":"PA"},"type":"Feature","geometry":{"type":"Point","coordinates":[-75.387681,40.581765]}},{"properties":{"city":"Mission","geo_score":0.796,"id":"a6crochc4xw8","geo_precision":"city","state":"TX"},"type":"Feature","geometry":{"type":"Point","coordinates":[-95.210225,32.088773]}},{"properties":{"city":"Huntsville","geo_score":0.857,"id":"a6crocns0gd7","geo_precision":"city","state":"AL"},"type":"Feature","geometry":{"type":"Point","coordinates":[-86.556439,34.718428]}},{"properties":{"city":"Laguna Woods","geo_score":0.857,"id":"a6crocag7d2p","geo_precision":"city","state":"CA"},"type":"Feature","geometry":{"type":"Point","coordinates":[-117.725331,33.610301]}},{"properties":{"city":"Laguna Woods","geo_score":0.857,"id":"a6crocer15a3","geo_precision":"city","state":"CA"},"type":"Feature","geometry":{"type":"Point","coordinates":[-117.725331,33.610301]}},{"properties":{"city":"Tallahassee","geo_score":0.857,"id":"a6crocbsgfkk","geo_precision":"city","state":"FL"},"type":"Feature","geometry":{"type":"Point","coordinates":[-84.280733,30.438256]}},{"properties":{"city":"Davenport","geo_score":0.857,"id":"a6crocjk0pv4","geo_precision":"city","state":"FL"},"type":"Feature","geometry":{"type":"Point","coordinates":[-81.631589,28.167211]}},{"properties":{"city":"Shelby","geo_score":0.857,"id":"a6crocqkqb2u","geo_precision":"city","state":"MT"},"type":"Feature","geometry":{"type":"Point","coordinates":[-111.73233,48.610551]}},{"properties":{"city":"Charelston","geo_score":0.782,"id":"a6crocjknnwr","geo_precision":"city","state":"SC"},"type":"Feature","geometry":{"type":"Point","coordinates":[-79.970643,32.85712]}},{"properties":{"city":"Tuscaloosa","geo_score":0.857,"id":"a6crocnwndc1","geo_precision":"city","state":"AL"},"type":"Feature","geometry":{"type":"Point","coordinates":[-87.569174,33.209841]}},{"properties":{"city":"Thomasville","geo_score":0.857,"id":"a6crocpu8j8o","geo_precision":"city","state":"AL"},"type":"Feature","geometry":{"type":"Point","coordinates":[-87.769476,31.745135]}},{"properties":{"city":"Rancho Murieta","geo_score":0.747,"id":"a6crockgamsx","geo_precision":"city","state":"CA"},"type":"Feature","geometry":{"type":"Point","coordinates":[-118.007297,33.900863]}},{"properties":{"city":"Rancho Murieta","geo_score":0.747,"id":"a6crocl56u9a","geo_precision":"city","state":"CA"},"type":"Feature","geometry":{"type":"Point","coordinates":[-118.007297,33.900863]}},{"properties":{"city":"Clearwater","geo_score":0.857,"id":"a6crocpyyypy","geo_precision":"city","state":"FL"},"type":"Feature","geometry":{"type":"Point","coordinates":[-82.800103,27.965853]}},{"properties":{"city":"Richmond","geo_score":0.857,"id":"a6crociufxy7","geo_precision":"city","state":"IN"},"type":"Feature","geometry":{"type":"Point","coordinates":[-85.010442,39.84081]}},{"properties":{"city":"Fort Wayne","geo_score":0.857,"id":"a6crocql7nde","geo_precision":"city","state":"IN"},"type":"Feature","geometry":{"type":"Point","coordinates":[-85.12886,41.130604]}},{"properties":{"city":"TERRE HAUTE","geo_score":0.857,"id":"a6croce9euya","geo_precision":"city","state":"IN"},"type":"Feature","geometry":{"type":"Point","coordinates":[-87.413909,39.466703]}},{"properties":{"city":"Myersville","geo_score":0.857,"id":"a6crocg3uo7o","geo_precision":"city","state":"MD"},"type":"Feature","geometry":{"type":"Point","coordinates":[-77.556275,39.550036]}},{"properties":{"city":"Smiths Creek","geo_score":0.857,"id":"a6crocn02c5y","geo_precision":"city","state":"MI"},"type":"Feature","geometry":{"type":"Point","coordinates":[-82.567942,42.905056]}},{"properties":{"city":"Rush City","geo_score":0.75,"id":"a6crocfpnj8r","geo_precision":"city","state":"MN"},"type":"Feature","geometry":{"type":"Point","coordinates":[-93.145728,47.958816]}},{"properties":{"city":"Bismarck","geo_score":0.857,"id":"a6croci4eifw","geo_precision":"city","state":"ND"},"type":"Feature","geometry":{"type":"Point","coordinates":[-100.769066,46.810594]}},{"properties":{"city":"Pomeroy","geo_score":0.857,"id":"a6crocetrik1","geo_precision":"city","state":"OH"},"type":"Feature","geometry":{"type":"Point","coordinates":[-82.069422,39.07866]}},{"properties":{"city":"Cleveland","geo_score":0.857,"id":"a6crocg4iolh","geo_precision":"city","state":"OH"},"type":"Feature","geometry":{"type":"Point","coordinates":[-81.695409,41.499495]}},{"properties":{"city":"Claremore","geo_score":0.857,"id":"a6crocc13uej","geo_precision":"city","state":"OK"},"type":"Feature","geometry":{"type":"Point","coordinates":[-95.604344,36.348616]}},{"properties":{"city":"Rapid City","geo_score":0.857,"id":"a6crocmzybid","geo_precision":"city","state":"SD"},"type":"Feature","geometry":{"type":"Point","coordinates":[-103.231015,44.080543]}},{"properties":{"city":"San Antonio","geo_score":0.857,"id":"a6crocq45f9g","geo_precision":"city","state":"TX"},"type":"Feature","geometry":{"type":"Point","coordinates":[-98.493628,29.424122]}},{"properties":{"city":"Seattle","geo_score":0.857,"id":"a6crockzta42","geo_precision":"city","state":"WA"},"type":"Feature","geometry":{"type":"Point","coordinates":[-122.332071,47.60621]}},{"properties":{"city":"athens","geo_score":0.857,"id":"a6croclzi3h2","geo_precision":"city","state":"AL"},"type":"Feature","geometry":{"type":"Point","coordinates":[-87.103488,34.764976]}},{"properties":{"city":"Victoria","geo_score":0.0,"id":"a6crocjazpbm","geo_precision":"unmatched","state":"Bc"},"type":"Feature","geometry":null},{"properties":{"city":"San Diego","geo_score":0.857,"id":"a6croci3qo5f","geo_precision":"city","state":"CA"},"type":"Feature","geometry":{"type":"Point","coordinates":[-117.157255,32.715329]}},{"properties":{"city":"Santa Maria","geo_score":0.743,"id":"a6crocmtksjq","geo_precision":"city","state":"CA"},"type":"Feature","geometry":{"type":"Point","coordinates":[-123.34501,39.398219]}},{"properties":{"city":"SUN CITY","geo_score":0.778,"id":"a6croccxmlzr","geo_precision":"city","state":"CA"},"type":"Feature","geometry":{"type":"Point","coordinates":[-117.016416,32.67422]}},{"properties":{"city":"New Fairfield","geo_score":0.821,"id":"a6crocfhsocm","geo_precision":"city","state":"CT"},"type":"Feature","geometry":{"type":"Point","coordinates":[-73.282408,41.175173]}},{"properties":{"city":"Jupiter","geo_score":0.857,"id":"a6croccbq78g","geo_precision":"city","state":"FL"},"type":"Feature","geometry":{"type":"Point","coordinates":[-80.430269,26.645895]}},{"properties":{"city":"St. Cloud","geo_score":0.0,"id":"a6croch9qhvt","geo_precision":"unmatched","state":"FL"},"type":"Feature","geometry":null},{"properties":{"city":"Mason","geo_score":0.857,"id":"a6crocc27hti","geo_precision":"city","state":"MI"},"type":"Feature","geometry":{"type":"Point","coordinates":[-88.465676,47.141038]}},{"properties":{"city":"Las Vegas","geo_score":0.857,"id":"a6crocdyox6q","geo_precision":"city","state":"NV"},"type":"Feature","geometry":{"type":"Point","coordinates":[-115.137223,36.174971]}},{"properties":{"city":"Buffalo","geo_score":0.857,"id":"a6croco1chhj","geo_precision":"city","state":"NY"},"type":"Feature","geometry":{"type":"Point","coordinates":[-78.878369,42.886447]}},{"properties":{"city":"Queens","geo_score":0.738,"id":"a6croccy65rf","geo_precision":"city","state":"NY"},"type":"Feature","geometry":{"type":"Point","coordinates":[-78.215299,43.285058]}},{"properties":{"city":"Oberlin","geo_score":0.798,"id":"a6croccruya0","geo_precision":"city","state":"OH"},"type":"Feature","geometry":{"type":"Point","coordinates":[-82.507671,41.382826]}},{"properties":{"city":"Oberlin","geo_score":0.798,"id":"a6crocd4j3h2","geo_precision":"city","state":"OH"},"type":"Feature","geometry":{"type":"Point","coordinates":[-82.507671,41.382826]}},{"properties":{"city":"Woodward","geo_score":0.857,"id":"a6crocevpdpl","geo_precision":"city","state":"OK"},"type":"Feature","geometry":{"type":"Point","coordinates":[-99.442977,36.438017]}},{"properties":{"city":"Woodward","geo_score":0.857,"id":"a6croch50jvd","geo_precision":"city","state":"OK"},"type":"Feature","geometry":{"type":"Point","coordinates":[-99.442977,36.438017]}},{"properties":{"city":"Woodward","geo_score":0.857,"id":"a6crocfj1fzy","geo_precision":"city","state":"OK"},"type":"Feature","geometry":{"type":"Point","coordinates":[-99.442977,36.438017]}},{"properties":{"city":"Norman","geo_score":0.857,"id":"a6crocporqlb","geo_precision":"city","state":"OK"},"type":"Feature","geometry":{"type":"Point","coordinates":[-97.44451,35.208566]}},{"properties":{"city":"Ashland","geo_score":0.857,"id":"a6crocmoz0cr","geo_precision":"city","state":"OR"},"type":"Feature","geometry":{"type":"Point","coordinates":[-122.537356,42.148098]}},{"properties":{"city":"Villahermosa","geo_score":0.622,"id":"a6crocqeensf","geo_precision":"city","state":"Other"},"type":"Feature","geometry":{"type":"Point","coordinates":[-86.687136,34.541985]}},{"properties":{"city":"Anderson","geo_score":0.786,"id":"a6croclh17l1","geo_precision":"city","state":"SC"},"type":"Feature","geometry":{"type":"Point","coordinates":[-79.409083,33.435562]}},{"properties":{"city":"Friendswood","geo_score":0.857,"id":"a6crocftwdw8","geo_precision":"city","state":"TX"},"type":"Feature","geometry":{"type":"Point","coordinates":[-95.156545,29.482185]}},{"properties":{"city":"Roanoke","geo_score":0.857,"id":"a6crocie6c92","geo_precision":"city","state":"VA"},"type":"Feature","geometry":{"type":"Point","coordinates":[-79.941427,37.27097]}},{"properties":{"city":"Tekoa","geo_score":0.857,"id":"a6crocijjq40","geo_precision":"city","state":"WA"},"type":"Feature","geometry":{"type":"Point","coordinates":[-117.096157,47.226641]}},{"properties":{"city":"Tucson","geo_score":0.857,"id":"a6crocflp89h","geo_precision":"city","state":"AZ"},"type":"Feature","geometry":{"type":"Point","coordinates":[-110.926479,32.221743]}},{"properties":{"city":"Ladera Ranch","geo_score":0.792,"id":"a6crocayzuqz","geo_precision":"city","state":"CA"},"type":"Feature","geometry":{"type":"Point","coordinates":[-122.198299,37.39994]}},{"properties":{"city":"Morgan Hill","geo_score":0.857,"id":"a6crocizm46t","geo_precision":"city","state":"CA"},"type":"Feature","geometry":{"type":"Point","coordinates":[-121.681557,37.130238]}},{"properties":{"city":"Finley","geo_score":0.857,"id":"a6croced7fvf","geo_precision":"city","state":"CA"},"type":"Feature","geometry":{"type":"Point","coordinates":[-122.859625,39.00686]}},{"properties":{"city":"Normal","geo_score":0.857,"id":"a6crocclbkkz","geo_precision":"city","state":"IL"},"type":"Feature","geometry":{"type":"Point","coordinates":[-88.7989,40.530375]}},{"properties":{"city":"Baltimore","geo_score":0.857,"id":"a6croccs8ses","geo_precision":"city","state":"MD"},"type":"Feature","geometry":{"type":"Point","coordinates":[-76.612189,39.290385]}},{"properties":{"city":"Jackson","geo_score":0.857,"id":"a6croch7je3q","geo_precision":"city","state":"MS"},"type":"Feature","geometry":{"type":"Point","coordinates":[-90.18481,32.298757]}},{"properties":{"city":"FIndlay","geo_score":0.768,"id":"a6croce4ti7a","geo_precision":"city","state":"OH"},"type":"Feature","geometry":{"type":"Point","coordinates":[-84.242243,39.889006]}},{"properties":{"city":"Alliance","geo_score":0.857,"id":"a6crochvaza3","geo_precision":"city","state":"OH"},"type":"Feature","geometry":{"type":"Point","coordinates":[-81.335275,40.820292]}},{"properties":{"city":"Concho","geo_score":0.857,"id":"a6croccehxiw","geo_precision":"city","state":"OK"},"type":"Feature","geometry":{"type":"Point","coordinates":[-97.992347,35.525192]}},{"properties":{"city":"Ashland","geo_score":0.857,"id":"a6crocnzdowt","geo_precision":"city","state":"OR"},"type":"Feature","geometry":{"type":"Point","coordinates":[-122.537356,42.148098]}},{"properties":{"city":"Vermillion","geo_score":0.857,"id":"a6crocertlln","geo_precision":"city","state":"SD"},"type":"Feature","geometry":{"type":"Point","coordinates":[-96.973318,42.854124]}},{"properties":{"city":"Spokane","geo_score":0.857,"id":"a6crocjufd28","geo_precision":"city","state":"WA"},"type":"Feature","geometry":{"type":"Point","coordinates":[-117.426047,47.65878]}},{"properties":{"city":"Los Angeles","geo_score":0.857,"id":"a6crocjfvnx5","geo_precision":"city","state":"CA"},"type":"Feature","geometry":{"type":"Point","coordinates":[-118.243685,34.052234]}},{"properties":{"city":"Coronado","geo_score":0.857,"id":"a6crocds5wuq","geo_precision":"city","state":"CA"},"type":"Feature","geometry":{"type":"Point","coordinates":[-117.160815,32.656176]}},{"properties":{"city":"Los Angeles","geo_score":0.857,"id":"a6crocqg7i7n","geo_precision":"city","state":"CA"},"type":"Feature","geometry":{"type":"Point","coordinates":[-118.243685,34.052234]}},{"properties":{"city":"Danville","geo_score":0.81,"id":"a6croci9ie00","geo_precision":"city","state":"CA"},"type":"Feature","geometry":{"type":"Point","coordinates":[-119.09066,36.248561]}},{"properties":{"city":null,"geo_score":0.0,"id":"a6crocltlbmy","geo_precision":"unmatched","state":"IL"},"type":"Feature","geometry":null},{"properties":{"city":"Carmel","geo_score":0.857,"id":"a6crock72rud","geo_precision":"city","state":"IN"},"type":"Feature","geometry":{"type":"Point","coordinates":[-86.117215,40.071102]}},{"properties":{"city":"RUIDOSO DOWNS","geo_score":0.798,"id":"a6crocid5kku","geo_precision":"city","state":"NM"},"type":"Feature","geometry":{"type":"Point","coordinates":[-105.688274,33.474521]}},{"properties":{"city":"Oberlin","geo_score":0.798,"id":"a6crocfqaznj","geo_precision":"city","state":"OH"},"type":"Feature","geometry":{"type":"Point","coordinates":[-82.507671,41.382826]}},{"properties":{"city":"Fredricksburg","geo_score":0.847,"id":"a6crocaoo3c8","geo_precision":"city","state":"TX"},"type":"Feature","geometry":{"type":"Point","coordinates":[-98.8936,30.313385]}},{"properties":{"city":"Roanoke","geo_score":0.857,"id":"a6crocec741e","geo_precision":"city","state":"VA"},"type":"Feature","geometry":{"type":"Point","coordinates":[-79.941427,37.27097]}},{"properties":{"city":"Ferndale","geo_score":0.857,"id":"a6crocolp4ml","geo_precision":"city","state":"WA"},"type":"Feature","geometry":{"type":"Point","coordinates":[-122.608561,48.861113]}},{"properties":{"city":"MOBILE","geo_score":0.857,"id":"a6crocow04q2","geo_precision":"city","state":"AL"},"type":"Feature","geometry":{"type":"Point","coordinates":[-88.043054,30.694357]}},{"properties":{"city":"mobile","geo_score":0.857,"id":"a6croclxf8j9","geo_precision":"city","state":"AL"},"type":"Feature","geometry":{"type":"Point","coordinates":[-88.043054,30.694357]}},{"properties":{"city":"Apex","geo_score":0.857,"id":"a6crocnkjpsg","geo_precision":"city","state":"NC"},"type":"Feature","geometry":{"type":"Point","coordinates":[-78.860891,35.727018]}},{"properties":{"city":"Apex","geo_score":0.857,"id":"a6crocovt6y3","geo_precision":"city","state":"NC"},"type":"Feature","geometry":{"type":"Point","coordinates":[-78.860891,35.727018]}},{"properties":{"city":"Apex","geo_score":0.857,"id":"a6crocmf4t89","geo_precision":"city","state":"NC"},"type":"Feature","geometry":{"type":"Point","coordinates":[-78.860891,35.727018]}},{"properties":{"city":"Apex","geo_score":0.857,"id":"a6crocigdiqf","geo_precision":"city","state":"NC"},"type":"Feature","geometry":{"type":"Point","coordinates":[-78.860891,35.727018]}},{"properties":{"city":"Albquerque","geo_score":0.844,"id":"a6crocda04q7","geo_precision":"city","state":"NM"},"type":"Feature","geometry":{"type":"Point","coordinates":[-106.651137,35.084491]}},{"properties":{"city":"celebration","geo_score":0.857,"id":"a6crocfo9lox","geo_precision":"city","state":"FL"},"type":"Feature","geometry":{"type":"Point","coordinates":[-81.533129,28.325288]}},{"properties":{"city":"celebration","geo_score":0.857,"id":"a6crocaf621e","geo_precision":"city","state":"FL"},"type":"Feature","geometry":{"type":"Point","coordinates":[-81.533129,28.325288]}},{"properties":{"city":"celebration","geo_score":0.857,"id":"a6crocm63e1g","geo_precision":"city","state":"FL"},"type":"Feature","geometry":{"type":"Point","coordinates":[-81.533129,28.325288]}},{"properties":{"city":"celebration","geo_score":0.857,"id":"a6crockx0tzp","geo_precision":"city","state":"FL"},"type":"Feature","geometry":{"type":"Point","coordinates":[-81.533129,28.325288]}},{"properties":{"city":"lady lake","geo_score":0.75,"id":"a6crocm1ie5w","geo_precision":"city","state":"FL"},"type":"Feature","geometry":{"type":"Point","coordinates":[-82.12691,30.047063]}},{"properties":{"city":"Lihue","geo_score":0.857,"id":"a6croclapaak","geo_precision":"city","state":"HI"},"type":"Feature","geometry":{"type":"Point","coordinates":[-159.430328,22.070553]}},{"properties":{"city":"Apex","geo_score":0.857,"id":"a6crocl7zpi7","geo_precision":"city","state":"NC"},"type":"Feature","geometry":{"type":"Point","coordinates":[-78.860891,35.727018]}},{"properties":{"city":"Guntersville","geo_score":0.857,"id":"a6croco5aetn","geo_precision":"city","state":"AL"},"type":"Feature","geometry":{"type":"Point","coordinates":[-86.27518,34.344851]}},{"properties":{"city":"metairie","geo_score":0.857,"id":"a6crocp3x69h","geo_precision":"city","state":"LA"},"type":"Feature","geometry":{"type":"Point","coordinates":[-90.152852,29.984092]}},{"properties":{"city":"east hampton","geo_score":0.753,"id":"a6crocb7gbq0","geo_precision":"city","state":"NY"},"type":"Feature","geometry":{"type":"Point","coordinates":[-72.394252,40.909267]}},{"properties":{"city":"Coronado","geo_score":0.857,"id":"a6crocpcao2z","geo_precision":"city","state":"CA"},"type":"Feature","geometry":{"type":"Point","coordinates":[-117.160815,32.656176]}},{"properties":{"city":"key west","geo_score":0.857,"id":"a6crocajk4dn","geo_precision":"city","state":"FL"},"type":"Feature","geometry":{"type":"Point","coordinates":[-81.382372,24.655692]}},{"properties":{"city":"Oakdale","geo_score":0.857,"id":"a6crockpd79n","geo_precision":"city","state":"LA"},"type":"Feature","geometry":{"type":"Point","coordinates":[-92.771752,30.769826]}},{"properties":{"city":"Santa Fe","geo_score":0.857,"id":"a6crocgl7s1d","geo_precision":"city","state":"NM"},"type":"Feature","geometry":{"type":"Point","coordinates":[-106.073414,35.625075]}},{"properties":{"city":"Santa Fe","geo_score":0.857,"id":"a6crocj740ci","geo_precision":"city","state":"NM"},"type":"Feature","geometry":{"type":"Point","coordinates":[-106.073414,35.625075]}},{"properties":{"city":"wakefield","geo_score":0.714,"id":"a6crocoo2s9i","geo_precision":"city","state":"Other"},"type":"Feature","geometry":{"type":"Point","coordinates":[-88.243931,38.840046]}},{"properties":{"city":"Magnolia","geo_score":0.768,"id":"a6crocbryhga","geo_precision":"city","state":"TX"},"type":"Feature","geometry":{"type":"Point","coordinates":[-97.160562,31.869604]}},{"properties":{"city":"Edwards AFB","geo_score":0.789,"id":"a6crocgkc7hd","geo_precision":"city","state":"CA"},"type":"Feature","geometry":{"type":"Point","coordinates":[-117.92945,34.904487]}},{"properties":{"city":"San Diego","geo_score":0.857,"id":"a6crocndv1cw","geo_precision":"city","state":"CA"},"type":"Feature","geometry":{"type":"Point","coordinates":[-117.157255,32.715329]}},{"properties":{"city":"san marcos","geo_score":0.746,"id":"a6crocq2jigh","geo_precision":"city","state":"CA"},"type":"Feature","geometry":{"type":"Point","coordinates":[-123.034604,40.672576]}},{"properties":{"city":"Lindsay","geo_score":0.857,"id":"a6crocf8gvdd","geo_precision":"city","state":"CA"},"type":"Feature","geometry":{"type":"Point","coordinates":[-119.129166,36.073033]}},{"properties":{"city":"Exeter","geo_score":0.857,"id":"a6crocqd6w2t","geo_precision":"city","state":"CA"},"type":"Feature","geometry":{"type":"Point","coordinates":[-119.088371,36.344716]}},{"properties":{"city":"Washington","geo_score":0.714,"id":"a6crocfiuco0","geo_precision":"city","state":"D.C."},"type":"Feature","geometry":{"type":"Point","coordinates":[-77.036366,38.895112]}},{"properties":{"city":"pearl harbor","geo_score":0.0,"id":"a6croclr58fm","geo_precision":"unmatched","state":"HI"},"type":"Feature","geometry":null},{"properties":{"city":"Chicago","geo_score":0.857,"id":"a6crocf1cjkk","geo_precision":"city","state":"IL"},"type":"Feature","geometry":{"type":"Point","coordinates":[-87.650052,41.850033]}},{"properties":{"city":"South Bend","geo_score":0.857,"id":"a6crocb8753a","geo_precision":"city","state":"IN"},"type":"Feature","geometry":{"type":"Point","coordinates":[-86.250007,41.683381]}},{"properties":{"city":"South Bend","geo_score":0.857,"id":"a6crocgqbvxm","geo_precision":"city","state":"IN"},"type":"Feature","geometry":{"type":"Point","coordinates":[-86.250007,41.683381]}},{"properties":{"city":"South Bend","geo_score":0.857,"id":"a6crocqubru7","geo_precision":"city","state":"IN"},"type":"Feature","geometry":{"type":"Point","coordinates":[-86.250007,41.683381]}},{"properties":{"city":"River Ridge","geo_score":0.857,"id":"a6crocfu2et7","geo_precision":"city","state":"LA"},"type":"Feature","geometry":{"type":"Point","coordinates":[-90.215632,29.960204]}},{"properties":{"city":"Dublin","geo_score":0.857,"id":"a6crock7va1w","geo_precision":"city","state":"NC"},"type":"Feature","geometry":{"type":"Point","coordinates":[-78.737402,34.64374]}},{"properties":{"city":"RUIDOSO DOWNS","geo_score":0.798,"id":"a6crocdpcuq8","geo_precision":"city","state":"NM"},"type":"Feature","geometry":{"type":"Point","coordinates":[-105.688274,33.474521]}},{"properties":{"city":"hyde park","geo_score":0.857,"id":"a6crocp221rj","geo_precision":"city","state":"NY"},"type":"Feature","geometry":{"type":"Point","coordinates":[-74.957934,42.660909]}},{"properties":{"city":"Dallas","geo_score":0.857,"id":"a6crockgcvqj","geo_precision":"city","state":"TX"},"type":"Feature","geometry":{"type":"Point","coordinates":[-96.806667,32.783056]}},{"properties":{"city":"Pharr","geo_score":0.743,"id":"a6croce0lpms","geo_precision":"city","state":"TX"},"type":"Feature","geometry":{"type":"Point","coordinates":[-97.982532,31.845985]}},{"properties":{"city":"Spokane","geo_score":0.857,"id":"a6croci3y4ip","geo_precision":"city","state":"WA"},"type":"Feature","geometry":{"type":"Point","coordinates":[-117.426047,47.65878]}},{"properties":{"city":"snoqualmie","geo_score":0.816,"id":"a6crocnxt225","geo_precision":"city","state":"WA"},"type":"Feature","geometry":{"type":"Point","coordinates":[-121.400094,47.392335]}},{"properties":{"city":"Huntington","geo_score":0.857,"id":"a6crockmflnk","geo_precision":"city","state":"WV"},"type":"Feature","geometry":{"type":"Point","coordinates":[-82.445154,38.41925]}},{"properties":{"city":"Carlsbad","geo_score":0.857,"id":"a6crocktgnei","geo_precision":"city","state":"CA"},"type":"Feature","geometry":{"type":"Point","coordinates":[-116.846046,33.016928]}},{"properties":{"city":"Los Angeles","geo_score":0.857,"id":"a6crocd4shy4","geo_precision":"city","state":"CA"},"type":"Feature","geometry":{"type":"Point","coordinates":[-118.243685,34.052234]}},{"properties":{"city":"Berkely","geo_score":0.839,"id":"a6croceklgnx","geo_precision":"city","state":"CA"},"type":"Feature","geometry":{"type":"Point","coordinates":[-122.29673,37.860576]}},{"properties":{"city":"Santa Ana","geo_score":0.857,"id":"a6crocquh946","geo_precision":"city","state":"CA"},"type":"Feature","geometry":{"type":"Point","coordinates":[-117.867834,33.745573]}},{"properties":{"city":"golden","geo_score":0.857,"id":"a6crocaqfjpe","geo_precision":"city","state":"CO"},"type":"Feature","geometry":{"type":"Point","coordinates":[-105.245659,39.718539]}},{"properties":{"city":"Key West","geo_score":0.857,"id":"a6croclnd1v8","geo_precision":"city","state":"FL"},"type":"Feature","geometry":{"type":"Point","coordinates":[-81.382372,24.655692]}},{"properties":{"city":"Boca Raton","geo_score":0.786,"id":"a6crocibaxiu","geo_precision":"city","state":"FL"},"type":"Feature","geometry":{"type":"Point","coordinates":[-81.331733,28.828325]}},{"properties":{"city":"Savannah","geo_score":0.857,"id":"a6crocleweoa","geo_precision":"city","state":"GA"},"type":"Feature","geometry":{"type":"Point","coordinates":[-81.099834,32.083541]}},{"properties":{"city":"Lihue","geo_score":0.857,"id":"a6crocmdgl3h","geo_precision":"city","state":"HI"},"type":"Feature","geometry":{"type":"Point","coordinates":[-159.430328,22.070553]}},{"properties":{"city":"HannibalMo.","geo_score":0.0,"id":"a6crocawhztc","geo_precision":"unmatched","state":"MO"},"type":"Feature","geometry":null},{"properties":{"city":"Amherstburg","geo_score":0.662,"id":"a6croclg84it","geo_precision":"city","state":"Other"},"type":"Feature","geometry":{"type":"Point","coordinates":[-68.364188,44.833404]}},{"properties":{"city":"Myrtl Beach","geo_score":0.844,"id":"a6crocpi57tb","geo_precision":"city","state":"SC"},"type":"Feature","geometry":{"type":"Point","coordinates":[-78.852005,33.711741]}},{"properties":{"city":"Columbia","geo_score":0.857,"id":"a6crocpiu1op","geo_precision":"city","state":"SC"},"type":"Feature","geometry":{"type":"Point","coordinates":[-81.024864,33.987454]}},{"properties":{"city":"clifton forge","geo_score":0.798,"id":"a6crocewa76c","geo_precision":"city","state":"VA"},"type":"Feature","geometry":{"type":"Point","coordinates":[-78.028054,38.283465]}},{"properties":{"city":"San Clemente","geo_score":0.805,"id":"a6crocgew52q","geo_precision":"city","state":"CA"},"type":"Feature","geometry":{"type":"Point","coordinates":[-121.044252,38.211127]}},{"properties":{"city":"Tarzana","geo_score":0.857,"id":"a6crocjrcn9l","geo_precision":"city","state":"CA"},"type":"Feature","geometry":{"type":"Point","coordinates":[-118.298662,33.786594]}},{"properties":{"city":"Tybee Island","geo_score":0.857,"id":"a6crocm7azmx","geo_precision":"city","state":"GA"},"type":"Feature","geometry":{"type":"Point","coordinates":[-80.855322,32.00593]}},{"properties":{"city":"Marietta","geo_score":0.857,"id":"a6croci1a155","geo_precision":"city","state":"GA"},"type":"Feature","geometry":{"type":"Point","coordinates":[-84.549933,33.952602]}},{"properties":{"city":"Kailua","geo_score":0.796,"id":"a6crocmxksej","geo_precision":"city","state":"HI"},"type":"Feature","geometry":{"type":"Point","coordinates":[-157.948056,21.384722]}},{"properties":{"city":"Hyde Park","geo_score":0.857,"id":"a6crockxkxe7","geo_precision":"city","state":"NY"},"type":"Feature","geometry":{"type":"Point","coordinates":[-74.957934,42.660909]}},{"properties":{"city":"North Charleston","geo_score":0.857,"id":"a6crocefsvhe","geo_precision":"city","state":"SC"},"type":"Feature","geometry":{"type":"Point","coordinates":[-79.97481,32.85462]}},{"properties":{"city":"Coppell","geo_score":0.857,"id":"a6crochgmvyv","geo_precision":"city","state":"TX"},"type":"Feature","geometry":{"type":"Point","coordinates":[-96.777626,32.767268]}},{"properties":{"city":"Alexandria","geo_score":0.857,"id":"a6croclz0sd4","geo_precision":"city","state":"VA"},"type":"Feature","geometry":{"type":"Point","coordinates":[-77.046921,38.804836]}},{"properties":{"city":"Phoenix","geo_score":0.857,"id":"a6crocal5xqc","geo_precision":"city","state":"AZ"},"type":"Feature","geometry":{"type":"Point","coordinates":[-112.074037,33.448377]}},{"properties":{"city":"Ross","geo_score":0.75,"id":"a6crocoea72n","geo_precision":"city","state":"CA"},"type":"Feature","geometry":{"type":"Point","coordinates":[-114.849692,34.083625]}},{"properties":{"city":"San Juan Capistrano","geo_score":0.857,"id":"a6crocqhtfww","geo_precision":"city","state":"CA"},"type":"Feature","geometry":{"type":"Point","coordinates":[-117.662551,33.501693]}},{"properties":{"city":"San Clemente","geo_score":0.805,"id":"a6crocegb2ie","geo_precision":"city","state":"CA"},"type":"Feature","geometry":{"type":"Point","coordinates":[-121.044252,38.211127]}},{"properties":{"city":"Berkeley","geo_score":0.857,"id":"a6crocdigdxq","geo_precision":"city","state":"CA"},"type":"Feature","geometry":{"type":"Point","coordinates":[-122.29673,37.860576]}},{"properties":{"city":"Sarasota","geo_score":0.857,"id":"a6crocnwm0bd","geo_precision":"city","state":"FL"},"type":"Feature","geometry":{"type":"Point","coordinates":[-82.530653,27.336435]}},{"properties":{"city":"Whigham","geo_score":0.857,"id":"a6crocpnxtoi","geo_precision":"city","state":"GA"},"type":"Feature","geometry":{"type":"Point","coordinates":[-84.311493,30.901959]}},{"properties":{"city":"Kailua","geo_score":0.796,"id":"a6crocj17tad","geo_precision":"city","state":"HI"},"type":"Feature","geometry":{"type":"Point","coordinates":[-157.948056,21.384722]}},{"properties":{"city":"Burlington","geo_score":0.857,"id":"a6croced3uml","geo_precision":"city","state":"IA"},"type":"Feature","geometry":{"type":"Point","coordinates":[-91.164393,40.898412]}},{"properties":{"city":"Potterville","geo_score":0.805,"id":"a6crocb9tw29","geo_precision":"city","state":"MI"},"type":"Feature","geometry":{"type":"Point","coordinates":[-84.621369,42.535593]}},{"properties":{"city":"Potterville","geo_score":0.805,"id":"a6crocpmkf8a","geo_precision":"city","state":"MI"},"type":"Feature","geometry":{"type":"Point","coordinates":[-84.621369,42.535593]}},{"properties":{"city":"Potterville","geo_score":0.805,"id":"a6crocclf48o","geo_precision":"city","state":"MI"},"type":"Feature","geometry":{"type":"Point","coordinates":[-84.621369,42.535593]}},{"properties":{"city":"Ashville","geo_score":0.841,"id":"a6croco4yl48","geo_precision":"city","state":"NC"},"type":"Feature","geometry":{"type":"Point","coordinates":[-82.554015,35.600945]}},{"properties":{"city":"andrews","geo_score":0.786,"id":"a6crocoijsr3","geo_precision":"city","state":"NC"},"type":"Feature","geometry":{"type":"Point","coordinates":[-79.345299,36.267081]}},{"properties":{"city":"Sylva","geo_score":0.8,"id":"a6croco60oli","geo_precision":"city","state":"NC"},"type":"Feature","geometry":{"type":"Point","coordinates":[-75.469319,35.554569]}},{"properties":{"city":"Greenville","geo_score":0.831,"id":"a6crocg472hw","geo_precision":"city","state":"OH"},"type":"Feature","geometry":{"type":"Point","coordinates":[-82.578223,40.425062]}},{"properties":{"city":"Amherstburg","geo_score":0.662,"id":"a6crocps9xmj","geo_precision":"city","state":"ON CA"},"type":"Feature","geometry":{"type":"Point","coordinates":[-68.364188,44.833404]}},{"properties":{"city":"victoria","geo_score":0.714,"id":"a6crockqz8ha","geo_precision":"city","state":"Other"},"type":"Feature","geometry":{"type":"Point","coordinates":[-85.938278,31.529887]}},{"properties":{"city":"Naples","geo_score":0.857,"id":"a6crockatgp4","geo_precision":"city","state":"FL"},"type":"Feature","geometry":{"type":"Point","coordinates":[-81.79481,26.142036]}},{"properties":{"city":"Bath","geo_score":0.857,"id":"a6crocit4ki5","geo_precision":"city","state":"MI"},"type":"Feature","geometry":{"type":"Point","coordinates":[-84.483853,42.819509]}},{"properties":{"city":"Cary`","geo_score":0.821,"id":"a6crocfgvuud","geo_precision":"city","state":"NC"},"type":"Feature","geometry":{"type":"Point","coordinates":[-79.220017,36.211527]}},{"properties":{"city":"CAry","geo_score":0.821,"id":"a6crocmjqwp1","geo_precision":"city","state":"NC"},"type":"Feature","geometry":{"type":"Point","coordinates":[-79.220017,36.211527]}},{"properties":{"city":"chula vista","geo_score":0.857,"id":"a6croce43npr","geo_precision":"city","state":"CA"},"type":"Feature","geometry":{"type":"Point","coordinates":[-116.846046,33.016928]}},{"properties":{"city":"los angeles","geo_score":0.857,"id":"a6crocbe1di0","geo_precision":"city","state":"CA"},"type":"Feature","geometry":{"type":"Point","coordinates":[-118.243685,34.052234]}},{"properties":{"city":"Castle Rock","geo_score":0.857,"id":"a6crocgoq3ob","geo_precision":"city","state":"CO"},"type":"Feature","geometry":{"type":"Point","coordinates":[-104.853375,39.376698]}},{"properties":{"city":"Sanford","geo_score":0.857,"id":"a6crocm4vq4r","geo_precision":"city","state":"NC"},"type":"Feature","geometry":{"type":"Point","coordinates":[-79.171723,35.469782]}},{"properties":{"city":"Sanford","geo_score":0.857,"id":"a6croch3hhy1","geo_precision":"city","state":"NC"},"type":"Feature","geometry":{"type":"Point","coordinates":[-79.171723,35.469782]}},{"properties":{"city":"Sanford","geo_score":0.857,"id":"a6crocpkx7kl","geo_precision":"city","state":"NC"},"type":"Feature","geometry":{"type":"Point","coordinates":[-79.171723,35.469782]}},{"properties":{"city":"Sanford","geo_score":0.857,"id":"a6crocm3qlbo","geo_precision":"city","state":"NC"},"type":"Feature","geometry":{"type":"Point","coordinates":[-79.171723,35.469782]}},{"properties":{"city":"Siloam Springs","geo_score":0.747,"id":"a6crocdj05m8","geo_precision":"city","state":"AR"},"type":"Feature","geometry":{"type":"Point","coordinates":[-91.567625,33.69733]}},{"properties":{"city":"RWC","geo_score":0.743,"id":"a6crockjo8vw","geo_precision":"city","state":"CA"},"type":"Feature","geometry":{"type":"Point","coordinates":[-124.066463,41.546786]}},{"properties":{"city":"Santa Monica","geo_score":0.857,"id":"a6crocc2ocuv","geo_precision":"city","state":"CA"},"type":"Feature","geometry":{"type":"Point","coordinates":[-118.491191,34.019454]}},{"properties":{"city":"Longmont","geo_score":0.857,"id":"a6crockal43h","geo_precision":"city","state":"CO"},"type":"Feature","geometry":{"type":"Point","coordinates":[-105.1633,40.165634]}},{"properties":{"city":"bristol","geo_score":0.857,"id":"a6crocl1qo5e","geo_precision":"city","state":"FL"},"type":"Feature","geometry":{"type":"Point","coordinates":[-84.97804,30.419284]}},{"properties":{"city":"Ocala","geo_score":0.857,"id":"a6crocc6jone","geo_precision":"city","state":"FL"},"type":"Feature","geometry":{"type":"Point","coordinates":[-82.169401,29.238672]}},{"properties":{"city":"Windermere","geo_score":0.857,"id":"a6crocaw2jro","geo_precision":"city","state":"FL"},"type":"Feature","geometry":{"type":"Point","coordinates":[-81.543979,28.481031]}},{"properties":{"city":"Jekyll Island","geo_score":0.857,"id":"a6crocbtv464","geo_precision":"city","state":"GA"},"type":"Feature","geometry":{"type":"Point","coordinates":[-81.416665,31.059721]}},{"properties":{"city":"Lake Charles","geo_score":0.857,"id":"a6croch4nvdd","geo_precision":"city","state":"LA"},"type":"Feature","geometry":{"type":"Point","coordinates":[-93.217376,30.226595]}},{"properties":{"city":"Carl Junction","geo_score":0.762,"id":"a6crochr0nyu","geo_precision":"city","state":"MO"},"type":"Feature","geometry":{"type":"Point","coordinates":[-90.288174,37.576442]}},{"properties":{"city":"Kirksville","geo_score":0.857,"id":"a6croclm76n9","geo_precision":"city","state":"MO"},"type":"Feature","geometry":{"type":"Point","coordinates":[-92.609514,40.165717]}},{"properties":{"city":"Greensboro","geo_score":0.857,"id":"a6crocfdnbqh","geo_precision":"city","state":"NC"},"type":"Feature","geometry":{"type":"Point","coordinates":[-79.791975,36.072636]}},{"properties":{"city":"Edmond","geo_score":0.857,"id":"a6crocj0cj05","geo_precision":"city","state":"OK"},"type":"Feature","geometry":{"type":"Point","coordinates":[-97.478095,35.652832]}},{"properties":{"city":"Arlington","geo_score":0.795,"id":"a6crocdm2j9q","geo_precision":"city","state":"WA"},"type":"Feature","geometry":{"type":"Point","coordinates":[-122.062083,48.202046]}},{"properties":{"city":"Los Angeles","geo_score":0.857,"id":"a6crocpa9vg5","geo_precision":"city","state":"CA"},"type":"Feature","geometry":{"type":"Point","coordinates":[-118.243685,34.052234]}},{"properties":{"city":"Jupiter","geo_score":0.857,"id":"a6crocqcac8m","geo_precision":"city","state":"FL"},"type":"Feature","geometry":{"type":"Point","coordinates":[-80.430269,26.645895]}},{"properties":{"city":"Kamuela","geo_score":0.804,"id":"a6crocau4pcj","geo_precision":"city","state":"HI"},"type":"Feature","geometry":{"type":"Point","coordinates":[-158.114167,21.572778]}},{"properties":{"city":"Herrin","geo_score":0.857,"id":"a6crocmfjtz1","geo_precision":"city","state":"IL"},"type":"Feature","geometry":{"type":"Point","coordinates":[-88.992312,37.740444]}},{"properties":{"city":"Harrisburg","geo_score":0.857,"id":"a6crocel2qvr","geo_precision":"city","state":"IL"},"type":"Feature","geometry":{"type":"Point","coordinates":[-88.536736,37.720129]}},{"properties":{"city":"Cary","geo_score":0.821,"id":"a6croci0u5ax","geo_precision":"city","state":"NC"},"type":"Feature","geometry":{"type":"Point","coordinates":[-79.220017,36.211527]}},{"properties":{"city":"greensboro","geo_score":0.857,"id":"a6crocqmhcd3","geo_precision":"city","state":"NC"},"type":"Feature","geometry":{"type":"Point","coordinates":[-79.791975,36.072636]}},{"properties":{"city":"Dunn","geo_score":0.821,"id":"a6crocblf5xj","geo_precision":"city","state":"NC"},"type":"Feature","geometry":{"type":"Point","coordinates":[-81.212581,35.615133]}},{"properties":{"city":"Richardson","geo_score":0.857,"id":"a6croclriocm","geo_precision":"city","state":"TX"},"type":"Feature","geometry":{"type":"Point","coordinates":[-96.729721,32.948179]}},{"properties":{"city":"Montgemery","geo_score":0.0,"id":"a6crocbmzpnh","geo_precision":"unmatched","state":"AL"},"type":"Feature","geometry":null},{"properties":{"city":"Lake Forest","geo_score":0.786,"id":"a6crocc4tw2h","geo_precision":"city","state":"CA"},"type":"Feature","geometry":{"type":"Point","coordinates":[-119.755172,37.698261]}},{"properties":{"city":"Salina","geo_score":0.857,"id":"a6crocd1fem6","geo_precision":"city","state":"KS"},"type":"Feature","geometry":{"type":"Point","coordinates":[-97.642113,38.823673]}},{"properties":{"city":"Lexington","geo_score":0.857,"id":"a6crocqw5eh2","geo_precision":"city","state":"KY"},"type":"Feature","geometry":{"type":"Point","coordinates":[-84.477715,37.988689]}},{"properties":{"city":"woburn","geo_score":0.857,"id":"a6croch1i6uy","geo_precision":"city","state":"MA"},"type":"Feature","geometry":{"type":"Point","coordinates":[-71.157271,42.488595]}},{"properties":{"city":"Clayton","geo_score":0.857,"id":"a6crocbgv4sz","geo_precision":"city","state":"OH"},"type":"Feature","geometry":{"type":"Point","coordinates":[-83.675475,38.743684]}},{"properties":{"city":"Seabrook","geo_score":0.857,"id":"a6crockvk1mb","geo_precision":"city","state":"TX"},"type":"Feature","geometry":{"type":"Point","coordinates":[-95.101012,29.602041]}},{"properties":{"city":"Bellingham","geo_score":0.857,"id":"a6croco7cba8","geo_precision":"city","state":"WA"},"type":"Feature","geometry":{"type":"Point","coordinates":[-122.454297,48.747687]}},{"properties":{"city":"Milwaukee","geo_score":0.857,"id":"a6crocobu5co","geo_precision":"city","state":"WI"},"type":"Feature","geometry":{"type":"Point","coordinates":[-87.906474,43.038903]}},{"properties":{"city":"Montgemery","geo_score":0.0,"id":"a6crocklgxg7","geo_precision":"unmatched","state":"AL"},"type":"Feature","geometry":null},{"properties":{"city":"Orlando","geo_score":0.857,"id":"a6crocnjllzo","geo_precision":"city","state":"FL"},"type":"Feature","geometry":{"type":"Point","coordinates":[-81.379237,28.538336]}},{"properties":{"city":"Johns Creek","geo_score":0.771,"id":"a6crocczycvm","geo_precision":"city","state":"GA"},"type":"Feature","geometry":{"type":"Point","coordinates":[-81.480107,31.633829]}},{"properties":{"city":"Muskegon","geo_score":0.79,"id":"a6crocccwt0d","geo_precision":"city","state":"MI"},"type":"Feature","geometry":{"type":"Point","coordinates":[-86.238946,43.201126]}},{"properties":{"city":"Vardaman","geo_score":0.857,"id":"a6crockvyer7","geo_precision":"city","state":"MS"},"type":"Feature","geometry":{"type":"Point","coordinates":[-89.221899,33.896961]}},{"properties":{"city":null,"geo_score":0.0,"id":"a6crocdt4nbh","geo_precision":"unmatched","state":"NJ"},"type":"Feature","geometry":null},{"properties":{"city":"Muskogee","geo_score":0.857,"id":"a6crochwm9r3","geo_precision":"city","state":"OK"},"type":"Feature","geometry":{"type":"Point","coordinates":[-95.50025,35.70582]}},{"properties":{"city":"Pleasanton","geo_score":0.796,"id":"a6crocnojft3","geo_precision":"city","state":"CA"},"type":"Feature","geometry":{"type":"Point","coordinates":[-120.662985,38.68296]}},{"properties":{"city":"Topeka","geo_score":0.857,"id":"a6crocnxghmt","geo_precision":"city","state":"KS"},"type":"Feature","geometry":{"type":"Point","coordinates":[-95.678037,39.048334]}},{"properties":{"city":"Muskogee","geo_score":0.857,"id":"a6croci7o1v8","geo_precision":"city","state":"OK"},"type":"Feature","geometry":{"type":"Point","coordinates":[-95.50025,35.70582]}},{"properties":{"city":"Montgomery","geo_score":0.857,"id":"a6croco3nxi5","geo_precision":"city","state":"TX"},"type":"Feature","geometry":{"type":"Point","coordinates":[-95.685746,30.358652]}},{"properties":{"city":"Alexandria","geo_score":0.857,"id":"a6croclxabn7","geo_precision":"city","state":"VA"},"type":"Feature","geometry":{"type":"Point","coordinates":[-77.046921,38.804836]}},{"properties":{"city":"Lander","geo_score":0.768,"id":"a6crocc71e8c","geo_precision":"city","state":"WY"},"type":"Feature","geometry":{"type":"Point","coordinates":[-110.154042,41.054395]}},{"properties":{"city":"Fairhope","geo_score":0.857,"id":"a6crocmyajdh","geo_precision":"city","state":"AL"},"type":"Feature","geometry":{"type":"Point","coordinates":[-87.810464,30.562883]}},{"properties":{"city":"San Diego","geo_score":0.857,"id":"a6crocfb32z9","geo_precision":"city","state":"CA"},"type":"Feature","geometry":{"type":"Point","coordinates":[-117.157255,32.715329]}},{"properties":{"city":"San Diego","geo_score":0.857,"id":"a6crocb36snh","geo_precision":"city","state":"CA"},"type":"Feature","geometry":{"type":"Point","coordinates":[-117.157255,32.715329]}},{"properties":{"city":"Malibu","geo_score":0.857,"id":"a6crocc4yw4a","geo_precision":"city","state":"CA"},"type":"Feature","geometry":{"type":"Point","coordinates":[-118.298662,33.786594]}},{"properties":{"city":"Midland City","geo_score":0.857,"id":"a6crocc83nv3","geo_precision":"city","state":"AL"},"type":"Feature","geometry":{"type":"Point","coordinates":[-85.511331,31.33494]}},{"properties":{"city":"West Fork","geo_score":0.857,"id":"a6crocpfnd5g","geo_precision":"city","state":"AR"},"type":"Feature","geometry":{"type":"Point","coordinates":[-94.198446,35.98025]}},{"properties":{"city":"Tucson","geo_score":0.857,"id":"a6crocb83xoo","geo_precision":"city","state":"AZ"},"type":"Feature","geometry":{"type":"Point","coordinates":[-110.926479,32.221743]}},{"properties":{"city":"Hanford","geo_score":0.857,"id":"a6crock9cq31","geo_precision":"city","state":"CA"},"type":"Feature","geometry":{"type":"Point","coordinates":[-119.71776,36.220468]}},{"properties":{"city":"Stockton","geo_score":0.857,"id":"a6crocpq4qzv","geo_precision":"city","state":"CA"},"type":"Feature","geometry":{"type":"Point","coordinates":[-121.298794,37.672196]}},{"properties":{"city":"LINCOLN","geo_score":0.786,"id":"a6croclk3wx8","geo_precision":"city","state":"CA"},"type":"Feature","geometry":{"type":"Point","coordinates":[-118.222848,33.827795]}},{"properties":{"city":"LINCOLN","geo_score":0.786,"id":"a6crocfmllsq","geo_precision":"city","state":"CA"},"type":"Feature","geometry":{"type":"Point","coordinates":[-118.222848,33.827795]}},{"properties":{"city":"Hialeah","geo_score":0.857,"id":"a6croco7p4ln","geo_precision":"city","state":"FL"},"type":"Feature","geometry":{"type":"Point","coordinates":[-80.278106,25.857596]}},{"properties":{"city":"Deltona","geo_score":0.857,"id":"a6crocptmkvv","geo_precision":"city","state":"FL"},"type":"Feature","geometry":{"type":"Point","coordinates":[-81.245074,28.900274]}},{"properties":{"city":"Safety Harbor","geo_score":0.857,"id":"a6crocivdmgp","geo_precision":"city","state":"FL"},"type":"Feature","geometry":{"type":"Point","coordinates":[-82.747692,28.017645]}},{"properties":{"city":"Ketchum","geo_score":0.857,"id":"a6crochw5w2v","geo_precision":"city","state":"ID"},"type":"Feature","geometry":{"type":"Point","coordinates":[-114.485781,43.669159]}},{"properties":{"city":"Auburn","geo_score":0.857,"id":"a6crocp31est","geo_precision":"city","state":"IN"},"type":"Feature","geometry":{"type":"Point","coordinates":[-85.027689,41.377758]}},{"properties":{"city":"Slidell","geo_score":0.857,"id":"a6crocf8jtd1","geo_precision":"city","state":"LA"},"type":"Feature","geometry":{"type":"Point","coordinates":[-89.781175,30.275195]}},{"properties":{"city":"Stoughton","geo_score":0.857,"id":"a6crocb4mxzc","geo_precision":"city","state":"MA"},"type":"Feature","geometry":{"type":"Point","coordinates":[-71.105733,42.118416]}},{"properties":{"city":"Abingdon","geo_score":0.857,"id":"a6crocblprns","geo_precision":"city","state":"MD"},"type":"Feature","geometry":{"type":"Point","coordinates":[-76.277279,39.472579]}},{"properties":{"city":"Saginaw","geo_score":0.857,"id":"a6crocj8114f","geo_precision":"city","state":"MI"},"type":"Feature","geometry":{"type":"Point","coordinates":[-83.886873,43.41242]}},{"properties":{"city":"Las Vegas","geo_score":0.857,"id":"a6crocgp857k","geo_precision":"city","state":"NV"},"type":"Feature","geometry":{"type":"Point","coordinates":[-115.137223,36.174971]}},{"properties":{"city":"columbus","geo_score":0.776,"id":"a6crocioktsn","geo_precision":"city","state":"OH"},"type":"Feature","geometry":{"type":"Point","coordinates":[-82.695724,39.998397]}},{"properties":{"city":"Bluffton","geo_score":0.857,"id":"a6crocn8730x","geo_precision":"city","state":"SC"},"type":"Feature","geometry":{"type":"Point","coordinates":[-80.930724,32.212651]}},{"properties":{"city":"Pharr","geo_score":0.743,"id":"a6crocb26jxa","geo_precision":"city","state":"TX"},"type":"Feature","geometry":{"type":"Point","coordinates":[-97.982532,31.845985]}},{"properties":{"city":"white hall","geo_score":0.746,"id":"a6croce1po41","geo_precision":"city","state":"AR"},"type":"Feature","geometry":{"type":"Point","coordinates":[-91.324839,33.535668]}},{"properties":{"city":"whte hall","geo_score":0.75,"id":"a6crocg8dzrj","geo_precision":"city","state":"AR"},"type":"Feature","geometry":{"type":"Point","coordinates":[-91.324839,33.535668]}},{"properties":{"city":"Tucson","geo_score":0.857,"id":"a6crocnhkxqc","geo_precision":"city","state":"AZ"},"type":"Feature","geometry":{"type":"Point","coordinates":[-110.926479,32.221743]}},{"properties":{"city":"Sacramento","geo_score":0.857,"id":"a6crocqgtetz","geo_precision":"city","state":"CA"},"type":"Feature","geometry":{"type":"Point","coordinates":[-121.4944,38.581572]}},{"properties":{"city":"Trinity","geo_score":0.755,"id":"a6crocj0ziop","geo_precision":"city","state":"FL"},"type":"Feature","geometry":{"type":"Point","coordinates":[-82.176749,27.906823]}},{"properties":{"city":"ocala","geo_score":0.857,"id":"a6crocn45vpp","geo_precision":"city","state":"FL"},"type":"Feature","geometry":{"type":"Point","coordinates":[-82.169401,29.238672]}},{"properties":{"city":"Gaithersburg","geo_score":0.857,"id":"a6crocag3x1k","geo_precision":"city","state":"MD"},"type":"Feature","geometry":{"type":"Point","coordinates":[-77.201371,39.143441]}},{"properties":{"city":"Burgaw","geo_score":0.762,"id":"a6crocbo1afe","geo_precision":"city","state":"NC"},"type":"Feature","geometry":{"type":"Point","coordinates":[-77.737755,35.923211]}},{"properties":{"city":"gastonia","geo_score":0.768,"id":"a6crockfuam1","geo_precision":"city","state":"NC"},"type":"Feature","geometry":{"type":"Point","coordinates":[-78.101382,34.583223]}},{"properties":{"city":"Pompton Plains","geo_score":0.79,"id":"a6crocc3rhbr","geo_precision":"city","state":"NJ"},"type":"Feature","geometry":{"type":"Point","coordinates":[-74.300149,41.003709]}},{"properties":{"city":"sharpsville","geo_score":0.857,"id":"a6crocm8et09","geo_precision":"city","state":"PA"},"type":"Feature","geometry":{"type":"Point","coordinates":[-80.400053,41.283776]}},{"properties":{"city":"loudon","geo_score":0.786,"id":"a6crocnakpmc","geo_precision":"city","state":"TN"},"type":"Feature","geometry":{"type":"Point","coordinates":[-85.036066,35.738402]}},{"properties":{"city":"Coeburn","geo_score":0.857,"id":"a6crocndfmn7","geo_precision":"city","state":"VA"},"type":"Feature","geometry":{"type":"Point","coordinates":[-82.475496,36.971586]}},{"properties":{"city":"Wolford","geo_score":0.821,"id":"a6crocoob7tz","geo_precision":"city","state":"VA"},"type":"Feature","geometry":{"type":"Point","coordinates":[-76.765793,37.885692]}},{"properties":{"city":"Lacey","geo_score":0.857,"id":"a6crocdepngy","geo_precision":"city","state":"WA"},"type":"Feature","geometry":{"type":"Point","coordinates":[-122.796695,47.026418]}},{"properties":{"city":"Charleston","geo_score":0.857,"id":"a6crocngxseo","geo_precision":"city","state":"WV"},"type":"Feature","geometry":{"type":"Point","coordinates":[-81.632624,38.34982]}},{"properties":{"city":"Charleston","geo_score":0.857,"id":"a6crocixp6uw","geo_precision":"city","state":"WV"},"type":"Feature","geometry":{"type":"Point","coordinates":[-81.632624,38.34982]}},{"properties":{"city":"charleston","geo_score":0.857,"id":"a6crocps405g","geo_precision":"city","state":"WV"},"type":"Feature","geometry":{"type":"Point","coordinates":[-81.632624,38.34982]}},{"properties":{"city":"Tucson","geo_score":0.857,"id":"a6croce21viy","geo_precision":"city","state":"AZ"},"type":"Feature","geometry":{"type":"Point","coordinates":[-110.926479,32.221743]}},{"properties":{"city":"Tucson","geo_score":0.857,"id":"a6crocdutosi","geo_precision":"city","state":"AZ"},"type":"Feature","geometry":{"type":"Point","coordinates":[-110.926479,32.221743]}},{"properties":{"city":"Menife","geo_score":0.837,"id":"a6crocjsqz83","geo_precision":"city","state":"CA"},"type":"Feature","geometry":{"type":"Point","coordinates":[-116.055617,33.752886]}},{"properties":{"city":"Daytona Beach","geo_score":0.81,"id":"a6crocknlwlo","geo_precision":"city","state":"FL"},"type":"Feature","geometry":{"type":"Point","coordinates":[-80.982832,29.176093]}},{"properties":{"city":"The Villages","geo_score":0.857,"id":"a6crocpdx3oa","geo_precision":"city","state":"FL"},"type":"Feature","geometry":{"type":"Point","coordinates":[-81.983397,28.940109]}},{"properties":{"city":"Ocala","geo_score":0.857,"id":"a6crocmurg8x","geo_precision":"city","state":"FL"},"type":"Feature","geometry":{"type":"Point","coordinates":[-82.169401,29.238672]}},{"properties":{"city":"Bunnell","geo_score":0.857,"id":"a6crocikj6vb","geo_precision":"city","state":"FL"},"type":"Feature","geometry":{"type":"Point","coordinates":[-81.33425,29.402177]}},{"properties":{"city":"Atlanta","geo_score":0.857,"id":"a6crocp00awk","geo_precision":"city","state":"GA"},"type":"Feature","geometry":{"type":"Point","coordinates":[-84.387982,33.748995]}},{"properties":{"city":"Ketchum","geo_score":0.857,"id":"a6crocm8hn6w","geo_precision":"city","state":"ID"},"type":"Feature","geometry":{"type":"Point","coordinates":[-114.485781,43.669159]}},{"properties":{"city":"Lyons","geo_score":0.857,"id":"a6crocpb07sd","geo_precision":"city","state":"IN"},"type":"Feature","geometry":{"type":"Point","coordinates":[-87.102958,38.988255]}},{"properties":{"city":"Sykesville","geo_score":0.857,"id":"a6crockhcbkg","geo_precision":"city","state":"MD"},"type":"Feature","geometry":{"type":"Point","coordinates":[-76.969601,39.45672]}},{"properties":{"city":"Ellendale","geo_score":0.857,"id":"a6crockgtsjd","geo_precision":"city","state":"ND"},"type":"Feature","geometry":{"type":"Point","coordinates":[-98.620707,46.106141]}},{"properties":{"city":"Elyria","geo_score":0.857,"id":"a6crocj81ueq","geo_precision":"city","state":"OH"},"type":"Feature","geometry":{"type":"Point","coordinates":[-82.107649,41.36838]}},{"properties":{"city":"dallas","geo_score":0.857,"id":"a6crocms17tg","geo_precision":"city","state":"TX"},"type":"Feature","geometry":{"type":"Point","coordinates":[-96.806667,32.783056]}},{"properties":{"city":"Fort Worth","geo_score":0.746,"id":"a6croccgo6hv","geo_precision":"city","state":"TX"},"type":"Feature","geometry":{"type":"Point","coordinates":[-95.262161,31.108239]}},{"properties":{"city":"Bradford","geo_score":0.857,"id":"a6croclfwub1","geo_precision":"city","state":"VT"},"type":"Feature","geometry":{"type":"Point","coordinates":[-72.15845,44.004691]}},{"properties":{"city":"Milwaukee","geo_score":0.857,"id":"a6crocol5it7","geo_precision":"city","state":"WI"},"type":"Feature","geometry":{"type":"Point","coordinates":[-87.906474,43.038903]}},{"properties":{"city":"San Marcos","geo_score":0.746,"id":"a6crocna6r75","geo_precision":"city","state":"CA"},"type":"Feature","geometry":{"type":"Point","coordinates":[-123.034604,40.672576]}},{"properties":{"city":"butner","geo_score":0.857,"id":"a6crocpr235f","geo_precision":"city","state":"NC"},"type":"Feature","geometry":{"type":"Point","coordinates":[-78.768421,36.119588]}},{"properties":{"city":"EWING","geo_score":0.0,"id":"a6crochdy8xo","geo_precision":"unmatched","state":"NJ"},"type":"Feature","geometry":null},{"properties":{"city":"Las Vegas","geo_score":0.857,"id":"a6crocej9vgq","geo_precision":"city","state":"NV"},"type":"Feature","geometry":{"type":"Point","coordinates":[-115.137223,36.174971]}},{"properties":{"city":"Fort Mill","geo_score":0.857,"id":"a6crocnljngl","geo_precision":"city","state":"SC"},"type":"Feature","geometry":{"type":"Point","coordinates":[-80.990828,35.050243]}},{"properties":{"city":"Galveston","geo_score":0.73,"id":"a6crocib5gvo","geo_precision":"city","state":"TX"},"type":"Feature","geometry":{"type":"Point","coordinates":[-101.932689,35.265052]}},{"properties":{"city":"Chico","geo_score":0.857,"id":"a6crocnfqb3d","geo_precision":"city","state":"CA"},"type":"Feature","geometry":{"type":"Point","coordinates":[-121.840083,39.746159]}},{"properties":{"city":"Canoga Park","geo_score":0.857,"id":"a6crocll9gx4","geo_precision":"city","state":"CA"},"type":"Feature","geometry":{"type":"Point","coordinates":[-118.298662,33.786594]}},{"properties":{"city":"Fremont","geo_score":0.857,"id":"a6crocmk5gjn","geo_precision":"city","state":"CA"},"type":"Feature","geometry":{"type":"Point","coordinates":[-121.988572,37.54827]}},{"properties":{"city":"San Diego","geo_score":0.857,"id":"a6croccqt8xy","geo_precision":"city","state":"CA"},"type":"Feature","geometry":{"type":"Point","coordinates":[-117.157255,32.715329]}},{"properties":{"city":"The Villages","geo_score":0.857,"id":"a6crocm1kve3","geo_precision":"city","state":"FL"},"type":"Feature","geometry":{"type":"Point","coordinates":[-81.983397,28.940109]}},{"properties":{"city":"Las Vegas","geo_score":0.857,"id":"a6croco90txt","geo_precision":"city","state":"NV"},"type":"Feature","geometry":{"type":"Point","coordinates":[-115.137223,36.174971]}},{"properties":{"city":"Coeburn","geo_score":0.857,"id":"a6crocaq8eev","geo_precision":"city","state":"VA"},"type":"Feature","geometry":{"type":"Point","coordinates":[-82.475496,36.971586]}},{"properties":{"city":"Hidden Hills","geo_score":0.857,"id":"a6crocjjuep1","geo_precision":"city","state":"CA"},"type":"Feature","geometry":{"type":"Point","coordinates":[-118.65231,34.160283]}},{"properties":{"city":"Pismo Beach","geo_score":0.857,"id":"a6crocjdb94q","geo_precision":"city","state":"CA"},"type":"Feature","geometry":{"type":"Point","coordinates":[-120.455345,35.347065]}},{"properties":{"city":"sacramento","geo_score":0.857,"id":"a6crocnqjcx6","geo_precision":"city","state":"CA"},"type":"Feature","geometry":{"type":"Point","coordinates":[-121.4944,38.581572]}},{"properties":{"city":"San Diego","geo_score":0.857,"id":"a6crocfmy6nm","geo_precision":"city","state":"CA"},"type":"Feature","geometry":{"type":"Point","coordinates":[-117.157255,32.715329]}},{"properties":{"city":"Fairborn","geo_score":0.857,"id":"a6crocqmxwus","geo_precision":"city","state":"OH"},"type":"Feature","geometry":{"type":"Point","coordinates":[-84.014834,39.728549]}},{"properties":{"city":"Kenosha","geo_score":0.796,"id":"a6crocjlh124","geo_precision":"city","state":"WI"},"type":"Feature","geometry":{"type":"Point","coordinates":[-88.190381,44.615548]}},{"properties":{"city":"Kenosha","geo_score":0.796,"id":"a6crocaq09ou","geo_precision":"city","state":"WI"},"type":"Feature","geometry":{"type":"Point","coordinates":[-88.190381,44.615548]}},{"properties":{"city":"Houston","geo_score":0.816,"id":"a6crocaqrapy","geo_precision":"city","state":"TX"},"type":"Feature","geometry":{"type":"Point","coordinates":[-96.919704,29.845783]}},{"properties":{"city":"Vancouver","geo_score":0.0,"id":"a6crocmm3c2x","geo_precision":"unmatched","state":"BC"},"type":"Feature","geometry":null},{"properties":{"city":"San Fernando","geo_score":0.786,"id":"a6crocm057xx","geo_precision":"city","state":"CA"},"type":"Feature","geometry":{"type":"Point","coordinates":[-122.419416,37.77493]}},{"properties":{"city":"Camarillo","geo_score":0.857,"id":"a6crocax7wj1","geo_precision":"city","state":"CA"},"type":"Feature","geometry":{"type":"Point","coordinates":[-119.084253,34.307783]}},{"properties":{"city":"Lincoln","geo_score":0.786,"id":"a6crocalaiun","geo_precision":"city","state":"CA"},"type":"Feature","geometry":{"type":"Point","coordinates":[-118.222848,33.827795]}},{"properties":{"city":"Newman","geo_score":0.857,"id":"a6croccxmwhq","geo_precision":"city","state":"CA"},"type":"Feature","geometry":{"type":"Point","coordinates":[-121.213529,37.340337]}},{"properties":{"city":"Jacksonville","geo_score":0.857,"id":"a6crocqiknpp","geo_precision":"city","state":"FL"},"type":"Feature","geometry":{"type":"Point","coordinates":[-81.655651,30.332184]}},{"properties":{"city":"Bristol","geo_score":0.857,"id":"a6croci8dh3x","geo_precision":"city","state":"FL"},"type":"Feature","geometry":{"type":"Point","coordinates":[-84.97804,30.419284]}},{"properties":{"city":"Miami","geo_score":0.857,"id":"a6crocgqxqi6","geo_precision":"city","state":"FL"},"type":"Feature","geometry":{"type":"Point","coordinates":[-80.193659,25.774266]}},{"properties":{"city":"Canton","geo_score":0.857,"id":"a6crocasey95","geo_precision":"city","state":"GA"},"type":"Feature","geometry":{"type":"Point","coordinates":[-84.49093,34.250547]}},{"properties":{"city":"clayton","geo_score":0.857,"id":"a6croce3mxeg","geo_precision":"city","state":"GA"},"type":"Feature","geometry":{"type":"Point","coordinates":[-83.375358,34.886868]}},{"properties":{"city":"Savannah","geo_score":0.857,"id":"a6crocke9blg","geo_precision":"city","state":"GA"},"type":"Feature","geometry":{"type":"Point","coordinates":[-81.099834,32.083541]}},{"properties":{"city":"Indianapolis","geo_score":0.857,"id":"a6crocp85p1j","geo_precision":"city","state":"IN"},"type":"Feature","geometry":{"type":"Point","coordinates":[-86.158042,39.768377]}},{"properties":{"city":"monticello","geo_score":0.771,"id":"a6crocetgx8v","geo_precision":"city","state":"KY"},"type":"Feature","geometry":{"type":"Point","coordinates":[-84.799393,37.417298]}},{"properties":{"city":"Blue Springs","geo_score":0.753,"id":"a6crochimiph","geo_precision":"city","state":"MO"},"type":"Feature","geometry":{"type":"Point","coordinates":[-91.439048,39.034208]}},{"properties":{"city":"Charlotte","geo_score":0.857,"id":"a6crocc1x66x","geo_precision":"city","state":"NC"},"type":"Feature","geometry":{"type":"Point","coordinates":[-80.843127,35.227087]}},{"properties":{"city":"Long Island","geo_score":0.816,"id":"a6crocoqnti4","geo_precision":"city","state":"NY"},"type":"Feature","geometry":{"type":"Point","coordinates":[-73.948749,40.744824]}},{"properties":{"city":"tipp city","geo_score":0.714,"id":"a6crocgeh5b2","geo_precision":"city","state":"OH"},"type":"Feature","geometry":{"type":"Point","coordinates":[-81.450184,41.172402]}},{"properties":{"city":"tipp city","geo_score":0.714,"id":"a6crocl0yg5j","geo_precision":"city","state":"OH"},"type":"Feature","geometry":{"type":"Point","coordinates":[-81.450184,41.172402]}},{"properties":{"city":"King of Prussia","geo_score":0.758,"id":"a6crocfft3zu","geo_precision":"city","state":"PA"},"type":"Feature","geometry":{"type":"Point","coordinates":[-78.464182,40.243966]}},{"properties":{"city":"Groton","geo_score":0.857,"id":"a6croci4cegx","geo_precision":"city","state":"VT"},"type":"Feature","geometry":{"type":"Point","coordinates":[-72.207573,44.281506]}},{"properties":{"city":"Santa Barbara","geo_score":0.857,"id":"a6crocldeu20","geo_precision":"city","state":"CA"},"type":"Feature","geometry":{"type":"Point","coordinates":[-119.69819,34.420831]}},{"properties":{"city":"Ontario","geo_score":0.857,"id":"a6crocpap7f6","geo_precision":"city","state":"CA"},"type":"Feature","geometry":{"type":"Point","coordinates":[-117.650888,34.063344]}},{"properties":{"city":"Stockton","geo_score":0.857,"id":"a6crocli9t0i","geo_precision":"city","state":"CA"},"type":"Feature","geometry":{"type":"Point","coordinates":[-121.298794,37.672196]}},{"properties":{"city":"Crestone","geo_score":0.825,"id":"a6crocarnssj","geo_precision":"city","state":"CO"},"type":"Feature","geometry":{"type":"Point","coordinates":[-108.673997,40.60941]}},{"properties":{"city":"brighton","geo_score":0.857,"id":"a6crocfks4us","geo_precision":"city","state":"CO"},"type":"Feature","geometry":{"type":"Point","coordinates":[-104.795426,39.969804]}},{"properties":{"city":"Hana","geo_score":0.829,"id":"a6crocfmq461","geo_precision":"city","state":"HI"},"type":"Feature","geometry":{"type":"Point","coordinates":[-159.564722,22.224444]}},{"properties":{"city":"Chicago","geo_score":0.857,"id":"a6crocqabd76","geo_precision":"city","state":"IL"},"type":"Feature","geometry":{"type":"Point","coordinates":[-87.650052,41.850033]}},{"properties":{"city":"Vernon Hills","geo_score":0.753,"id":"a6crocb4mymh","geo_precision":"city","state":"IL"},"type":"Feature","geometry":{"type":"Point","coordinates":[-89.670103,40.596705]}},{"properties":{"city":"Robinsonville","geo_score":0.857,"id":"a6crocemd49e","geo_precision":"city","state":"MS"},"type":"Feature","geometry":{"type":"Point","coordinates":[-90.332582,34.780008]}},{"properties":{"city":"Las Vegas","geo_score":0.857,"id":"a6crocauw3k3","geo_precision":"city","state":"NV"},"type":"Feature","geometry":{"type":"Point","coordinates":[-115.137223,36.174971]}},{"properties":{"city":"Dayton","geo_score":0.857,"id":"a6crocm8gw9w","geo_precision":"city","state":"OH"},"type":"Feature","geometry":{"type":"Point","coordinates":[-84.191607,39.758948]}},{"properties":{"city":"West Alexandria","geo_score":0.816,"id":"a6crocknrawa","geo_precision":"city","state":"OH"},"type":"Feature","geometry":{"type":"Point","coordinates":[-82.612389,40.100513]}},{"properties":{"city":"Checotah","geo_score":0.804,"id":"a6crocglngcy","geo_precision":"city","state":"OK"},"type":"Feature","geometry":{"type":"Point","coordinates":[-97.249071,35.51876]}},{"properties":{"city":"Natrona Heights","geo_score":0.786,"id":"a6croclq3arp","geo_precision":"city","state":"PA"},"type":"Feature","geometry":{"type":"Point","coordinates":[-79.719492,40.614511]}},{"properties":{"city":"Myrtle Beach","geo_score":0.857,"id":"a6crocl7kvzx","geo_precision":"city","state":"SC"},"type":"Feature","geometry":{"type":"Point","coordinates":[-78.852005,33.711741]}},{"properties":{"city":"Port arthur","geo_score":0.757,"id":"a6crocl0haee","geo_precision":"city","state":"TX"},"type":"Feature","geometry":{"type":"Point","coordinates":[-95.64135,32.567636]}},{"properties":{"city":"Sherman","geo_score":0.857,"id":"a6crocp55c34","geo_precision":"city","state":"TX"},"type":"Feature","geometry":{"type":"Point","coordinates":[-96.659726,33.647425]}},{"properties":{"city":"Virginia Beach","geo_score":0.857,"id":"a6crocj2i255","geo_precision":"city","state":"VA"},"type":"Feature","geometry":{"type":"Point","coordinates":[-76.076408,36.786299]}},{"properties":{"city":"Dahlgren","geo_score":0.769,"id":"a6crochry38g","geo_precision":"city","state":"VA"},"type":"Feature","geometry":{"type":"Point","coordinates":[-76.000207,36.687096]}},{"properties":{"city":"Spokane","geo_score":0.857,"id":"a6croceno7lf","geo_precision":"city","state":"WA"},"type":"Feature","geometry":{"type":"Point","coordinates":[-117.426047,47.65878]}},{"properties":{"city":"Cape Coral","geo_score":0.73,"id":"a6crocophprp","geo_precision":"city","state":"FL"},"type":"Feature","geometry":{"type":"Point","coordinates":[-82.742879,28.053073]}},{"properties":{"city":"Powder Springs","geo_score":0.736,"id":"a6crocnsv986","geo_precision":"city","state":"GA"},"type":"Feature","geometry":{"type":"Point","coordinates":[-84.821051,34.758137]}},{"properties":{"city":"Kamuela","geo_score":0.804,"id":"a6crocef1zxl","geo_precision":"city","state":"HI"},"type":"Feature","geometry":{"type":"Point","coordinates":[-158.114167,21.572778]}},{"properties":{"city":"Walker","geo_score":0.857,"id":"a6crocallwb6","geo_precision":"city","state":"LA"},"type":"Feature","geometry":{"type":"Point","coordinates":[-90.836232,30.549316]}},{"properties":{"city":"Charlotte","geo_score":0.857,"id":"a6croclnm1jf","geo_precision":"city","state":"NC"},"type":"Feature","geometry":{"type":"Point","coordinates":[-80.843127,35.227087]}},{"properties":{"city":"baldwinsville","geo_score":0.791,"id":"a6crocechz32","geo_precision":"city","state":"NY"},"type":"Feature","geometry":{"type":"Point","coordinates":[-73.608462,40.639547]}},{"properties":{"city":"Watertown","geo_score":0.857,"id":"a6croce7lfgl","geo_precision":"city","state":"NY"},"type":"Feature","geometry":{"type":"Point","coordinates":[-76.016589,44.072542]}},{"properties":{"city":"Hulmeville","geo_score":0.857,"id":"a6crocqcrw3f","geo_precision":"city","state":"PA"},"type":"Feature","geometry":{"type":"Point","coordinates":[-74.911,40.143166]}},{"properties":{"city":"Salt Lake City","geo_score":0.857,"id":"a6crocnfs7jo","geo_precision":"city","state":"UT"},"type":"Feature","geometry":{"type":"Point","coordinates":[-111.891047,40.760779]}},{"properties":{"city":"Nine Mile Falls","geo_score":0.747,"id":"a6crocaozb7s","geo_precision":"city","state":"WA"},"type":"Feature","geometry":{"type":"Point","coordinates":[-118.604355,48.810999]}},{"properties":{"city":"Stevens Point","geo_score":0.821,"id":"a6crocbuhw4f","geo_precision":"city","state":"WI"},"type":"Feature","geometry":{"type":"Point","coordinates":[-91.171532,44.036351]}},{"properties":{"city":"Ferndale","geo_score":0.776,"id":"a6crocpqovfr","geo_precision":"city","state":"CA"},"type":"Feature","geometry":{"type":"Point","coordinates":[-118.298662,33.786594]}},{"properties":{"city":"Clearlake Park","geo_score":0.794,"id":"a6croch2akcn","geo_precision":"city","state":"CA"},"type":"Feature","geometry":{"type":"Point","coordinates":[-122.642763,38.955453]}},{"properties":{"city":"Tallahassee","geo_score":0.857,"id":"a6croccjpz44","geo_precision":"city","state":"FL"},"type":"Feature","geometry":{"type":"Point","coordinates":[-84.280733,30.438256]}},{"properties":{"city":"the villages","geo_score":0.857,"id":"a6crocdfjidw","geo_precision":"city","state":"FL"},"type":"Feature","geometry":{"type":"Point","coordinates":[-81.983397,28.940109]}},{"properties":{"city":"Mendon","geo_score":0.857,"id":"a6crochmjy0u","geo_precision":"city","state":"MA"},"type":"Feature","geometry":{"type":"Point","coordinates":[-71.546961,42.100352]}},{"properties":{"city":"Mendon","geo_score":0.857,"id":"a6crocig154y","geo_precision":"city","state":"MA"},"type":"Feature","geometry":{"type":"Point","coordinates":[-71.546961,42.100352]}},{"properties":{"city":"Buffalo","geo_score":0.857,"id":"a6crocc4vz85","geo_precision":"city","state":"NY"},"type":"Feature","geometry":{"type":"Point","coordinates":[-78.878369,42.886447]}},{"properties":{"city":"Malvern","geo_score":0.857,"id":"a6crocd7ufli","geo_precision":"city","state":"PA"},"type":"Feature","geometry":{"type":"Point","coordinates":[-75.713599,40.02951]}},{"properties":{"city":"Twickenham","geo_score":0.714,"id":"a6croccl6asf","geo_precision":"city","state":null},"type":"Feature","geometry":{"type":"Point","coordinates":[-120.171961,44.743745]}},{"properties":{"city":"guntersville","geo_score":0.857,"id":"a6crocogh6lh","geo_precision":"city","state":"AL"},"type":"Feature","geometry":{"type":"Point","coordinates":[-86.27518,34.344851]}},{"properties":{"city":"guntersville","geo_score":0.857,"id":"a6crocd6q44h","geo_precision":"city","state":"AL"},"type":"Feature","geometry":{"type":"Point","coordinates":[-86.27518,34.344851]}},{"properties":{"city":"guntersville","geo_score":0.857,"id":"a6crockvw7q0","geo_precision":"city","state":"AL"},"type":"Feature","geometry":{"type":"Point","coordinates":[-86.27518,34.344851]}},{"properties":{"city":"guntersville","geo_score":0.857,"id":"a6crocc1gvpr","geo_precision":"city","state":"AL"},"type":"Feature","geometry":{"type":"Point","coordinates":[-86.27518,34.344851]}},{"properties":{"city":"guntersville","geo_score":0.857,"id":"a6crocbxny44","geo_precision":"city","state":"AL"},"type":"Feature","geometry":{"type":"Point","coordinates":[-86.27518,34.344851]}},{"properties":{"city":"guntersville","geo_score":0.857,"id":"a6croccll419","geo_precision":"city","state":"AL"},"type":"Feature","geometry":{"type":"Point","coordinates":[-86.27518,34.344851]}},{"properties":{"city":"guntersville","geo_score":0.857,"id":"a6crocegn3ck","geo_precision":"city","state":"AL"},"type":"Feature","geometry":{"type":"Point","coordinates":[-86.27518,34.344851]}},{"properties":{"city":"Phoenix","geo_score":0.857,"id":"a6crocdk5cpu","geo_precision":"city","state":"AZ"},"type":"Feature","geometry":{"type":"Point","coordinates":[-112.074037,33.448377]}},{"properties":{"city":"Oakland","geo_score":0.857,"id":"a6crocp7khf3","geo_precision":"city","state":"CA"},"type":"Feature","geometry":{"type":"Point","coordinates":[-122.270803,37.804372]}},{"properties":{"city":"Sacramento","geo_score":0.857,"id":"a6crocql5kqe","geo_precision":"city","state":"CA"},"type":"Feature","geometry":{"type":"Point","coordinates":[-121.4944,38.581572]}},{"properties":{"city":"La Jolla","geo_score":0.857,"id":"a6croccsdlvs","geo_precision":"city","state":"CA"},"type":"Feature","geometry":{"type":"Point","coordinates":[-117.876447,33.857515]}},{"properties":{"city":"Willows","geo_score":0.776,"id":"a6crocmo3d6v","geo_precision":"city","state":"CA"},"type":"Feature","geometry":{"type":"Point","coordinates":[-120.944264,38.161589]}},{"properties":{"city":"New London","geo_score":0.857,"id":"a6crocq55pfk","geo_precision":"city","state":"CT"},"type":"Feature","geometry":{"type":"Point","coordinates":[-72.10907,41.413998]}},{"properties":{"city":"Stamford","geo_score":0.857,"id":"a6crocqj6tnq","geo_precision":"city","state":"CT"},"type":"Feature","geometry":{"type":"Point","coordinates":[-73.538734,41.05343]}},{"properties":{"city":"The Villages","geo_score":0.857,"id":"a6crocoy2cnh","geo_precision":"city","state":"FL"},"type":"Feature","geometry":{"type":"Point","coordinates":[-81.983397,28.940109]}},{"properties":{"city":"Jackson","geo_score":0.857,"id":"a6croci3qxxr","geo_precision":"city","state":"MS"},"type":"Feature","geometry":{"type":"Point","coordinates":[-90.18481,32.298757]}},{"properties":{"city":"Woodbury","geo_score":0.857,"id":"a6croci6qo1b","geo_precision":"city","state":"NY"},"type":"Feature","geometry":{"type":"Point","coordinates":[-73.601772,40.754757]}},{"properties":{"city":"Eugene","geo_score":0.857,"id":"a6crocayp7un","geo_precision":"city","state":"OR"},"type":"Feature","geometry":{"type":"Point","coordinates":[-123.086754,44.052069]}},{"properties":{"city":"Myrtle Beach","geo_score":0.857,"id":"a6crocqpn9nm","geo_precision":"city","state":"SC"},"type":"Feature","geometry":{"type":"Point","coordinates":[-78.852005,33.711741]}},{"properties":{"city":"Haslet","geo_score":0.857,"id":"a6crocdiuhft","geo_precision":"city","state":"TX"},"type":"Feature","geometry":{"type":"Point","coordinates":[-97.353767,32.941139]}},{"properties":{"city":"houston","geo_score":0.816,"id":"a6crocokfd8i","geo_precision":"city","state":"TX"},"type":"Feature","geometry":{"type":"Point","coordinates":[-96.919704,29.845783]}},{"properties":{"city":"Ashdown","geo_score":0.816,"id":"a6crochca40x","geo_precision":"city","state":"AR"},"type":"Feature","geometry":{"type":"Point","coordinates":[-91.339282,33.312895]}},{"properties":{"city":"Morro Bay","geo_score":0.75,"id":"a6crocog16oz","geo_precision":"city","state":"CA"},"type":"Feature","geometry":{"type":"Point","coordinates":[-123.34501,39.398219]}},{"properties":{"city":"Cape Canaveral","geo_score":0.857,"id":"a6crocb550ff","geo_precision":"city","state":"FL"},"type":"Feature","geometry":{"type":"Point","coordinates":[-80.614323,28.394642]}},{"properties":{"city":"Kamuela","geo_score":0.804,"id":"a6crockbgxkg","geo_precision":"city","state":"HI"},"type":"Feature","geometry":{"type":"Point","coordinates":[-158.114167,21.572778]}},{"properties":{"city":"Kamuela","geo_score":0.804,"id":"a6crocaeevc0","geo_precision":"city","state":"HI"},"type":"Feature","geometry":{"type":"Point","coordinates":[-158.114167,21.572778]}},{"properties":{"city":"Bolingbrook","geo_score":0.857,"id":"a6croclv0hjp","geo_precision":"city","state":"IL"},"type":"Feature","geometry":{"type":"Point","coordinates":[-88.068396,41.698642]}},{"properties":{"city":"North East","geo_score":0.857,"id":"a6crockc8u3f","geo_precision":"city","state":"MD"},"type":"Feature","geometry":{"type":"Point","coordinates":[-75.894051,39.535078]}},{"properties":{"city":"Troy","geo_score":0.857,"id":"a6croclduana","geo_precision":"city","state":"MI"},"type":"Feature","geometry":{"type":"Point","coordinates":[-83.14993,42.605589]}},{"properties":{"city":"Lincoln","geo_score":0.857,"id":"a6crocd3yl86","geo_precision":"city","state":"NE"},"type":"Feature","geometry":{"type":"Point","coordinates":[-96.66696,40.800001]}},{"properties":{"city":"Idabel","geo_score":0.857,"id":"a6crocc52pnp","geo_precision":"city","state":"OK"},"type":"Feature","geometry":{"type":"Point","coordinates":[-94.869464,33.956429]}},{"properties":{"city":"Gutherie","geo_score":0.839,"id":"a6croce84tpj","geo_precision":"city","state":"OK"},"type":"Feature","geometry":{"type":"Point","coordinates":[-97.456312,35.877129]}},{"properties":{"city":"Nome","geo_score":0.857,"id":"a6crocowwz3m","geo_precision":"city","state":"AK"},"type":"Feature","geometry":{"type":"Point","coordinates":[-163.80076,63.888671]}},{"properties":{"city":"Arab","geo_score":0.857,"id":"a6croceyik92","geo_precision":"city","state":"AL"},"type":"Feature","geometry":{"type":"Point","coordinates":[-86.365403,34.393855]}},{"properties":{"city":"Huntsville","geo_score":0.857,"id":"a6crocqjajlb","geo_precision":"city","state":"AL"},"type":"Feature","geometry":{"type":"Point","coordinates":[-86.556439,34.718428]}},{"properties":{"city":"Torrance","geo_score":0.857,"id":"a6crocfmoiz6","geo_precision":"city","state":"CA"},"type":"Feature","geometry":{"type":"Point","coordinates":[-118.340629,33.835849]}},{"properties":{"city":"Los Angeles","geo_score":0.857,"id":"a6crocgg1ku9","geo_precision":"city","state":"CA"},"type":"Feature","geometry":{"type":"Point","coordinates":[-118.243685,34.052234]}},{"properties":{"city":"Tujunga","geo_score":0.857,"id":"a6crocjp705s","geo_precision":"city","state":"CA"},"type":"Feature","geometry":{"type":"Point","coordinates":[-118.298662,33.786594]}},{"properties":{"city":"Redwood City","geo_score":0.74,"id":"a6crocm2u6ys","geo_precision":"city","state":"CA"},"type":"Feature","geometry":{"type":"Point","coordinates":[-115.967051,34.839964]}},{"properties":{"city":"Stockton","geo_score":0.857,"id":"a6crocohyo6g","geo_precision":"city","state":"CA"},"type":"Feature","geometry":{"type":"Point","coordinates":[-121.298794,37.672196]}},{"properties":{"city":"Stockton","geo_score":0.857,"id":"a6crocqlsh9c","geo_precision":"city","state":"CA"},"type":"Feature","geometry":{"type":"Point","coordinates":[-121.298794,37.672196]}},{"properties":{"city":"EARLIMART CA.","geo_score":0.831,"id":"a6crocifs1zx","geo_precision":"city","state":"CA"},"type":"Feature","geometry":{"type":"Point","coordinates":[-119.262323,35.875918]}},{"properties":{"city":"Santa Cruz","geo_score":0.762,"id":"a6crocqwnw3a","geo_precision":"city","state":"CA"},"type":"Feature","geometry":{"type":"Point","coordinates":[-119.045658,36.114674]}},{"properties":{"city":"Glenview","geo_score":0.857,"id":"a6crocfsd1gt","geo_precision":"city","state":"IL"},"type":"Feature","geometry":{"type":"Point","coordinates":[-89.937325,38.586994]}},{"properties":{"city":"Bowling Green","geo_score":0.738,"id":"a6crocjou00t","geo_precision":"city","state":"KY"},"type":"Feature","geometry":{"type":"Point","coordinates":[-83.355181,38.067306]}},{"properties":{"city":"Baltimore","geo_score":0.857,"id":"a6crocgmmzaa","geo_precision":"city","state":"MD"},"type":"Feature","geometry":{"type":"Point","coordinates":[-76.612189,39.290385]}},{"properties":{"city":"College Park","geo_score":0.812,"id":"a6crocpfafxn","geo_precision":"city","state":"MD"},"type":"Feature","geometry":{"type":"Point","coordinates":[-76.951086,39.008721]}},{"properties":{"city":"GREAT FALLS","geo_score":0.857,"id":"a6crocj9j7h8","geo_precision":"city","state":"MT"},"type":"Feature","geometry":{"type":"Point","coordinates":[-111.300808,47.500235]}},{"properties":{"city":"Oak Island","geo_score":0.857,"id":"a6crocj456rt","geo_precision":"city","state":"NC"},"type":"Feature","geometry":{"type":"Point","coordinates":[-78.127035,34.090202]}},{"properties":{"city":"Silver City","geo_score":0.857,"id":"a6crochrne1j","geo_precision":"city","state":"NM"},"type":"Feature","geometry":{"type":"Point","coordinates":[-108.330764,32.853738]}},{"properties":{"city":"Checotah","geo_score":0.804,"id":"a6crociln6pj","geo_precision":"city","state":"OK"},"type":"Feature","geometry":{"type":"Point","coordinates":[-97.249071,35.51876]}},{"properties":{"city":"Columbia","geo_score":0.857,"id":"a6crocda6pxz","geo_precision":"city","state":"SC"},"type":"Feature","geometry":{"type":"Point","coordinates":[-81.024864,33.987454]}},{"properties":{"city":"Houston","geo_score":0.816,"id":"a6crocpzyn9c","geo_precision":"city","state":"TX"},"type":"Feature","geometry":{"type":"Point","coordinates":[-96.919704,29.845783]}},{"properties":{"city":"gloucestor point","geo_score":0.8,"id":"a6crocb6pcb6","geo_precision":"city","state":"VA"},"type":"Feature","geometry":{"type":"Point","coordinates":[-76.546416,37.41259]}},{"properties":{"city":"Cat Island","geo_score":0.603,"id":"a6crocmq79wq","geo_precision":"city","state":null},"type":"Feature","geometry":{"type":"Point","coordinates":[-95.824396,29.785785]}},{"properties":{"city":"Reedley","geo_score":0.755,"id":"a6crocpuqpe0","geo_precision":"city","state":"CA"},"type":"Feature","geometry":{"type":"Point","coordinates":[-122.907217,38.499079]}},{"properties":{"city":"Roseville","geo_score":0.857,"id":"a6crocj4ibiv","geo_precision":"city","state":"CA"},"type":"Feature","geometry":{"type":"Point","coordinates":[-121.25603,38.74073]}},{"properties":{"city":"Vista","geo_score":0.857,"id":"a6crocblowy5","geo_precision":"city","state":"CA"},"type":"Feature","geometry":{"type":"Point","coordinates":[-116.846046,33.016928]}},{"properties":{"city":"San Diego","geo_score":0.857,"id":"a6croccz9r8s","geo_precision":"city","state":"CA"},"type":"Feature","geometry":{"type":"Point","coordinates":[-117.157255,32.715329]}},{"properties":{"city":"earlimart","geo_score":0.857,"id":"a6croco67icp","geo_precision":"city","state":"CA"},"type":"Feature","geometry":{"type":"Point","coordinates":[-119.262323,35.875918]}},{"properties":{"city":"San Francisco","geo_score":0.857,"id":"a6croco3k9pw","geo_precision":"city","state":"CA"},"type":"Feature","geometry":{"type":"Point","coordinates":[-122.419416,37.77493]}},{"properties":{"city":"Porterville","geo_score":0.857,"id":"a6crocg37zjb","geo_precision":"city","state":"CA"},"type":"Feature","geometry":{"type":"Point","coordinates":[-118.703592,35.973777]}},{"properties":{"city":"Wilmington","geo_score":0.857,"id":"a6crochi2sre","geo_precision":"city","state":"DE"},"type":"Feature","geometry":{"type":"Point","coordinates":[-75.546589,39.745947]}},{"properties":{"city":"Sanford","geo_score":0.857,"id":"a6crocf47k9u","geo_precision":"city","state":"FL"},"type":"Feature","geometry":{"type":"Point","coordinates":[-81.299169,28.793491]}},{"properties":{"city":"Miami","geo_score":0.857,"id":"a6croclvnrqn","geo_precision":"city","state":"FL"},"type":"Feature","geometry":{"type":"Point","coordinates":[-80.193659,25.774266]}},{"properties":{"city":"Coral Gables","geo_score":0.766,"id":"a6crocjn1iyg","geo_precision":"city","state":"FL"},"type":"Feature","geometry":{"type":"Point","coordinates":[-82.742879,28.053073]}},{"properties":{"city":"Summerfield","geo_score":0.857,"id":"a6crocmzauoc","geo_precision":"city","state":"FL"},"type":"Feature","geometry":{"type":"Point","coordinates":[-82.032463,29.01123]}},{"properties":{"city":"Indianapolis","geo_score":0.857,"id":"a6crocp7hl02","geo_precision":"city","state":"IN"},"type":"Feature","geometry":{"type":"Point","coordinates":[-86.158042,39.768377]}},{"properties":{"city":"Annapolis","geo_score":0.857,"id":"a6croch8mejz","geo_precision":"city","state":"MD"},"type":"Feature","geometry":{"type":"Point","coordinates":[-76.492183,38.978445]}},{"properties":{"city":"Standish","geo_score":0.857,"id":"a6crocmejw15","geo_precision":"city","state":"MI"},"type":"Feature","geometry":{"type":"Point","coordinates":[-83.900702,43.979427]}},{"properties":{"city":"Richfield","geo_score":0.857,"id":"a6crocojudpo","geo_precision":"city","state":"MN"},"type":"Feature","geometry":{"type":"Point","coordinates":[-93.283002,44.883298]}},{"properties":{"city":"pleasantville","geo_score":0.813,"id":"a6crocm0g0ti","geo_precision":"city","state":"NJ"},"type":"Feature","geometry":{"type":"Point","coordinates":[-74.850722,40.779822]}},{"properties":{"city":"Elmira","geo_score":0.857,"id":"a6crocem5fna","geo_precision":"city","state":"NY"},"type":"Feature","geometry":{"type":"Point","coordinates":[-76.807734,42.089797]}},{"properties":{"city":"Eugene","geo_score":0.857,"id":"a6croco4by7i","geo_precision":"city","state":"OR"},"type":"Feature","geometry":{"type":"Point","coordinates":[-123.086754,44.052069]}},{"properties":{"city":"Waynesboro","geo_score":0.829,"id":"a6crochn4j8c","geo_precision":"city","state":"PA"},"type":"Feature","geometry":{"type":"Point","coordinates":[-80.08057,39.87477]}},{"properties":{"city":"Bluffton","geo_score":0.857,"id":"a6crocpemnlg","geo_precision":"city","state":"SC"},"type":"Feature","geometry":{"type":"Point","coordinates":[-80.930724,32.212651]}},{"properties":{"city":"Horseshoe Bend","geo_score":0.813,"id":"a6crocpem4v7","geo_precision":"city","state":"AR"},"type":"Feature","geometry":{"type":"Point","coordinates":[-91.274572,35.512859]}},{"properties":{"city":"Fort Smith","geo_score":0.857,"id":"a6crochuhwnk","geo_precision":"city","state":"AR"},"type":"Feature","geometry":{"type":"Point","coordinates":[-94.398548,35.385924]}},{"properties":{"city":"Brentwood","geo_score":0.857,"id":"a6crocfakd4g","geo_precision":"city","state":"CA"},"type":"Feature","geometry":{"type":"Point","coordinates":[-118.473969,34.051954]}},{"properties":{"city":"Jacksonville","geo_score":0.857,"id":"a6croclfbnnv","geo_precision":"city","state":"FL"},"type":"Feature","geometry":{"type":"Point","coordinates":[-81.655651,30.332184]}},{"properties":{"city":"the villages","geo_score":0.857,"id":"a6crocqe8twu","geo_precision":"city","state":"FL"},"type":"Feature","geometry":{"type":"Point","coordinates":[-81.983397,28.940109]}},{"properties":{"city":"New Smyrna Beach","geo_score":0.857,"id":"a6crocnsosmz","geo_precision":"city","state":"FL"},"type":"Feature","geometry":{"type":"Point","coordinates":[-81.033705,28.951931]}},{"properties":{"city":"Tallahassee","geo_score":0.857,"id":"a6crocbwc42n","geo_precision":"city","state":"FL"},"type":"Feature","geometry":{"type":"Point","coordinates":[-84.280733,30.438256]}},{"properties":{"city":"Tunnel Hill","geo_score":0.729,"id":"a6crock0min8","geo_precision":"city","state":"GA"},"type":"Feature","geometry":{"type":"Point","coordinates":[-82.905139,30.826044]}},{"properties":{"city":"Lania","geo_score":0.0,"id":"a6crocjfaqay","geo_precision":"unmatched","state":"HI"},"type":"Feature","geometry":null},{"properties":{"city":"Louisville","geo_score":0.857,"id":"a6crockp2jxv","geo_precision":"city","state":"KY"},"type":"Feature","geometry":{"type":"Point","coordinates":[-85.759407,38.254238]}},{"properties":{"city":"Allendale","geo_score":0.857,"id":"a6crocfau1yw","geo_precision":"city","state":"MI"},"type":"Feature","geometry":{"type":"Point","coordinates":[-85.93927,42.979522]}},{"properties":{"city":"Worthington","geo_score":0.857,"id":"a6crock1en4i","geo_precision":"city","state":"MN"},"type":"Feature","geometry":{"type":"Point","coordinates":[-95.735375,43.645207]}},{"properties":{"city":"Duke","geo_score":0.714,"id":"a6crocphyebu","geo_precision":"city","state":"MO"},"type":"Feature","geometry":{"type":"Point","coordinates":[-89.884815,37.116163]}},{"properties":{"city":"Kearney","geo_score":0.857,"id":"a6crocealsrb","geo_precision":"city","state":"NE"},"type":"Feature","geometry":{"type":"Point","coordinates":[-99.129054,40.75141]}},{"properties":{"city":"espanola","geo_score":0.857,"id":"a6crocdd7yrb","geo_precision":"city","state":"NM"},"type":"Feature","geometry":{"type":"Point","coordinates":[-106.251469,36.424214]}},{"properties":{"city":"Astoria","geo_score":0.857,"id":"a6crocf4sszy","geo_precision":"city","state":"NY"},"type":"Feature","geometry":{"type":"Point","coordinates":[-73.92516,40.770808]}},{"properties":{"city":"Myrtle Beach","geo_score":0.857,"id":"a6croclishc6","geo_precision":"city","state":"SC"},"type":"Feature","geometry":{"type":"Point","coordinates":[-78.852005,33.711741]}},{"properties":{"city":"point pleasant","geo_score":0.758,"id":"a6croclpcpkw","geo_precision":"city","state":"WV"},"type":"Feature","geometry":{"type":"Point","coordinates":[-82.190419,38.249534]}},{"properties":{"city":"Lander","geo_score":0.768,"id":"a6crocnq1kv4","geo_precision":"city","state":"WY"},"type":"Feature","geometry":{"type":"Point","coordinates":[-110.154042,41.054395]}},{"properties":{"city":"Heflin","geo_score":0.857,"id":"a6crocgszup1","geo_precision":"city","state":"AL"},"type":"Feature","geometry":{"type":"Point","coordinates":[-85.502022,33.627166]}},{"properties":{"city":"Flagstaff","geo_score":0.857,"id":"a6crocd8zftt","geo_precision":"city","state":"AZ"},"type":"Feature","geometry":{"type":"Point","coordinates":[-111.597853,35.932116]}},{"properties":{"city":"Chino","geo_score":0.857,"id":"a6crocdwhzgi","geo_precision":"city","state":"CA"},"type":"Feature","geometry":{"type":"Point","coordinates":[-115.967051,34.839964]}},{"properties":{"city":"Fullerton","geo_score":0.857,"id":"a6crockylo9s","geo_precision":"city","state":"CA"},"type":"Feature","geometry":{"type":"Point","coordinates":[-117.925338,33.870292]}},{"properties":{"city":"Rancho Palos Verdes","geo_score":0.748,"id":"a6crocg98zcy","geo_precision":"city","state":"CA"},"type":"Feature","geometry":{"type":"Point","coordinates":[-120.126577,38.637132]}},{"properties":{"city":"Valdosta","geo_score":0.857,"id":"a6crocfz722l","geo_precision":"city","state":"GA"},"type":"Feature","geometry":{"type":"Point","coordinates":[-83.332068,30.753904]}},{"properties":{"city":"St. Meinrad","geo_score":0.762,"id":"a6crockiow9u","geo_precision":"city","state":"IN"},"type":"Feature","geometry":{"type":"Point","coordinates":[-87.508652,41.541424]}},{"properties":{"city":"New Orleans","geo_score":0.857,"id":"a6crocqvj201","geo_precision":"city","state":"LA"},"type":"Feature","geometry":{"type":"Point","coordinates":[-89.930956,30.068812]}},{"properties":{"city":"Carlsbad","geo_score":0.802,"id":"a6crocegjqa1","geo_precision":"city","state":"NM"},"type":"Feature","geometry":{"type":"Point","coordinates":[-104.22263,32.448984]}},{"properties":{"city":"East Quogue","geo_score":0.771,"id":"a6crocmpi12f","geo_precision":"city","state":"NY"},"type":"Feature","geometry":{"type":"Point","coordinates":[-72.628984,40.819822]}},{"properties":{"city":"Cold Spring","geo_score":0.857,"id":"a6crock6z1lg","geo_precision":"city","state":"NY"},"type":"Feature","geometry":{"type":"Point","coordinates":[-76.577165,42.949789]}},{"properties":{"city":"hoosick falls","geo_score":0.738,"id":"a6crocknmcxl","geo_precision":"city","state":"NY"},"type":"Feature","geometry":{"type":"Point","coordinates":[-76.877181,42.534793]}},{"properties":{"city":"hoosick falls","geo_score":0.738,"id":"a6crochjne5b","geo_precision":"city","state":"NY"},"type":"Feature","geometry":{"type":"Point","coordinates":[-76.877181,42.534793]}},{"properties":{"city":"hoosick falls","geo_score":0.738,"id":"a6crocorn6xk","geo_precision":"city","state":"NY"},"type":"Feature","geometry":{"type":"Point","coordinates":[-76.877181,42.534793]}},{"properties":{"city":"Oregon City","geo_score":0.857,"id":"a6crocncjv9m","geo_precision":"city","state":"OR"},"type":"Feature","geometry":{"type":"Point","coordinates":[-122.523602,45.317893]}},{"properties":{"city":"Myrtle Beach","geo_score":0.857,"id":"a6crocbw2gb8","geo_precision":"city","state":"SC"},"type":"Feature","geometry":{"type":"Point","coordinates":[-78.852005,33.711741]}},{"properties":{"city":"Onalaska","geo_score":0.857,"id":"a6crockvsaux","geo_precision":"city","state":"WI"},"type":"Feature","geometry":{"type":"Point","coordinates":[-91.130399,43.886664]}},{"properties":{"city":"RANCHO CORDOVA","geo_score":0.857,"id":"a6crocimk9un","geo_precision":"city","state":"CA"},"type":"Feature","geometry":{"type":"Point","coordinates":[-121.270426,38.597705]}},{"properties":{"city":"RANCHO CORDOVA","geo_score":0.857,"id":"a6croccm41fn","geo_precision":"city","state":"CA"},"type":"Feature","geometry":{"type":"Point","coordinates":[-121.270426,38.597705]}},{"properties":{"city":"RANCHO CORDOVA","geo_score":0.857,"id":"a6crocg7i0hj","geo_precision":"city","state":"CA"},"type":"Feature","geometry":{"type":"Point","coordinates":[-121.270426,38.597705]}},{"properties":{"city":"yulee","geo_score":0.857,"id":"a6crocceopqb","geo_precision":"city","state":"FL"},"type":"Feature","geometry":{"type":"Point","coordinates":[-81.590249,30.6233]}},{"properties":{"city":"Suwanee","geo_score":0.857,"id":"a6crocdwf27j","geo_precision":"city","state":"GA"},"type":"Feature","geometry":{"type":"Point","coordinates":[-84.0713,34.05149]}},{"properties":{"city":"Midway","geo_score":0.857,"id":"a6crocnm41sb","geo_precision":"city","state":"GA"},"type":"Feature","geometry":{"type":"Point","coordinates":[-81.89345,32.031588]}},{"properties":{"city":"North Andover","geo_score":0.786,"id":"a6croce3gcie","geo_precision":"city","state":"MA"},"type":"Feature","geometry":{"type":"Point","coordinates":[-71.357837,42.301485]}},{"properties":{"city":"North Andover","geo_score":0.786,"id":"a6crocip4exj","geo_precision":"city","state":"MA"},"type":"Feature","geometry":{"type":"Point","coordinates":[-71.357837,42.301485]}},{"properties":{"city":"Pismo Beach","geo_score":0.857,"id":"a6crocq26jg5","geo_precision":"city","state":"CA"},"type":"Feature","geometry":{"type":"Point","coordinates":[-120.455345,35.347065]}},{"properties":{"city":"Fresno","geo_score":0.857,"id":"a6crocaxxbm5","geo_precision":"city","state":"CA"},"type":"Feature","geometry":{"type":"Point","coordinates":[-119.772366,36.747727]}},{"properties":{"city":"Coronado","geo_score":0.857,"id":"a6crockpudav","geo_precision":"city","state":"CA"},"type":"Feature","geometry":{"type":"Point","coordinates":[-117.160815,32.656176]}},{"properties":{"city":"King of Prussia","geo_score":0.758,"id":"a6croclta35n","geo_precision":"city","state":"PA"},"type":"Feature","geometry":{"type":"Point","coordinates":[-78.464182,40.243966]}},{"properties":{"city":"Manassas","geo_score":0.857,"id":"a6croclauo24","geo_precision":"city","state":"VA"},"type":"Feature","geometry":{"type":"Point","coordinates":[-77.487162,38.744685]}},{"properties":{"city":"Manassas","geo_score":0.857,"id":"a6crocppbp6z","geo_precision":"city","state":"VA"},"type":"Feature","geometry":{"type":"Point","coordinates":[-77.487162,38.744685]}},{"properties":{"city":"Poquoson","geo_score":0.857,"id":"a6crocikxhz6","geo_precision":"city","state":"VA"},"type":"Feature","geometry":{"type":"Point","coordinates":[-76.365419,37.132326]}},{"properties":{"city":"Reform","geo_score":0.857,"id":"a6croclsnxt6","geo_precision":"city","state":"AL"},"type":"Feature","geometry":{"type":"Point","coordinates":[-88.042923,33.314928]}},{"properties":{"city":"Ravenden","geo_score":0.857,"id":"a6crocf0oayv","geo_precision":"city","state":"AR"},"type":"Feature","geometry":{"type":"Point","coordinates":[-91.223314,36.18246]}},{"properties":{"city":"Berkeley","geo_score":0.857,"id":"a6crocoupbap","geo_precision":"city","state":"CA"},"type":"Feature","geometry":{"type":"Point","coordinates":[-122.29673,37.860576]}},{"properties":{"city":"Los Angeles","geo_score":0.857,"id":"a6crocksidyq","geo_precision":"city","state":"CA"},"type":"Feature","geometry":{"type":"Point","coordinates":[-118.243685,34.052234]}},{"properties":{"city":"Vallejo","geo_score":0.857,"id":"a6crocglnl1w","geo_precision":"city","state":"CA"},"type":"Feature","geometry":{"type":"Point","coordinates":[-122.264316,38.107945]}},{"properties":{"city":"Berkeley","geo_score":0.857,"id":"a6crociprjee","geo_precision":"city","state":"CA"},"type":"Feature","geometry":{"type":"Point","coordinates":[-122.29673,37.860576]}},{"properties":{"city":"Fort Irwin","geo_score":0.746,"id":"a6croceqxek5","geo_precision":"city","state":"CA"},"type":"Feature","geometry":{"type":"Point","coordinates":[-122.449991,39.58988]}},{"properties":{"city":"San Francisco","geo_score":0.857,"id":"a6croch2ctuv","geo_precision":"city","state":"CA"},"type":"Feature","geometry":{"type":"Point","coordinates":[-122.419416,37.77493]}},{"properties":{"city":"long beach","geo_score":0.857,"id":"a6croclgaqoz","geo_precision":"city","state":"CA"},"type":"Feature","geometry":{"type":"Point","coordinates":[-118.189235,33.766962]}},{"properties":{"city":"New Havent","geo_score":0.0,"id":"a6crocmmlsiw","geo_precision":"unmatched","state":"CT"},"type":"Feature","geometry":null},{"properties":{"city":"New Britain","geo_score":0.857,"id":"a6croclkrz8i","geo_precision":"city","state":"CT"},"type":"Feature","geometry":{"type":"Point","coordinates":[-72.778391,41.666049]}},{"properties":{"city":"New Haven","geo_score":0.857,"id":"a6crocesepsh","geo_precision":"city","state":"CT"},"type":"Feature","geometry":{"type":"Point","coordinates":[-72.928158,41.308153]}},{"properties":{"city":"Ocala","geo_score":0.857,"id":"a6crocofrz7d","geo_precision":"city","state":"FL"},"type":"Feature","geometry":{"type":"Point","coordinates":[-82.169401,29.238672]}},{"properties":{"city":"winter park","geo_score":0.857,"id":"a6crocmtyqyj","geo_precision":"city","state":"FL"},"type":"Feature","geometry":{"type":"Point","coordinates":[-81.35874,28.602327]}},{"properties":{"city":"Lagrange","geo_score":0.857,"id":"a6crocg54tej","geo_precision":"city","state":"GA"},"type":"Feature","geometry":{"type":"Point","coordinates":[-85.073906,33.024347]}},{"properties":{"city":"Winthrop Harbor","geo_score":0.857,"id":"a6crocnzwuor","geo_precision":"city","state":"IL"},"type":"Feature","geometry":{"type":"Point","coordinates":[-87.834222,42.47832]}},{"properties":{"city":"Carbondale","geo_score":0.857,"id":"a6crocp52jue","geo_precision":"city","state":"IL"},"type":"Feature","geometry":{"type":"Point","coordinates":[-89.387286,37.77452]}},{"properties":{"city":"Pikeville","geo_score":0.857,"id":"a6crocgapjuq","geo_precision":"city","state":"KY"},"type":"Feature","geometry":{"type":"Point","coordinates":[-82.447075,37.482901]}},{"properties":{"city":"Bowling Green","geo_score":0.738,"id":"a6crocj60l8v","geo_precision":"city","state":"KY"},"type":"Feature","geometry":{"type":"Point","coordinates":[-83.355181,38.067306]}},{"properties":{"city":"Kenner","geo_score":0.857,"id":"a6croccm5wd2","geo_precision":"city","state":"LA"},"type":"Feature","geometry":{"type":"Point","coordinates":[-90.20446,29.994398]}},{"properties":{"city":"Nesbit","geo_score":0.857,"id":"a6crocaqr8wa","geo_precision":"city","state":"MS"},"type":"Feature","geometry":{"type":"Point","coordinates":[-89.985853,34.875133]}},{"properties":{"city":"Ocean Springs","geo_score":0.738,"id":"a6crocklogvi","geo_precision":"city","state":"MS"},"type":"Feature","geometry":{"type":"Point","coordinates":[-89.663676,30.584635]}},{"properties":{"city":"Bay Shore","geo_score":0.857,"id":"a6crocdqlp1l","geo_precision":"city","state":"NY"},"type":"Feature","geometry":{"type":"Point","coordinates":[-73.243004,40.705138]}},{"properties":{"city":"poughquag","geo_score":0.857,"id":"a6crocqi4bpt","geo_precision":"city","state":"NY"},"type":"Feature","geometry":{"type":"Point","coordinates":[-73.650107,41.646389]}},{"properties":{"city":"Cincinnati","geo_score":0.857,"id":"a6crocndi7tn","geo_precision":"city","state":"OH"},"type":"Feature","geometry":{"type":"Point","coordinates":[-84.456886,39.162004]}},{"properties":{"city":"new cumberland","geo_score":0.773,"id":"a6crocni6ycr","geo_precision":"city","state":"PA"},"type":"Feature","geometry":{"type":"Point","coordinates":[-79.968388,39.899243]}},{"properties":{"city":"Greeneville","geo_score":0.818,"id":"a6crochpsd4a","geo_precision":"city","state":"TN"},"type":"Feature","geometry":{"type":"Point","coordinates":[-86.040261,36.609773]}},{"properties":{"city":"Denton","geo_score":0.857,"id":"a6croco2gzc6","geo_precision":"city","state":"TX"},"type":"Feature","geometry":{"type":"Point","coordinates":[-99.539522,32.258742]}},{"properties":{"city":"Fort Worth","geo_score":0.746,"id":"a6crocarw7k8","geo_precision":"city","state":"TX"},"type":"Feature","geometry":{"type":"Point","coordinates":[-95.262161,31.108239]}},{"properties":{"city":"houston","geo_score":0.816,"id":"a6crocmmcyr1","geo_precision":"city","state":"TX"},"type":"Feature","geometry":{"type":"Point","coordinates":[-96.919704,29.845783]}},{"properties":{"city":"Alexandria","geo_score":0.857,"id":"a6crocerfnzz","geo_precision":"city","state":"VA"},"type":"Feature","geometry":{"type":"Point","coordinates":[-77.046921,38.804836]}},{"properties":{"city":"Bainbridge Island","geo_score":0.741,"id":"a6crocjt8it9","geo_precision":"city","state":"WA"},"type":"Feature","geometry":{"type":"Point","coordinates":[-119.223349,46.239302]}},{"properties":{"city":"Yelm","geo_score":0.857,"id":"a6crocd6sdem","geo_precision":"city","state":"WA"},"type":"Feature","geometry":{"type":"Point","coordinates":[-122.562689,46.882364]}},{"properties":{"city":"Montello","geo_score":0.857,"id":"a6crocp9ob5r","geo_precision":"city","state":"WI"},"type":"Feature","geometry":{"type":"Point","coordinates":[-89.372011,43.812581]}},{"properties":{"city":"Springville","geo_score":0.786,"id":"a6croclut5l8","geo_precision":"city","state":"AL"},"type":"Feature","geometry":{"type":"Point","coordinates":[-86.516097,33.791489]}},{"properties":{"city":"Danville","geo_score":0.81,"id":"a6crocfed5ke","geo_precision":"city","state":"CA"},"type":"Feature","geometry":{"type":"Point","coordinates":[-119.09066,36.248561]}},{"properties":{"city":"Poway","geo_score":0.857,"id":"a6crocf3yswq","geo_precision":"city","state":"CA"},"type":"Feature","geometry":{"type":"Point","coordinates":[-117.030299,32.994097]}},{"properties":{"city":"San DIego","geo_score":0.857,"id":"a6crocam3z0u","geo_precision":"city","state":"CA"},"type":"Feature","geometry":{"type":"Point","coordinates":[-117.157255,32.715329]}},{"properties":{"city":"Los Angeles","geo_score":0.857,"id":"a6crocml5dzc","geo_precision":"city","state":"CA"},"type":"Feature","geometry":{"type":"Point","coordinates":[-118.243685,34.052234]}},{"properties":{"city":"Weston","geo_score":0.857,"id":"a6crocmqhg97","geo_precision":"city","state":"CT"},"type":"Feature","geometry":{"type":"Point","coordinates":[-73.376263,41.222945]}},{"properties":{"city":"Sanibel","geo_score":0.857,"id":"a6crocjv5x9e","geo_precision":"city","state":"FL"},"type":"Feature","geometry":{"type":"Point","coordinates":[-82.100065,26.458308]}},{"properties":{"city":"Winter Park","geo_score":0.857,"id":"a6crocgkqqu6","geo_precision":"city","state":"FL"},"type":"Feature","geometry":{"type":"Point","coordinates":[-81.35874,28.602327]}},{"properties":{"city":"Waikiki","geo_score":0.857,"id":"a6crocpbvn4a","geo_precision":"city","state":"HI"},"type":"Feature","geometry":{"type":"Point","coordinates":[-157.829444,21.282778]}},{"properties":{"city":"hono","geo_score":0.771,"id":"a6crocoh4qhb","geo_precision":"city","state":"HI"},"type":"Feature","geometry":{"type":"Point","coordinates":[-159.564722,22.224444]}},{"properties":{"city":"Pocatello","geo_score":0.857,"id":"a6crocpqj1yv","geo_precision":"city","state":"ID"},"type":"Feature","geometry":{"type":"Point","coordinates":[-112.259807,42.770177]}},{"properties":{"city":"Louisville","geo_score":0.857,"id":"a6crocj8wndj","geo_precision":"city","state":"KY"},"type":"Feature","geometry":{"type":"Point","coordinates":[-85.759407,38.254238]}},{"properties":{"city":"Anacoco","geo_score":0.857,"id":"a6crocpprpq8","geo_precision":"city","state":"LA"},"type":"Feature","geometry":{"type":"Point","coordinates":[-93.268452,31.142302]}},{"properties":{"city":"Southborough","geo_score":0.857,"id":"a6crocpirni1","geo_precision":"city","state":"MA"},"type":"Feature","geometry":{"type":"Point","coordinates":[-71.524509,42.30565]}},{"properties":{"city":"Pontiac","geo_score":0.857,"id":"a6crocg433h9","geo_precision":"city","state":"MI"},"type":"Feature","geometry":{"type":"Point","coordinates":[-83.289036,42.670272]}},{"properties":{"city":"Chisholm","geo_score":0.857,"id":"a6crockaw6y4","geo_precision":"city","state":"MN"},"type":"Feature","geometry":{"type":"Point","coordinates":[-92.443251,47.563308]}},{"properties":{"city":"Oakes","geo_score":0.857,"id":"a6crocpas1ud","geo_precision":"city","state":"ND"},"type":"Feature","geometry":{"type":"Point","coordinates":[-98.225652,46.109493]}},{"properties":{"city":"Bayonne","geo_score":0.857,"id":"a6croceq3jnv","geo_precision":"city","state":"NJ"},"type":"Feature","geometry":{"type":"Point","coordinates":[-74.109486,40.670858]}},{"properties":{"city":"Cliffside Park","geo_score":0.857,"id":"a6crocdxzu2l","geo_precision":"city","state":"NJ"},"type":"Feature","geometry":{"type":"Point","coordinates":[-73.98782,40.820541]}},{"properties":{"city":"New York","geo_score":0.857,"id":"a6crocey0tnt","geo_precision":"city","state":"NY"},"type":"Feature","geometry":{"type":"Point","coordinates":[-74.005973,40.714269]}},{"properties":{"city":"Portland","geo_score":0.857,"id":"a6crock8hyr6","geo_precision":"city","state":"OR"},"type":"Feature","geometry":{"type":"Point","coordinates":[-122.676207,45.523452]}},{"properties":{"city":"Hummelstown","geo_score":0.857,"id":"a6croco2b0u5","geo_precision":"city","state":"PA"},"type":"Feature","geometry":{"type":"Point","coordinates":[-76.782764,40.340043]}},{"properties":{"city":"Gallatin","geo_score":0.75,"id":"a6crockia3zj","geo_precision":"city","state":"TN"},"type":"Feature","geometry":{"type":"Point","coordinates":[-84.369923,35.003969]}},{"properties":{"city":"Savannah","geo_score":0.857,"id":"a6crocnos0za","geo_precision":"city","state":"TN"},"type":"Feature","geometry":{"type":"Point","coordinates":[-88.179203,35.210571]}},{"properties":{"city":"San Antonio","geo_score":0.857,"id":"a6crocm5vir6","geo_precision":"city","state":"TX"},"type":"Feature","geometry":{"type":"Point","coordinates":[-98.493628,29.424122]}},{"properties":{"city":"Austin","geo_score":0.857,"id":"a6crocohe9sd","geo_precision":"city","state":"TX"},"type":"Feature","geometry":{"type":"Point","coordinates":[-97.743061,30.267153]}},{"properties":{"city":"huffman","geo_score":0.857,"id":"a6crocjoefl9","geo_precision":"city","state":"TX"},"type":"Feature","geometry":{"type":"Point","coordinates":[-95.434241,29.83399]}},{"properties":{"city":"Austin","geo_score":0.857,"id":"a6crocaqcbxt","geo_precision":"city","state":"TX"},"type":"Feature","geometry":{"type":"Point","coordinates":[-97.743061,30.267153]}},{"properties":{"city":"Poquoson","geo_score":0.857,"id":"a6crocobohid","geo_precision":"city","state":"VA"},"type":"Feature","geometry":{"type":"Point","coordinates":[-76.365419,37.132326]}},{"properties":{"city":"El Segundo","geo_score":0.857,"id":"a6crocik0zor","geo_precision":"city","state":"CA"},"type":"Feature","geometry":{"type":"Point","coordinates":[-118.298662,33.786594]}},{"properties":{"city":"Chula vista","geo_score":0.857,"id":"a6crocj6tmgm","geo_precision":"city","state":"CA"},"type":"Feature","geometry":{"type":"Point","coordinates":[-116.846046,33.016928]}},{"properties":{"city":"San Jose","geo_score":0.857,"id":"a6croce1u8fc","geo_precision":"city","state":"CA"},"type":"Feature","geometry":{"type":"Point","coordinates":[-121.894956,37.339386]}},{"properties":{"city":"Palo Alto","geo_score":0.857,"id":"a6crocgs1yhj","geo_precision":"city","state":"CA"},"type":"Feature","geometry":{"type":"Point","coordinates":[-122.14302,37.441883]}},{"properties":{"city":"Davis","geo_score":0.857,"id":"a6crocph1nqu","geo_precision":"city","state":"CA"},"type":"Feature","geometry":{"type":"Point","coordinates":[-121.749016,38.521776]}},{"properties":{"city":"Boulder","geo_score":0.857,"id":"a6crockhfj9m","geo_precision":"city","state":"CO"},"type":"Feature","geometry":{"type":"Point","coordinates":[-105.250597,39.975263]}},{"properties":{"city":"Anna Maria","geo_score":0.857,"id":"a6croccev6yf","geo_precision":"city","state":"FL"},"type":"Feature","geometry":{"type":"Point","coordinates":[-82.731722,27.529113]}},{"properties":{"city":"Hudson","geo_score":0.857,"id":"a6crocph0yrw","geo_precision":"city","state":"FL"},"type":"Feature","geometry":{"type":"Point","coordinates":[-82.64803,28.382489]}},{"properties":{"city":"Daytona Beach","geo_score":0.81,"id":"a6crockor81c","geo_precision":"city","state":"FL"},"type":"Feature","geometry":{"type":"Point","coordinates":[-80.982832,29.176093]}},{"properties":{"city":"West Palm Beach","geo_score":0.762,"id":"a6croceplrxz","geo_precision":"city","state":"FL"},"type":"Feature","geometry":{"type":"Point","coordinates":[-80.035596,26.778118]}},{"properties":{"city":"Covington","geo_score":0.857,"id":"a6crocesv1ua","geo_precision":"city","state":"GA"},"type":"Feature","geometry":{"type":"Point","coordinates":[-83.860183,33.596782]}},{"properties":{"city":"Buffalo Grove","geo_score":0.798,"id":"a6crocbe409e","geo_precision":"city","state":"IL"},"type":"Feature","geometry":{"type":"Point","coordinates":[-89.387944,39.849893]}},{"properties":{"city":"Burlington","geo_score":0.857,"id":"a6crocjlsdoo","geo_precision":"city","state":"NC"},"type":"Feature","geometry":{"type":"Point","coordinates":[-79.430129,36.091025]}},{"properties":{"city":"Stanhope","geo_score":0.857,"id":"a6crocqruscj","geo_precision":"city","state":"NJ"},"type":"Feature","geometry":{"type":"Point","coordinates":[-74.713557,40.930937]}},{"properties":{"city":"Stow","geo_score":0.857,"id":"a6crockimnp9","geo_precision":"city","state":"OH"},"type":"Feature","geometry":{"type":"Point","coordinates":[-81.450184,41.172402]}},{"properties":{"city":"San antonio","geo_score":0.857,"id":"a6crocly51k4","geo_precision":"city","state":"TX"},"type":"Feature","geometry":{"type":"Point","coordinates":[-98.493628,29.424122]}},{"properties":{"city":"Va Beach","geo_score":0.0,"id":"a6crockbdkpi","geo_precision":"unmatched","state":"VA"},"type":"Feature","geometry":null},{"properties":{"city":"lake geneva","geo_score":0.857,"id":"a6crocdxgiui","geo_precision":"city","state":"WI"},"type":"Feature","geometry":{"type":"Point","coordinates":[-88.52023,42.617877]}},{"properties":{"city":"West Liberty","geo_score":0.805,"id":"a6crocoun7nu","geo_precision":"city","state":"WV"},"type":"Feature","geometry":{"type":"Point","coordinates":[-80.37898,39.288978]}},{"properties":{"city":"lander","geo_score":0.768,"id":"a6crocgabxq0","geo_precision":"city","state":"WY"},"type":"Feature","geometry":{"type":"Point","coordinates":[-110.154042,41.054395]}},{"properties":{"city":"Huntsville","geo_score":0.857,"id":"a6crocoqb852","geo_precision":"city","state":"AL"},"type":"Feature","geometry":{"type":"Point","coordinates":[-86.556439,34.718428]}},{"properties":{"city":"Soledad","geo_score":0.857,"id":"a6crocdc3sy6","geo_precision":"city","state":"CA"},"type":"Feature","geometry":{"type":"Point","coordinates":[-121.368127,36.449485]}},{"properties":{"city":"Hermosa Beach","geo_score":0.857,"id":"a6crocgvyag9","geo_precision":"city","state":"CA"},"type":"Feature","geometry":{"type":"Point","coordinates":[-118.298662,33.786594]}},{"properties":{"city":"Davis","geo_score":0.857,"id":"a6crocbjgqfv","geo_precision":"city","state":"CA"},"type":"Feature","geometry":{"type":"Point","coordinates":[-121.749016,38.521776]}},{"properties":{"city":"Irvine","geo_score":0.857,"id":"a6crocbzkwqr","geo_precision":"city","state":"CA"},"type":"Feature","geometry":{"type":"Point","coordinates":[-117.823111,33.669465]}},{"properties":{"city":"Orlando","geo_score":0.857,"id":"a6crocikk3ex","geo_precision":"city","state":"FL"},"type":"Feature","geometry":{"type":"Point","coordinates":[-81.379237,28.538336]}},{"properties":{"city":"Atlanta","geo_score":0.857,"id":"a6crocfftd06","geo_precision":"city","state":"GA"},"type":"Feature","geometry":{"type":"Point","coordinates":[-84.387982,33.748995]}},{"properties":{"city":"Honolulu","geo_score":0.857,"id":"a6crocmt1lh0","geo_precision":"city","state":"HI"},"type":"Feature","geometry":{"type":"Point","coordinates":[-157.858333,21.306944]}},{"properties":{"city":"Boise","geo_score":0.857,"id":"a6crocg48d8c","geo_precision":"city","state":"ID"},"type":"Feature","geometry":{"type":"Point","coordinates":[-116.203451,43.6135]}},{"properties":{"city":"Highland Park","geo_score":0.774,"id":"a6crocby48k2","geo_precision":"city","state":"IL"},"type":"Feature","geometry":{"type":"Point","coordinates":[-88.748949,39.215876]}},{"properties":{"city":"Kane","geo_score":0.786,"id":"a6crochyipbi","geo_precision":"city","state":"IL"},"type":"Feature","geometry":{"type":"Point","coordinates":[-89.062222,40.111484]}},{"properties":{"city":"New Bedford","geo_score":0.755,"id":"a6crocdxqkir","geo_precision":"city","state":"MA"},"type":"Feature","geometry":{"type":"Point","coordinates":[-71.270891,42.516205]}},{"properties":{"city":"Boston","geo_score":0.857,"id":"a6crocjuor3n","geo_precision":"city","state":"MA"},"type":"Feature","geometry":{"type":"Point","coordinates":[-71.059773,42.358431]}},{"properties":{"city":"Ridge","geo_score":0.857,"id":"a6crocnmhlyk","geo_precision":"city","state":"MD"},"type":"Feature","geometry":{"type":"Point","coordinates":[-76.369412,38.122181]}},{"properties":{"city":"Port Austin","geo_score":0.8,"id":"a6crociy2d6l","geo_precision":"city","state":"MI"},"type":"Feature","geometry":{"type":"Point","coordinates":[-84.694121,41.737272]}},{"properties":{"city":"Cape Girardeau","geo_score":0.857,"id":"a6crocp4h9gw","geo_precision":"city","state":"MO"},"type":"Feature","geometry":{"type":"Point","coordinates":[-89.611016,37.341398]}},{"properties":{"city":"Lees Summit","geo_score":0.8,"id":"a6crocm36pzx","geo_precision":"city","state":"MO"},"type":"Feature","geometry":{"type":"Point","coordinates":[-90.708185,37.911994]}},{"properties":{"city":"Jefferson City","geo_score":0.857,"id":"a6crocnj8qfh","geo_precision":"city","state":"MO"},"type":"Feature","geometry":{"type":"Point","coordinates":[-92.165194,38.494029]}},{"properties":{"city":"Asheville","geo_score":0.857,"id":"a6crocof5cal","geo_precision":"city","state":"NC"},"type":"Feature","geometry":{"type":"Point","coordinates":[-82.554015,35.600945]}},{"properties":{"city":"Asheville","geo_score":0.857,"id":"a6crocht2g48","geo_precision":"city","state":"NC"},"type":"Feature","geometry":{"type":"Point","coordinates":[-82.554015,35.600945]}},{"properties":{"city":"Columbus","geo_score":0.857,"id":"a6crocmux37o","geo_precision":"city","state":"NE"},"type":"Feature","geometry":{"type":"Point","coordinates":[-97.376314,41.542962]}},{"properties":{"city":"Las Cruces","geo_score":0.857,"id":"a6crockq9ajm","geo_precision":"city","state":"NM"},"type":"Feature","geometry":{"type":"Point","coordinates":[-106.778337,32.312316]}},{"properties":{"city":"Tonawanda","geo_score":0.764,"id":"a6crocjca2x5","geo_precision":"city","state":"NY"},"type":"Feature","geometry":{"type":"Point","coordinates":[-78.444978,43.068413]}},{"properties":{"city":"Syracuse","geo_score":0.857,"id":"a6crocoh68b9","geo_precision":"city","state":"NY"},"type":"Feature","geometry":{"type":"Point","coordinates":[-76.147424,43.048122]}},{"properties":{"city":"Hanover","geo_score":0.857,"id":"a6crocjrg8qc","geo_precision":"city","state":"PA"},"type":"Feature","geometry":{"type":"Point","coordinates":[-75.412404,40.661764]}},{"properties":{"city":"Paris","geo_score":0.762,"id":"a6crocfixdv7","geo_precision":"city","state":"TN"},"type":"Feature","geometry":{"type":"Point","coordinates":[-88.915061,36.470895]}},{"properties":{"city":"Belton","geo_score":0.786,"id":"a6crocoad0g9","geo_precision":"city","state":"TX"},"type":"Feature","geometry":{"type":"Point","coordinates":[-97.823052,26.074244]}},{"properties":{"city":"Prairie View","geo_score":0.857,"id":"a6crocb4uneu","geo_precision":"city","state":"TX"},"type":"Feature","geometry":{"type":"Point","coordinates":[-96.013596,30.082135]}},{"properties":{"city":"Edinburg","geo_score":0.857,"id":"a6crocmk016l","geo_precision":"city","state":"TX"},"type":"Feature","geometry":{"type":"Point","coordinates":[-98.16376,26.315419]}},{"properties":{"city":"Beaumont","geo_score":0.857,"id":"a6crocbzmmfz","geo_precision":"city","state":"TX"},"type":"Feature","geometry":{"type":"Point","coordinates":[-94.101846,30.086046]}},{"properties":{"city":"San Antonio","geo_score":0.857,"id":"a6crocgc3ak8","geo_precision":"city","state":"TX"},"type":"Feature","geometry":{"type":"Point","coordinates":[-98.493628,29.424122]}},{"properties":{"city":"Irvington","geo_score":0.81,"id":"a6crocn9b25g","geo_precision":"city","state":"VA"},"type":"Feature","geometry":{"type":"Point","coordinates":[-79.670591,37.35875]}},{"properties":{"city":"Charlottesville","geo_score":0.857,"id":"a6crocd8twz5","geo_precision":"city","state":"VA"},"type":"Feature","geometry":{"type":"Point","coordinates":[-78.476678,38.029306]}},{"properties":{"city":"Lander","geo_score":0.768,"id":"a6crocgk56ex","geo_precision":"city","state":"WY"},"type":"Feature","geometry":{"type":"Point","coordinates":[-110.154042,41.054395]}},{"properties":{"city":"Gilbert","geo_score":0.857,"id":"a6crocli19rd","geo_precision":"city","state":"AZ"},"type":"Feature","geometry":{"type":"Point","coordinates":[-111.746321,33.310304]}},{"properties":{"city":"Palmdale","geo_score":0.857,"id":"a6crocfdn82f","geo_precision":"city","state":"CA"},"type":"Feature","geometry":{"type":"Point","coordinates":[-118.298662,33.786594]}},{"properties":{"city":"Berkeley","geo_score":0.857,"id":"a6crocb1jip7","geo_precision":"city","state":"CA"},"type":"Feature","geometry":{"type":"Point","coordinates":[-122.29673,37.860576]}},{"properties":{"city":"Chula Vista","geo_score":0.857,"id":"a6crocey2mw4","geo_precision":"city","state":"CA"},"type":"Feature","geometry":{"type":"Point","coordinates":[-116.846046,33.016928]}},{"properties":{"city":"Lincoln","geo_score":0.786,"id":"a6crocjltdxe","geo_precision":"city","state":"CA"},"type":"Feature","geometry":{"type":"Point","coordinates":[-118.222848,33.827795]}},{"properties":{"city":"Lincoln","geo_score":0.786,"id":"a6crocq1yhvt","geo_precision":"city","state":"CA"},"type":"Feature","geometry":{"type":"Point","coordinates":[-118.222848,33.827795]}},{"properties":{"city":"Soledad","geo_score":0.857,"id":"a6crocqvammk","geo_precision":"city","state":"CA"},"type":"Feature","geometry":{"type":"Point","coordinates":[-121.368127,36.449485]}},{"properties":{"city":"Soledad","geo_score":0.857,"id":"a6croci2hwbo","geo_precision":"city","state":"CA"},"type":"Feature","geometry":{"type":"Point","coordinates":[-121.368127,36.449485]}},{"properties":{"city":"Soledad","geo_score":0.857,"id":"a6crocc9m3g6","geo_precision":"city","state":"CA"},"type":"Feature","geometry":{"type":"Point","coordinates":[-121.368127,36.449485]}},{"properties":{"city":"Soledad","geo_score":0.857,"id":"a6crocmtuxzr","geo_precision":"city","state":"CA"},"type":"Feature","geometry":{"type":"Point","coordinates":[-121.368127,36.449485]}},{"properties":{"city":"San Francisco","geo_score":0.857,"id":"a6crocmrx7wc","geo_precision":"city","state":"CA"},"type":"Feature","geometry":{"type":"Point","coordinates":[-122.419416,37.77493]}},{"properties":{"city":"Titusville","geo_score":0.857,"id":"a6crocm56z8s","geo_precision":"city","state":"FL"},"type":"Feature","geometry":{"type":"Point","coordinates":[-80.807554,28.612219]}},{"properties":{"city":"Carrollton","geo_score":0.857,"id":"a6crocbm2p0h","geo_precision":"city","state":"GA"},"type":"Feature","geometry":{"type":"Point","coordinates":[-85.04987,33.604458]}},{"properties":{"city":"Athens","geo_score":0.857,"id":"a6crochhbni7","geo_precision":"city","state":"GA"},"type":"Feature","geometry":{"type":"Point","coordinates":[-83.353697,33.992902]}},{"properties":{"city":"Elk Grove Village","geo_score":0.743,"id":"a6crocdj1ugg","geo_precision":"city","state":"IL"},"type":"Feature","geometry":{"type":"Point","coordinates":[-89.265915,37.300605]}},{"properties":{"city":"Elgin","geo_score":0.857,"id":"a6crocqv3elr","geo_precision":"city","state":"IL"},"type":"Feature","geometry":{"type":"Point","coordinates":[-88.429777,41.990689]}},{"properties":{"city":"Lafayette","geo_score":0.857,"id":"a6crociwo1z9","geo_precision":"city","state":"IN"},"type":"Feature","geometry":{"type":"Point","coordinates":[-86.830286,40.39905]}},{"properties":{"city":"Wesson","geo_score":0.857,"id":"a6crocpeq8yh","geo_precision":"city","state":"MS"},"type":"Feature","geometry":{"type":"Point","coordinates":[-90.377153,31.847453]}},{"properties":{"city":"Wesson","geo_score":0.857,"id":"a6crocbzgqz2","geo_precision":"city","state":"MS"},"type":"Feature","geometry":{"type":"Point","coordinates":[-90.377153,31.847453]}},{"properties":{"city":"University","geo_score":0.857,"id":"a6crocqfjep1","geo_precision":"city","state":"MS"},"type":"Feature","geometry":{"type":"Point","coordinates":[-89.573605,34.33962]}},{"properties":{"city":"Albion","geo_score":0.857,"id":"a6crochktb33","geo_precision":"city","state":"NJ"},"type":"Feature","geometry":{"type":"Point","coordinates":[-74.954888,39.778726]}},{"properties":{"city":"Syosset","geo_score":0.857,"id":"a6crocpaekqz","geo_precision":"city","state":"NY"},"type":"Feature","geometry":{"type":"Point","coordinates":[-73.601772,40.754757]}},{"properties":{"city":"Meadville","geo_score":0.794,"id":"a6crocjnd1g0","geo_precision":"city","state":"PA"},"type":"Feature","geometry":{"type":"Point","coordinates":[-75.863251,41.267026]}},{"properties":{"city":"Springtown","geo_score":0.8,"id":"a6crockgb9e7","geo_precision":"city","state":"TX"},"type":"Feature","geometry":{"type":"Point","coordinates":[-95.41716,30.079941]}},{"properties":{"city":"Springtown","geo_score":0.8,"id":"a6crocqfyp48","geo_precision":"city","state":"TX"},"type":"Feature","geometry":{"type":"Point","coordinates":[-95.41716,30.079941]}},{"properties":{"city":"Virginia Beach","geo_score":0.857,"id":"a6croch8c362","geo_precision":"city","state":"VA"},"type":"Feature","geometry":{"type":"Point","coordinates":[-76.076408,36.786299]}}],"is_temporal":false,"author":{"url":"","metadata":"","contact_name":"","contact_address":"","source":"","contact_phone":""},"source":"","pagination":{"sort":null,"start":0,"total":891,"limit":1000000},"state":"complete","tags":"","published":"2014-08-13T07:38:47-04:00","id":167298}