{"type":"FeatureCollection","data_type":"Dataset","url_type":null,"permissions":[{"permissions":{"download":true,"view":true},"group_id":"everyone"}],"classification":null,"title":"Sept 2009 Calls","count":70,"stream_id":16849,"contributor":{"url":"http://geocommons.com/users/8961","name":"rkreicker@hensleylegal.com"},"data_attributes":null,"calculation_params":null,"icon_link":null,"link":"http://geocommons.com/overlays/16849.json","extent":[-87.4101,38.0826,-84.9343,41.7187],"geometry_types":["point"],"unique_name":null,"name":"Sept 2009 Calls","feature_count":70,"description":"","next_feature":null,"is_raster":false,"short_classification":"Y","stats":{"hits":{"max":168.0,"mean":5.14285714285714,"variance":403.660455486543,"stdev":20.0913029813037,"min":1.0,"median":1.0},"geo_score":{"max":0.857,"mean":0.840128571428571,"variance":0.00449417163561077,"stdev":0.0670385831861829,"min":0.495,"median":0.857}},"features":[{"properties":{"hits":1.0,"city":"Albany","geo_score":0.857,"id":"a6ozobhibf7w","geo_precision":"city","state":"IN"},"type":"Feature","geometry":{"type":"Point","coordinates":[-85.274125,40.277967]}},{"properties":{"hits":1.0,"city":"Alexandria","geo_score":0.857,"id":"a6ozobbu5krs","geo_precision":"city","state":"IN"},"type":"Feature","geometry":{"type":"Point","coordinates":[-85.680698,40.213154]}},{"properties":{"hits":16.0,"city":"Anderson","geo_score":0.857,"id":"a6ozobnph3vg","geo_precision":"city","state":"IN"},"type":"Feature","geometry":{"type":"Point","coordinates":[-85.766164,40.141033]}},{"properties":{"hits":1.0,"city":"Avon","geo_score":0.857,"id":"a6ozobbekh2e","geo_precision":"city","state":"IN"},"type":"Feature","geometry":{"type":"Point","coordinates":[-86.488881,39.721434]}},{"properties":{"hits":2.0,"city":"Bedford","geo_score":0.857,"id":"a6ozobd2edkj","geo_precision":"city","state":"IN"},"type":"Feature","geometry":{"type":"Point","coordinates":[-86.525843,38.890524]}},{"properties":{"hits":1.0,"city":"Berne","geo_score":0.857,"id":"a6ozobawfzlc","geo_precision":"city","state":"IN"},"type":"Feature","geometry":{"type":"Point","coordinates":[-84.934331,40.671628]}},{"properties":{"hits":6.0,"city":"Bloomington","geo_score":0.857,"id":"a6ozob8h7ujw","geo_precision":"city","state":"IN"},"type":"Feature","geometry":{"type":"Point","coordinates":[-86.435094,39.07881]}},{"properties":{"hits":1.0,"city":"Brazil","geo_score":0.857,"id":"a6ozobci0xov","geo_precision":"city","state":"IN"},"type":"Feature","geometry":{"type":"Point","coordinates":[-87.126509,39.387611]}},{"properties":{"hits":1.0,"city":"Brookston","geo_score":0.857,"id":"a6ozobkxah3a","geo_precision":"city","state":"IN"},"type":"Feature","geometry":{"type":"Point","coordinates":[-86.845433,40.661019]}},{"properties":{"hits":3.0,"city":"Brownsburg","geo_score":0.857,"id":"a6ozobhqinav","geo_precision":"city","state":"IN"},"type":"Feature","geometry":{"type":"Point","coordinates":[-86.470429,39.807038]}},{"properties":{"hits":3.0,"city":"Camby","geo_score":0.857,"id":"a6ozobmxhvmw","geo_precision":"city","state":"IN"},"type":"Feature","geometry":{"type":"Point","coordinates":[-86.30309,39.6533]}},{"properties":{"hits":2.0,"city":"Carmel","geo_score":0.857,"id":"a6ozobkqb1t4","geo_precision":"city","state":"IN"},"type":"Feature","geometry":{"type":"Point","coordinates":[-86.117215,40.071102]}},{"properties":{"hits":1.0,"city":"Chesterfield","geo_score":0.857,"id":"a6ozobhnz2uy","geo_precision":"city","state":"IN"},"type":"Feature","geometry":{"type":"Point","coordinates":[-85.59692,40.112543]}},{"properties":{"hits":1.0,"city":"Clay City","geo_score":0.857,"id":"a6ozobizdj76","geo_precision":"city","state":"IN"},"type":"Feature","geometry":{"type":"Point","coordinates":[-86.951662,38.082553]}},{"properties":{"hits":1.0,"city":"Coatesville","geo_score":0.857,"id":"a6ozobexhmfx","geo_precision":"city","state":"IN"},"type":"Feature","geometry":{"type":"Point","coordinates":[-86.594745,39.688598]}},{"properties":{"hits":6.0,"city":"Columbus","geo_score":0.857,"id":"a6ozob7vndhw","geo_precision":"city","state":"IN"},"type":"Feature","geometry":{"type":"Point","coordinates":[-85.891338,39.191447]}},{"properties":{"hits":1.0,"city":"Connersville","geo_score":0.857,"id":"a6ozobm7vfc9","geo_precision":"city","state":"IN"},"type":"Feature","geometry":{"type":"Point","coordinates":[-85.168099,39.656933]}},{"properties":{"hits":1.0,"city":"Covington","geo_score":0.857,"id":"a6ozob9344d5","geo_precision":"city","state":"IN"},"type":"Feature","geometry":{"type":"Point","coordinates":[-87.352877,40.096833]}},{"properties":{"hits":1.0,"city":"Crawfordsville","geo_score":0.857,"id":"a6ozobch9jxv","geo_precision":"city","state":"IN"},"type":"Feature","geometry":{"type":"Point","coordinates":[-86.893538,40.042425]}},{"properties":{"hits":1.0,"city":"Crown Point","geo_score":0.796,"id":"a6ozobdryqpv","geo_precision":"street","state":"IN"},"type":"Feature","geometry":{"type":"Point","coordinates":[-87.354779,41.431205]}},{"properties":{"hits":1.0,"city":"Daleville","geo_score":0.857,"id":"a6ozoba7kdtr","geo_precision":"city","state":"IN"},"type":"Feature","geometry":{"type":"Point","coordinates":[-85.508457,40.143843]}},{"properties":{"hits":1.0,"city":"Danville","geo_score":0.857,"id":"a6ozoblysk8m","geo_precision":"city","state":"IN"},"type":"Feature","geometry":{"type":"Point","coordinates":[-86.530319,39.766794]}},{"properties":{"hits":1.0,"city":"Dunkirk","geo_score":0.857,"id":"a6ozobnd9dil","geo_precision":"city","state":"IN"},"type":"Feature","geometry":{"type":"Point","coordinates":[-86.393612,40.756429]}},{"properties":{"hits":1.0,"city":"Edinburgh","geo_score":0.857,"id":"a6ozob7fuzqi","geo_precision":"city","state":"IN"},"type":"Feature","geometry":{"type":"Point","coordinates":[-86.099838,39.430795]}},{"properties":{"hits":1.0,"city":"Elkhart","geo_score":0.857,"id":"a6ozoba7xab8","geo_precision":"city","state":"IN"},"type":"Feature","geometry":{"type":"Point","coordinates":[-85.937024,41.71873]}},{"properties":{"hits":1.0,"city":"Elwood","geo_score":0.857,"id":"a6ozob9zwlbe","geo_precision":"city","state":"IN"},"type":"Feature","geometry":{"type":"Point","coordinates":[-85.719657,40.27843]}},{"properties":{"hits":3.0,"city":"Fairland","geo_score":0.857,"id":"a6ozobb0xpiv","geo_precision":"city","state":"IN"},"type":"Feature","geometry":{"type":"Point","coordinates":[-85.87593,39.617344]}},{"properties":{"hits":1.0,"city":"Flora","geo_score":0.857,"id":"a6ozobhgyr8j","geo_precision":"city","state":"IN"},"type":"Feature","geometry":{"type":"Point","coordinates":[-86.490521,40.556269]}},{"properties":{"hits":1.0,"city":"Frankfort","geo_score":0.857,"id":"a6ozobkuof7f","geo_precision":"city","state":"IN"},"type":"Feature","geometry":{"type":"Point","coordinates":[-86.468915,40.304355]}},{"properties":{"hits":1.0,"city":"Franklin","geo_score":0.857,"id":"a6ozobd2f5aa","geo_precision":"city","state":"IN"},"type":"Feature","geometry":{"type":"Point","coordinates":[-86.068718,39.469172]}},{"properties":{"hits":16.0,"city":"Ft. Wayne","geo_score":0.611,"id":"a6ozobae4rhp","geo_precision":"street","state":"IN"},"type":"Feature","geometry":{"type":"Point","coordinates":[-85.142417,41.077777]}},{"properties":{"hits":7.0,"city":"Greenfield","geo_score":0.857,"id":"a6ozobbsixru","geo_precision":"city","state":"IN"},"type":"Feature","geometry":{"type":"Point","coordinates":[-85.775403,39.821787]}},{"properties":{"hits":7.0,"city":"Greenwood","geo_score":0.857,"id":"a6ozobbk9mgx","geo_precision":"city","state":"IN"},"type":"Feature","geometry":{"type":"Point","coordinates":[-86.100454,39.491246]}},{"properties":{"hits":1.0,"city":"Hartford City","geo_score":0.857,"id":"a6ozobesk7nu","geo_precision":"city","state":"IN"},"type":"Feature","geometry":{"type":"Point","coordinates":[-85.326447,40.472672]}},{"properties":{"hits":168.0,"city":"Indianapolis","geo_score":0.857,"id":"a6ozoblsoruj","geo_precision":"city","state":"IN"},"type":"Feature","geometry":{"type":"Point","coordinates":[-86.13216,39.775092]}},{"properties":{"hits":3.0,"city":"Ingails","geo_score":0.81,"id":"a6ozobdvh5vg","geo_precision":"city","state":"IN"},"type":"Feature","geometry":{"type":"Point","coordinates":[-85.798078,39.95729]}},{"properties":{"hits":6.0,"city":"Kokomo","geo_score":0.857,"id":"a6ozobnorwq4","geo_precision":"city","state":"IN"},"type":"Feature","geometry":{"type":"Point","coordinates":[-86.171054,40.506851]}},{"properties":{"hits":1.0,"city":"Ladoga","geo_score":0.857,"id":"a6ozobllt5ib","geo_precision":"city","state":"IN"},"type":"Feature","geometry":{"type":"Point","coordinates":[-86.855491,40.050732]}},{"properties":{"hits":6.0,"city":"Lafayette","geo_score":0.857,"id":"a6ozobgq0jw8","geo_precision":"city","state":"IN"},"type":"Feature","geometry":{"type":"Point","coordinates":[-86.830286,40.39905]}},{"properties":{"hits":1.0,"city":"Lebanon","geo_score":0.857,"id":"a6ozobnq1m7y","geo_precision":"city","state":"IN"},"type":"Feature","geometry":{"type":"Point","coordinates":[-86.490381,40.050302]}},{"properties":{"hits":2.0,"city":"Logansport","geo_score":0.857,"id":"a6ozob8fmqxq","geo_precision":"city","state":"IN"},"type":"Feature","geometry":{"type":"Point","coordinates":[-86.375168,40.77927]}},{"properties":{"hits":1.0,"city":"Lyons","geo_score":0.857,"id":"a6ozobbgf62l","geo_precision":"city","state":"IN"},"type":"Feature","geometry":{"type":"Point","coordinates":[-87.102958,38.988255]}},{"properties":{"hits":3.0,"city":"Marion","geo_score":0.857,"id":"a6ozobjoah9w","geo_precision":"city","state":"IN"},"type":"Feature","geometry":{"type":"Point","coordinates":[-85.636731,40.519756]}},{"properties":{"hits":5.0,"city":"Martinsville","geo_score":0.857,"id":"a6ozobfwgk73","geo_precision":"city","state":"IN"},"type":"Feature","geometry":{"type":"Point","coordinates":[-86.466792,39.477625]}},{"properties":{"hits":1.0,"city":"McCordsville","geo_score":0.857,"id":"a6ozobdnswez","geo_precision":"city","state":"IN"},"type":"Feature","geometry":{"type":"Point","coordinates":[-85.897957,39.878113]}},{"properties":{"hits":1.0,"city":"Mishawaka","geo_score":0.857,"id":"a6ozobdp236x","geo_precision":"city","state":"IN"},"type":"Feature","geometry":{"type":"Point","coordinates":[-86.287884,41.61536]}},{"properties":{"hits":1.0,"city":"Montpeilier","geo_score":0.495,"id":"a6ozobhpe2uz","geo_precision":"street","state":"IN"},"type":"Feature","geometry":{"type":"Point","coordinates":[-85.404957,40.15848]}},{"properties":{"hits":6.0,"city":"Mooresville","geo_score":0.857,"id":"a6ozoblsld9q","geo_precision":"city","state":"IN"},"type":"Feature","geometry":{"type":"Point","coordinates":[-86.437089,39.50942]}},{"properties":{"hits":22.0,"city":"Muncie","geo_score":0.857,"id":"a6ozobk75wes","geo_precision":"city","state":"IN"},"type":"Feature","geometry":{"type":"Point","coordinates":[-85.389874,40.142124]}},{"properties":{"hits":3.0,"city":"New Castle","geo_score":0.857,"id":"a6ozobgg86tz","geo_precision":"city","state":"IN"},"type":"Feature","geometry":{"type":"Point","coordinates":[-85.366926,39.92487]}},{"properties":{"hits":2.0,"city":"New Palestine","geo_score":0.857,"id":"a6ozobcjp39m","geo_precision":"city","state":"IN"},"type":"Feature","geometry":{"type":"Point","coordinates":[-85.885962,39.739927]}},{"properties":{"hits":1.0,"city":"Nineveh","geo_score":0.857,"id":"a6ozobjzwho9","geo_precision":"city","state":"IN"},"type":"Feature","geometry":{"type":"Point","coordinates":[-86.109534,39.391505]}},{"properties":{"hits":2.0,"city":"Noblesville","geo_score":0.857,"id":"a6ozobhqudf9","geo_precision":"city","state":"IN"},"type":"Feature","geometry":{"type":"Point","coordinates":[-85.999521,40.073328]}},{"properties":{"hits":1.0,"city":"North Vernon","geo_score":0.514,"id":"a6ozob7yu3wa","geo_precision":"street","state":"IN"},"type":"Feature","geometry":{"type":"Point","coordinates":[-85.633692,39.005319]}},{"properties":{"hits":1.0,"city":"Orestes","geo_score":0.857,"id":"a6ozobn5ytyt","geo_precision":"city","state":"IN"},"type":"Feature","geometry":{"type":"Point","coordinates":[-85.72808,40.271524]}},{"properties":{"hits":1.0,"city":"Pendleton","geo_score":0.857,"id":"a6ozobcmb89p","geo_precision":"city","state":"IN"},"type":"Feature","geometry":{"type":"Point","coordinates":[-85.757678,40.107304]}},{"properties":{"hits":2.0,"city":"Pittsboro","geo_score":0.857,"id":"a6ozob7utvxv","geo_precision":"city","state":"IN"},"type":"Feature","geometry":{"type":"Point","coordinates":[-86.475318,39.784191]}},{"properties":{"hits":3.0,"city":"Plainfield","geo_score":0.857,"id":"a6ozoba226hx","geo_precision":"city","state":"IN"},"type":"Feature","geometry":{"type":"Point","coordinates":[-86.423412,39.729892]}},{"properties":{"hits":3.0,"city":"Plymouth","geo_score":0.857,"id":"a6ozobcmu1ij","geo_precision":"city","state":"IN"},"type":"Feature","geometry":{"type":"Point","coordinates":[-86.301486,41.352997]}},{"properties":{"hits":1.0,"city":"Richmond","geo_score":0.857,"id":"a6ozobjgx5of","geo_precision":"city","state":"IN"},"type":"Feature","geometry":{"type":"Point","coordinates":[-85.010442,39.84081]}},{"properties":{"hits":2.0,"city":"Ridgeville","geo_score":0.857,"id":"a6ozobip34zj","geo_precision":"city","state":"IN"},"type":"Feature","geometry":{"type":"Point","coordinates":[-85.048286,40.167082]}},{"properties":{"hits":1.0,"city":"Roachdale","geo_score":0.857,"id":"a6ozobfgqe10","geo_precision":"city","state":"IN"},"type":"Feature","geometry":{"type":"Point","coordinates":[-86.814317,39.821381]}},{"properties":{"hits":1.0,"city":"RoseDale","geo_score":0.857,"id":"a6ozob8frmj4","geo_precision":"city","state":"IN"},"type":"Feature","geometry":{"type":"Point","coordinates":[-87.320767,39.622405]}},{"properties":{"hits":3.0,"city":"Shelbyville","geo_score":0.857,"id":"a6ozobloxjf8","geo_precision":"city","state":"IN"},"type":"Feature","geometry":{"type":"Point","coordinates":[-85.791993,39.511568]}},{"properties":{"hits":5.0,"city":"South Bend","geo_score":0.735,"id":"a6ozobdmk031","geo_precision":"street","state":"IN"},"type":"Feature","geometry":{"type":"Point","coordinates":[-86.372149,41.714963]}},{"properties":{"hits":2.0,"city":"Terre Haute","geo_score":0.857,"id":"a6ozobi4b9mn","geo_precision":"city","state":"IN"},"type":"Feature","geometry":{"type":"Point","coordinates":[-87.410094,39.433602]}},{"properties":{"hits":1.0,"city":"Upland","geo_score":0.857,"id":"a6ozob9gukk4","geo_precision":"city","state":"IN"},"type":"Feature","geometry":{"type":"Point","coordinates":[-85.62512,40.455985]}},{"properties":{"hits":1.0,"city":"Versailles","geo_score":0.857,"id":"a6ozobd9hkm9","geo_precision":"city","state":"IN"},"type":"Feature","geometry":{"type":"Point","coordinates":[-85.244161,39.039682]}},{"properties":{"hits":2.0,"city":"Walkerton","geo_score":0.857,"id":"a6ozobky0sqa","geo_precision":"city","state":"IN"},"type":"Feature","geometry":{"type":"Point","coordinates":[-86.446734,41.488957]}},{"properties":{"hits":1.0,"city":"Winchester","geo_score":0.857,"id":"a6ozobcx0mx6","geo_precision":"city","state":"IN"},"type":"Feature","geometry":{"type":"Point","coordinates":[-84.984682,40.159854]}}],"is_temporal":false,"author":{"url":"","metadata":"","contact_name":"","contact_address":"","source":"","contact_phone":""},"source":"","pagination":{"sort":null,"start":0,"total":70,"limit":1000000},"state":"complete","tags":"","published":"2014-08-10T22:05:16-04:00","id":16849}